     2.00           Observation         G (GPS)             RINEX VERSION / TYPE
TRRINEXO V2.9.7 LHm ICC                 07/12/2007 18:08:36 PGM / RUN BY / DATE
BELL                                                        MARKER NAME
ICC                 ICC                                     OBSERVER / AGENCY
18091               TRIMBLE 4000SSI     7.29 / 3.07         REC # / TYPE / VERS
0220080346          TRM29659.00                             ANT # / TYPE
  4775849.6200   116814.1000  4213018.7100                  APPROX POSITION XYZ
        0.0540        0.0000        0.0000                  ANTENNA: DELTA H/E/N
     1     1                                                WAVELENGTH FACT L1/2
     5    C1    L1    L2    P2    P1                        # / TYPES OF OBSERV
    30.000                                                  INTERVAL
  2002     1    30    11     0   29.9950000     GPS         TIME OF FIRST OBS
13431M001                                                   MARKER NUMBER
Edited by GPSTK Rinex Editor ver 3.0 9/8/2003 on 2007/07/12 COMMENT
                                                            END OF HEADER
 02  1 30 11  0 29.9950000  0  8G 5G 6G 9G14G24G25G29G30
  20397114.891   -19655975.257 7 -15095425.36346  20397126.8904          0.000  
  19338500.858   -25472810.456 8 -19203792.46747  19338510.5254          0.000  
  22749194.566    -8827185.247 5  -6674064.60845  22749212.3644          0.000  
  21164050.992     1981515.126 6   1575399.48346  21164062.8364          0.000  
  22162836.803   -10299397.421 5    155786.74945  22162853.6704          0.000  
  21899740.240   -12273004.299 6  -9368157.96346  21899753.1654          0.000  
  21021187.498     2688633.192 6   2106892.52246  21021199.5004          0.000  
  18858085.545   -25226872.976 6 -19452479.91847  18858094.4974          0.000  
 02  1 30 11  0 59.9950000  0  8G 5G 6G 9G14G24G25G29G30
  20407961.882   -19598974.384 7 -15051009.19646  20407974.1814          0.000  
  19330416.234   -25515295.392 6 -19236897.58247  19330425.5734          0.000  
  22768021.754    -8728249.660 4  -6596972.42345  22768040.8954          0.000  
  21173375.034     2030513.115 6   1613579.63146  21173386.6644          0.000  
  22165724.131   -10284224.786 5    167609.55146  22165739.9394          0.000  
  21881495.679   -12368879.693 6  -9442865.95846  21881507.8004          0.000  
  21031322.649     2741892.920 6   2148393.47146  21031334.4334          0.000  
  18859520.788   -25219330.834 6 -19446602.95247  18859529.5094          0.000  
 02  1 30 11  1 29.9950000  0  8G 5G 6G 9G14G24G25G29G30
  20418844.857   -19541784.580 7 -15006445.83646  20418856.4014          0.000  
  19322419.212   -25557320.044 6 -19269644.04947  19322428.3834          0.000  
  22786874.774    -8629178.252 3  -6519774.39745  22786891.1694          0.000  
  21182786.090     2079967.907 7   1652115.71546  21182797.8544          0.000  
  22168715.927   -10268503.361 6    179859.98345  22168731.9464          0.000  
  21863287.563   -12464563.608 6  -9517424.74546  21863299.2334          0.000  
  21041539.004     2795579.005 7   2190226.65446  21041551.4514          0.000  
  18861014.687   -25211480.438 6 -19440485.78247  18861023.8394          0.000  
 02  1 30 11  1 59.9950000  0  8G 5G 6G 9G14G24G25G29G30
  20429763.182   -19484408.887 7 -14961737.61446  20429774.7744          0.000  
  19314509.338   -25598886.677 8 -19302033.59947  19314518.7614          0.000  
  22805752.902    -8529975.046 4  -6442473.70845  22805767.0394          0.000  
  21192283.171     2129874.270 6   1691003.68946  21192293.5524          0.000  
  22171811.501   -10252236.376 6    192535.54845  22171825.7904          0.000  
  21845115.840   -12560056.112 6  -9591834.38946  21845127.9524          0.000  
  21051835.426     2849686.276 6   2232388.03846  21051846.9694          0.000  
  18862566.733   -25203324.454 6 -19434130.50247  18862575.5944          0.000  
 02  1 30 11  2 29.9950000  0  8G 5G 6G 9G14G24G25G29G30
  20440715.890   -19426852.482 7 -14916888.59246  20440728.0074          0.000  
  19306685.784   -25639999.534 7 -19334069.56847  19306695.0214          0.000  
  22824654.863    -8430646.474 3  -6365075.25244  22824682.4274          0.000  
  21201864.760     2180225.378 6   1730238.18046  21201874.8364          0.000  
  22175009.838   -10235428.869 6    205632.28345  22175026.5454          0.000  
  21826979.906   -12655360.400 6  -9666097.35846  21826992.7604          0.000  
  21062210.578     2904207.686 6   2274872.10046  21062222.5794          0.000  
  18864176.073   -25194867.470 6 -19427540.68147  18864184.8084          0.000  
 02  1 30 11  2 59.9950000  0  8G 5G 6G 9G14G24G25G29G30
  20451704.457   -19369107.437 7 -14871892.55146  20451716.4994          0.000  
  19298950.200   -25680650.180 7 -19365745.38047  19298959.6334          0.000  
  22843581.854    -8331185.788 2  -6287574.05144  22843603.9274          0.000  
  21211531.874     2231026.914 6   1769823.67146  21211542.2884          0.000  
  22178312.476   -10218073.251 6    219156.10045  22178329.1964          0.000  
  21808881.943   -12750465.317 6  -9740204.97646  21808895.5904          0.000  
  21072665.634     2959148.994 6   2317683.39746  21072677.2274          0.000  
  18865844.209   -25186101.497 6 -19420710.07347  18865853.0644          0.000  
 02  1 30 11  3 29.9950000  0  8G 5G 6G 9G14G24G25G29G30
  20462728.853   -19311174.187 7 -14826749.88646  20462740.3234          0.000  
  19291302.567   -25720838.503 7 -19397060.93947  19291312.0764          0.000  
  22862533.760    -8231594.778 2  -6209971.20944  22862554.9234          0.000  
  21221284.318     2282276.238 6   1809758.08946  21221295.6604          0.000  
  22181719.352   -10200170.035 5    233106.62545  22181735.2574          0.000  
  21790822.279   -12845369.003 6  -9814155.76946  21790834.2074          0.000  
  21083200.051     3014507.304 6   2360819.59546  21083211.9494          0.000  
  18867571.073   -25177026.838 6 -19413638.95547  18867579.8094          0.000  
 02  1 30 11  3 59.9950000  0  8G 5G 6G 9G14G24G25G29G30
  20473787.647   -19253060.372 7 -14781466.48946  20473799.6404          0.000  
  19283741.595   -25760571.479 7 -19428021.67447  19283751.3264          0.000  
  22881508.895    -8131881.895 2  -6132273.33445  22881526.2804          0.000  
  21231120.341     2333964.042 6   1850034.17846  21231131.3774          0.000  
  22185228.995   -10181726.860 5    247477.90145  22185244.1454          0.000  
  21772800.019   -12940076.219 6  -9887953.48946  21772812.4784          0.000  
  21093811.844     3070273.069 6   2404273.30446  21093824.7674          0.000  
  18869355.331   -25167650.668 6 -19406332.89547  18869364.8604          0.000  
 02  1 30 11  4 29.9950000  0  8G 5G 6G 9G14G24G25G29G30
  20484881.615   -19194761.660 7 -14736039.04746  20484893.5374          0.000  
  19276268.275   -25799843.992 6 -19458623.62047  19276278.0144          0.000  
  22900507.882    -8032043.752 3  -6054477.97443  22900523.4564          0.000  
  21241040.214     2386092.673 6   1890653.76246  21241052.3544          0.000  
  22188842.219   -10162739.453 5    262273.22245  22188858.0694          0.000  
  21754816.528   -13034579.744 6  -9961592.46446  21754828.1894          0.000  
  21104501.745     3126448.525 6   2448046.24046  21104513.7504          0.000  
  18871197.872   -25157968.218 6 -19398788.16347  18871206.2654          0.000  
 02  1 30 11  4 59.9950000  0  8G 5G 6G 9G14G24G25G29G30
  20496010.526   -19136279.196 7 -14690468.40246  20496022.4984          0.000  
  19268882.479   -25838656.656 7 -19488867.23547  19268892.2404          0.000  
  22919530.229    -7932082.927 2         0.000           0.000           0.000  
  21251043.299     2438658.754 6   1931614.22946  21251055.0504          0.000  
  22192558.760   -10143209.060 5    277491.67645  22192574.7014          0.000  
  21736872.053   -13128878.285 6 -10035071.76446  21736883.8424          0.000  
  21115269.012     3183030.316 6   2492135.80246  21115281.6194          0.000  
  18873098.523   -25147980.386 6 -19391005.47847  18873107.7614          0.000  
 02  1 30 11  5 29.9950000  0  7G 5G 6G14G24G25G29G30
  20507173.921   -19077615.545 7 -14644756.58946  20507185.6654          0.000  
  19261583.789   -25877011.560 7 -19518754.15747  19261593.8494          0.000  
  21261128.624     2491657.562 6   1972911.90346  21261139.8154          0.000  
  22196378.030   -10123138.834 5    293130.76145  22196394.8654          0.000  
  21718966.539   -13222971.652 6 -10108391.14846  21718979.3234          0.000  
  21126112.646     3240013.507 6   2536538.15346  21126126.0454          0.000  
  18875056.869   -25137689.433 6 -19382986.58047  18875066.0144          0.000  
 02  1 30 11  5 59.9950000  0  7G 5G 6G14G24G25G29G30
  20518370.689   -19018776.460 7 -14598908.06946  20518382.6714          0.000  
  19254371.193   -25914913.946 7 -19548288.47747  19254380.6874          0.000  
  21271294.954     2545081.262 7   2014540.62546  21271305.9924          0.000  
  22200298.949   -10102534.753 5    309185.82545  22200315.9184          0.000  
  21701099.530   -13316862.663 6 -10181552.85346  21701112.9974          0.000  
  21137031.262     3297390.254 6   2581247.14246  21137043.8794          0.000  
  18877071.800   -25127101.014 6 -19374735.92047  18877080.7144          0.000  
 02  1 30 11  6 29.9950000  0  7G 5G 6G14G24G25G29G30
  20529601.561   -18959758.344 7 -14552920.04046  20529614.2514          0.000  
  19247245.505   -25952359.712 6 -19577466.98747  19247255.0144          0.000  
  21281542.520     2598931.373 6   2056501.61446  21281554.2254          0.000  
  22204322.177   -10081393.092 6    325659.79445  22204338.1404          0.000  
  21683272.217   -13410545.536 6 -10254552.41346  21683284.2524          0.000  
  21148024.928     3355161.860 6   2626263.82046  21148037.9984          0.000  
  18879144.091   -25116211.202 6 -19366250.38747  18879153.5234          0.000  
 02  1 30 11  6 59.9950000  0  7G 5G 6G14G24G25G29G30
  20540867.569   -18900555.608 7 -14506788.17846  20540879.9254          0.000  
  19240207.923   -25989342.585 6 -19606284.79747  19240217.4484          0.000  
  21291871.718     2653211.413 6   2098797.66646  21291883.4084          0.000  
  22208448.581   -10059708.850 6    342556.53245  22208465.0714          0.000  
  21665486.163   -13504011.738 6 -10327383.12446  21665498.2814          0.000  
  21159094.356     3413331.721 6   2671590.88346  21159107.0354          0.000  
  18881274.889   -25105014.003 6 -19357525.33747  18881283.1684          0.000  
 02  1 30 11  7 29.9950000  0  7G 5G 6G14G24G25G29G30
  20552167.222   -18841175.965 7 -14460518.43546  20552179.5984          0.000  
  19233257.047   -26025869.675 6 -19634747.44147  19233266.3864          0.000  
  21302280.827     2707911.469 6   2141420.97646  21302292.0634          0.000  
  22212676.741   -10037489.729 5    359870.06345  22212694.6644          0.000  
  21647740.376   -13597266.053 6 -10400048.68546  21647753.1664          0.000  
  21170237.812     3471890.049 6   2717220.59046  21170249.6264          0.000  
  18883462.749   -25093516.912 6 -19348566.59947  18883471.6864          0.000  
 02  1 30 11  7 59.9950000  0  7G 5G 6G14G24G25G29G30
  20563501.300   -18781615.384 7 -14414107.71946  20563513.9204          0.000  
  19226393.768   -26061936.453 6 -19662851.39847  19226402.9024          0.000  
  21312770.266     2763033.380 6   2184372.98946  21312781.7614          0.000  
  22217007.456   -10014731.934 6    377603.32945  22217024.0434          0.000  
  21630036.161   -13690301.901 6 -10472544.00046  21630049.4264          0.000  
  21181455.452     3530838.586 6   2763154.34446  21181467.7774          0.000  
  18885708.514   -25081715.426 6 -19339370.67547  18885717.1154          0.000  
 02  1 30 11  8 29.9950000  0  8G 5G 6G 9G14G24G25G29G30
  20574870.459   -18721870.447 7 -14367553.34346  20574882.8754          0.000  
  19219618.792   -26097539.183 6 -19690593.77047  19219627.4154          0.000  
  23053299.603       16796.93412         0.000           0.000           0.000  
  21323340.373     2818578.701 6   2227654.91246  21323350.9924          0.000  
  22221441.237    -9991432.476 5    395758.68145  22221458.0324          0.000  
  21612374.764   -13783112.970 6 -10544864.18946  21612387.1084          0.000  
  21192747.389     3590178.115 6   2809392.81146  21192759.5974          0.000  
  18888012.886   -25069605.989 6 -19329934.78447  18888021.7324          0.000  
 02  1 30 11  8 59.9950000  0  7G 5G 6G14G24G25G29G30
  20586272.796   -18661951.294 7 -14320863.22446  20586285.4934          0.000  
  19212930.269   -26132687.456 7 -19717982.01247  19212939.3654          0.000  
  21333988.690     2874535.005 6   2271257.08846  21333999.9194          0.000  
  22225976.025    -9967602.308 5    414327.54945  22225992.4494          0.000  
  21594754.534   -13875707.261 6 -10617015.42246  21594766.6364          0.000  
  21204111.615     3649896.748 6   2855926.64046  21204124.4984          0.000  
  18890374.017   -25057198.354 6 -19320266.52247  18890382.7754          0.000  
 02  1 30 11  9 29.9950000  0  8G 5G 6G 9G14G24G25G29G30
  20597709.604   -18601850.985 7 -14274031.94846  20597722.1354          0.000  
  19206329.616   -26167373.826 7 -19745010.32347  19206339.0834          0.000  
  23091712.582       77421.30512         0.000           0.000           0.000  
  21344715.887     2930906.756 6   2315183.01846  21344728.2024          0.000  
  22230613.229    -9943234.109 5    433315.65745  22230629.4634          0.000  
  21577177.492   -13968074.591 6 -10688989.84946  21577189.8814          0.000  
  21215548.801     3709998.706 6   2902759.16746  21215562.6274          0.000  
  18892793.229   -25044485.438 6 -19310360.39647  18892802.5054          0.000  
 02  1 30 11  9 59.9950000  0  7G 5G 6G14G24G25G29G30
  20609179.959   -18541574.315 7 -14227063.24646  20609192.4744          0.000  
  19199816.054   -26201602.664 7 -19771682.11347  19199825.6474          0.000  
  21355520.832     2987687.086 6   2359427.29646  21355532.3894          0.000  
  22235351.728    -9918333.319 5    452718.76145  22235369.2364          0.000  
  21559643.262   -14060217.013 6 -10760789.01946  21559655.7824          0.000  
  21227057.643     3770477.172 6   2949885.05346  21227070.0744          0.000  
  18895269.726   -25031471.634 6 -19300219.79247  18895278.8064          0.000  
 02  1 30 11 10 29.9950000  0  7G 5G 6G14G24G25G29G30
  20620683.768   -18481122.104 7 -14179957.75546  20620696.9254          0.000  
  19193389.543   -26235374.161 7 -19797997.54347  19193399.2504          0.000  
  21366403.032     3044873.323 6   2403987.85846  21366415.7814          0.000  
  22240191.334    -9892901.143 5    472535.98345  22240207.3744          0.000  
  21542152.096   -14152133.072 6 -10832411.79046  21542164.2634          0.000  
  21238637.417     3831328.938 6   2997301.86446  21238651.3014          0.000  
  18897803.350   -25018157.500 6 -19289845.17747  18897811.6994          0.000  
 02  1 30 11 10 59.9950000  0  7G 5G 6G14G24G25G29G30
  20632220.780   -18420495.404 7 -14132716.28946  20632233.2484          0.000  
  19187049.916   -26268689.079 6 -19823957.19047  19187059.4984          0.000  
  21377361.913     3102461.862 6   2448861.89746  21377374.9854          0.000  
  22245131.689    -9866939.456 5    492765.77845  22245150.4324          0.000  
  21524704.437   -14243820.930 6 -10903856.77646  21524716.0244          0.000  
  21250287.595     3892550.560 6   3045006.82646  21250301.6684          0.000  
  18900393.976   -25004543.804 6 -19279237.12547  18900403.2344          0.000  
 02  1 30 11 11 29.9950000  0  7G 5G 6G14G24G25G29G30
  20643792.249   -18359687.437 7 -14085333.61546  20643805.4124          0.000  
  19180798.533   -26301540.373 6 -19849555.58647  19180807.7834          0.000  
  21388398.190     3160457.156 6   2494052.89246  21388410.3424          0.000  
  22250174.029    -9840441.863 5    513413.16745  22250191.5864          0.000  
  21507302.031   -14335270.980 6 -10975116.46146  21507312.2894          0.000  
  21262008.882     3954146.322 6   3093003.36246  21262022.1694          0.000  
  18903042.889   -24990623.620 6 -19268390.25047  18903051.5264          0.000  
 02  1 30 11 11 59.9950000  0  7G 5G 6G14G24G25G29G30
  20655397.695   -18298701.027 7 -14037811.85646  20655410.6654          0.000  
  19174634.888   -26333930.573 6 -19874794.67747  19174644.6254          0.000  
  21399510.853     3218854.083 6   2539556.87246  21399522.2474          0.000  
  22255317.762    -9813411.760 5    534475.57745  22255334.5154          0.000  
  21489944.943   -14426483.057 6 -11046190.69746  21489954.9854          0.000  
  21273800.578     4016111.047 6   3141287.40246  21273812.5674          0.000  
  18905749.690   -24976399.461 6 -19257306.54847  18905758.8064          0.000  
 02  1 30 11 12 29.9950000  0  7G 5G 6G14G24G25G29G30
  20667037.345   -18237534.612 7 -13990149.84146  20667049.5574          0.000  
  19168559.291   -26365857.836 7 -19899673.03747  19168568.9464          0.000  
  21410699.866     3277652.022 6   2585373.31346  21410711.6164          0.000  
  22260563.106    -9785847.739 5    555953.94645  22260577.5404          0.000  
  21472633.778   -14517453.380 6 -11117076.53346  21472644.2674          0.000  
  21285662.270     4078443.908 6   3189858.33846  21285673.8074          0.000  
  18908514.620   -24961869.606 6 -19245984.57247  18908523.7804          0.000  
 02  1 30 11 12 59.9950000  0  7G 5G 6G14G24G25G29G30
  20678710.713   -18176190.950 7 -13942349.74846  20678723.6344          0.000  
  19162571.372   -26397324.419 6 -19924192.42647  19162580.6424          0.000  
  21421964.219     3336845.767 6   2631498.17546  21421975.9114          0.000  
  22265909.472    -9757753.239 5    577845.69645  22265924.8904          0.000  
  21455368.532   -14608182.047 6 -11187774.06046  21455379.5214          0.000  
  21297593.157     4141139.901 6   3238712.13546  21297605.5694          0.000  
  18911337.293   -24947036.470 6 -19234426.35847  18911346.4974          0.000  
 02  1 30 11 13 29.9950000  0  7G 5G 6G14G24G25G29G30
  20690416.740   -18114675.763 7 -13894415.95746  20690429.4214          0.000  
  19156670.118   -26428335.635 6 -19948356.99647  19156678.9904          0.000  
  21433302.381     3396427.449 6   2677925.32146  21433313.6054          0.000  
  22271355.535    -9729134.452 5    600145.99845  22271371.8144          0.000  
  21438148.777   -14698671.683 6 -11258285.36546  21438160.7174          0.000  
  21309591.476     4204190.881 6   3287842.58446  21309605.4044          0.000  
  18914216.670   -24931905.423 6 -19222635.93347  18914226.2474          0.000  
 02  1 30 11 13 59.9950000  0  7G 5G 6G14G24G25G29G30
  20702155.350   -18052989.658 7 -13846349.00846  20702168.5064          0.000  
  19150855.452   -26458891.800 6 -19972166.97847  19150864.3144          0.000  
  21444713.720     3456394.296 6   2724652.59546  21444726.5714          0.000  
  22276901.026    -9699993.115 6    622853.51045  22276916.0474          0.000  
  21420974.937   -14788920.129 6 -11328608.75046  21420986.7074          0.000  
  21321656.802     4267593.916 6   3337247.38846  21321670.6754          0.000  
  18917152.703   -24916476.684 6 -19210613.60047  18917161.3694          0.000  
 02  1 30 11 14 29.9950000  0  7G 5G 6G14G24G25G29G30
  20713927.691   -17991126.322 7 -13798143.92846  20713940.5614          0.000  
  19145128.622   -26488986.348 7 -19995617.25447  19145137.1044          0.000  
  21456199.189     3516750.035 6   2771682.86546  21456211.4814          0.000  
  22282547.072    -9670322.880 5    645973.11245  22282564.7534          0.000  
  21403848.632   -14878918.814 6 -11398737.49546  21403861.3954          0.000  
  21333789.888     4331352.832 6   3386929.46146  21333803.5454          0.000  
  18920146.600   -24900743.937 6 -19198354.33947  18920155.9794          0.000  
 02  1 30 11 14 59.9950000  0  7G 5G 6G14G24G25G29G30
  20725731.768   -17929096.111 7 -13749808.84346  20725745.2044          0.000  
  19139487.709   -26518629.487 7 -20018715.78547  19139496.7154          0.000  
  21467756.133     3577482.067 6   2819006.38946  21467768.6004          0.000  
  22288291.675    -9640134.769 5    669496.27845  22288307.4564          0.000  
  21386768.455   -14968675.232 6 -11468677.47446  21386780.1174          0.000  
  21345988.239     4395454.870 6   3436878.87346  21346000.9364          0.000  
  18923196.427   -24884717.180 6 -19185865.99247  18923205.0134          0.000  
 02  1 30 11 15 29.9950000  0  7G 5G 6G14G24G25G29G30
  20737568.773   -17866892.916 7 -13701338.98546  20737582.0564          0.000  
  19133933.922   -26547814.783 6 -20041457.56147  19133943.4104          0.000  
  21479385.443     3638594.266 6   2866626.13746  21479395.5034          0.000  
  22294135.934    -9609423.252 6    693427.24445  22294153.2984          0.000  
  21369736.174   -15058180.174 6 -11538421.49146  21369747.5984          0.000  
  21358252.554     4459903.524 6   3487098.41046  21358265.7264          0.000  
  18926303.390   -24868390.092 6 -19173143.62447  18926312.9304          0.000  
 02  1 30 11 15 59.9950000  0  7G 5G 6G14G24G25G29G30
  20749438.548   -17804517.539 7 -13652734.92046  20749451.1474          0.000  
  19128467.141   -26576542.833 6 -20063843.03447  19128476.5704          0.000  
  21491086.558     3700083.108 6   2914539.35746  21491098.1174          0.000  
  22300079.448    -9578190.548 6    717764.36445  22300097.2804          0.000  
  21352752.034   -15147432.049 6 -11607968.29946  21352763.9744          0.000  
  21370582.190     4524695.588 6   3537585.52146  21370594.6714          0.000  
  18929467.405   -24851763.146 6 -19160187.60047  18929476.4374          0.000  
 02  1 30 11 16 29.9950000  0  7G 5G 6G14G24G25G29G30
  20761341.383   -17741968.410 6 -13603995.49246  20761353.6814          0.000  
  19123087.742   -26604811.786 6 -20085870.77447  19123096.8884          0.000  
  21502859.348     3761948.022 6   2962745.65346  21502871.6134          0.000  
  22306122.462    -9546435.390 6    742508.57745  22306138.1974          0.000  
  21335816.824   -15236426.757 6 -11677314.69646  21335828.0564          0.000  
  21382977.063     4589830.137 6   3588339.50346  21382990.5454          0.000  
  18932688.865   -24834834.509 6 -19146996.51047  18932698.3184          0.000  
 02  1 30 11 16 59.9950000  0  7G 5G 6G14G24G25G29G30
  20773276.510   -17679249.341 6 -13555123.62146  20773289.5464          0.000  
  19117794.994   -26632625.330 6 -20107543.65447  19117804.0144          0.000  
  21514702.332     3824182.739 6   3011240.10146  21514714.4864          0.000  
  22312263.908    -9514161.998 6    767656.59845  22312280.9494          0.000  
  21318930.491   -15325164.772 6 -11746461.10746  21318940.7234          0.000  
  21395435.930     4655301.163 6   3639355.68746  21395448.5614          0.000  
  18935967.016   -24817607.845 6 -19133573.14047  18935976.0004          0.000  
 02  1 30 11 17 29.9950000  0  7G 5G 6G14G24G25G29G30
  20785243.919   -17616360.476 6 -13506119.45346  20785257.0084          0.000  
  19112588.941   -26659983.183 6 -20128861.44147  19112598.3394          0.000  
  21526615.140     3886784.928 6   3060020.88746  21526628.5964          0.000  
  22318503.690    -9481371.227 5    793207.78845  22318521.2344          0.000  
  21302093.428   -15413643.817 6 -11815405.70946  21302104.1394          0.000  
  21407958.292     4721105.849 6   3690631.86546  21407972.7304          0.000  
  18939301.937   -24800082.819 6 -19119917.32847  18939310.7594          0.000  
 02  1 30 11 17 59.9950000  0  7G 5G 6G14G24G25G29G30
  20797244.660   -17553296.464 6 -13456978.82346  20797257.5714          0.000  
  19107470.618   -26686880.012 6 -20149819.99647  19107480.1034          0.000  
  21538598.496     3949757.409 6   3109090.17946  21538610.2444          0.000  
  22324842.882    -9448058.803 5    819165.43445  22324857.8224          0.000  
  21285307.112   -15501855.863 6 -11884142.23646  21285317.4884          0.000  
  21420544.678     4787247.168 6   3742170.31245  21420557.7544          0.000  
  18942694.686   -24782253.875 6 -19106024.66647  18942704.2534          0.000  
 02  1 30 11 18 29.9950000  0  7G 5G 6G14G24G25G29G30
  20809278.674   -17490057.892 7 -13407702.16346  20809292.0044          0.000  
  19102439.978   -26713316.034 7 -20170419.48247  19102449.5134          0.000  
  21550651.728     4013097.401 6   3158445.83246  21550663.5284          0.000  
  22331281.227    -9414225.549 6    845528.92745  22331297.7084          0.000  
  21268572.136   -15589798.299 6 -11952668.72446  21268582.9454          0.000  
  21433194.583     4853722.159 6   3793968.80446  21433209.0344          0.000  
  18946145.289   -24764121.129 6 -19091895.30547  18946153.9254          0.000  
 02  1 30 11 18 59.9950000  0  7G 5G 6G14G24G25G29G30
  20821344.790   -17426650.696 6 -13358294.11946  20821357.9454          0.000  
  19097495.885   -26739297.272 7 -20190664.59147  19097505.0294          0.000  
  21562773.346     4076796.302 6   3208081.19246  21562784.9084          0.000  
  22337817.246    -9379878.816 5    872292.55345  22337834.3454          0.000  
  21251887.754   -15677474.819 6 -12020987.99346  21251899.3924          0.000  
  21445906.356     4920522.108 5   3846020.54646  21445920.1334          0.000  
  18949652.530   -24745690.756 7 -19077534.00047  18949662.3094          0.000  
 02  1 30 11 19 29.9950000  0  8G 5G 6G14G17G24G25G29G30
  20833445.013   -17363064.382 7 -13308746.47746  20833458.2004          0.000  
  19092640.422   -26764812.896 7 -20210546.89147  19092649.7004          0.000  
  21574964.850     4140862.264 6   3258002.57946  21574977.7204          0.000  
  24061886.814      -17776.32612         0.000           0.000           0.000  
  22344452.813    -9345008.854 5    899463.88645  22344468.4424          0.000  
  21235256.486   -15764872.140 6 -12089089.68646  21235267.6884          0.000  
  21458681.386     4987655.102 6   3898331.75846  21458694.4724          0.000  
  18953218.491   -24726951.643 6 -19062932.11547  18953227.3654          0.000  
 02  1 30 11 19 59.9950000  0  8G 5G 6G14G17G24G25G29G30
  20845576.277   -17299314.806 6 -13259071.63946  20845589.0954          0.000  
  19087870.554   -26789878.715 7 -20230078.69247  19087879.7114          0.000  
  21587222.635     4205276.988 6   3308195.73946  21587236.1624          0.000  
  24041568.995     -124533.075 1         0.000           0.000           0.000  
  22351184.838    -9309631.989 5    927030.17645  22351202.5854          0.000  
  21218675.954   -15852003.203 6 -12156983.91746  21218686.7544          0.000  
  21471516.567     5055102.900 6   3950888.20746  21471530.2264          0.000  
  18956840.231   -24707919.404 6 -19048101.84147  18956849.7304          0.000  
 02  1 30 11 20 29.9950000  0  8G 5G 6G14G17G24G25G29G30
  20857739.879   -17235395.162 6 -13209264.27946  20857752.7084          0.000  
  19083187.548   -26814487.957 7 -20249254.71947  19083196.9424          0.000  
  21599547.678     4270044.589 6   3358663.79446  21599560.1914          0.000  
  24021231.468     -231402.831 1         0.000           0.000           0.000  
  22358014.343    -9273742.722 5    954995.78945  22358030.3294          0.000  
  21202147.768   -15938858.780 6 -12224663.46646  21202158.9244          0.000  
  21484412.281     5122869.547 6   4003693.17746  21484426.1114          0.000  
  18960519.026   -24688587.139 6 -19033037.74047  18960528.5754          0.000  
 02  1 30 11 20 59.9950000  0  8G 5G 6G14G17G24G25G29G30
  20869935.842   -17171305.357 6 -13159324.32146  20869948.6844          0.000  
  19078591.487   -26838640.361 8 -20268074.76347  19078601.1254          0.000  
  21611939.372     4335162.747 6   3409405.04746  21611952.0534          0.000  
  24000873.166     -338382.883 2         0.000           0.000           0.000  
  22364941.236    -9237341.932 6    983359.98545  22364956.7604          0.000  
  21185672.583   -16025435.751 6 -12292125.91446  21185684.0914          0.000  
  21497368.162     5190952.501 6   4056744.63545  21497380.8634          0.000  
  18964254.965   -24668954.748 6 -19017739.81847  18964264.0174          0.000  
 02  1 30 11 21 29.9950000  0  8G 5G 6G14G17G24G25G29G30
  20882163.871   -17107047.229 6 -13109253.19246  20882177.8264          0.000  
  19074082.057   -26862337.618 8 -20286540.15947  19074091.1434          0.000  
  21624397.039     4400627.278 6   3460416.21746  21624410.1474          0.000  
  23980494.146     -445471.934 2         0.000           0.000           0.000  
  22371965.011    -9200431.883 5   1012120.95345  22371980.7234          0.000  
  21169250.543   -16111733.575 6 -12359370.86446  21169262.4444          0.000  
  21510383.449     5259347.435 6   4110039.15645  21510397.4284          0.000  
  18968047.777   -24649023.486 6 -19002208.97247  18968057.2874          0.000  
 02  1 30 11 21 59.9950000  0  8G 5G 6G14G17G24G25G29G30
  20894423.298   -17042624.290 7 -13059053.65146  20894436.9704          0.000  
  19069658.548   -26885583.284 8 -20304653.65247  19069667.7464          0.000  
  21636919.407     4466432.043 6   3511692.50846  21636932.3644          0.000  
  23960094.531     -552670.833 2         0.000           0.000           0.000  
  22379084.954    -9163017.222 5   1041275.15045  22379103.0034          0.000  
  21152881.479   -16197752.971 6 -12426398.85746  21152893.4924          0.000  
  21523457.079     5328048.394 6   4163572.12446  21523471.1744          0.000  
  18971896.813   -24628796.735 6 -18986447.89947  18971905.5504          0.000  
 02  1 30 11 22 29.9950000  0  8G 5G 6G14G17G24G25G29G30
  20906712.981   -16978042.412 6 -13008730.26146  20906726.6654          0.000  
  19065319.858   -26908383.133 8 -20322419.75947  19065328.8684          0.000  
  21649505.027     4532568.659 6   3563227.36446  21649516.5394          0.000  
  23939672.509     -659982.612 1         0.000           0.000           0.000  
  22386299.497    -9125104.893 5   1070817.15345  22386315.3894          0.000  
  21136564.900   -16283496.826 6 -12493212.15746  21136577.0004          0.000  
  21536587.125     5397047.054 5   4217337.09945  21536603.8224          0.000  
  18975800.984   -24608280.147 6 -18970460.96347  18975810.5094          0.000  
 02  1 30 11 22 59.9950000  0  7G 5G 6G14G24G25G29G30
  20919034.642   -16913292.485 6 -12958275.91146  20919048.4414          0.000  
  19061067.755   -26930727.939 7 -20339831.29247  19061076.8074          0.000  
  21662154.953     4599043.974 6   3615026.12746  21662168.0724          0.000  
  22393610.261    -9086686.231 5   1100753.68245  22393626.8194          0.000  
  21120303.031   -16368953.317 7 -12559801.53246  21120314.6484          0.000  
  21549775.059     5466349.708 5   4271338.94045  21549789.7624          0.000  
  18979762.106   -24587464.268 6 -18954240.82447  18979771.0874          0.000  
 02  1 30 11 23 29.9950000  0  7G 5G 6G14G24G25G29G30
  20931387.683   -16848377.436 6 -12907692.90046  20931400.8834          0.000  
  19056901.685   -26952620.638 7 -20356890.53147  19056910.6774          0.000  
  21674868.242     4665852.413 6   3667084.49546  21674880.5804          0.000  
  22401016.619    -9047765.531 5   1131081.42245  22401032.1954          0.000  
  21104095.752   -16454122.867 7 -12626167.30946  21104106.8434          0.000  
  21563019.979     5535951.005 6   4325573.48245  21563034.2294          0.000  
  18983779.692   -24566351.849 6 -18937789.62347  18983788.9094          0.000  
 02  1 30 11 23 59.9950000  0  7G 5G 6G14G24G25G29G30
  20943772.107   -16783297.044 6 -12856981.02746  20943785.6154          0.000  
  19052821.676   -26974061.121 7 -20373597.39047  19052831.0714          0.000  
  21687644.484     4732991.557 6   3719400.55946  21687657.4514          0.000  
  22408518.459    -9008343.641 5   1161799.62745  22408535.4644          0.000  
  21087943.575   -16539002.598 7 -12692307.24546  21087954.5854          0.000  
  21576321.275     5605848.328 6   4380038.66245  21576334.3754          0.000  
  18987853.809   -24544942.472 6 -18921107.01047  18987862.8064          0.000  
 02  1 30 11 24 29.9950000  0  7G 5G 6G14G24G25G29G30
  20956188.161   -16718050.506 6 -12806139.73346  20956202.0264          0.000  
  19048827.869   -26995048.729 6 -20389951.35447  19048837.2134          0.000  
  21700483.417     4800459.782 6   3771973.00646  21700496.5544          0.000  
  22416115.717    -8968420.626 5   1192908.34245  22416131.2334          0.000  
  21071847.318   -16623588.706 7 -12758218.36246  21071858.8844          0.000  
  21589678.411     5676040.005 5   4434733.21845  21589694.6734          0.000  
  18991984.640   -24523235.140 6 -18904192.24047  18991993.7054          0.000  
 02  1 30 11 24 59.9950000  0  7G 5G 6G14G24G25G29G30
  20968636.725   -16652633.284 6 -12755165.40346  20968650.0254          0.000  
  19044921.156   -27015578.704 7 -20405948.72447  19044930.4494          0.000  
  21713385.391     4868258.912 6   3824803.29146  21713398.9794          0.000  
  22423808.911    -8927993.001 5   1224410.28345  22423826.7224          0.000  
  21055808.306   -16707873.882 6 -12823894.99546  21055819.6324          0.000  
  21603092.033     5746528.329 5   4489658.94746  21603108.4794          0.000  
  18996173.098   -24501224.820 6 -18887041.37247  18996182.0184          0.000  
 02  1 30 11 25 29.9950000  0  7G 5G 6G14G24G25G29G30
  20981116.663   -16587051.317 6 -12704062.70146  20981130.7234          0.000  
  19041100.399   -27035656.923 7 -20421594.08747  19041109.9894          0.000  
  21726348.591     4936380.658 6   3877885.04845  21726360.5774          0.000  
  22431596.736    -8887067.825 5   1256299.88745  22431614.5674          0.000  
  21039825.928   -16791861.346 6 -12889339.67146  21039837.0274          0.000  
  21616560.524     5817304.493 6   4544808.99346  21616575.2414          0.000  
  19000418.115   -24478917.248 6 -18869658.88447  19000426.7864          0.000  
 02  1 30 11 25 59.9950000  0  7G 5G 6G14G24G25G29G30
  20993627.751   -16521305.554 6 -12652832.36046  20993640.6704          0.000  
  19037365.320   -27055284.832 7 -20436888.54447  19037375.0904          0.000  
  21739372.555     5004821.447 6   3931215.32445  21739384.7154          0.000  
  22439478.872    -8845647.233 5   1288575.56445  22439495.2024          0.000  
  21023900.493   -16875549.483 6 -12954551.13546  21023910.8244          0.000  
  21630083.098     5888364.699 6   4600180.31145  21630096.7634          0.000  
  19004719.480   -24456313.528 6 -18852045.62647  19004728.7904          0.000  
 02  1 30 11 26 29.9950000  0  7G 5G 6G14G24G25G29G30
  21006169.828   -16455397.078 6 -12601475.23746  21006183.9184          0.000  
  19033715.730   -27074463.484 6 -20451832.93847  19033725.2944          0.000  
  21752456.634     5073577.435 6   3984791.19746  21752469.3144          0.000  
  22447454.985    -8803733.273 6   1321235.62845  22447473.7964          0.000  
  21008032.368   -16958936.566 7 -13019527.99946  21008043.2894          0.000  
  21643658.959     5959705.335 6   4655770.14445  21643671.7074          0.000  
  19009077.088   -24433414.215 6 -18834202.05247  19009085.8934          0.000  
 02  1 30 11 26 59.9950000  0  8G 5G 6G 9G14G24G25G29G30
  21018742.265   -16389329.112 6 -12549993.84646  21018756.6154          0.000  
  19030151.035   -27093196.112 6 -20466429.77947  19030160.1594          0.000  
  23774561.110        3451.76611         0.000           0.000           0.000  
  21765599.603     5142643.212 6   4038608.54346  21765612.1474          0.000  
  22455524.040    -8761330.494 5   1354276.69145  22455541.7714          0.000  
  20992221.495   -17042023.138 7 -13084270.69346  20992232.3424          0.000  
  21657287.171     6031320.792 6   4711574.18145  21657302.7084          0.000  
  19013490.325   -24410222.438 6 -18816130.55047  19013499.9414          0.000  
 02  1 30 11 27 29.9950000  0  7G 5G 6G14G24G25G29G30
  21031344.835   -16323102.752 6 -12498389.02646  21031358.4274          0.000  
  19026671.023   -27111483.734 6 -20480679.85847  19026680.3464          0.000  
  21778800.769     5212015.136 6   4092664.38146  21778813.7724          0.000  
  22463685.810    -8718440.785 5   1387697.10445  22463702.8634          0.000  
  20976468.104   -17124807.483 7 -13148777.84946  20976479.5424          0.000  
  21670967.016     6103207.308 6   4767589.38545  21670980.8784          0.000  
  19017959.088   -24386738.842 6 -18797831.70147  19017968.3494          0.000  
 02  1 30 11 27 59.9950000  0  7G 5G 6G14G24G25G29G30
  21043977.390   -16256718.805 6 -12446661.41846  21043991.4704          0.000  
  19023275.495   -27129327.412 6 -20494584.00947  19023285.0794          0.000  
  21792059.593     5281689.605 6   4146955.94946  21792072.6534          0.000  
  22471939.874    -8675066.021 5   1421495.52045  22471956.4394          0.000  
  20960772.633   -17207287.628 7 -13213047.98046  20960784.1174          0.000  
  21684697.690     6175361.505 5   4823813.14845  21684711.0974          0.000  
  19022483.302   -24362964.054 6 -18779305.92047  19022492.9374          0.000  
 02  1 30 11 28 29.9950000  0  7G 5G 6G14G24G25G29G30
  21056641.415   -16190169.310 6 -12394804.81046  21056654.7814          0.000  
  19019965.959   -27146719.129 7 -20508135.98147  19019975.4624          0.000  
  21805376.964     5351672.068 6   4201487.52446  21805390.2874          0.000  
  22480287.606    -8631199.112 5   1455677.43745  22480304.5304          0.000  
  20945137.019   -17289453.165 7 -13277072.96146  20945147.4004          0.000  
  21698480.078     6247788.379 5   4880249.44145  21698496.1564          0.000  
  19027064.501   -24338889.830 6 -18760546.81347  19027074.1664          0.000  
 02  1 30 11 28 59.9950000  0  7G 5G 6G14G24G25G29G30
  21069335.905   -16123459.675 6 -12342823.41746  21069350.1254          0.000  
  19016741.400   -27163664.317 6 -20521340.01247  19016750.5984          0.000  
  21818751.323     5421954.413 6   4256252.77646  21818764.8314          0.000  
  22488727.622    -8586846.948 5   1490237.49545  22488743.8604          0.000  
  20929560.751   -17371306.406 7 -13340854.59746  20929571.0364          0.000  
  21712313.091     6320480.275 5   4936892.14445  21712328.0284          0.000  
  19031701.668   -24314521.387 6 -18741558.43647  19031711.2654          0.000  
 02  1 30 11 29 29.9950000  0  7G 5G 6G14G24G25G29G30
  21082060.150   -16056593.754 6 -12290720.25646  21082073.9864          0.000  
  19013601.016   -27180167.184 7 -20534199.37547  19013610.1384          0.000  
  21832181.618     5492530.390 6   4311246.83045  21832194.5304          0.000  
  22497258.890    -8542014.955 5   1525171.40545  22497274.7704          0.000  
  20914043.686   -17452848.598 7 -13404393.84946  20914055.0304          0.000  
  21726195.269     6393430.494 5   4993736.16045  21726211.6014          0.000  
  19036394.103   -24289862.503 6 -18722343.75047  19036403.3704          0.000  
 02  1 30 11 29 59.9950000  0  7G 5G 6G14G24G25G29G30
  21094815.031   -15989566.973 6 -12238491.73446  21094828.5164          0.000  
  19010545.629   -27196223.293 6 -20546710.61647  19010554.5854          0.000  
  21845668.095     5563401.854 5   4366471.12745  21845681.5544          0.000  
  22505882.165    -8496699.631 5   1560482.00045  22505899.6134          0.000  
  20898587.253   -17534072.318 7 -13467684.96446  20898598.2424          0.000  
  21740126.874     6466641.051 5   5050783.06745  21740143.9034          0.000  
  19041142.818   -24264908.089 6 -18702898.78947  19041151.8164          0.000  
 02  1 30 11 30 29.9950000  0  7G 5G 6G14G24G25G29G30
  21107601.368   -15922375.135 6 -12186134.61546  21107615.7604          0.000  
  19007576.049   -27211828.549 6 -20558870.53747  19007585.3014          0.000  
  21859211.051     5634570.422 6   4421926.94245  21859224.5424          0.000  
  22514598.033    -8450897.666 5   1596171.78945  22514614.2974          0.000  
  20883192.666   -17614971.025 7 -13530722.80546  20883204.2874          0.000  
  21754108.511     6540113.414 6   5108033.95745  21754124.0514          0.000  
  19045948.580   -24239653.827 6 -18683220.17147  19045958.1214          0.000  
 02  1 30 11 30 59.9950000  0  7G 5G 6G14G24G25G29G30
  21120418.395   -15855022.380 6 -12133652.09246  21120432.4004          0.000  
  19004691.402   -27226987.460 7 -20570682.66247  19004700.5444          0.000  
  21872809.487     5706029.184 6   4477608.87346  21872822.3114          0.000  
  22523405.411    -8404614.798 5   1632236.28845  22523421.3534          0.000  
  20867859.729   -17695545.906 7 -13593508.32546  20867870.6184          0.000  
  21768138.632     6613840.583 5   5165483.34745  21768152.8844          0.000  
  19050810.606   -24214103.879 6 -18663311.15247  19050820.2544          0.000  
 02  1 30 11 31 29.9950000  0  7G 5G 6G14G24G25G29G30
  21133266.943   -15787503.881 6 -12081040.42246  21133281.4464          0.000  
  19001892.554   -27241695.449 7 -20582143.41747  19001901.9194          0.000  
  21886463.523     5777780.335 6   4533518.64245  21886476.7734          0.000  
  22532305.019    -8357847.599 5   1668678.12045  22532323.7774          0.000  
  20852589.829   -17775789.407 7 -13656035.63046  20852600.4394          0.000  
  21782217.497     6687824.684 5   5223132.99145  21782233.1554          0.000  
  19055729.882   -24188253.108 6 -18643167.73547  19055739.0004          0.000  
 02  1 30 11 31 59.9950000  0  7G 5G 6G14G24G25G29G30
  21146145.229   -15719828.864 6 -12028306.77846  21146158.8744          0.000  
  18999177.717   -27255961.835 8 -20593260.06047  18999186.9634          0.000  
  21900170.711     5849811.884 5   4589646.91745  21900184.2304          0.000  
  22541294.926    -8310606.634 6   1705489.18945  22541311.4924          0.000  
  20837381.714   -17855708.095 7 -13718309.83746  20837392.9594          0.000  
  21796343.157     6762054.014 6   5280973.69945  21796359.7264          0.000  
  19060704.701   -24162110.530 6 -18622796.92947  19060713.8984          0.000  
 02  1 30 11 32 29.9950000  0  7G 5G 6G14G24G25G29G30
  21159053.017   -15651998.354 6 -11975451.98946  21159066.9504          0.000  
  18996546.619   -27269788.066 8 -20604033.71847  18996555.9054          0.000  
  21913930.655     5922120.289 6   4645990.88045  21913944.6634          0.000  
  22550374.399    -8262894.178 5   1742667.62045  22550391.0644          0.000  
  20822235.706   -17935300.428 7 -13780329.74246  20822246.4784          0.000  
  21810514.769     6836524.630 5   5339002.41745  21810530.7794          0.000  
  19065734.920   -24135676.813 6 -18602199.26247  19065744.0444          0.000  
 02  1 30 11 32 59.9950000  0  7G 5G 6G14G24G25G29G30
  21171990.666   -15584010.602 6 -11922474.66746  21172004.8694          0.000  
  18993999.606   -27283172.555 7 -20614463.16647  18994008.8334          0.000  
  21927743.270     5994704.715 6   4702549.91645  21927758.3094          0.000  
  22559543.769    -8214709.503 5   1780214.02945  22559560.0574          0.000  
  20807152.625   -18014561.984 7 -13842091.92546  20807162.8094          0.000  
  21824732.071     6911235.786 5   5397218.57945  21824747.1474          0.000  
  19070820.865   -24108950.241 6 -18581373.39847  19070829.9584          0.000  
 02  1 30 11 33 29.9950000  0  7G 5G 6G14G24G25G29G30
  21184958.774   -15515862.872 6 -11869372.73146  21184973.8934          0.000  
  18991537.137   -27296112.933 6 -20624546.55547  18991546.0124          0.000  
  21941608.376     6067564.910 6   4759323.86245  21941622.3604          0.000  
  22568803.157    -8166051.308 5   1818129.30945  22568821.2674          0.000  
  20792133.469   -18093487.569 7 -13903592.28046  20792144.7154          0.000  
  21838995.162     6986187.388 5   5455622.09745  21839010.5714          0.000  
  19075963.090   -24081927.807 6 -18560316.97647  19075972.2544          0.000  
 02  1 30 11 33 59.9950000  0  7G 5G 6G14G24G25G29G30
  21197957.134   -15447556.846 6 -11816147.39046  21197972.7864          0.000  
  18989158.836   -27308611.020 6 -20634285.30347  18989167.6504          0.000  
  21955524.987     6140696.812 5   4816309.54445  21955538.1744          0.000  
  22578152.155    -8116922.591 5   1856411.38845  22578168.3494          0.000  
  20777178.647   -18172075.552 7 -13964829.59246  20777189.1364          0.000  
  21853303.198     7061375.080 6   5514209.58645  21853318.7834          0.000  
  19081161.360   -24054610.777 6 -18539031.01147  19081171.0834          0.000  
 02  1 30 11 34 29.9950000  0  7G 5G 6G14G24G25G29G30
  21210985.783   -15379091.650 6 -11762798.03446  21211000.5104          0.000  
  18986864.789   -27320666.225 7 -20643678.93347  18986873.5964          0.000  
  21969493.071     6214098.768 6   4873505.61945  21969505.7294          0.000  
  22587590.526    -8067323.730 5   1895059.74345  22587608.3274          0.000  
  20762288.710   -18250322.897 7 -14025801.48746  20762299.6944          0.000  
  21867655.779     7136797.307 5   5572979.79245  21867671.4614          0.000  
  19086415.848   -24026998.259 6 -18517514.79347  19086425.8194          0.000  
 02  1 30 11 34 59.9950000  0  7G 5G 6G14G24G25G29G30
  21224043.629   -15310473.002 6 -11709329.11746  21224057.8144          0.000  
  18984653.853   -27332284.622 6 -20652732.21547  18984662.6224          0.000  
  21983511.025     6287762.346 6   4930905.52645  21983524.9254          0.000  
  22597116.926    -8017262.046 5   1934068.74745  22597132.4794          0.000  
  20747463.015   -18328232.268 7 -14086509.99946  20747473.2894          0.000  
  21882051.353     7212445.380 5   5631925.98045  21882067.0314          0.000  
  19091725.564   -23999095.656 6 -18495772.54247  19091735.2964          0.000  
 02  1 30 11 35 29.9950000  0  7G 5G 6G14G24G25G29G30
  21237130.905   -15241699.626 6 -11655739.64246  21237144.7504          0.000  
  18982526.236   -27343465.267 6 -20661444.39847  18982535.4684          0.000  
  21997578.415     6361686.017 5   4988508.16345  21997592.8434          0.000  
  22606731.362    -7966737.691 4   1973438.14945  22606749.7904          0.000  
  20732702.402   -18405799.642 7 -14146952.04046  20732713.2014          0.000  
  21896489.729     7288318.015 5   5691047.10045  21896503.4694          0.000  
  19097090.761   -23970901.445 6 -18473803.05747  19097099.7074          0.000  
 02  1 30 11 35 59.9950000  0  7G 5G 6G14G24G25G29G30
  21250247.830   -15172770.437 6 -11602028.72746  21250261.1374          0.000  
  18980482.084   -27354207.389 6 -20669814.85847  18980491.4324          0.000  
  22011695.061     6435868.393 5   5046312.37845  22011708.7424          0.000  
  22616434.052    -7915750.473 5   2013168.34145  22616451.4314          0.000  
  20718007.485   -18483021.556 7 -14207124.86846  20718018.9914          0.000  
  21910970.410     7364413.510 5   5750341.93345  21910985.8864          0.000  
  19102511.683   -23942414.356 6 -18451605.35947  19102520.7374          0.000  
 02  1 30 11 36 29.9950000  0  7G 5G 6G14G24G25G29G30
  21263395.123   -15103681.661 6 -11548193.47846  21263409.1694          0.000  
  18978522.035   -27364507.495 6 -20677840.89647  18978531.6054          0.000  
  22025861.191     6510310.545 5   5104319.00945  22025874.3184          0.000  
  22626225.117    -7864298.535 5   2053260.68045  22626242.8334          0.000  
  20703379.495   -18559891.490 7 -14267023.43046  20703389.8684          0.000  
  21925493.851     7440733.159 5   5809811.43345  21925512.6884          0.000  
  19107989.168   -23913630.067 6 -18429176.07947  19107998.1984          0.000  
 02  1 30 11 36 59.9950000  0  7G 5G 6G14G24G25G29G30
  21276571.890   -15034438.097 6 -11494237.64946  21276586.4394          0.000  
  18976645.113   -27374370.735 6 -20685526.51847  18976654.6094          0.000  
  22040075.215     6585004.907 5   5162522.10145  22040090.4654          0.000  
  22636103.372    -7812388.222 5   2093710.16445  22636120.6734          0.000  
  20688818.084   -18636411.681 7 -14326649.45646  20688828.8094          0.000  
  21940058.443     7517269.187 5   5869449.46945  21940076.6694          0.000  
  19113522.256   -23884553.696 6 -18406519.20047  19113531.4254          0.000  
 02  1 30 11 37 29.9950000  0  7G 5G 6G14G24G25G29G30
  21289777.764   -14965041.417 6 -11440162.46346  21289792.8934          0.000  
  18974850.916   -27383799.185 6 -20692873.36747  18974860.0464          0.000  
  22054336.297     6659947.154 5   5220918.39045  22054351.4044          0.000  
  22646068.522    -7760022.111 5   2134514.74445  22646087.4114          0.000  
  20674323.552   -18712580.382 7 -14386001.60446  20674333.8764          0.000  
  21954663.372     7594017.368 5   5929252.83945  21954682.5774          0.000  
  19119110.668   -23855186.486 6 -18383635.70247  19119120.6644          0.000  
 02  1 30 11 37 59.9950000  0  7G 5G 6G14G24G25G29G30
  21303013.875   -14895485.705 6 -11385963.38446  21303029.1544          0.000  
  18973140.534   -27392787.098 8 -20699876.93047  18973150.0274          0.000  
  22068645.219     6735140.543 5   5279510.33145  22068662.6934          0.000  
  22656121.199    -7707195.984 5   2175677.92845  22656137.0614          0.000  
  20659897.517   -18788389.307 7 -14445073.43546  20659906.9704          0.000  
  21969309.225     7670980.937 5   5989224.09645  21969325.1674          0.000  
  19124755.582   -23825522.291 6 -18360520.78547  19124765.0614          0.000  
 02  1 30 11 38 29.9950000  0  7G 5G 6G14G24G25G29G30
  21316279.097   -14825776.980 6 -11331645.06746  21316294.2644          0.000  
  18971512.764   -27401340.937 7 -20706542.24947  18971521.9234          0.000  
  22083000.438     6810576.305 5   5338291.15645  22083015.0034          0.000  
  22666259.805    -7653917.526 5   2217193.49745  22666277.6784          0.000  
  20645539.258   -18863842.073 7 -14503867.73546  20645549.3364          0.000  
  21983994.540     7748151.109 5   6049356.28445  21984010.8974          0.000  
  19130455.892   -23795566.936 6 -18337178.99047  19130465.3914          0.000  
 02  1 30 11 38 59.9950000  0  7G 5G 6G14G24G25G29G30
  21329572.396   -14755920.771 6 -11277211.81646  21329587.7544          0.000  
  18969966.525   -27409466.567 6 -20712873.90247  18969975.4944          0.000  
  22097400.158     6886246.234 6   5397254.49645  22097416.1114          0.000  
  22676483.118    -7600193.792 5   2259056.07545  22676499.2694          0.000  
  20631248.291   -18938941.365 7 -14562386.61946  20631258.8874          0.000  
  21998717.643     7825519.557 5   6109642.94645  21998733.4044          0.000  
  19136210.616   -23765325.800 6 -18313614.51947  19136219.9794          0.000  
 02  1 30 11 39 29.9950000  0  7G 5G 6G14G24G25G29G30
  21342894.836   -14685911.304 6 -11222659.16546  21342910.0584          0.000  
  18968502.812   -27417158.696 6 -20718867.77547  18968511.3004          0.000  
  22111845.064     6962153.572 6   5456402.76645  22111859.2684          0.000  
  22686791.989    -7546020.473 5   2301268.89445  22686810.0364          0.000  
  20617026.163   -19013678.929 7 -14620623.62046  20617036.4204          0.000  
  22013478.918     7903089.306 5   6170086.52045  22013495.7864          0.000  
  19142020.919   -23734792.826 6 -18289822.64047  19142030.4974          0.000  
 02  1 30 11 39 59.9950000  0  7G 5G 6G14G24G25G29G30
  21356247.322   -14615744.270 6 -11167983.72046  21356263.3684          0.000  
  18967122.279   -27424413.498 6 -20724520.86547  18967131.2324          0.000  
  22126335.369     7038299.487 5   5515736.91945  22126350.7354          0.000  
  22697186.967    -7491394.808 5   2343834.31345  22697204.7994          0.000  
  20602874.163   -19088047.784 7 -14678573.28646  20602885.0234          0.000  
  22028278.759     7980862.046 5   6230688.23645  22028296.5194          0.000  
  19147887.610   -23703963.634 6 -18265799.95347  19147897.1624          0.000  
 02  1 30 11 40 29.9950000  0  7G 5G 6G14G24G25G29G30
  21369629.009   -14545423.793 6 -11113188.73746  21369643.9294          0.000  
  18965824.068   -27431235.501 8 -20729836.69947  18965833.4814          0.000  
  22140869.776     7114677.404 5   5575251.87445  22140884.2134          0.000  
  22707666.971    -7436322.189 5   2386747.92245  22707685.6894          0.000  
  20588792.096   -19162049.170 7 -14736236.61346  20588802.2844          0.000  
  22043115.995     8058830.929 5   6291442.71145  22043132.9454          0.000  
  19153809.914   -23672841.952 6 -18241549.33047  19153819.1764          0.000  
 02  1 30 11 40 59.9950000  0  7G 5G 6G14G24G25G29G30
  21383039.331   -14474952.839 6 -11058276.47846  21383055.7804          0.000  
  18964607.574   -27437628.147 6 -20734817.97247  18964616.6814          0.000  
  22155447.342     7191281.537 5   5634943.08345  22155460.9874          0.000  
  22718231.108    -7380807.357 5   2430006.12045  22718249.0644          0.000  
  20574779.901   -19235683.727 7 -14793614.12646  20574790.5454          0.000  
  22057989.458     8136990.140 5   6352345.53745  22058008.4904          0.000  
  19159787.273   -23641430.806 6 -18217073.15547  19159796.4484          0.000  
 02  1 30 11 41 29.9950000  0  7G 5G 6G14G24G25G29G30
  21396479.136   -14404326.885 6 -11003243.43146  21396495.0944          0.000  
  18963473.585   -27443587.307 6 -20739461.46647  18963482.7114          0.000  
  22170068.327     7268113.879 5   5694812.12245  22170083.3044          0.000  
  22728880.049    -7324847.425 5   2473611.17645  22728897.4454          0.000  
  20560838.890   -19308944.151 8 -14850700.08646  20560849.5534          0.000  
  22072899.662     8215341.519 5   6413398.12245  22072918.0354          0.000  
  19165820.654   -23609725.317 6 -18192367.62847  19165830.2694          0.000  
 02  1 30 11 41 59.9950000  0  7G 5G 6G14G24G25G29G30
  21409948.721   -14333544.793 6 -10948088.72746  21409964.4534          0.000  
  18962422.239   -27449112.143 8 -20743766.51847  18962431.6724          0.000  
  22184732.474     7345172.868 5   5754857.74445  22184749.7784          0.000  
  22739613.658    -7268442.592 5   2517562.89745  22739630.9324          0.000  
  20546969.837   -19381826.507 8 -14907491.46646  20546979.2484          0.000  
  22087846.158     8293883.600 5   6474599.25545  22087863.1654          0.000  
  19171910.359   -23577724.019 6 -18167431.60047  19171919.5874          0.000  
 02  1 30 11 42 29.9950000  0  7G 5G 6G14G24G25G29G30
  21423447.539   -14262608.881 6 -10892814.16646  21423462.4224          0.000  
  18961452.948   -27454205.604 8 -20747735.42747  18961462.4794          0.000  
  22199438.786     7422453.513 5   5815076.10545  22199454.2224          0.000  
  22750431.240    -7211596.649 5   2561858.31845  22750449.8464          0.000  
  20533172.771   -19454330.367 7 -14963987.91146  20533182.9004          0.000  
  22102827.942     8372611.414 5   6535945.15445  22102845.9224          0.000  
  19178055.934   -23545429.090 6 -18142266.76047  19178065.5974          0.000  
 02  1 30 11 42 59.9950000  0  7G 5G 6G14G24G25G29G30
  21436975.571   -14191519.178 6 -10837419.74746  21436990.0884          0.000  
  18960565.671   -27458868.091 7 -20751368.51347  18960574.9334          0.000  
  22214186.729     7499953.151 5   5875465.08445  22214201.6614          0.000  
  22761332.371    -7154311.472 5   2606496.00745  22761349.7074          0.000  
  20519448.176   -19526453.329 8 -15020187.52546  20519458.8884          0.000  
  22117844.594     8451522.161 5   6597433.54945  22117862.1504          0.000  
  19184257.409   -23512840.193 7 -18116872.86647  19184266.9094          0.000  
 02  1 30 11 43 29.9950000  0  7G 5G 6G14G24G25G29G30
  21450532.304   -14120278.401 6 -10781907.65246  21450546.6054          0.000  
  18959759.800   -27463102.894 7 -20754668.34447  18959769.0354          0.000  
  22228975.148     7577666.240 5   5936020.41345  22228992.1374          0.000  
  22772316.184    -7096591.529 5   2651472.48745  22772333.7544          0.000  
  20505795.954   -19598195.925 7 -15076090.77146  20505806.1944          0.000  
  22132895.051     8530610.397 5   6659060.24645  22132913.7424          0.000  
  19190514.310   -23479959.999 6 -18091251.96247  19190523.8274          0.000  
 02  1 30 11 43 59.9950000  0  7G 5G 6G14G24G25G29G30
  21464117.427   -14048888.526 5 -10726279.36846  21464133.2354          0.000  
  18959034.912   -27466912.343 6 -20757636.72447  18959043.9214          0.000  
  22243803.477     7655588.266 5   5996738.49845  22243818.0064          0.000  
  22783382.081    -7038440.341 5   2696784.91245  22783399.2274          0.000  
  20492216.313   -19669556.931 7 -15131696.67146  20492226.3664          0.000  
  22147978.279     8609871.411 5   6720821.55745  22147994.1254          0.000  
  19196826.362   -23446790.188 6 -18065405.39247  19196835.5414          0.000  
 02  1 30 11 44 29.9950000  0  7G 5G 6G14G24G25G29G30
  21477730.861   -13977349.976 6 -10670535.23846  21477747.4254          0.000  
  18958390.783   -27470297.362 6 -20760274.37947  18958399.8034          0.000  
  22258670.948     7733715.864 5   6057616.76845  22258687.0124          0.000  
  22794529.670    -6979859.839 5   2742431.96145  22794545.9624          0.000  
  20478709.800   -19740533.848 7 -15187003.28146  20478720.3574          0.000  
  22163093.819     8689302.077 5   6782715.10445  22163111.4524          0.000  
  19203193.458   -23413331.153 6 -18039333.45547  19203203.2174          0.000  
 02  1 30 11 44 59.9950000  0  7G 5G 6G14G24G25G29G30
  21491372.180   -13905665.114 6 -10614677.08046  21491386.7744          0.000  
  18957826.797   -27473260.974 7 -20762583.66147  18957835.7574          0.000  
  22273576.479     7812043.865 5   6118651.22745  22273592.6584          0.000  
  22805758.125    -6920854.217 5   2788410.18945  22805775.9564          0.000  
  20465276.320   -19811126.926 7 -15242010.80946  20465286.1584          0.000  
  22178240.601     8768897.153 5   6844736.72545  22178259.7784          0.000  
  19209615.135   -23379585.105 6 -18013037.85647  19209624.8524          0.000  
 02  1 30 11 45 29.9950000  0  7G 5G 6G14G24G25G29G30
  21505042.501   -13833827.832 6 -10558700.15146  21505058.1294          0.000  
  18957344.041   -27475797.730 6 -20764560.34547  18957352.9134          0.000  
  22288520.917     7890575.733 5   6179844.46945  22288534.5924          0.000  
  22817068.327    -6861418.889 5   2834723.23345  22817087.8434          0.000  
  20451917.498   -19881327.452 7 -15296712.46246  20451928.2374          0.000  
  22193419.365     8848659.918 5   6906889.03545  22193438.0314          0.000  
  19216092.627   -23345545.673 8 -17986513.66347  19216102.9784          0.000  
 02  1 30 11 45 59.9950000  0  7G 5G 6G14G24G25G29G30
  21518740.778   -13761844.094 6 -10502609.10746  21518756.5944          0.000  
  18956941.321   -27477914.054 6 -20766209.42447  18956950.0134          0.000  
  22303502.364     7969302.526 5   6241189.65745  22303519.4944          0.000  
  22828458.886    -6801561.954 5   2881364.88345  22828477.0734          0.000  
  20438632.720   -19951139.001 7 -15351111.00346  20438643.2234          0.000  
  22208628.422     8928581.891 5   6969165.32645  22208647.9244          0.000  
  19222624.828   -23311218.673 6 -17959765.37147  19222634.6374          0.000  
 02  1 30 11 46 29.9950000  0  7G 5G 6G14G24G25G29G30
  21532468.233   -13689707.089 6 -10446398.62346  21532482.9264          0.000  
  18956619.813   -27479603.641 8 -20767525.97547  18956629.0234          0.000  
  22318521.840     8048228.786 5   6302690.26145  22318538.6914          0.000  
  22839930.723    -6741277.898 5   2928339.32445  22839947.6914          0.000  
  20425423.919   -20020551.703 7 -15405198.78246  20425434.3784          0.000  
  22223868.537     9008667.182 5   7031568.95145  22223888.5034          0.000  
  19229213.103   -23276597.056 6 -17932787.49747  19229223.1204          0.000  
 02  1 30 11 46 59.9950000  0  7G 5G 6G14G24G25G29G30
  21546223.900   -13617421.258 6 -10390072.15946  21546238.2834          0.000  
  18956378.567   -27480871.273 6 -20768513.72447  18956387.6784          0.000  
  22333577.844     8127347.196 5   6364340.52745  22333594.7604          0.000  
  22851482.640    -6680572.699 5   2975641.93945  22851501.1834          0.000  
  20412290.576   -20089567.686 7 -15458977.39546  20412300.0494          0.000  
  22239138.223     9088908.564 5   7094094.26445  22239156.2644          0.000  
  19235856.621   -23241685.022 7 -17905583.33347  19235866.8094          0.000  
 02  1 30 11 47 29.9950000  0  7G 5G 6G14G24G25G29G30
  21560008.563   -13544982.726 6 -10333626.74146  21560023.4004          0.000  
  18956218.261   -27481713.627 6 -20769170.09847  18956227.7864          0.000  
  22348670.630     8206659.236 5   6426141.67245  22348686.9314          0.000  
  22863115.203    -6619443.946 5   3023274.55845  22863132.6634          0.000  
  20399234.024   -20158180.050 7 -15512441.49746  20399244.4054          0.000  
  22254437.997     9169307.311 5   7156742.06045  22254457.0724          0.000  
  19242556.209   -23206478.400 8 -17878149.61847  19242566.4844          0.000  
 02  1 30 11 47 59.9950000  0  7G 5G 6G14G24G25G29G30
  21573821.657   -13472394.983 6 -10277065.04746  21573837.1844          0.000  
  18956138.115   -27482134.987 6 -20769498.43547  18956147.2844          0.000  
  22363799.044     8286158.423 5   6488088.72545  22363817.0014          0.000  
  22874827.175    -6557897.299 5   3071232.80945  22874844.0034          0.000  
  20386254.091   -20226389.884 7 -15565591.96146  20386263.9234          0.000  
  22269766.568     9249857.227 5   7219507.69845  22269784.5484          0.000  
  19249311.226   -23170980.576 6 -17850488.97247  19249320.7924          0.000  
 02  1 30 11 48 29.9950000  0  7G 5G 6G14G24G25G29G30
  21587661.875   -13399665.025 6 -10220392.52746  21587677.9454          0.000  
  18956136.648   -27482142.924 6 -20769504.62847  18956145.2284          0.000  
  22378961.336     8365834.870 5   6550173.82445  22378976.6354          0.000  
  22886617.050    -6495941.552 5   3119509.82545  22886637.5654          0.000  
  20373349.813   -20294202.012 7 -15618432.51246  20373360.7824          0.000  
  22285121.945     9330548.377 4   7282383.36145  22285139.7724          0.000  
  19256120.342   -23135198.565 6 -17822606.91747  19256130.3934          0.000  
 02  1 30 11 48 59.9950000  0  7G 5G 6G14G24G25G29G30
  21601529.543   -13326790.592 6 -10163607.42946  21601545.8354          0.000  
  18956214.125   -27481735.744 7 -20769187.34247  18956222.7174          0.000  
  22394157.423     8445688.411 6   6612396.94645  22394175.0984          0.000  
  22898485.014    -6433575.950 5   3168106.22145  22898504.3514          0.000  
  20360522.230   -20361611.144 7 -15670959.04246  20360532.8964          0.000  
  22300504.153     9411380.534 5   7345368.93245  22300523.1344          0.000  
  19262984.085   -23099129.600 6 -17794501.23447  19262993.9964          0.000  
 02  1 30 11 49 29.9950000  0  7G 5G 6G14G24G25G29G30
  21615425.409   -13253767.950 6 -10106706.83646  21615440.6164          0.000  
  18956371.174   -27480910.230 7 -20768544.08447  18956379.9164          0.000  
  22409387.304     8525719.913 5   6674758.69345  22409404.6814          0.000  
  22910431.392    -6370798.145 5   3217023.82545  22910450.5694          0.000  
  20347772.498   -20428611.149 7 -15723166.75746  20347783.5244          0.000  
  22315913.431     9492354.741 5   7408465.13145  22315933.4634          0.000  
  19269903.172   -23062769.834 6 -17766168.98047  19269912.9694          0.000  
 02  1 30 11 49 59.9950000  0  7G 5G 6G14G24G25G29G30
  21629348.988   -13180599.593 6 -10049692.68946  21629364.7604          0.000  
  18956607.292   -27479669.307 6 -20767577.13947  18956616.2794          0.000  
  22424649.955     8605924.367 5   6737255.28145  22424667.8394          0.000  
  22922455.275    -6307613.014 5   3266258.84645  22922472.1724          0.000  
  20335100.685   -20495201.921 8 -15775055.59546  20335110.3094          0.000  
  22331348.831     9573465.752 5   7471667.89245  22331368.0874          0.000  
  19276877.154   -23026121.454 6 -17737611.80747  19276886.9084          0.000  
 02  1 30 11 50 29.9950000  0  7G 5G 6G14G24G25G29G30
  21643300.278   -13107285.831 6  -9992565.25245  21643315.9104          0.000  
  18956922.243   -27478014.149 6 -20766287.40547  18956931.3794          0.000  
  22439945.162     8686298.745 5   6799884.18245  22439962.2124          0.000  
  22934556.270    -6244022.295 4   3315809.83245  22934574.2724          0.000  
  20322507.158   -20561381.213 8 -15826623.79846  20322516.7664          0.000  
  22346809.506     9654710.447 5   7534974.90045  22346832.1614          0.000  
  19283906.018   -22989184.715 6 -17708829.94647  19283915.5044          0.000  
 02  1 30 11 50 59.9950000  0  7G 5G 6G14G24G25G29G30
  21657277.846   -13033834.062 6  -9935330.28245  21657293.4764          0.000  
  18957314.480   -27475952.982 6 -20764681.30847  18957323.2484          0.000  
  22455270.560     8766832.530 5   6862637.31145  22455287.1634          0.000  
  22946732.721    -6180035.515 4   3365669.48945  22946750.5664          0.000  
  20309990.892   -20627154.515 8 -15877875.64346  20310001.2424          0.000  
  22362293.914     9736078.730 5   7598378.15645  22362312.1894          0.000  
  19290988.317   -22951967.129 6 -17679829.25647  19290997.9714          0.000  
 02  1 30 11 51 29.9950000  0  7G 5G 6G14G24G25G29G30
  21671282.130   -12960241.960 6  -9877985.96646  21671297.5664          0.000  
  18957784.305   -27473484.071 6 -20762757.48247  18957793.3614          0.000  
  22470626.208     8847525.503 5   6925514.55645  22470644.9604          0.000  
  22958984.691    -6115651.937 4   3415838.32245  22959002.9604          0.000  
  20297552.939   -20692516.092 7 -15928806.68846  20297563.7484          0.000  
  22377801.752     9817570.249 4   7661877.42945  22377821.0154          0.000  
  19298124.588   -22914465.919 6 -17650607.56447  19298134.0804          0.000  
 02  1 30 11 51 59.9950000  0  7G 5G 6G14G24G25G29G30
  21685312.498   -12886512.862 6  -9820534.90546  21685327.8144          0.000  
  18958331.025   -27470611.018 6 -20760518.74947  18958339.8344          0.000  
  22486011.257     8928372.008 5   6988511.31745  22486027.6784          0.000  
  22971310.979    -6050876.819 5   3466312.19045  22971330.1554          0.000  
  20285193.131   -20757466.925 7 -15979417.68446  20285204.0154          0.000  
  22393331.779     9899179.103 4   7725468.14245  22393352.0924          0.000  
  19305314.288   -22876683.934 7 -17621167.09547  19305323.8614          0.000  
 02  1 30 11 52 29.9950000  0  7G 5G 6G14G24G25G29G30
  21699369.641   -12812642.825 5  -9762974.02646  21699386.4244          0.000  
  18958955.228   -27467330.672 7 -20757962.64347  18958964.4634          0.000  
  22501425.476     9009372.993 5   7051628.54945  22501443.1044          0.000  
  22983712.377    -5985707.834 5   3517093.01945  22983730.0294          0.000  
  20272912.662   -20822000.830 7 -16029703.79546  20272923.1724          0.000  
  22408884.398     9980906.163 5   7789151.02545  22408903.2674          0.000  
  19312558.104   -22838617.493 7 -17591504.96647  19312567.8004          0.000  
 02  1 30 11 52 59.9950000  0  7G 5G 6G14G24G25G29G30
  21713454.435   -12738627.217 5  -9705299.74145  21713471.9434          0.000  
  18959657.707   -27463639.063 7 -20755086.07247  18959667.2994          0.000  
  22516869.510     9090530.150 5   7114867.37645  22516884.3044          0.000  
  22996189.215    -5920142.354 5   3568182.80045  22996208.5294          0.000  
  20260713.008   -20886110.353 8 -16079659.22246  20260722.6624          0.000  
  22424459.897    10062753.601 5   7852927.68145  22424479.3394          0.000  
  19319857.015   -22800261.625 6 -17561617.31647  19319866.7514          0.000  
 02  1 30 11 53 29.9950000  0  7G 5G 6G14G24G25G29G30
  21727566.683   -12664466.899 5  -9647512.67245  21727583.5704          0.000  
  18960438.173   -27459537.698 7 -20751890.20847  18960447.9164          0.000  
  22532342.666     9171840.007 5   7178225.20445  22532361.7314          0.000  
  23008740.995    -5854183.041 4   3619579.49145  23008760.8674          0.000  
  20248594.396   -20949793.928 8 -16129282.72146  20248603.4634          0.000  
  22440057.621    10144717.851 4   7916795.19445  22440078.9594          0.000  
  19327210.834   -22761617.121 7 -17531504.75347  19327220.6804          0.000  
 02  1 30 11 53 59.9950000  0  7G 5G 6G14G24G25G29G30
  21741706.257   -12590163.429 5  -9589614.06345  21741723.0424          0.000  
  18961296.164   -27455028.957 6 -20748376.89147  18961305.6534          0.000  
  22547844.092     9253298.598 5   7241698.89345  22547862.3614          0.000  
  23021367.209    -5787833.050 5   3671280.57745  23021384.9464          0.000  
  20236556.960   -21013050.942 8 -16178573.83846  20236566.1064          0.000  
  22455676.590    10226794.450 4   7980750.44645  22455696.8224          0.000  
  19334619.318   -22722685.298 8 -17501168.31447  19334629.0884          0.000  
 02  1 30 11 54 29.9950000  0  7G 5G 6G14G24G25G29G30
  21755872.373   -12515720.970 6  -9531607.11345  21755889.3864          0.000  
  18962230.767   -27450117.649 7 -20744549.89947  18962239.8384          0.000  
  22563372.416     9334898.732 5   7305282.97945  22563390.6334          0.000  
  23034066.489    -5721098.664 4   3723281.20345  23034082.7204          0.000  
  20224600.344   -21075883.094 8 -16227533.87646  20224609.6974          0.000  
  22471315.891    10308976.692 5   8044787.88645  22471336.9814          0.000  
  19342081.695   -22683470.247 6 -17470611.18147  19342091.5604          0.000  
 02  1 30 11 54 59.9950000  0  8G 5G 6G14G15G24G25G29G30
  21770064.315   -12441143.053 6  -9473494.63845  21770079.6824          0.000  
  18963241.122   -27444808.147 8 -20740412.62947  18963250.1264          0.000  
  22578926.576     9416633.866 5   7368972.12245  22578944.0494          0.000  
  23557498.493      -44439.43711         0.000           0.000           0.000  
  23046837.939    -5653984.995 3   3775577.41145  23046856.2184          0.000  
  20212724.413   -21138291.264 8 -16276163.53446  20212734.3234          0.000  
  22486973.983    10391258.311 4   8108902.83845  22486995.0524          0.000  
  19349597.340   -22643975.329 7 -17439835.96147  19349607.2044          0.000  
 02  1 30 11 55 29.9950000  0  8G 5G 6G14G15G24G25G29G30
  21784284.168   -12366418.333 6  -9415267.73445  21784299.1144          0.000  
  18964329.338   -27439089.398 7 -20735956.46147  18964338.2724          0.000  
  22594508.024     9498513.436 5   7432773.90745  22594525.7234          0.000  
  23534426.327     -165686.881 1         0.000           0.000           0.000  
  23059683.414    -5586482.423 4   3828176.62545  23059703.0154          0.000  
  20200931.879   -21200261.253 8 -16324451.77446  20200941.4824          0.000  
  22502652.697    10473648.003 5   8173101.99245  22502672.2464          0.000  
  19357168.525   -22604188.683 8 -17408833.43547  19357178.3064          0.000  
 02  1 30 11 55 59.9950000  0  7G 5G 6G14G24G25G29G30
  21798529.595   -12291558.641 6  -9356935.64945  21798544.9464          0.000  
  18965493.054   -27432973.944 8 -20731191.17247  18965502.2104          0.000  
  22610114.220     9580522.765 5   7496676.77145  22610132.4784          0.000  
  23072600.213    -5518604.943 4   3881067.99445  23072618.8654          0.000  
  20189220.898   -21261802.605 8 -16372406.00146  20189230.5994          0.000  
  22518349.399    10556131.427 5   8237374.08145  22518371.2784          0.000  
  19364792.990   -22564122.199 6 -17377612.83347  19364802.7054          0.000  
 02  1 30 11 56 29.9950000  0  8G 5G 6G14G17G24G25G29G30
  21812801.561   -12216559.302 5  -9298494.80945  21812817.8944          0.000  
  18966733.002   -27426458.024 7 -20726113.82247  18966741.8804          0.000  
  22625745.522     9662663.618 5   7560682.11145  22625764.3574          0.000  
  22530313.155      -83177.27014         0.000           0.000           0.000  
  23085588.929    -5450349.657 4   3934253.76945  23085608.8584          0.000  
  20177592.859   -21322908.098 8 -16420020.59946  20177602.1684          0.000  
  22534064.256    10638710.623 5   8301720.87545  22534085.4334          0.000  
  19372471.619   -22523770.913 7 -17346170.32247  19372481.6794          0.000  
 02  1 30 11 56 59.9950000  0  8G 5G 6G14G17G24G25G29G30
  21827099.928   -12141421.441 6  -9239946.03345  21827115.0814          0.000  
  18968048.834   -27419543.369 7 -20720725.76347  18968058.0674          0.000  
  22641401.110     9744932.235 5   7624786.96345  22641418.9974          0.000  
  22509679.309     -191608.056 3         0.000           0.000           0.000  
  23098649.081    -5381719.398 5   3987731.69645  23098664.0874          0.000  
  20166047.956   -21383576.763 8 -16467294.81347  20166057.8654          0.000  
  22549796.568    10721381.734 5   8366139.21245  22549819.5864          0.000  
  19380204.308   -22483135.611 7 -17314506.50747  19380213.7354          0.000  
 02  1 30 11 57 29.9950000  0  8G 5G 6G14G17G24G25G29G30
  21841425.382   -12066141.470 6  -9181286.53945  21841441.0504          0.000  
  18969441.036   -27412227.289 7 -20715024.90047  18969450.4294          0.000  
  22657081.038     9827329.370 5   7688992.01145  22657100.2094          0.000  
  22489060.211     -299959.585 3    -36577.23555  22489082.6584          0.000  
  23111780.817    -5312712.761 3   4041502.99345  23111800.2414          0.000  
  20154587.388   -21443802.227 8 -16514223.67547  20154597.0324          0.000  
  22565546.346    10804145.509 3   8430629.78845  22565569.5674          0.000  
  19387991.678   -22442212.922 7 -17282618.74547  19388001.9544          0.000  
 02  1 30 11 57 59.9950000  0  8G 5G 6G14G17G24G25G29G30
  21855775.561   -11990731.838 6  -9122525.94545  21855793.0064          0.000  
  18970907.157   -27404522.669 7 -20709021.27647  18970916.6274          0.000  
  22672782.710     9909840.310 5   7753285.69945  22672801.2254          0.000  
  22468454.822     -408241.183 5   -120952.10845  22468471.1374          0.000  
  23124981.412    -5243343.576 2   4095556.70745  23125001.6574          0.000  
  20143209.280   -21503594.262 8 -16560814.79947  20143218.8994          0.000  
  22581311.061    10886987.086 5   8495180.96445  22581335.0604          0.000  
  19395831.510   -22401014.687 6 -17250516.27647  19395841.0164          0.000  
 02  1 30 11 58 29.9950000  0  8G 5G 6G14G17G24G25G29G30
  21870151.265   -11915187.968 6  -9063660.78845  21870167.1254          0.000  
  18972447.953   -27396425.708 6 -20702711.93447  18972457.1654          0.000  
  22688506.563     9992466.917 5   7817669.42645  22688524.6404          0.000  
  22447863.970     -516445.054 3   -205266.38345  22447886.7834          0.000  
  23138251.665    -5173609.865 3         0.000           0.000           0.000  
  20131914.942   -21562946.203 8 -16607062.99547  20131924.0634          0.000  
  22597091.016    10969908.462 3   8559794.25045  22597113.5894          0.000  
  19403724.670   -22359536.214 6 -17218195.42847  19403734.2634          0.000  
 02  1 30 11 58 59.9950000  0  8G 5G 6G14G17G24G25G29G30
  21884553.964   -11839502.088 6  -9004684.93245  21884569.1984          0.000  
  18974064.750   -27387929.389 7 -20696091.40447  18974073.8314          0.000  
  22704253.119    10075214.010 4   7882147.12345  22704273.3504          0.000  
  22427290.053     -624560.238 2   -289511.45344  22427313.6804          0.000  
  23151592.063    -5103505.603 2         0.000           0.000           0.000  
  20120706.257   -21621847.929 8 -16652960.38547  20120715.7094          0.000  
  22612886.849    11052914.530 3   8624473.61045  22612909.6944          0.000  
  19411672.627   -22317769.606 7 -17185650.07547  19411682.6984          0.000  
 02  1 30 11 59 29.9950000  0  8G 5G 6G14G17G24G25G29G30
  21898983.232   -11763676.268 5  -8945600.06945  21898999.8744          0.000  
  18975756.971   -27379036.546 8 -20689161.87047  18975765.9734          0.000  
  22720021.733    10158077.001 5   7946715.12045  22720040.4654          0.000  
  22406730.510       -7195.97111   -373686.87345  22406749.8254          0.000  
  23165002.547    -5033034.477 4         0.000           0.000           0.000  
  20109583.276   -21680299.200 8 -16698506.77747  20109592.8674          0.000  
  22628697.924    11136000.580 2   8689215.26145  22628725.4754          0.000  
  19419675.028   -22275716.883 6 -17152881.76247  19419684.6994          0.000  
 02  1 30 11 59 59.9950000  0  8G 5G 6G14G17G24G25G29G30
  21913437.850   -11687717.355 5  -8886411.52945  21913455.6244          0.000  
  18977523.208   -27369754.819 6 -20681929.31547  18977532.0224          0.000  
  22735810.781    10241046.321 5   8011365.94145  22735827.9714          0.000  
  22386192.998      -21576.69213         0.000           0.000           0.000  
  23178480.878    -4962205.461 3     40498.70154  23178498.3804          0.000  
  20098545.238   -21738304.078 7 -16743705.33146  20098554.9504          0.000  
  22644522.524    11219157.102 3   8754011.83245  22644550.6104          0.000  
  19427730.611   -22233384.654 8 -17119895.66047  19427740.8194          0.000  
 02  1 30 12  0 29.9950000  0  8G 5G 6G14G17G24G25G29G30
  21927917.883   -11611624.982 5  -8827118.95945  21927935.6634          0.000  
  18979363.395   -27360084.645 6 -20674394.08447  18979372.0724          0.000  
  22751619.501    10324119.743 4   8076097.87245  22751641.0164          0.000  
  22365670.140     -129427.146 5         0.000           0.000           0.000  
  23192026.851    -4891020.115 2     95967.72744  23192046.4394          0.000  
  20087592.670   -21795859.957 7 -16788554.02646  20087602.1304          0.000  
  22660360.156    11302381.920 3   8818861.58845  22660384.7294          0.000  
  19435839.486   -22190772.268 6 -17086691.25347  19435848.9174          0.000  
 02  1 30 12  0 59.9950000  0  8G 5G 6G14G17G24G25G29G30
  21942422.799   -11535401.517 5  -8767724.23845  21942439.8364          0.000  
  18981276.920   -27350028.997 6 -20666558.47747  18981285.6404          0.000  
  22767447.195    10407292.337 5   8140907.17745  22767469.7904          0.000  
  22345163.360     -237187.262 3     -5593.51455  22345178.1464          0.000  
  23205640.331    -4819482.736 5    151710.94943  23205653.4714          0.000  
  20076725.521   -21852966.925 8 -16833052.90146  20076735.2494          0.000  
  22676210.038    11385670.097 4   8883760.71545  22676232.9584          0.000  
  19444001.231   -22147882.087 8 -17053270.37047  19444011.1714          0.000  
 02  1 30 12  1 29.9950000  0  7G 5G 6G14G24G25G29G30
  21956953.985   -11459040.104 5  -8708222.05445  21956970.7034          0.000  
  18983264.927   -27339581.870 6 -20658417.82747  18983273.8454          0.000  
  22783294.799    10490568.396 5   8205796.97845  22783313.6044          0.000  
  23219321.414    -4747588.121 2    207732.59245  23219339.9484          0.000  
  20065945.631   -21909615.397 8 -16877194.50246  20065954.9544          0.000  
  22692072.689    11469025.809 4   8948712.47445  22692096.4254          0.000  
  19452217.211   -22104706.799 8 -17019627.34147  19452227.2534          0.000  
 02  1 30 12  1 59.9950000  0  8G 5G 6G14G17G24G25G29G30
  21971511.573   -11382540.372 6  -8648612.05545  21971528.7954          0.000  
  18985327.361   -27328743.612 7 -20649972.40647  18985336.2714          0.000  
  22799161.419    10573945.384 4   8270765.40445  22799180.2964          0.000  
  22304207.093     -103965.850 4         0.000           0.000           0.000  
  23233070.490    -4675337.661 4    264031.43745  23233091.6054          0.000  
  20055253.479   -21965802.818 8 -16920976.86147  20055263.3954          0.000  
  22707947.644    11552447.005 3   9013715.25145  22707977.7254          0.000  
  19460487.551   -22061245.915 8 -16985761.75947  19460497.7874          0.000  
 02  1 30 12  2 29.9950000  0  8G 5G 6G14G17G24G25G29G30
  21986094.467   -11305908.085 5  -8588898.84145  21986110.7384          0.000  
  18987462.966   -27317520.814 6 -20641227.34347  18987472.1004          0.000  
  22815045.454    10657414.630 4   8335805.73845  22815067.3714          0.000  
  22283759.153     -211420.489 4         0.000           0.000           0.000  
  23246885.735    -4602739.340 3    320601.30744  23246898.6614          0.000  
  20044648.348   -22021532.886 8 -16964402.83747  20044658.2654          0.000  
  22723833.771    11635924.935 5   9078762.21745  22723857.3094          0.000  
  19468811.177   -22017505.154 7 -16951678.08847  19468820.6364          0.000  
 02  1 30 12  2 59.9950000  0  8G 5G 6G14G17G24G25G29G30
  22000702.755   -11229142.403 6  -8529081.61545  22000719.6884          0.000  
  18989671.752   -27305913.491 6 -20632182.66547  18989680.7514          0.000  
  22830946.825    10740974.734 5   8400916.96245  22830966.6854          0.000  
  22263331.081     -318770.100 4    -50177.22355  22263347.1344          0.000  
  23260767.143    -4529794.734 4         0.000           0.000           0.000  
  20034130.869   -22076802.361 8 -17007469.91647  20034140.7714          0.000  
  22739730.215    11719457.903 4   9143851.97845  22739760.2094          0.000  
  19477188.253   -21973483.636 8 -16917375.67047  19477198.7294          0.000  
 02  1 30 12  3 29.9950000  0  8G 5G 6G14G17G24G25G29G30
  22015336.225   -11152243.706 5  -8469160.75645  22015352.0944          0.000  
  18991953.501   -27293922.806 7 -20622839.26747  18991962.3774          0.000  
  22846864.996    10824622.723 5   8466096.50245  22846884.8004          0.000  
  22242923.204     -426011.737 3   -133741.73345  22242939.8954          0.000  
  23274713.799    -4456505.948 3         0.000           0.000           0.000  
  20023701.426   -22131609.386 8 -17050176.62747  20023711.0554          0.000  
  22755636.478    11803042.939 3   9208982.32545  22755661.2514          0.000  
  19485618.718   -21929181.589 6 -16882854.62547  19485628.5664          0.000  
 02  1 30 12  3 59.9950000  0  8G 5G 6G14G17G24G25G29G30
  22029995.473   -11075209.097 5  -8409133.99345  22030012.7244          0.000  
  18994308.588   -27281546.743 7 -20613195.56947  18994317.8324          0.000  
  22862799.855    10908358.714 5   8531344.70145  22862822.5884          0.000  
  22222537.065     -533139.466 2   -217217.51645  22222554.7924          0.000  
  23288725.614    -4382871.878 2         0.000           0.000           0.000  
  20013361.090   -22185948.185 8 -17092518.50147  20013370.0174          0.000  
  22771552.873    11886680.335 5   9274153.50245  22771580.5434          0.000  
  19494103.193   -21884595.789 8 -16848112.50847  19494113.1014          0.000  
 02  1 30 12  4 29.9950000  0  8G 5G 6G14G17G24G25G29G30
  22044679.089   -10998046.539 5  -8349007.50945  22044695.6364          0.000  
  18996735.307   -27268794.114 7 -20603258.45347  18996743.9304          0.000  
  22878749.380    10992171.715 5   8596652.85745  22878774.3574          0.000  
  22202171.853     -640158.079 4   -300608.11845  22202188.9194          0.000  
  23302801.787    -4308902.932 5     40371.78954  23302825.4404          0.000  
  20003108.620   -22239825.014 8 -17134500.37447  20003117.9984          0.000  
  22787477.244    11970359.450 5   9339357.12045  22787504.5534          0.000  
  19502640.108   -21839734.316 6 -16813155.56947  19502649.7134          0.000  
 02  1 30 12  4 59.9950000  0  8G 5G 6G14G17G24G25G29G30
  22059388.213   -10920750.459 5  -8288777.02645  22059405.9674          0.000  
  18999234.687   -27255659.686 7 -20593023.84147  18999243.0484          0.000  
  22894714.250    11076065.316 5   8662023.81045  22894734.9524          0.000  
  22181829.009     -747058.505 3   -383906.73545  22181847.2354          0.000  
  23316942.167    -4234594.610 2         0.000           0.000           0.000  
  19992945.612   -22293231.574 8 -17176115.82447  19992955.0904          0.000  
  22803410.027    12054083.432 4   9404595.68845  22803432.0224          0.000  
  19511230.648   -21794590.903 8 -16777978.93847  19511240.0024          0.000  
 02  1 30 12  5 29.9950000  0  8G 5G 6G14G17G22G25G29G30
  22074121.751   -10843326.519 6  -8228446.86145  22074139.0354          0.000  
  19001805.472   -27242149.995 7 -20582496.81747  19001814.4804          0.000  
  22910692.929    11160031.205 4   8727451.07145  22910711.0024          0.000  
  22161508.374     -853843.226 5   -467115.21145  22161527.2874          0.000  
  22639370.968      -98920.207 3         0.000           0.000           0.000  
  19982871.395   -22346171.495 8 -17217367.66147  19982881.6134          0.000  
  22819349.798    12137844.296 4   9469863.01845  22819380.3494          0.000  
  19519873.762   -21749171.078 8 -16742586.91547  19519883.5824          0.000  
 02  1 30 12  5 59.9950000  0  8G 5G 6G14G17G22G25G29G30
  22088880.909   -10765767.808 6  -8168011.71345  22088898.1284          0.000  
  19004448.778   -27228259.113 8 -20571672.75847  19004457.9664          0.000  
  22926686.277    11244073.481 5   8792937.88445  22926705.3834          0.000  
  22141211.598     -960502.464 5   -550225.88945  22141229.4414          0.000  
  22619905.493     -201209.220 3         0.000           0.000           0.000  
  19972887.822   -22398635.308 8 -17258248.50147  19972897.6114          0.000  
  22835297.382    12221645.929 4   9535162.08845  22835325.9944          0.000  
  19528570.776   -21703468.016 7 -16706974.17947  19528580.4224          0.000  
 02  1 30 12  6 29.9950000  0  9G 5G 6G14G17G22G24G25G29G30
  22103663.952   -10688083.276 5  -8107478.56045  22103682.2164          0.000  
  19007162.805   -27213996.827 6 -20560559.30447  19007171.6384          0.000  
  22942691.941    11328180.584 5   8858475.12345  22942711.6194          0.000  
  22120937.462    -1067041.897 4   -633243.22545  22120954.8804          0.000  
  22600447.611     -303460.426 3    -42486.61255  22600467.1184          0.000  
  23359742.420       72793.549 1         0.000           0.000           0.000  
  19962993.514   -22450630.130 8 -17298763.88847  19963003.0114          0.000  
  22851250.564    12305477.000 4   9600484.04245  22851276.7924          0.000  
  19537320.044   -21657490.487 8 -16671147.58347  19537330.3644          0.000  
 02  1 30 12  6 59.9950000  0  8G 5G 6G14G17G22G25G29G30
  22118471.132   -10610271.436 5  -8046846.17345  22118488.9884          0.000  
  19009947.717   -27199362.172 6 -20549155.69347  19009956.2804          0.000  
  22958709.629    11412351.582 5   8924062.22445  22958729.8064          0.000  
  22100687.005    -1173456.537 3   -716163.36645  22100703.0014          0.000  
  22580997.637     -405670.832 3   -122130.69145  22581009.9344          0.000  
  19953189.332   -22502151.449 8 -17338910.32047  19953198.6074          0.000  
  22867209.053    12389336.666 3   9665828.24645  22867240.6854          0.000  
  19546121.910   -21611236.581 6 -16635105.62147  19546131.5884          0.000  
 02  1 30 12  7 29.9950000  0  8G 5G 6G14G17G22G25G29G30
  22133303.887   -10532324.348 5  -7986108.39645  22133320.7894          0.000  
  19012804.716   -27184348.560 7 -20537456.79147  19012813.8364          0.000  
  22974740.341    11496591.557 4   8989702.99845  22974763.1514          0.000  
  22080462.445    -1279735.654 4   -798977.89745  22080479.5574          0.000  
  22561556.852     -507831.458 3   -201736.19945  22561570.0924          0.000  
  19943477.044   -22553189.750 8 -17378680.36847  19943485.8954          0.000  
  22883174.120    12473229.858 4   9731198.68145  22883199.4704          0.000  
  19554977.827   -21564698.582 8 -16598842.28447  19554988.0424          0.000  
 02  1 30 12  7 59.9950000  0  8G 5G 6G14G17G22G25G29G30
  22148160.941   -10454249.874 4  -7925271.39945  22148178.2314          0.000  
  19015732.256   -27168964.266 7 -20525469.04347  19015741.5684          0.000  
  22990782.412    11580890.244 5   9055389.61045  22990803.9744          0.000  
  22060262.905    -1385883.868 5   -881690.39645  22060281.2654          0.000  
  22542124.204     -609948.683 3   -281307.74945  22542141.2854          0.000  
  19933855.598   -22603750.597 7 -17418078.38047  19933865.0284          0.000  
  22899143.526    12557146.313 3   9796587.19445  22899173.8774          0.000  
  19563886.400   -21517883.829 8 -16562363.30747  19563896.3404          0.000  
 02  1 30 12  8 29.9950000  0  8G 5G 6G14G17G22G25G29G30
  22163042.557   -10376047.673 5  -7864334.83345  22163060.7824          0.000  
  19018730.189   -27153210.017 7 -20513193.02047  19018739.5544          0.000  
  23006835.203    11665245.254 5   9121119.92345  23006852.8894          0.000  
  22040088.913    -1491897.696 5   -964298.18045  22040104.2264          0.000  
  22522700.295     -712020.946 4   -360844.38245  22522712.1304          0.000  
  19924325.478   -22653831.411 8 -17457102.35047  19924334.2384          0.000  
  22915116.820    12641083.868 3   9861992.06545  22915149.4884          0.000  
  19572847.683   -21470792.308 8 -16525668.65347  19572857.9584          0.000  
 02  1 30 12  8 59.9950000  0  8G 5G 6G14G17G22G25G29G30
  22177949.002   -10297715.425 5  -7803296.89045  22177967.9004          0.000  
  19021798.831   -27137084.242 7 -20500627.49347  19021808.2604          0.000  
  23022898.681    11749656.334 5   9186894.05845  23022920.7254          0.000  
  22019941.509    -1597771.382 5  -1046796.79645  22019958.5924          0.000  
  22503285.860     -814044.381 4   -440342.97445  22503300.4494          0.000  
  19914887.602   -22703427.425 8 -17495748.55147  19914896.6124          0.000  
  22931094.237    12725042.186 3   9927413.15345  22931119.5904          0.000  
  19581862.203   -21423421.056 7 -16488756.03947  19581872.1264          0.000  
 02  1 30 12  9 29.9950000  0  8G 5G 6G14G17G22G25G29G30
  22192881.320   -10219247.285 5  -7742153.09245  22192898.9914          0.000  
  19024939.108   -27120582.007 8 -20487768.61747  19024947.9584          0.000  
  23038973.407    11834126.840 5   9252714.53945  23038993.2174          0.000  
  21999822.563    -1703496.100 5  -1129179.36345  21999839.0384          0.000  
  22483881.984     -916011.943 4   -519797.96245  22483898.5514          0.000  
  19905543.439   -22752530.870 7 -17534010.92646  19905552.5674          0.000  
  22947076.330    12809024.731 2   9992852.95445  22947110.0534          0.000  
  19590931.018   -21375764.416 7 -16451621.00247  19590941.3934          0.000  
 02  1 30 12  9 59.9950000  0  8G 5G 6G14G17G22G25G29G30
  22207837.983   -10140650.507 5  -7680909.04845  22207856.1514          0.000  
  19028149.512   -27103711.212 8 -20474622.56447  19028158.3244          0.000  
  23055057.720    11918647.042 5   9318573.60245  23055077.9594          0.000  
  21979731.076    -1809075.835 5  -1211448.88645  21979747.6014          0.000  
  22464487.529    -1017929.236 3   -599213.95045  22464503.3114          0.000  
  19896292.130   -22801146.570 8 -17571893.25947  19896301.3034          0.000  
  22963061.287    12893021.852 3  10058304.26145  22963090.6594          0.000  
  19600052.830   -21327829.256 7 -16414268.98547  19600062.3554          0.000  
 02  1 30 12 10 29.9950000  0  8G 5G 6G14G17G22G25G29G30
  22222818.998   -10061925.518 5  -7619565.14245  22222836.9274          0.000  
  19031429.824   -27086473.226 6 -20461190.38647  19031438.3024          0.000  
  23071150.812    12003213.585 5   9384468.82745  23071173.3184          0.000  
  21959667.713    -1914507.942 5  -1293603.39645  21959684.1484          0.000  
  22445102.857    -1119795.446 4   -678590.01045  22445117.6874          0.000  
  19887133.997   -22849272.756 8 -17609394.13347  19887142.8964          0.000  
  22979048.275    12977030.267 2  10123764.28745  22979082.3264          0.000  
  19609227.548   -21279615.874 8 -16376700.13147  19609237.6634          0.000  
 02  1 30 12 10 59.9950000  0  9G 5G 6G14G17G22G24G25G29G30
  22237824.296    -9983072.713 5  -7558121.65345  22237841.8104          0.000  
  19034779.762   -27068869.286 7 -20447473.02947  19034789.0544          0.000  
  23087252.199    12087823.817 5   9450398.11845  23087277.2084          0.000  
  21939632.966    -2019789.460 5  -1375640.60245  21939650.9984          0.000  
  22425728.256    -1221609.472 5   -757925.48045  22425746.5414          0.000  
  23491456.989       10437.43512         0.000           0.000           0.000  
  19878069.327   -22896907.775 8 -17646512.28547  19878078.5884          0.000  
  22995036.966    13061047.290 2  10189230.97445  22995068.5454          0.000  
  19618455.182   -21231124.532 7 -16338914.71447  19618464.6844          0.000  
 02  1 30 12 11 29.9950000  0  8G 5G 6G14G17G22G25G29G30
  22252853.947    -9904091.865 5  -7496578.41545  22252871.0704          0.000  
  19038199.162   -27050900.159 7 -20433471.11147  19038208.5844          0.000  
  23103361.511    12172475.452 5   9516359.61345  23103385.6264          0.000  
  21919627.542    -2124916.986 5  -1457557.77745  21919643.7334          0.000  
  22406363.832    -1323369.912 5   -837219.24945  22406380.6914          0.000  
  19869098.585   -22944049.254 8 -17683245.87647  19869108.0434          0.000  
  23011026.997    13145070.529 4  10254702.51845  23011049.3484          0.000  
  19627735.787   -21182354.942 8 -16300912.47147  19627745.4294          0.000  
 02  1 30 12 11 59.9950000  0  8G 5G 6G14G17G22G25G29G30
  22267907.560    -9824985.729 5  -7434937.45445  22267925.1894          0.000  
  19041687.419   -27032569.292 6 -20419187.32347  19041696.2184          0.000  
  23119477.574    12257163.133 5   9582349.16045  23119500.8204          0.000  
  21899651.590    -2229889.996 5  -1539354.53445  21899668.3014          0.000  
  22387009.393    -1425077.819 5   -916471.97445  22387024.3744          0.000  
  19860221.630   -22990697.919 8 -17719595.44547  19860231.4454          0.000  
  23027017.183    13229094.804 4  10320174.82045  23027047.8114          0.000  
  19637068.836   -21133309.515 6 -16262695.29147  19637078.0794          0.000  
 02  1 30 12 12 29.9950000  0  8G 5G 6G14G17G22G25G29G30
  22282985.435    -9745752.379 5  -7373197.40045  22283000.9374          0.000  
  19045244.741   -27013875.543 7 -20404620.77147  19045253.6294          0.000  
  23135600.346    12341886.249 3   9648366.31845  23135621.6784          0.000  
  21879705.974    -2334703.458 5  -1621026.99445  21879723.4774          0.000  
  22367665.502    -1526729.840 5   -995681.18545  22367680.3144          0.000  
  19851439.210   -23036849.766 8 -17755557.87947  19851448.4644          0.000  
  23043007.591    13313119.447 4  10385647.33945  23043037.6994          0.000  
  19646454.790   -21083986.271 8 -16224261.63747  19646465.1084          0.000  
 02  1 30 12 12 59.9950000  0  8G 5G 6G14G17G22G25G29G30
  22298087.602    -9666390.904 5  -7311357.48645  22298103.9824          0.000  
  19048871.120   -26994818.841 7 -20389771.37847  19048879.9134          0.000  
  23151729.569    12426643.370 3   9714409.97645  23151757.1264          0.000  
  21859791.504    -2439353.054 5  -1702571.75645  21859809.1424          0.000  
  22348332.726    -1628323.656 5  -1074845.01945  22348349.4434          0.000  
  19842751.940   -23082501.591 8 -17791130.69147  19842760.9944          0.000  
  23058997.658    13397143.208 4  10451119.35645  23059030.1994          0.000  
  19655893.804   -21034383.957 8 -16185610.53247  19655903.4834          0.000  
 02  1 30 12 13 29.9950000  0  8G 5G 6G14G17G22G25G29G30
  22313212.785    -9586908.478 5  -7249423.38045  22313229.3814          0.000  
  19052565.049   -26975407.223 7 -20374645.44447  19052573.6844          0.000  
  23167863.445    12511424.538 4   9780472.36845  23167884.7844          0.000  
  21839907.469    -2543843.037 5  -1783992.13845  21839924.5804          0.000  
  22329009.914    -1729865.137 5  -1153968.02345  22329025.7144          0.000  
  19834158.797   -23127658.643 8 -17826317.94347  19834168.1904          0.000  
  23074985.541    13481156.053 4  10516582.69645  23075013.7254          0.000  
  19665384.512   -20984509.828 8 -16146747.60347  19665394.5434          0.000  
 02  1 30 12 13 59.9950000  0  8G 5G 6G14G17G22G25G29G30
  22328361.249    -9507303.568 4  -7187393.86045  22328379.6474          0.000  
  19056326.595   -26955640.150 7 -20359242.51247  19056335.8034          0.000  
  23184001.879    12596228.859 3   9846552.73445  23184023.6044          0.000  
  21820054.685    -2648168.590 5  -1865284.41645  21820071.5704          0.000  
  22309697.561    -1831351.174 5  -1233047.79645  22309713.7564          0.000  
  19825660.477   -23172317.387 8 -17861116.92547  19825669.9884          0.000  
  23090971.465    13565157.196 4  10582036.84045  23091003.0504          0.000  
  19674927.285   -20934362.123 8 -16107671.53347  19674937.2484          0.000  
 02  1 30 12 14 29.9950000  0  8G 5G 6G14G17G22G25G29G30
  22343533.767    -9427572.991 5  -7125266.39445  22343552.2544          0.000  
  19060156.254   -26935515.092 7 -20343560.64347  19060165.3794          0.000  
  23200144.641    12681056.999 3   9912651.76344  23200168.4844          0.000  
  21800234.379    -2752323.108 5  -1946443.37545  21800251.0554          0.000  
  22290396.650    -1932777.097 5  -1312080.79545  22290412.3984          0.000  
  19817258.106   -23216472.089 8 -17895523.15447  19817267.1084          0.000  
  23106955.259    13649147.575 3  10647482.64045  23106987.7184          0.000  
  19684522.822   -20883937.371 7 -16068379.57547  19684532.5514          0.000  
 02  1 30 12 14 59.9950000  0  8G 5G 6G14G17G22G25G29G30
  22358730.186    -9347716.741 5  -7063040.94545  22358747.5914          0.000  
  19064053.846   -26915032.924 7 -20327600.50247  19064062.8874          0.000  
  23216291.678    12765906.645 5   9978767.43045  23216317.8554          0.000  
  21780447.232    -2856303.552 5  -2027466.73445  21780463.3534          0.000  
  22271107.402    -2034141.392 4  -1391065.74345  22271124.0484          0.000  
  19808952.033   -23260120.785 8 -17929535.08647  19808961.8654          0.000  
  23122936.450    13733124.670 2  10712918.12544  23122968.9204          0.000  
  19694171.138   -20833235.531 8 -16028871.69047  19694181.1624          0.000  
 02  1 30 12 15 29.9950000  0  8G 5G 6G14G17G22G25G29G30
  22373948.685    -9267744.413 5  -7000725.08245  22373965.1404          0.000  
  19068017.403   -26894204.273 7 -20311370.37847  19068026.1654          0.000  
  23232440.703    12850765.439 5  10044890.19645  23232464.2744          0.000  
  21760692.139    -2960116.112 6  -2108359.25845  21760706.9524          0.000  
  22251828.236    -2135452.321 3  -1470009.14545  22251844.3394          0.000  
  19800740.860   -23303270.682 8 -17963158.33047  19800749.8964          0.000  
  23138912.898    13817076.367 3  10778333.60145  23138943.3324          0.000  
  19703870.350   -20782266.068 8 -15989155.30547  19703879.9404          0.000  
 02  1 30 12 15 59.9950000  0  8G 5G 6G14G17G22G25G29G30
  22389191.742    -9187642.539 5  -6938308.30445  22389208.9634          0.000  
  19072049.269   -26873016.593 7 -20294860.48847  19072058.5294          0.000  
  23248593.377    12935644.594 4  10111028.85045  23248619.1754          0.000  
  21740972.127    -3063744.248 6  -2189108.09546  21740987.0474          0.000  
  22232562.205    -2236694.861 3  -1548899.21445  22232579.3234          0.000  
  19792627.419   -23345906.820 8 -17996381.25747  19792636.4884          0.000  
  23154886.511    13901013.558 2  10843737.84845  23154920.7424          0.000  
  19713623.072   -20731015.288 8 -15949219.69247  19713633.2234          0.000  
 02  1 30 12 16 29.9950000  0  8G 5G 6G14G17G22G25G29G30
  22404458.072    -9107418.477 5  -6875796.28745  22404475.3884          0.000  
  19076147.965   -26851477.838 7 -20278077.05347  19076157.2314          0.000  
  23264748.059    13020534.490 4  10177175.87045  23264776.6194          0.000  
  21721286.344    -3167192.076 5  -2269716.42845  21721301.3764          0.000  
  22213307.859    -2337874.934 2  -1627740.63845  22213325.4484          0.000  
  19784610.741   -23388034.389 8 -18029207.90247  19784619.7504          0.000  
  23170855.483    13984926.717 2  10909123.28643  23170885.7714          0.000  
  19723428.042   -20679490.164 8 -15909070.34047  19723437.9004          0.000  
 02  1 30 12 16 59.9950000  0  8G 5G 6G14G17G22G25G29G30
  22419747.293    -9027074.007 5  -6813190.49045  22419763.2624          0.000  
  19080312.960   -26829590.742 8 -20261022.17847  19080322.4924          0.000  
  23280904.016    13105430.664 4  10243327.63545  23280929.9844          0.000  
  21701635.178    -3270458.112 5  -2350183.12646  21701651.2354          0.000  
  22194065.600    -2438992.685 4  -1706533.47145  22194081.4754          0.000  
  19776690.833   -23429653.443 8 -18061638.29347  19776700.3654          0.000  
  23186819.304    14068811.406 3  10974486.43844  23186846.3144          0.000  
  19733284.850   -20627692.644 8 -15868708.70147  19733294.8914          0.000  
 02  1 30 12 17 29.9950000  0  8G 5G 6G14G17G22G25G29G30
  22435060.827    -8946601.696 5  -6750485.02345  22435075.9204          0.000  
  19084545.487   -26807348.678 6 -20243690.70247  19084554.5084          0.000  
  23297062.142    13190337.952 4  10309488.18345  23297090.4834          0.000  
  21682020.729    -3373531.711 6  -2430499.89846  21682036.5374          0.000  
  22174836.912    -2540039.312 3  -1785270.88945  22174854.4394          0.000  
  19768869.646   -23470754.003 8 -18093664.67447  19768878.8784          0.000  
  23202778.795    14152672.968 2  11039831.64945  23202819.5394          0.000  
  19743194.949   -20575615.013 8 -15828128.80347  19743205.1874          0.000  
 02  1 30 12 17 59.9950000  0  7G 5G 6G14G17G22G25G30
  22450397.345    -8866008.775 5  -6687685.62645  22450415.1624          0.000  
  19088844.034   -26784759.830 7 -20226089.00747  19088852.8954          0.000  
  23313220.434    13275246.796 4  10375649.94645  23313249.5684          0.000  
  21662442.010    -3476416.912 6  -2510669.87046  21662458.5374          0.000  
  22155620.867    -2641020.379 4  -1863957.18145  22155636.8984          0.000  
  19761146.064   -23511341.730 8 -18125291.44047  19761155.7264          0.000  
  19753157.012   -20523264.403 8 -15787336.19947  19753167.4524          0.000  
 02  1 30 12 18 29.9950000  0  7G 5G 6G14G17G22G25G30
  22465756.326    -8785297.925 5  -6624794.29945  22465775.3964          0.000  
  19093207.881   -26761827.671 7 -20208219.79947  19093216.8594          0.000  
  23329378.071    13360152.235 2  10441808.86645  23329408.5194          0.000  
  21642899.305    -3579113.060 6  -2590692.52346  21642914.7004          0.000  
  22136417.083    -2741937.052 5  -1942593.40945  22136429.8984          0.000  
  19753519.981   -23551417.076 8 -18156518.96247  19753528.9614          0.000  
  19763170.543   -20470643.167 8 -15746332.69547  19763180.7854          0.000  
 02  1 30 12 18 59.9950000  0  7G 5G 6G14G17G22G25G30
  22481137.590    -8704469.912 5  -6561811.70245  22481155.1654          0.000  
  19097636.747   -26738553.801 6 -20190084.32247  19097645.7894          0.000  
  23345534.405    13445050.676 4  10507962.58445  23345563.0804          0.000  
  21623393.110    -3681617.767 6  -2670565.99846  21623407.8454          0.000  
  22117225.496    -2842788.566 2  -2021178.70945  22117242.8964          0.000  
  19745991.600   -23590978.839 7 -18187346.27747  19746001.3794          0.000  
  19773235.449   -20417751.926 8 -15705118.82247  19773246.1784          0.000  
 02  1 30 12 19 29.9950000  0  7G 5G 6G14G17G22G25G30
  22496541.661    -8623521.627 5  -6498735.39845  22496560.4304          0.000  
  19102131.059   -26714936.015 7 -20171680.86947  19102140.4094          0.000  
  23361689.659    13529943.182 3  10574111.48045  23361718.3744          0.000  
  21603924.515    -3783924.743 6  -2750285.41846  21603938.7614          0.000  
  22098047.115    -2943570.465 2  -2099709.96144  22098063.3244          0.000  
  19738561.844   -23630022.249 7 -18217769.68847  19738571.3624          0.000  
  19783352.297   -20364587.655 8 -15663692.18047  19783362.8854          0.000  
 02  1 30 12 19 59.9950000  0  7G 5G 6G14G17G22G25G30
  22511969.196    -8542449.972 5  -6435562.94545  22511986.3494          0.000  
  19106691.182   -26690972.253 7 -20153007.82447  19106700.4244          0.000  
  23377844.001    13614830.320 3  10640256.12745  23377877.8964          0.000  
  21584494.746    -3886027.601 6  -2829845.80946  21584510.4234          0.000  
  22078883.141    -3044277.924 4         0.000           0.000           0.000  
  19731231.641   -23668542.525 8 -18247785.44347  19731240.8204          0.000  
  19793521.786   -20311146.913 8 -15622050.12047  19793532.7134          0.000  
 02  1 30 12 20 29.9950000  0  7G 5G 6G14G17G22G25G30
  22527418.718    -8461262.883 5  -6372300.55845  22527436.7114          0.000  
  19111315.559   -26666671.206 7 -20134071.97347  19111324.3334          0.000  
  23393995.250    13699701.555 4  10706388.44045  23394023.3524          0.000  
  21565102.929    -3987931.120 6  -2909250.90946  21565118.1774          0.000  
  22059732.062    -3144917.441 3         0.000           0.000           0.000  
  19723999.979   -23706545.175 8 -18277397.87047  19724009.2214          0.000  
  19803742.381   -20257437.627 8 -15580198.79747  19803752.9964          0.000  
 02  1 30 12 20 59.9950000  0  5G 5G 6G17G25G30
  22542889.371    -8379964.427 5  -6308951.41245  22542908.8834          0.000  
  19116003.193   -26642037.693 8 -20114877.01847  19116012.6664          0.000  
  21545748.856    -4089636.108 6  -2988501.27646  21545765.5404          0.000  
  19716866.399   -23744032.444 8 -18306608.69847  19716875.6124          0.000  
  19814013.365   -20203463.614 8 -15538141.17047  19814024.3164          0.000  
 02  1 30 12 21 29.9950000  0  6G 5G 6G14G17G25G30
  22558383.048    -8298545.429 5  -6245508.32345  22558398.0314          0.000  
  19120755.615   -26617063.670 6 -20095416.75247  19120764.1644          0.000  
  23426288.634       82002.494 3  10838605.54045  23426315.5864          0.000  
  21526434.977    -4191130.102 6  -3067587.27746  21526451.4994          0.000  
  19709832.933   -23780993.481 8 -18335409.47847  19709842.5984          0.000  
  19824336.483   -20149215.589 8 -15495870.05647  19824346.4364          0.000  
 02  1 30 12 21 59.9950000  0  6G 5G 6G14G17G25G30
  22573898.648    -8217011.580 4  -6181975.69545  22573917.5144          0.000  
  19125571.564   -26591755.658 8 -20075696.24347  19125580.7904          0.000  
  23442427.935      166812.708 3  10904690.18445  23442459.0594          0.000  
  21507160.750    -4292415.733 6  -3146510.86746  21507177.3114          0.000  
  19702898.850   -23817432.150 8 -18363803.22847  19702908.2224          0.000  
  19834710.676   -20094699.000 8 -15453389.65046  19834721.0694          0.000  
 02  1 30 12 22 29.9950000  0  6G 5G 6G14G17G25G30
  22589437.730    -8135354.585 5  -6118347.14145  22589458.4514          0.000  
  19130452.519   -26566106.052 7 -20055709.54547  19130462.2344          0.000  
  23458563.826      251605.461 4  10970761.35545  23458595.0234          0.000  
  21487928.413    -4393481.355 6  -3225263.08246  21487944.2644          0.000  
  19696066.192   -23853337.916 8 -18391781.73347  19696076.0974          0.000  
  19845137.542   -20039905.550 8 -15410693.51446  19845147.9684          0.000  
 02  1 30 12 22 59.9940000  0  6G 5G 6G14G17G25G30
  22604998.255    -8053584.635 5  -6054630.58245  22605017.5884          0.000  
  19135396.749   -26540124.124 7 -20035463.90547  19135405.8644          0.000  
  23474694.421      336368.107 4  11036808.90645  23474726.9474          0.000  
  21468737.890    -4494327.612 6  -3303844.33346  21468752.1114          0.000  
  19689334.086   -23888715.194 8 -18419348.42447  19689343.3804          0.000  
  19855615.382   -19984844.290 8 -15367788.70246  19855625.5574          0.000  
 02  1 30 12 23 29.9940000  0  6G 5G 6G14G17G25G30
  22620579.793    -7971704.115 5  -5990827.84545  22620599.0344          0.000  
  19140402.845   -26513816.840 7 -20014964.73947  19140411.6894          0.000  
  23490818.267      421095.937 3  11102829.35645  23490851.6404          0.000  
  21449586.851    -4594966.064 6  -3382263.66146  21449601.8284          0.000  
  19682700.908   -23923572.743 8 -18446510.12547  19682709.9314          0.000  
  19866143.397   -19929519.275 8 -15324678.36546  19866153.5544          0.000  
 02  1 30 12 23 59.9940000  0  6G 5G 6G14G17G25G30
  22636184.806    -7889700.202 4  -5926929.01645  22636203.5294          0.000  
  19145473.518   -26487170.367 8 -19994201.27147  19145482.6314          0.000  
  23506937.283      505799.193 3  11168830.57044  23506969.5364          0.000  
  21430479.525    -4695374.678 6  -3460503.87846  21430493.9294          0.000  
  19676170.176   -23957892.012 8 -18473252.38547  19676179.1034          0.000  
  19876724.266   -19873916.646 8 -15281351.70246  19876735.0454          0.000  
 02  1 30 12 24 29.9940000  0  6G 5G 6G14G17G25G30
  22651811.257    -7807583.828 4  -5862942.49545  22651831.0814          0.000  
  19150606.433   -26460196.606 8 -19973182.76347  19150615.2574          0.000  
  23523049.419      590464.985 3  11234802.60145  23523079.7184          0.000  
  21411414.465    -4795561.045 6  -3538570.94146  21411429.4024          0.000  
  19669740.174   -23991681.826 8 -18499582.07947  19669749.2614          0.000  
  19887355.908   -19818047.236 8 -15237817.15846  19887366.3824          0.000  
 02  1 30 12 24 59.9940000  0  6G 5G 6G14G17G25G30
  22667460.181    -7725350.010 5  -5798864.53745  22667480.3504          0.000  
  19155802.459   -26432891.372 8 -19951905.99647  19155811.5094          0.000  
  23539154.832      675095.795 3  11300747.38844  23539192.7484          0.000  
  21392393.279    -4895516.910 6  -3616458.37146  21392409.2074          0.000  
  19663412.181   -24024935.600 7 -18525494.09047  19663421.6994          0.000  
  19898039.280   -19761905.955 8 -15194070.77846  19898049.8114          0.000  
 02  1 30 12 25 29.9940000  0  6G 5G 6G14G17G25G30
  22683130.401    -7643004.419 5  -5734699.42945  22683147.6194          0.000  
  19161060.294   -26405261.156 8 -19930375.95947  19161070.3054          0.000  
  23555252.340      759683.605 3  11366658.56645  23555282.1844          0.000  
  21373415.535    -4995244.590 6  -3694167.99046  21373430.3114          0.000  
  19657185.499   -24057656.998 8 -18550991.26247  19657195.0704          0.000  
  19908773.401   -19705498.106 8 -15150116.67247  19908784.7564          0.000  
 02  1 30 12 25 59.9940000  0  6G 5G 6G14G17G25G30
  22698821.349    -7560549.109 5  -5670448.83545  22698840.0114          0.000  
  19166379.427   -26377308.904 7 -19908595.00747  19166388.2604          0.000  
  23571340.761      844224.064 2  11432532.82543  23571374.0914          0.000  
  21354481.484    -5094743.154 6  -3771699.11446  21354496.6304          0.000  
  19651059.942   -24089846.954 8 -18576074.32147  19651069.3634          0.000  
  19919557.853   -19648825.764 8 -15105956.47746  19919569.1814          0.000  
 02  1 30 12 26 29.9940000  0  6G 5G 6G14G17G25G30
  22714533.603    -7477981.357 5  -5606110.56945  22714552.4054          0.000  
  19171760.202   -26349032.782 8 -19886561.69547  19171769.2944          0.000  
  23587420.177      928717.453 2         0.000           0.000           0.000  
  21335592.142    -5194006.647 6  -3849047.03046  21335606.7444          0.000  
  19645036.387   -24121500.759 8 -18600739.59347  19645045.7064          0.000  
  19930393.177   -19591886.138 8 -15061588.03246  19930404.3324          0.000  
 02  1 30 12 26 59.9940000  0  6G 5G 6G14G17G25G30
  22730268.478    -7395294.881 3  -5541679.84245  22730288.5174          0.000  
  19177203.664   -26320427.232 8 -19864271.65447  19177213.4934          0.000  
  23603491.668     1013168.052 2         0.000           0.000           0.000  
  21316749.235    -5293025.462 6  -3926204.25546  21316764.5454          0.000  
  19639116.423   -24152610.182 8 -18624980.67247  19639125.4444          0.000  
  19941280.625   -19534672.797 8 -15017006.29046  19941291.4194          0.000  
 02  1 30 12 27 29.9940000  0  5G 5G 6G17G25G30
  22746025.333    -7312493.699 5  -5477159.70945  22746044.3444          0.000  
  19182708.879   -26291497.240 8 -19841728.84047  19182717.7924          0.000  
  21297952.768    -5391800.272 6  -4003171.38046  21297967.5514          0.000  
  19633299.593   -24183177.615 8 -18648799.41647  19633308.5564          0.000  
  19952219.395   -19477189.529 8 -14972214.21246  19952230.0744          0.000  
 02  1 30 12 27 59.9940000  0  5G 5G 6G17G25G30
  22761803.641    -7229579.596 5  -5412551.60745  22761821.0014          0.000  
  19188275.282   -26262245.572 8 -19818935.35147  19188284.4244          0.000  
  21279203.009    -5490329.856 6  -4079947.41346  21279216.9444          0.000  
  19627585.803   -24213203.582 8 -18672196.24447  19627594.7314          0.000  
  19963209.206   -19419438.019 8 -14927213.10346  19963219.5514          0.000  
 02  1 30 12 28 29.9940000  0  5G 5G 6G17G25G30
  22777602.682    -7146555.836 4  -5347858.03145  22777625.3354          0.000  
  19193902.153   -26232676.308 8 -19795894.38647  19193911.6134          0.000  
  21260499.917    -5588614.160 6  -4156532.30746  21260513.7254          0.000  
  19621974.827   -24242689.409 8 -18695172.19447  19621983.7804          0.000  
  19974249.530   -19361421.232 8 -14882005.29246  19974259.5234          0.000  
 02  1 30 12 28 59.9940000  0  5G 5G 6G17G25G30
  22793424.347    -7063413.900 5  -5283072.38745  22793445.5744          0.000  
  19199590.899   -26202781.779 8 -19772599.96447  19199599.9244          0.000  
  21241845.762    -5686641.356 6  -4232916.85746  21241860.5054          0.000  
  19616468.519   -24271625.194 8 -18717719.52847  19616477.4174          0.000  
  19985341.930   -19303130.678 8 -14836584.16146  19985352.5964          0.000  
 02  1 30 12 29 29.9940000  0  7G 5G 6G15G17G22G25G30
  22809265.980    -6980166.701 5  -5218204.74145  22809286.7824          0.000  
  19205338.973   -26172575.711 8 -19749062.80547  19205348.6554          0.000  
  21961999.026      -91694.05115         0.000           0.000           0.000  
  21223238.749    -5784421.178 6  -4309108.63746  21223252.9584          0.000  
  21717583.468      -16515.27415         0.000           0.000           0.000  
  19611064.830   -24300021.745 8 -18739846.69347  19611073.5154          0.000  
  19996483.947   -19244579.125 7 -14790959.66646  19996494.2614          0.000  
 02  1 30 12 29 59.9940000  0  7G 5G 6G15G17G22G25G30
  22825128.461    -6896810.162 5  -5153251.91545  22825148.7734          0.000  
  19211146.965   -26142054.697 8 -19725280.20247  19211156.7044          0.000  
  21939260.214     -211191.992 4         0.000           0.000           0.000  
  21204680.179    -5881946.377 6  -4385102.02346  21204693.8354          0.000  
  21698722.882     -115577.454 5         0.000           0.000           0.000  
  19605764.842   -24327873.270 8 -18761549.14247  19605774.1144          0.000  
  20007676.464   -19185762.117 7 -14745128.31846  20007686.7484          0.000  
 02  1 30 12 30 29.9940000  0  8G 5G 6G10G15G17G22G25G30
  22841011.743    -6813343.953 5  -5088213.53745  22841031.5104          0.000  
  19217014.748   -26111219.469 8 -19701252.77647  19217023.2564          0.000  
  23589004.602      -40427.29413         0.000           0.000           0.000  
  21916544.824     -330563.420 5    -30992.94555  21916568.1044          0.000  
  21186170.690    -5979213.294 6  -4460894.16146  21186185.0614          0.000  
  21679888.916     -214544.145 5    -25696.08054  21679892.8644          0.000  
  19600568.854   -24355178.213 8 -18782825.69347  19600578.8634          0.000  
  20018919.549   -19126679.423 8 -14699089.94046  20018929.9984          0.000  
 02  1 30 12 30 59.9940000  0  8G 5G 6G10G15G17G22G25G30
  22856915.948    -6729767.500 5  -5023089.31445  22856936.2634          0.000  
  19222942.232   -26080070.446 8 -19676980.81447  19222951.4744          0.000  
  23579036.678      -92808.728 4         0.000           0.000           0.000  
  21893853.970     -449804.504 3   -123907.49145  21893871.4884          0.000  
  21167711.043    -6076218.352 6  -4536482.24846  21167724.8364          0.000  
  21661074.108     -313413.318 4   -102736.74145  21661091.9394          0.000  
  19595477.274   -24381934.490 8 -18803674.71347  19595486.9974          0.000  
  20030213.346   -19067330.488 7 -14652844.10146  20030224.6534          0.000  
 02  1 30 12 31 29.9940000  0  8G 5G 6G10G15G17G22G25G30
  22872841.003    -6646081.515 5  -4957879.71345  22872859.9814          0.000  
  19228929.157   -26048608.884 8 -19652465.31447  19228938.3454          0.000  
  23569144.295     -144791.335 2    -13467.92455  23569168.8554          0.000  
  21871188.315     -568912.419 3   -216718.38945  21871207.5054          0.000  
  21149301.721    -6172958.817 6  -4611864.13746  21149315.4984          0.000  
  21642278.396     -412183.651 5   -179700.35845  21642289.6404          0.000  
  19590490.274   -24408141.233 8 -18824095.53947  19590500.0184          0.000  
  20041557.764   -19007715.553 8 -14606390.99546  20041568.7524          0.000  
 02  1 30 12 31 59.9940000  0  8G 5G 6G10G15G17G22G25G30
  22888786.996    -6562285.606 5  -4892584.55545  22888807.5284          0.000  
  19234975.434   -26016835.522 8 -19627706.87747  19234984.2924          0.000  
  23559329.015     -196371.877 4    -53660.37745  23559352.9544          0.000  
  21848548.560     -687883.203 4   -309422.39845  21848569.0824          0.000  
  21130943.381    -6269431.255 6  -4687037.21746  21130956.9534          0.000  
  21623501.997     -510852.963 5   -256585.34545  21623514.7344          0.000  
  19585608.248   -24433796.364 8 -18844086.53347  19585617.6744          0.000  
  20052952.868   -18947834.333 7 -14559730.38946  20052963.4764          0.000  
 02  1 30 12 32 29.9940000  0  8G 5G 6G10G15G17G22G25G30
  22904752.169    -6478388.548 4  -4827210.47045  22904775.4844          0.000  
  19241079.266   -25984759.872 8 -19602712.88647  19241088.9044          0.000  
  23549588.761     -247556.241 4    -93544.00445  23549614.3034          0.000  
  21825933.978     -806722.314 4   -402023.77845  21825952.5914          0.000  
  21112635.041    -6365641.178 6  -4762005.74246  21112648.9884          0.000  
  21604743.447     -609428.383 3   -333397.16445  21604757.8954          0.000  
  19580829.811   -24458907.299 8 -18863653.48247  19580838.5824          0.000  
  20064397.051   -18887695.262 8 -14512868.85646  20064407.3264          0.000  
 02  1 30 12 32 59.9940000  0  8G 5G 6G10G15G17G22G25G30
  22920737.741    -6394384.938 5  -4761753.38145  22920757.8444          0.000  
  19247241.457   -25952377.356 8 -19577479.75747  19247250.8654          0.000  
  23539925.585     -298335.778 3   -133112.22845  23539953.4914          0.000  
  21803346.237     -925420.560 5   -494515.44545  21803367.4774          0.000  
  21094378.333    -6461579.803 6  -4836762.86546  21094391.9164          0.000  
  21586004.138     -707902.629 4   -410130.16845  21586019.3034          0.000  
  19576156.257   -24483467.016 8 -18882790.90147  19576164.9014          0.000  
  20075891.311   -18827293.005 8 -14465802.23146  20075902.0234          0.000  
 02  1 30 12 33 29.9940000  0  8G 5G 6G10G15G17G22G25G30
  22936744.009    -6310272.308 5  -4696211.37945  22936764.6144          0.000  
  19253462.392   -25919686.212 8 -19552006.16347  19253471.6254          0.000  
  23530340.591     -348705.018 4   -172360.76745  23530359.5064          0.000  
  21780786.404    -1043972.038 5   -586892.73045  21780802.4684          0.000  
  21076174.382    -6557241.540 6  -4911304.24146  21076188.4334          0.000  
  21567284.887     -806271.509 5   -486780.98345  21567295.5574          0.000  
  19571588.298   -24507471.661 8 -18901495.80047  19571597.6794          0.000  
  20087436.176   -18766624.759 7 -14418528.34646  20087447.2374          0.000  
 02  1 30 12 33 59.9940000  0  8G 5G 6G10G15G17G22G25G30
  22952770.139    -6226055.722 5  -4630588.36345  22952790.2004          0.000  
  19259740.920   -25886692.361 8 -19526296.67047  19259750.4704          0.000  
  23520833.198     -398666.058 3   -211291.37645  23520857.7014          0.000  
  21758253.875    -1162378.394 3   -679156.94945  21758271.3834          0.000  
  21058022.704    -6652628.202 7  -4985631.25046  21058035.6734          0.000  
  21548585.116     -904538.097 5   -563352.11545  21548597.4974          0.000  
  19567125.262   -24530924.860 8 -18919771.01347  19567134.7214          0.000  
  20099030.659   -18705695.453 7 -14371051.04446  20099041.3584          0.000  
 02  1 30 12 34 29.9940000  0  8G 5G 6G10G15G17G22G25G30
  22968816.574    -6141732.704 4  -4564882.40245  22968836.7664          0.000  
  19266077.357   -25853394.226 8 -19500350.10447  19266086.8094          0.000  
  23511404.570     -448213.522 4   -249899.52445  23511429.0404          0.000  
  21735750.285    -1280633.546 4   -771303.32045  21735767.5104          0.000  
  21039924.451    -6747734.232 6  -5059739.60946  21039937.6284          0.000  
  21529905.677    -1002698.245 5   -639840.24345  21529917.8414          0.000  
  19562768.036   -24553822.298 8 -18937613.17047  19562776.9504          0.000  
  20110675.270   -18644502.660 7 -14323368.42946  20110686.1904          0.000  
 02  1 30 12 34 59.9940000  0  8G 5G 6G10G15G17G22G25G30
  22984882.351    -6057308.004 4  -4499097.21145  22984903.8624          0.000  
  19272470.553   -25819797.635 8 -19474170.94747  19272480.5514          0.000  
  23502054.217     -497349.360 3   -288187.14445  23502072.5624          0.000  
  21713275.339    -1398738.889 5   -863332.98845  21713291.8374          0.000  
  21021879.285    -6842561.264 6  -5133630.56046  21021892.7834          0.000  
  21511245.880    -1100755.009 5   -716247.93345  21511258.8874          0.000  
  19558515.873   -24576167.676 8 -18955025.14447  19558524.6404          0.000  
  20122369.147   -18583050.919 7 -14275484.04846  20122379.9934          0.000  
 02  1 30 12 35 29.9940000  0  8G 5G 6G10G15G17G22G25G30
  23000967.881    -5972778.696 3  -4433230.54245  23000991.2634          0.000  
  19278920.948   -25785900.570 8 -19447757.67647  19278930.3214          0.000  
  23492783.161     -546068.145 4   -326149.64145  23492806.6414          0.000  
  21690829.852    -1516688.283 4   -955241.20045  21690846.3074          0.000  
  21003888.345    -6937103.288 6  -5207299.42646  21003901.1644          0.000  
  21492606.611    -1198703.781 5   -792571.43545  21492620.0874          0.000  
  19554369.546   -24597956.780 8 -18972003.66647  19554378.1044          0.000  
  20134112.877   -18521337.559 8 -14227395.77646  20134123.7984          0.000  
 02  1 30 12 35 59.9940000  0  8G 5G 6G10G15G17G22G25G30
  23017072.549    -5888149.112 4  -4367285.70445  23017095.3594          0.000  
  19285427.589   -25751707.854 8 -19421114.00847  19285437.1134          0.000  
  23483591.208     -594371.015 3   -363788.07645  23483613.8154          0.000  
  21668414.110    -1634482.475 5  -1047028.44245  21668429.4654          0.000  
  20985951.461    -7031361.110 6  -5280746.84546  20985964.8864          0.000  
  21473987.559    -1296546.821 5   -868812.55745  21474002.1864          0.000  
  19550328.489   -24619192.290 8 -18988550.80647  19550337.3714          0.000  
  20145905.743   -18459366.375 7 -14179106.64246  20145916.6284          0.000  
 02  1 30 12 36 29.9940000  0  8G 5G 6G10G15G17G22G25G30
  23033197.034    -5803415.770 3  -4301259.98145  23033220.3834          0.000  
  19291991.013   -25717216.979 8 -19394238.04447  19292000.3044          0.000  
  23474479.950     -642251.122 3   -401097.20345  23474506.3324          0.000  
  21646029.225    -1752114.274 5  -1138689.18545  21646046.6194          0.000  
  20968069.912    -7125328.204 6  -5353967.74746  20968084.1314          0.000  
  21455389.635    -1394278.733 5   -944967.03445  21455402.4974          0.000  
  19546393.662   -24639869.497 8 -19004662.91547  19546402.8884          0.000  
  20157748.300   -18397133.931 8 -14130613.87246  20157759.1764          0.000  
 02  1 30 12 36 59.9940000  0  8G 5G 6G10G15G17G22G25G30
  23049340.949    -5718580.160 3  -4235154.59645  23049362.8054          0.000  
  19298610.709   -25682430.256 8 -19367131.51947  19298620.3584          0.000  
  23465449.153     -689707.631 4   -438076.11745  23465471.8944          0.000  
  21623675.585    -1869581.685 5  -1230221.82945  21623692.5424          0.000  
  20950244.051    -7219002.847 6  -5426960.74246  20950256.8634          0.000  
  21436812.924    -1491899.206 5  -1021034.69545  21436821.7614          0.000  
  19542565.180   -24659988.351 8 -19020339.93147  19542574.9724          0.000  
  20169640.316   -18334641.464 7 -14081918.55346  20169651.5554          0.000  
 02  1 30 12 37 29.9940000  0  8G 5G 6G10G15G17G22G25G30
  23065504.474    -5633642.007 5  -4168969.29345  23065525.8194          0.000  
  19305286.640   -25647348.254 8 -19339794.94547  19305295.6464          0.000  
  23456499.598     -736737.248 4   -474722.37745  23456518.6744          0.000  
  21601353.905    -1986880.940 5  -1321623.41545  21601370.5684          0.000  
  20932474.486    -7312381.540 6  -5499723.14446  20932487.7214          0.000  
  21418257.714    -1589406.128 5  -1097013.94345  21418271.8144          0.000  
  19538843.339   -24679547.153 8 -19035580.55747  19538852.4824          0.000  
  20181581.829   -18271888.635 7 -14033020.30446  20181592.8094          0.000  
 02  1 30 12 37 59.9940000  0  8G 5G 6G10G15G17G22G25G30
  23081686.631    -5548605.009 4  -4102707.01045  23081707.5654          0.000  
  19312017.902   -25611975.323 8 -19312231.63647  19312026.8904          0.000  
  23447631.261     -783340.516 4   -511036.48345  23447654.2264          0.000  
  21579064.324    -2104011.905 5  -1412893.95145  21579082.2254          0.000  
  20914761.222    -7405464.675 6  -5572255.24346  20914774.2654          0.000  
  21399723.834    -1686801.215 5  -1172905.98645  21399737.4904          0.000  
  19535227.606   -24698548.205 8 -19050386.55947  19535236.4934          0.000  
  20193572.238   -18208878.845 7 -13983921.84846  20193583.0924          0.000  
 02  1 30 12 38 29.9940000  0  8G 5G 6G10G15G17G22G25G30
  23097886.740    -5463473.763 4  -4036371.27945  23097906.6824          0.000  
  19318803.510   -25576316.894 8 -19284445.89847  19318812.3144          0.000  
  23438843.675     -829519.445 4   -547019.90745  23438866.1924          0.000  
  21556806.543    -2220976.007 5  -1504034.41845  21556824.0074          0.000  
  20897103.903    -7498253.821 6  -5644558.25046  20897116.3164          0.000  
  21381210.795    -1784087.131 5  -1248712.99045  21381224.2754          0.000  
  19531717.270   -24716994.947 8 -19064760.63747  19531726.1214          0.000  
  20205610.612   -18145616.785 7 -13934626.80246  20205621.4274          0.000  
 02  1 30 12 38 59.9940000  0  8G 5G 6G10G15G17G22G25G30
  23114106.236    -5378239.651 2  -3969955.38845  23114124.4684          0.000  
  19325644.934   -25540364.999 8 -19256431.45947  19325654.3624          0.000  
  23430138.900     -875262.427 4   -582663.66045  23430167.1044          0.000  
  21534582.902    -2337760.722 6  -1595035.08645  21534599.1824          0.000  
  20879504.710    -7590737.074 6  -5716622.89746  20879517.1564          0.000  
  21362720.533    -1881253.353 5  -1324426.75445  21362734.0484          0.000  
  19528314.258   -24734877.419 8 -19078695.02847  19528323.6184          0.000  
  20217698.668   -18082093.587 7 -13885128.28546  20217709.9444          0.000  
 02  1 30 12 39 29.9940000  0  8G 5G 6G10G15G17G22G25G30
  23130346.433    -5292898.254 3  -3903455.96145  23130365.7654          0.000  
  19332542.924   -25504116.058 8 -19228185.58447  19332551.9714          0.000  
  23421518.385     -920562.199 4   -617961.95345  23421538.6744          0.000  
  21512394.850    -2454358.215 6  -1685889.86945  21512412.0124          0.000  
  20861965.256    -7682906.645 6  -5788443.15146  20861978.6814          0.000  
  21344254.009    -1978293.578 4  -1400042.30345  21344269.2964          0.000  
  19525019.738   -24752189.989 8 -19092185.34047  19525029.3994          0.000  
  20229837.360   -18018304.658 7 -13835422.72746  20229848.5014          0.000  
 02  1 30 12 39 59.9940000  0  8G 5G 6G10G15G17G22G25G30
  23146605.411    -5207457.637 3  -3836879.12345  23146626.9344          0.000  
  19339495.687   -25467579.115 7 -19199715.25447  19339504.9044          0.000  
  23412981.183     -965424.111 4   -652919.14045  23413004.1134          0.000  
  21490241.634    -2570773.023 6  -1776602.32045  21490257.1604          0.000  
  20844484.511    -7774767.796 6  -5860023.04146  20844496.7484          0.000  
  21325810.425    -2075214.041 5  -1475564.54745  21325823.7724          0.000  
  19521832.363   -24768939.767 8 -19105237.11247  19521841.6894          0.000  
  20242025.153   -17954258.094 7 -13785516.37546  20242036.4964          0.000  
 02  1 30 12 40 29.9940000  0  8G 5G 6G10G15G17G22G25G30
  23162883.300    -5121917.908 3  -3770225.10645  23162906.6744          0.000  
  19346503.117   -25430755.120 8 -19171021.29347  19346512.2664          0.000  
  23404528.117    -1009845.770 5   -687533.13744  23404547.2134          0.000  
  21468123.777    -2687001.834 6  -1867169.85546  21468138.9244          0.000  
  20827063.004    -7866317.506 6  -5931360.26846  20827076.0944          0.000  
  21307389.984    -2172013.048 5  -1550992.17345  21307404.6004          0.000  
  19518752.323   -24785125.580 8 -19117849.42847  19518761.2674          0.000  
  20254261.932   -17889954.068 7 -13735409.43446  20254272.6864          0.000  
 02  1 30 12 40 59.9940000  0  8G 5G 6G10G15G17G22G25G30
  23179180.166    -5036279.684 5  -3703494.30745  23179201.1824          0.000  
  19353564.901   -25393645.275 8 -19142104.55347  19353574.1444          0.000  
  23396159.077    -1053824.425 3   -721802.18045  23396178.2914          0.000  
  21446041.814    -2803041.735 6  -1957590.18945  21446059.2224          0.000  
  20809701.352    -7957552.895 6  -6002452.59146  20809713.0754          0.000  
  21288992.994    -2268689.035 5  -1626323.91945  21289007.8214          0.000  
  19515779.736   -24800746.787 8 -19130021.80047  19515789.0374          0.000  
  20266547.592   -17825392.858 7 -13685102.07946  20266558.6704          0.000  
 02  1 30 12 41 29.9940000  0  8G 5G 6G10G15G17G22G25G30
  23195494.108    -4950551.526 5  -3636693.43245  23195516.3064          0.000  
  19360679.319   -25356258.994 8 -19112972.45447  19360688.8004          0.000  
  23387873.217    -1097366.271 4   -755730.76445  23387897.2774          0.000  
  21423994.803    -2918897.618 5  -2047867.09545  21424012.0284          0.000  
  20792398.422    -8048479.547 6  -6073304.31646  20792410.5074          0.000  
  21270618.191    -2365248.698 5  -1701565.05745  21270633.4324          0.000  
  19512913.223   -24815810.543 8 -19141759.78547  19512922.4934          0.000  
  20278880.558   -17760582.865 7 -13634600.89046  20278891.9534          0.000  
 02  1 30 12 41 59.9940000  0  8G 5G 6G10G15G17G22G25G30
  23211825.357    -4864731.418 3  -3569820.87845  23211846.9654          0.000  
  19367846.486   -25318595.250 8 -19083624.09347  19367855.7004          0.000  
  23379671.295    -1140466.588 4   -789315.16945  23379697.4344          0.000  
  21401983.934    -3034563.909 6  -2137996.25345  21402000.6254          0.000  
  20775155.272    -8139092.208 6  -6143911.39846  20775167.9094          0.000  
  21252266.342    -2461688.042 6  -1776712.39445  21252278.7604          0.000  
  19510153.376   -24830313.732 8 -19153060.97747  19510162.6414          0.000  
  20291261.268   -17695521.932 7 -13583904.13346  20291272.5354          0.000  
 02  1 30 12 42 29.9940000  0  8G 5G 6G10G15G17G22G25G30
  23228174.908    -4778815.091 3  -3502873.40245  23228197.9294          0.000  
  19375067.239   -25280650.169 8 -19054056.56447  19375076.9454          0.000  
  23371554.782    -1183117.890 3   -822549.71645  23371573.2624          0.000  
  21380010.617    -3150032.574 6  -2227971.38246  21380026.3504          0.000  
  20757973.252    -8229383.418 6  -6214267.98446  20757985.8214          0.000  
  21233938.605    -2558000.718 6  -1851761.06245  21233951.0994          0.000  
  19507501.264   -24844250.795 8 -19163921.03647  19507510.4314          0.000  
  20303690.582   -17630205.646 7 -13533008.43846  20303702.3374          0.000  
 02  1 30 12 42 59.9940000  0  8G 5G 6G10G15G17G22G25G30
  23244542.555    -4692803.082 3  -3435851.38245  23244566.4224          0.000  
  19382341.257   -25242425.059 8 -19024270.78147  19382350.6044          0.000  
  23363524.396    -1225318.399 4   -855433.15145  23363549.5334          0.000  
  21358075.499    -3265300.507 6  -2317790.09546  21358091.5654          0.000  
  20740852.915    -8319350.468 7  -6284371.98746  20740866.5674          0.000  
  21215635.192    -2654185.267 6  -1926709.91546  21215648.1914          0.000  
  19504956.943   -24857621.330 8 -19174339.62447  19504966.4124          0.000  
  20316168.414   -17564634.541 7 -13481914.17646  20316180.1894          0.000  
 02  1 30 12 43 29.9940000  0  8G 5G 6G10G15G17G22G25G30
  23260929.330    -4606690.581 2  -3368751.05845  23260955.9244          0.000  
  19389669.319   -25203916.048 8 -18994263.81147  19389679.3694          0.000  
  23355581.024    -1267060.600 4   -887959.33645  23355604.5944          0.000  
  21336180.210    -3380359.463 6  -2407445.95346  21336195.5554          0.000  
  20723795.815    -8408985.528 7  -6354217.31446  20723808.5524          0.000  
  21197357.450    -2750235.033 6  -2001553.68646  21197369.6224          0.000  
  19502521.508   -24870419.673 8 -19184312.35647  19502530.7754          0.000  
  20328695.695   -17498803.639 7 -13430617.48146  20328707.5494          0.000  
 02  1 30 12 43 59.9940000  0  8G 5G 6G10G15G17G22G25G30
  23277333.583    -4520487.267 4  -3301579.91745  23277355.0564          0.000  
  19397049.352   -25165133.818 8 -18964043.90947  19397058.6844          0.000  
  23347723.440    -1308351.431 3   -920133.90145  23347744.3464          0.000  
  21314323.433    -3495215.764 6  -2496943.92646  21314339.1024          0.000  
  20706800.614    -8498295.271 7  -6423809.15146  20706812.7114          0.000  
  21179103.840    -2846157.655 6  -2076298.47846  21179118.1814          0.000  
  19500193.402   -24882653.996 8 -19193845.59747  19500202.4914          0.000  
  20341270.588   -17432722.566 7 -13379125.85446  20341282.4694          0.000  
 02  1 30 12 44 29.9940000  0  8G 5G 6G10G15G17G22G25G30
  23293755.136    -4434193.034 5  -3234338.05545  23293776.1494          0.000  
  19404481.294   -25126078.846 8 -18933611.50147  19404490.8514          0.000  
  23339952.272    -1349188.169 3   -951954.57045  23339970.3834          0.000  
  21292505.918    -3609865.866 6  -2586281.18746  21292521.2924          0.000  
  20689867.967    -8587276.277 7  -6493144.83946  20689879.6844          0.000  
  21160874.843    -2941951.120 6  -2150942.60946  21160888.8134          0.000  
  19497972.826   -24894323.108 8 -19202938.40347  19497981.8374          0.000  
  20353893.109   -17366391.149 7 -13327439.13746  20353904.3724          0.000  
 02  1 30 12 44 59.9940000  0  8G 5G 6G10G15G17G22G25G30
  23310194.395    -4347806.130 5  -3167023.85945  23310215.4434          0.000  
  19411965.346   -25086749.859 8 -18902965.55347  19411974.8424          0.000  
  23332268.493    -1389566.021 3   -983417.64245  23332291.9794          0.000  
  21270728.657    -3724304.099 6  -2675453.35346  21270744.6124          0.000  
  20672998.813    -8675923.588 6  -6562220.49746  20673010.6924          0.000  
  21142671.180    -3037611.411 6  -2225482.91146  21142683.5954          0.000  
  19495860.316   -24905424.244 8 -19211588.63247  19495869.5104          0.000  
  20366563.719   -17299807.232 7 -13275555.70446  20366574.9944          0.000  
 02  1 30 12 45 29.9940000  0  8G 5G 6G10G15G17G22G25G30
  23326651.332    -4261325.921 5  -3099636.93245  23326670.5294          0.000  
  19419501.519   -25047147.050 8 -18872106.26647  19419510.6914          0.000  
  23324672.673    -1429481.688 3  -1014520.66445  23324697.5954          0.000  
  21248992.634    -3838526.091 6  -2764457.05046  21249010.0694          0.000  
  20656193.856    -8764233.313 6  -6631033.09746  20656206.4874          0.000  
  21124493.365    -3133135.833 6  -2299917.37546  21124507.0534          0.000  
  19493856.265   -24915955.643 8 -19219794.91847  19493865.2454          0.000  
  20379282.511   -17232970.150 7 -13223474.93246  20379294.4414          0.000  
 02  1 30 12 45 59.9940000  0  8G 5G 6G10G15G17G22G25G30
  23343125.867    -4174753.048 5  -3032177.81945  23343146.3244          0.000  
  19427089.533   -25007271.860 8 -18841034.72447  19427099.0814          0.000  
  23317165.128    -1468933.485 3  -1045262.23245  23317185.9954          0.000  
  21227298.302    -3952529.289 6  -2853290.23846  21227312.5144          0.000  
  20639453.590    -8852203.191 6  -6699580.89846  20639466.0894          0.000  
  21106341.559    -3228523.250 6  -2374245.10346  21106355.5844          0.000  
  19491960.700   -24925917.016 8 -19227557.03047  19491969.8384          0.000  
  20392049.310   -17165880.606 7 -13171197.50746  20392060.6264          0.000  
 02  1 30 12 46 29.9940000  0  8G 5G 6G10G15G17G22G25G30
  23359617.049    -4088092.430 4  -2964650.26445  23359641.1584          0.000  
  19434728.267   -24967130.188 8 -18809755.53247  19434737.4234          0.000  
  23309745.414    -1507923.909 4  -1075644.13445  23309768.9734          0.000  
  21205645.363    -4066314.874 6  -2941953.87146  21205659.3504          0.000  
  20622777.690    -8939835.128 7  -6767865.38446  20622789.8724          0.000  
  21088215.333    -3323776.520 6  -2448468.28546  21088228.0434          0.000  
  19490172.841   -24935312.346 8 -19234878.08447  19490182.7064          0.000  
  20404863.303   -17098543.353 7 -13118727.03146  20404875.5454          0.000  
 02  1 30 12 46 59.9940000  0  8G 5G 6G10G15G17G22G25G30
  23376125.348    -4001341.917 3  -2897052.69845  23376149.0944          0.000  
  19442417.999   -24926720.681 8 -18778267.65147  19442427.7294          0.000  
  23302414.413    -1546447.944 4  -1105662.75745  23302437.3284          0.000  
  21184034.760    -4179877.389 6  -3030443.68646  21184049.3274          0.000  
  20606167.055    -9027123.883 7  -6835882.44946  20606179.2914          0.000  
  21070115.352    -3418891.552 6  -2522583.75846  21070130.7234          0.000  
  19488493.252   -24944138.623 8 -19241755.70147  19488502.7204          0.000  
  20417724.793   -17030956.338 7 -13066061.92646  20417736.7284          0.000  
 02  1 30 12 47 29.9940000  0  8G 5G 6G10G15G17G22G25G30
  23392649.474    -3914507.318 2  -2829389.64045  23392674.5794          0.000  
  19450157.439   -24886049.907 8 -18746576.16147  19450166.6694          0.000  
  23295171.358    -1584509.064 2  -1135320.60645  23295192.2314          0.000  
  21162466.158    -4293218.980 6  -3118761.38046  21162481.4634          0.000  
  20589621.193    -9114072.184 6  -6903634.23046  20589633.6194          0.000  
  21052041.108    -3513872.106 6  -2596594.43446  21052054.4974          0.000  
  19486920.994   -24952400.925 8 -19248193.87247  19486930.2924          0.000  
  20430632.660   -16963125.304 7 -13013206.69346  20430644.8584          0.000  
 02  1 30 12 47 59.9940000  0  8G 5G 6G10G15G17G22G25G30
  23409190.215    -3827585.605 2  -2761658.86345  23409212.0864          0.000  
  19457947.108   -24845115.153 8 -18714678.99247  19457955.9544          0.000  
  23288017.557    -1622101.270 2  -1164612.91145  23288043.5214          0.000  
  21140940.938    -4406332.856 6  -3206901.63946  21140956.0784          0.000  
  20573141.410    -9200673.747 7  -6971115.85946  20573153.9764          0.000  
  21033993.442    -3608712.731 6  -2670496.05746  21034007.1664          0.000  
  19485456.880   -24960094.812 8 -19254189.10147  19485465.8494          0.000  
  20443587.639   -16895046.718 7 -12960158.55346  20443599.6144          0.000  
 02  1 30 12 48 29.9940000  0  8G 5G 6G10G15G17G22G25G30
  23425748.404    -3740572.930 3  -2693857.14745  23425773.9024          0.000  
  19465787.651   -24803912.980 8 -18682573.43947  19465796.9234          0.000  
  23280954.433    -1659217.623 2  -1193534.65345  23280978.6094          0.000  
  21119460.534    -4519211.473 6  -3294858.64146  21119475.4374          0.000  
  20556729.019    -9286921.242 7  -7038321.58546  20556740.8534          0.000  
  21015973.571    -3703407.292 6  -2744283.90646  21015986.3914          0.000  
  19484101.917   -24967215.081 8 -19259737.35947  19484110.7624          0.000  
  20456590.519   -16826716.628 7 -12906914.43846  20456601.9454          0.000  
 02  1 30 12 48 59.9940000  0  8G 5G 6G10G15G17G22G25G30
  23442323.254    -3653472.839 4  -2625987.25245  23442344.5544          0.000  
  19473678.203   -24762447.940 8 -18650263.06647  19473687.3674          0.000  
  23273981.590    -1695859.846 4  -1222086.89745  23273999.2154          0.000  
  21098024.932    -4631854.723 6  -3382632.22146  21098038.9824          0.000  
  20540383.825    -9372815.385 7  -7105251.97246  20540395.8214          0.000  
  20997981.071    -3797957.592 6  -2817959.30046  20997994.0944          0.000  
  19482855.488   -24973764.995 8 -19264841.18947  19482864.7764          0.000  
  20469640.608   -16758138.554 7 -12853477.10246  20469652.1264          0.000  
 02  1 30 12 49 29.9940000  0  8G 5G 6G10G15G17G22G25G30
  23458914.647    -3566285.824 4  -2558049.60745  23458937.9794          0.000  
  19481618.513   -24720721.399 8 -18617748.92147  19481628.9494          0.000  
  23267099.271    -1732025.807 4  -1250267.94545  23267120.3914          0.000  
  21076634.716    -4744259.659 6  -3470220.13146  21076648.8584          0.000  
  20524106.367    -9458353.456 7  -7171904.89146  20524118.3254          0.000  
  20980016.357    -3892361.858 6  -2891520.93946  20980029.2234          0.000  
  19481717.745   -24979743.928 8 -19269500.11247  19481727.2744          0.000  
  20482737.791   -16689312.855 7 -12799846.79646  20482748.9544          0.000  
 02  1 30 12 49 59.9940000  0  8G 5G 6G10G15G17G22G25G30
  23475522.492    -3479012.692 5  -2490044.83645  23475546.3754          0.000  
  19489608.277   -24678734.908 8 -18585032.21147  19489617.6004          0.000  
  23260308.021    -1767714.103 4  -1278076.89745  23260332.2864          0.000  
  21055290.336    -4856423.542 6  -3557620.19746  21055304.6564          0.000  
  20507896.999    -9543533.602 7  -7238278.91646  20507909.5274          0.000  
  20962079.740    -3986619.055 6  -2964967.92546  20962093.0734          0.000  
  19480688.639   -24985152.173 8 -19273714.34847  19480698.3914          0.000  
  20495881.907   -16620240.494 7 -12746024.32146  20495893.5614          0.000  
 02  1 30 12 50 29.9940000  0  8G 5G 6G10G15G17G22G25G30
  23492145.851    -3391657.712 4  -2421976.37945  23492168.5224          0.000  
  19497646.588   -24636493.431 8 -18552116.83847  19497656.0244          0.000  
  23253607.313    -1802926.314 5  -1305514.77245  23253631.1134          0.000  
  21033991.711    -4968347.125 6  -3644833.05846  21034006.1994          0.000  
  20491755.570    -9628356.792 7  -7304374.77946  20491767.9894          0.000  
  20944170.674    -4080731.300 6  -3038301.95946  20944185.2154          0.000  
  19479767.521   -24989993.067 8 -19277486.48547  19479776.7274          0.000  
  20509072.173   -16550925.551 7 -12692012.76146  20509084.3414          0.000  
 02  1 30 12 50 59.9940000  0  8G 5G 6G10G15G17G22G25G30
  23508785.405    -3304217.736 2  -2353841.53145  23508809.6384          0.000  
  19505733.886   -24593994.553 8 -18519000.85547  19505744.2004          0.000  
  23246998.231    -1837656.797 5  -1332577.35045  23247019.4304          0.000  
  21012740.142    -5080023.554 6  -3731853.34046  21012753.7874          0.000  
  20475683.286    -9712816.740 7  -7370187.59946  20475695.1604          0.000  
  20926290.256    -4174693.166 6  -3111518.81946  20926304.1154          0.000  
  19478955.067   -24994262.745 8 -19280813.49947  19478964.1834          0.000  
  20522309.175   -16481364.764 7 -12637809.67446  20522320.9574          0.000  
 02  1 30 12 51 29.9940000  0  8G 5G 6G10G15G17G22G25G30
  23525441.064    -3216693.278 2  -2285640.97543  23525459.8674          0.000  
  19513869.944   -24551239.449 8 -18485685.24447  19513879.7574          0.000  
  23240481.257    -1871903.540 5  -1359262.96045  23240502.4174          0.000  
  20991536.247    -5191449.658 6  -3818678.60646  20991549.7994          0.000  
  20459680.553    -9796910.895 6  -7435715.37646  20459692.8474          0.000  
  20908438.747    -4268503.105 7  -3184617.24846  20908451.6124          0.000  
  19478251.370   -24997960.616 8 -19283694.95447  19478260.7524          0.000  
  20535592.901   -16411558.616 6 -12583415.38146  20535605.1544          0.000  
 02  1 30 12 51 59.9940000  0  8G 5G 6G10G15G17G22G25G30
  23542111.930    -3129088.190 2  -2217377.73444  23542123.3564          0.000  
  19522053.939   -24508232.487 8 -18452173.36747  19522064.2454          0.000  
  23234055.894    -1905668.318 4  -1385573.00045  23234078.8314          0.000  
  20970379.827    -5302625.871 6  -3905309.12846  20970393.2064          0.000  
  20443747.287    -9880639.991 7  -7500958.69746  20443759.7124          0.000  
  20890615.755    -4362162.703 6  -3257598.57846  20890629.8754          0.000  
  19477655.784   -25001090.131 8 -19286133.54047  19477664.9804          0.000  
  20548922.661   -16341510.571 7 -12528832.60146  20548934.4874          0.000  
 02  1 30 12 52 29.9940000  0  8G 5G 6G10G15G17G22G25G30
  23558797.305    -3041405.487 1         0.000           0.000           0.000  
  19530285.100   -24464977.652 8 -18418468.34947  19530295.1544          0.000  
  23227722.004    -1938951.146 3  -1411507.36845  23227746.1414          0.000  
  20949271.074    -5413551.729 6  -3991744.61146  20949286.5644          0.000  
  20427883.468    -9964004.349 7  -7565917.81446  20427895.2204          0.000  
  20872821.209    -4455673.016 6  -3330463.57546  20872835.2374          0.000  
  19477168.041   -25003653.056 8 -19288130.62047  19477177.4654          0.000  
  20562297.856   -16271223.898 7 -12474063.90146  20562309.2874          0.000  
 02  1 30 12 52 59.9940000  0  8G 5G 6G10G15G17G22G25G30
  23575497.836       73138.90712         0.000           0.000           0.000  
  19538563.886   -24421472.508 8 -18384568.28647  19538574.8214          0.000  
  23221481.035    -1971746.623 3  -1437062.19445  23221500.6284          0.000  
  20928211.295    -5524220.389 6  -4077979.65846  20928225.9574          0.000  
  20412090.316   -10046997.679 7  -7630587.82446  20412102.1194          0.000  
  20855055.991    -4549028.898 6  -3403208.22146  20855070.0324          0.000  
  19476788.863   -25005645.865 8 -19289683.48447  19476798.0924          0.000  
  20575719.089   -16200695.479 7 -12419106.80146  20575730.1584          0.000  
 02  1 30 12 53 29.9940000  0  8G 5G 6G10G15G17G22G25G30
  23592214.620      160983.566 4         0.000           0.000           0.000  
  19546890.291   -24377717.088 7 -18350473.19147  19546900.9114          0.000  
  23215333.441    -2004052.032 3  -1462235.09845  23215358.1304          0.000  
  20907201.214    -5634627.758 6  -4164011.10546  20907216.2934          0.000  
  20396368.471   -10129616.246 7  -7694965.80346  20396380.1414          0.000  
  20837320.747    -4642227.475 6  -3475830.27446  20837334.0054          0.000  
  19476518.442   -25007067.229 8 -19290791.06547  19476527.5874          0.000  
  20589186.448   -16129924.562 7 -12363960.77446  20589197.4554          0.000  
 02  1 30 12 53 59.9940000  0  8G 5G 6G10G15G17G22G25G30
  23608946.377      248907.072 4         0.000           0.000           0.000  
  19555263.726   -24333714.433 8 -18316185.44547  19555273.9944          0.000  
  23209279.000    -2035867.105 3  -1487025.84045  23209301.4214          0.000  
  20886241.216    -5744772.520 6  -4249837.95646  20886254.9224          0.000  
  20380718.045   -10211859.555 7  -7759051.37646  20380729.6564          0.000  
  20819615.466    -4735269.014 6  -3548329.95546  20819627.5424          0.000  
  19476356.427   -25007918.823 8 -19291454.66747  19476365.7304          0.000  
  20602699.510   -16058913.394 7 -12308627.49646  20602710.5014          0.000  
 02  1 30 12 54 29.9940000  0  8G 5G 6G10G15G17G22G25G30
  23625693.047      336909.294 4         0.000           0.000           0.000  
  19563684.093   -24289465.269 8 -18281705.61747  19563694.3624          0.000  
  23203318.613    -2067189.851 5  -1511432.99345  23203336.8894          0.000  
  20865331.833    -5854651.257 7  -4335457.50546  20865345.5374          0.000  
  20365139.530   -10293724.701 7  -7822842.26346  20365151.1194          0.000  
  20801940.371    -4828151.341 6  -3620705.58046  20801953.3144          0.000  
  19476302.823   -25008200.547 8 -19291674.18947  19476311.5494          0.000  
  20616258.235   -15987662.135 7 -12253107.17446  20616269.8024          0.000  
 02  1 30 12 54 59.9940000  0  8G 5G 6G10G15G17G22G25G30
  23642454.786      424991.533 3     52622.60755  23642478.8804          0.000  
  19572151.493   -24244969.007 8 -18247033.25747  19572161.0034          0.000  
  23197452.319    -2098016.859 3  -1535453.87045  23197472.8244          0.000  
  20844473.991    -5964258.960 6  -4420865.85346  20844486.9794          0.000  
  20349633.786   -10375207.253 7  -7886335.02946  20349645.4414          0.000  
  20784296.236    -4920870.985 6  -3692954.49146  20784309.1804          0.000  
  19476358.088   -25007910.068 8 -19291447.84647  19476366.4204          0.000  
  20629862.933   -15916169.295 6 -12197398.59046  20629875.2024          0.000  
 02  1 30 12 55 29.9940000  0  7G 6G10G15G17G22G25G30
  19580665.592   -24200227.388 8 -18212169.68547  19580675.5064          0.000  
  23191680.772    -2128346.582 4  -1559087.24645  23191699.7804          0.000  
  20823668.089    -6073593.362 6  -4506061.22946  20823682.2414          0.000  
  20334201.215   -10456305.480 7  -7949528.30246  20334212.8114          0.000  
  20766683.303    -5013426.931 6  -3765075.80946  20766695.9174          0.000  
  19476522.188   -25007047.892 8 -19290776.03547  19476530.8414          0.000  
  20643513.398   -15844435.938 7 -12141502.56246  20643525.4494          0.000  
 02  1 30 12 55 59.9940000  0  7G 6G10G15G17G22G25G30
  19589226.335   -24155240.645 8 -18177115.12147  19589235.7084          0.000  
  23186004.144    -2158176.687 4  -1582331.28845  23186022.0464          0.000  
  20802914.987    -6182650.482 6  -4591040.56746  20802929.6044          0.000  
  20318842.425   -10537015.920 7  -8012419.41246  20318854.3814          0.000  
  20749101.891    -5105816.668 6  -3837067.64346  20749114.1024          0.000  
  19476795.276   -25005613.048 8 -19289658.00347  19476804.6144          0.000  
  20657209.806   -15772461.527 7 -12085418.76446  20657221.6144          0.000  
 02  1 30 12 56 29.9940000  0  7G 6G10G15G17G22G25G30
  19597832.344   -24110015.964 8 -18141875.15347  19597841.9634          0.000  
  23180421.803    -2187510.889 3  -1605189.05445  23180438.4804          0.000  
  20782214.163    -6291433.107 6  -4675806.01146  20782227.7334          0.000  
  20303556.771   -10617342.069 7  -8075011.05646  20303568.7874          0.000  
  20731551.430    -5198044.325 6  -3908933.19046  20731564.0664          0.000  
  19477176.179   -25003611.559 8 -19288098.42847  19477185.2044          0.000  
  20670950.798   -15700252.800 7 -12029152.31246  20670963.2234          0.000  
 02  1 30 12 56 59.9940000  0  7G 6G10G15G17G22G25G30
  19606484.674   -24064547.814 8 -18106445.48447  19606494.8614          0.000  
  23174935.488    -2216341.082 3  -1627654.03545  23174957.5434          0.000  
  20761567.438    -6399931.607 7  -4760350.08446  20761581.4914          0.000  
  20288345.998   -10697274.791 7  -8137296.14546  20288357.9044          0.000  
  20714033.388    -5290101.579 6  -3980665.95146  20714045.8454          0.000  
  19477666.178   -25001036.527 8 -19286091.92447  19477675.4764          0.000  
  20684737.583   -15627803.252 6 -11972698.26646  20684749.5414          0.000  
 02  1 30 12 57 29.9940000  0  6G 6G15G17G22G25G30
  19615182.791   -24018839.063 8 -18070828.31647  19615192.6654          0.000  
  20740975.073    -6508144.436 7  -4844671.50746  20740988.6754          0.000  
  20273210.249   -10776813.316 7  -8199274.08046  20273222.1604          0.000  
  20696547.730    -5381988.349 6  -4052265.85646  20696559.2674          0.000  
  19478264.999   -24997889.529 8 -19283639.72347  19478274.3444          0.000  
  20698569.788   -15555115.130 7 -11916058.28646  20698582.1314          0.000  
 02  1 30 12 57 59.9940000  0  6G 6G15G17G22G25G30
  19623925.561   -23972895.645 7 -18035028.29747  19623935.9464          0.000  
  20720436.752    -6616073.031 7  -4928771.46346  20720450.4064          0.000  
  20258149.021   -10855960.011 7  -8260946.67046  20258160.6954          0.000  
  20679094.017    -5473707.738 6  -4123735.32446  20679106.1504          0.000  
  19478971.757   -24994175.506 8 -19280745.69947  19478981.2564          0.000  
  20712446.448   -15482193.487 6 -11859236.37846  20712458.9934          0.000  
 02  1 30 12 58 29.9940000  0  6G 6G15G17G22G25G30
  19632713.426   -23926715.334 8 -17999043.69847  19632722.7514          0.000  
  20699953.679    -6723711.328 7  -5012645.21846  20699966.7824          0.000  
  20243163.441   -10934709.135 7  -8322309.47946  20243175.3414          0.000  
  20661673.141    -5565254.639 6  -4195070.42146  20661685.8624          0.000  
  19479787.084   -24989891.126 8 -19277407.24547  19479796.0414          0.000  
  20726368.031   -15409035.561 7 -11802230.31046  20726379.9804          0.000  
 02  1 30 12 58 59.9940000  0  6G 6G15G17G22G25G30
  19641546.238   -23880298.849 8 -17962875.04947  19641555.9774          0.000  
  20679526.473    -6831055.958 7  -5096290.14646  20679539.8674          0.000  
  20228254.031   -11013057.886 7  -8383360.30446  20228265.5684          0.000  
  20644285.475    -5656626.872 6  -4266269.43146  20644298.1604          0.000  
  19480711.035   -24985035.835 8 -19273623.92047  19480719.8674          0.000  
  20740334.566   -15335641.524 6 -11745040.28646  20740345.9694          0.000  
 02  1 30 12 59 29.9940000  0  6G 6G15G17G22G25G30
  19650423.490   -23833648.936 8 -17926524.51747  19650433.2504          0.000  
  20659155.441    -6938105.349 7  -5179705.02746  20659168.7494          0.000  
  20213420.944   -11091005.523 7  -8444098.57046  20213432.6564          0.000  
  20626931.012    -5747824.450 6  -4337332.33346  20626943.4664          0.000  
  19481743.196   -24979611.710 8 -19269397.35747  19481752.5254          0.000  
  20754345.636   -15262013.424 7 -11687667.85546  20754357.0674          0.000  
 02  1 30 12 59 59.9940000  0  7G 6G10G15G17G22G25G30
  19659346.349   -23786759.292 8 -17889987.20147  19659356.1004          0.000  
  23144037.164       -9394.23614         0.000           0.000           0.000  
  20638842.604    -7044849.096 7  -5262881.75146  20638856.9794          0.000  
  20198666.094   -11168542.152 7  -8504516.57946  20198677.7394          0.000  
  20609611.530    -5838838.058 6  -4408251.91546  20609624.5554          0.000  
  19482885.025   -24973611.432 8 -19264721.84347  19482894.8254          0.000  
  20768402.556   -15188144.231 7 -11630107.57346  20768414.1834          0.000  
 02  1 30 13  0 29.9940000  0  8G 1G 6G10G15G17G22G25G30
  23706610.876       -9374.064 2         0.000           0.000           0.000  
  19668313.075   -23739639.126 8 -17853270.22547  19668322.8074          0.000  
  23139227.467      -34668.804 4         0.000           0.000           0.000  
  20618587.028    -7151292.160 7  -5345824.17846  20618600.4974          0.000  
  20183988.411   -11245673.446 7  -8564618.74346  20184000.1524          0.000  
  20592325.828    -5929674.140 6  -4479033.13546  20592338.6454          0.000  
  19484134.957   -24967043.099 8 -19259603.67947  19484144.8804          0.000  
  20782503.735   -15114042.636 6 -11572366.20946  20782516.3824          0.000  
 02  1 30 13  0 59.9940000  0  8G 1G 6G10G15G17G22G25G30
  23703538.725      -25515.583 2         0.000           0.000           0.000  
  19677324.380   -23692284.770 8 -17816370.81347  19677333.4794          0.000  
  23134515.970      -59426.445 3         0.000           0.000           0.000  
  20598390.085    -7257426.949 7  -5428526.38646  20598403.0844          0.000  
  20169389.202   -11322392.380 7  -8624399.60846  20169400.3164          0.000  
  20575075.194    -6020326.202 6  -4549671.00346  20575088.0234          0.000  
  19485493.844   -24959902.154 8 -19254039.32547  19485503.6654          0.000  
  20796649.947   -15039704.372 7 -11514440.40246  20796661.1374          0.000  
 02  1 30 13  1 29.9940000  0  8G 1G 6G10G15G17G22G25G30
  23700562.119      -41159.230 4     -2005.32955  23700579.3024          0.000  
  19686378.003   -23644707.881 8 -17779297.94847  19686387.9464          0.000  
  23129901.173      -83675.907 2    -18258.92955  23129921.5814          0.000  
  20578250.378    -7363260.879 7  -5510994.17846  20578263.4354          0.000  
  20154866.893   -11398707.163 7  -8683865.55446  20154878.0384          0.000  
  20557857.909    -6110802.993 6  -4620172.28946  20557871.4404          0.000  
  19486959.693   -24952199.171 8 -19248037.03347  19486968.5554          0.000  
  20810839.116   -14965140.365 7 -11456338.74646  20810851.0094          0.000  
 02  1 30 13  1 59.9940000  0  9G 1G 6G10G15G17G22G23G25G30
  23697681.062      -56300.045 4    -13803.25645  23697702.9014          0.000  
  19695474.711   -23596904.574 7 -17742048.69547  19695484.1614          0.000  
  23125384.359     -107411.128 3    -36753.64945  23125406.0444          0.000  
  20558169.450    -7468785.893 7  -5593221.24146  20558181.2964          0.000  
  20140422.898   -11474610.401 7  -8743010.82546  20140434.5484          0.000  
  20540675.335    -6201097.762 6  -4690531.75146  20540687.7714          0.000  
  23620225.493      -44289.72013         0.000           0.000           0.000  
  19488533.427   -24943929.335 8 -19241593.03647  19488542.1674          0.000  
  20825072.101   -14890346.148 7 -11398057.63946  20825084.3124          0.000  
 02  1 30 13  2 29.9940000  0  9G 1G 6G10G15G17G22G23G25G30
  23694895.363      -70938.182 3    -25209.56445  23694917.2084          0.000  
  19704614.194   -23548876.384 8 -17704624.19247  19704623.7774          0.000  
  23120965.847     -130630.707 5    -54846.62445  23120985.5284          0.000  
  20538147.815    -7573999.282 7  -5675205.48546  20538160.0054          0.000  
  20126057.566   -11550100.060 7  -8801833.81046  20126068.8964          0.000  
  20523527.676    -6291209.043 6  -4760748.22646  20523540.5004          0.000  
  23605362.813     -122388.047 2         0.000           0.000           0.000  
  19490214.885   -24935093.385 8 -19234707.91347  19490223.9894          0.000  
  20839348.691   -14815322.593 6 -11339597.88446  20839360.5394          0.000  
 02  1 30 13  2 59.9940000  0  9G 1G 6G10G15G17G22G23G25G30
  23692204.888      -85074.967 3    -36225.34845  23692224.5934          0.000  
  19713795.935   -23500626.147 8 -17667026.65147  19713805.8994          0.000  
  23116645.448     -153334.590 5    -72537.83345  23116665.7974          0.000  
  20518185.821    -7678899.508 7  -5756945.72546  20518199.4104          0.000  
  20111771.113   -11625175.377 7  -8860333.94046  20111783.3354          0.000  
  20506414.922    -6381136.654 6  -4830821.57646  20506426.4094          0.000  
  23590516.530     -200404.636 2    -50654.97255  23590536.3494          0.000  
  19492003.737   -24925692.901 8 -19227382.88647  19492013.2514          0.000  
  20853668.486   -14740071.774 6 -11280961.02046  20853681.3404          0.000  
 02  1 30 13  3 29.9940000  0  9G 1G 6G10G15G17G22G23G25G30
  23689610.492      -98709.407 5    -46849.61345  23689630.1404          0.000  
  19723020.022   -23452153.256 8 -17629255.64547  19723030.5704          0.000  
  23112423.589     -175519.875 5    -89824.90945  23112442.5504          0.000  
  20498284.249    -7783482.250 7  -5838438.56146  20498297.0214          0.000  
  20097564.229   -11699832.649 7  -8918508.31846  20097575.4924          0.000  
  20489337.702    -6470877.355 6  -4900749.29746  20489351.1064          0.000  
  23575686.700     -278334.869 3   -111379.51945  23575706.5854          0.000  
  19493900.218   -24915726.826 8 -19219617.14747  19493910.1774          0.000  
  20868031.712   -14664592.626 6 -11222146.26346  20868045.0104          0.000  
 02  1 30 13  3 59.9940000  0  9G 1G 6G10G15G17G22G23G25G30
  23687114.214     -111828.458 4    -57072.19645  23687135.2394          0.000  
  19732288.735   -23403446.095 8 -17591302.06947  19732298.1574          0.000  
  23108303.097     -197172.119 5   -106696.59945  23108321.9244          0.000  
  20478446.064    -7887731.813 7  -5919671.77946  20478458.9484          0.000  
  20083439.806   -11774056.703 7  -8976345.13646  20083450.7604          0.000  
  20472298.888    -6560416.434 6  -4970519.88946  20472312.5884          0.000  
  23560876.215     -356162.872 3         0.000           0.000           0.000  
  19495906.795   -24905182.438 8 -19211400.77747  19495916.2884          0.000  
  20882440.832   -14588872.928 6 -11163144.04146  20882452.9814          0.000  
 02  1 30 13  4 29.9940000  0  9G 1G 6G10G15G17G22G23G25G30
  23684711.926     -124452.925 4    -66909.31645  23684730.7524          0.000  
  19741597.870   -23354526.629 7 -17553183.07547  19741608.7914          0.000  
  23104280.372     -218310.951 4   -123168.20645  23104299.7914          0.000  
  20458667.888    -7991666.056 7  -6000659.27246  20458681.1444          0.000  
  20069394.297   -11847866.094 7  -9033858.84346  20069404.8624          0.000  
  20455294.788    -6649773.027 6  -5040148.30246  20455307.7174          0.000  
  23546081.700     -433906.626 4         0.000           0.000           0.000  
  19498019.358   -24894081.197 8 -19202750.49147  19498028.7374          0.000  
  20896891.664   -14512934.122 6 -11103971.07946  20896903.5414          0.000  
 02  1 30 13  4 59.9940000  0  9G 1G 6G10G15G17G22G23G25G30
  23682403.787     -136580.795 2    -76359.67944  23682423.5434          0.000  
  19750947.611   -23305393.788 8 -17514897.80347  19750957.1514          0.000  
  23100355.907     -238932.925 2   -139237.15845  23100379.6864          0.000  
  20438950.701    -8095279.850 7  -6081397.08946  20438963.1564          0.000  
  20055428.409   -11921256.808 7  -9091046.32446  20055439.4434          0.000  
  20438326.174    -6738943.247 6  -5109631.45846  20438336.7554          0.000  
  23531304.356     -511560.940 4    -38313.01855  23531329.6334          0.000  
  19500238.190   -24882421.250 8 -19193664.85347  19500247.4714          0.000  
  20911384.449   -14436774.831 6 -11044626.28946  20911397.2054          0.000  
 02  1 30 13  5 29.9940000  0  8G 6G10G15G17G22G23G25G30
  19760338.634   -23256044.014 8 -17476443.48047  19760348.7814          0.000  
  23096530.921     -259032.248 2   -154898.76645  23096552.6314          0.000  
  20419295.920    -8198565.565 7  -6161879.23146  20419308.0334          0.000  
  20041543.565   -11994221.759 7  -9147902.04246  20041554.9824          0.000  
  20421394.150    -6827920.847 6  -5178964.52646  20421405.1954          0.000  
  23516545.544     -589118.130 4    -98746.88545  23516567.0884          0.000  
  19502564.065   -24870198.492 8 -19184140.64747  19502573.2464          0.000  
  20925920.024   -14360390.454 6 -10985106.14346  20925931.5254          0.000  
 02  1 30 13  5 59.9940000  0  9G 1G 6G10G15G17G22G23G25G30
  23678074.853      -10742.575 3         0.000           0.000           0.000  
  19769771.752   -23206472.980 8 -17437816.76747  19769781.2784          0.000  
  23092806.814     -278602.025 4   -170147.95945  23092825.6754          0.000  
  20399705.186    -8301514.650 7  -6242099.08946  20399718.1924          0.000  
  20027741.246   -12066753.166 7  -9204419.92246  20027751.3714          0.000  
  20404500.312    -6916698.338 6  -5248141.68546  20404512.6624          0.000  
  23501806.758     -666569.561 5   -159098.32045  23501829.8174          0.000  
  19504998.073   -24857407.745 8 -19174173.86947  19505007.3124          0.000  
  20940499.312   -14283776.510 6 -10925407.11446  20940511.5054          0.000  
 02  1 30 13  6 29.9940000  0 10G 1G 3G 6G10G15G17G22G23G25G30
  23676054.215      -21362.672 2         0.000           0.000           0.000  
  23517504.460      -16649.86113         0.000           0.000           0.000  
  19779245.671   -23156687.456 8 -17399022.91247  19779255.4144          0.000  
  23089182.604     -297646.490 3   -184987.62645  23089204.5474          0.000  
  20380178.027    -8404129.558 7  -6322058.55846  20380191.2564          0.000  
  20014020.738   -12138854.461 7  -9260602.64646  20014031.2804          0.000  
  20387643.860    -7005279.530 6  -5317165.85146  20387654.9694          0.000  
  23487087.657     -743917.860 4   -219369.35145  23487109.9814          0.000  
  19507539.135   -24844054.766 8 -19163768.98947  19507548.5764          0.000  
  20955121.133   -14206939.035 6 -10865533.88646  20955133.3924          0.000  
 02  1 30 13  6 59.9940000  0  9G 3G 6G10G15G17G22G23G25G30
  23498500.183     -116511.468 2         0.000           0.000           0.000  
  19788760.441   -23106687.248 7 -17360061.76047  19788771.3304          0.000  
  23085658.925     -316163.017 4   -199415.92045  23085678.0254          0.000  
  20360715.213    -8506406.172 7  -6401754.40646  20360728.2564          0.000  
  20000382.715   -12210522.123 7  -9316447.49346  20000393.9334          0.000  
  20370825.234    -7093661.450 6  -5386034.74146  20370837.1164          0.000  
  23472388.874     -821158.736 3   -279556.63945  23472411.0494          0.000  
  19510187.251   -24830138.890 8 -19152925.48447  19510196.6154          0.000  
  20969785.596   -14129877.302 6 -10805485.94046  20969798.1524          0.000  
 02  1 30 13  7 29.9940000  0  9G 3G 6G10G15G17G22G23G25G30
  23479512.867     -216289.588 2         0.000           0.000           0.000  
  19798315.202   -23056476.791 8 -17320936.79547  19798324.4174          0.000  
  23082235.304     -334153.736 5   -213434.59145  23082252.2764          0.000  
  20341316.790    -8608344.943 7  -6481187.01146  20341329.4024          0.000  
  19986826.969   -12281757.494 7  -9371955.48146  19986838.5774          0.000  
  20354044.298    -7181845.586 7  -5454749.53846  20354056.6824          0.000  
  23457710.480     -898292.618 3   -339660.56945  23457734.5744          0.000  
  19512941.720   -24815664.009 8 -19141646.39147  19512951.2674          0.000  
  20984491.962   -14052595.269 6 -10745266.33346  20984506.2244          0.000  
 02  1 30 13  7 59.9940000  0  9G 3G 6G10G15G17G22G23G25G30
  23460541.164     -315984.427 2         0.000           0.000           0.000  
  19807909.646   -23006057.866 8 -17281649.37047  19807919.6814          0.000  
  23078911.909     -351617.926 5   -227042.86945  23078932.1334          0.000  
  20321983.093    -8709943.611 7  -6560354.58046  20321995.2794          0.000  
  19973353.852   -12352558.930 7  -9427125.34946  19973364.8144          0.000  
  20337301.232    -7269830.736 7  -5523309.28946  20337313.4294          0.000  
  23443053.003     -975317.031 3   -399679.21445  23443073.6304          0.000  
  19515802.386   -24800631.347 8 -19129932.65847  19515811.7464          0.000  
  20999240.069   -13975093.984 6 -10684875.86946  20999252.8454          0.000  
 02  1 30 13  8 29.9940000  0  9G 3G 6G10G15G17G22G23G25G30
  23441585.750     -415594.920 3         1.67955  23441604.9454          0.000  
  19817543.625   -22955431.216 8 -17242200.09647  19817553.2494          0.000  
  23075688.961     -368554.342 3   -240239.96945  23075709.2614          0.000  
  20302714.685    -8811199.085 7  -6639254.72946  20302726.9164          0.000  
  19959963.740   -12422924.159 7  -9481955.30046  19959974.4924          0.000  
  20320596.327    -7357615.080 6  -5591712.56346  20320608.3474          0.000  
  23428416.849    -1052228.985 3   -459610.13145  23428441.7004          0.000  
  19518769.193   -24785040.964 8 -19117784.34847  19518778.7204          0.000  
  21014029.838   -13897373.873 6 -10624314.91146  21014041.6494          0.000  
 02  1 30 13  8 59.9940000  0 10G 1G 3G 6G10G15G17G22G23G25G30
  23667374.226       -4543.02414         0.000           0.000           0.000  
  23422646.723     -515117.704 2         0.000           0.000           0.000  
  19827217.411   -22904595.339 8 -17202587.78647  19827227.1434          0.000  
  23072567.281     -384959.080 3   -253022.77845  23072588.4184          0.000  
  20283512.601    -8912105.821 7  -6717883.13646  20283524.9604          0.000  
  19946657.576   -12492848.174 7  -9536441.46646  19946668.4444          0.000  
  20303930.515    -7445193.995 6  -5659955.75146  20303942.0294          0.000  
  23413803.192    -1129022.629 4   -519448.90945  23413822.5724          0.000  
  19521842.476   -24768890.895 8 -19105199.92147  19521852.1044          0.000  
  21028861.564   -13819432.991 6 -10563581.89546  21028874.0664          0.000  
 02  1 30 13  9 29.9940000  0 10G 1G 3G 6G10G15G17G22G23G25G30
  23665923.058      -12167.259 3         0.000           0.000           0.000  
  23403725.129     -614549.456 3         0.000           0.000           0.000  
  19836931.312   -22853548.694 7 -17162811.23046  19836941.2064          0.000  
  23069547.515     -400828.171 3   -265388.23145  23069566.5324          0.000  
  20264377.927    -9012658.284 7  -6796235.48946  20264390.6044          0.000  
  19933436.245   -12562326.528 8  -9590580.36047  19933446.9264          0.000  
  20287304.636    -7532562.986 6  -5728035.36346  20287317.2284          0.000  
  23399213.223    -1205692.186 4   -579191.10645  23399236.8574          0.000  
  19525022.721   -24752178.938 7 -19092177.64647  19525032.0544          0.000  
  21043735.739   -13741269.145 6 -10502675.16246  21043748.5274          0.000  
 02  1 30 13  9 59.9940000  0 10G 1G 3G 6G10G15G17G22G23G25G30
  23664565.411      -19301.801 4     -1264.57755  23664585.2424          0.000  
  23384818.798     -713901.196 3         0.000           0.000           0.000  
  19846682.843   -22802304.375 7 -17122880.67747  19846694.0594          0.000  
  23066627.335     -416172.692 3   -277344.94845  23066650.1704          0.000  
  20245308.920    -9112865.394 7  -6874318.71946  20245321.7964          0.000  
  19920297.876   -12631368.822 7  -9644379.46947  19920308.8974          0.000  
  20270716.738    -7619732.253 6  -5795959.34046  20270728.3734          0.000  
  23384645.121    -1282246.703 5   -638843.68345  23384664.6734          0.000  
  19528307.493   -24734917.620 8 -19078727.29947  19528317.1584          0.000  
  21058649.954   -13662894.932 6 -10441604.50046  21058663.3144          0.000  
 02  1 30 13 10 29.9940000  0 10G 1G 3G 6G10G15G17G22G23G25G30
  23663302.057      -25941.178 4     -6438.15245  23663320.5044          0.000  
  23365928.976     -813166.408 4    -46399.51855  23365950.2594          0.000  
  19856472.859   -22750857.815 8 -17082792.48847  19856483.0164          0.000  
  23063808.410     -430985.806 4   -288887.54945  23063828.4624          0.000  
  20226307.327    -9212718.518 7  -6952126.15746  20226321.1794          0.000  
  19907243.929   -12699967.391 7  -9697832.81447  19907255.1634          0.000  
  20254168.357    -7706694.150 6  -5863721.73346  20254179.3314          0.000  
  23370100.470    -1358677.475 4   -698399.81945  23370119.8064          0.000  
  19531697.616   -24717102.215 8 -19064845.21947  19531707.4744          0.000  
  21073605.167   -13584305.303 6 -10380366.01946  21073618.7044          0.000  
 02  1 30 13 10 59.9940000  0 10G 1G 3G 6G10G15G17G22G23G25G30
  23662133.160      -32082.890 3    -11223.84445  23662157.1684          0.000  
  23347056.370     -912341.178 3   -123678.11445  23347079.8744          0.000  
  19866301.764   -22699206.908 7 -17042545.10747  19866312.7574          0.000  
  23061091.320     -445263.512 4   -300012.91945  23061109.0194          0.000  
  20207374.284    -9312211.742 7  -7029653.13646  20207387.1754          0.000  
  19894275.371   -12768117.182 7  -9750936.46546  19894286.1624          0.000  
  20237660.392    -7793443.879 6  -5931318.81246  20237671.9634          0.000  
  23355580.648    -1434978.554 5   -757854.83245  23355599.0744          0.000  
  19535193.709   -24698730.063 8 -19050529.28547  19535203.5464          0.000  
  21088601.827   -13505497.963 6 -10318957.85446  21088615.6774          0.000  
 02  1 30 13 11 29.9940000  0 10G 1G 3G 6G10G15G17G22G23G25G30
  23661057.961      -37733.617 4    -15627.04345  23661077.7804          0.000  
  23328199.638      -16506.30013         0.000           0.000           0.000  
  19876168.089   -22647359.263 8 -17002144.41247  19876178.0984          0.000  
  23058475.208     -459011.025 4   -310725.17745  23058494.1014          0.000  
  20188509.005    -9411348.723 7  -7106902.53546  20188521.8234          0.000  
  19881391.386   -12835822.501 7  -9803693.77346  19881402.3284          0.000  
  20221191.870    -7879986.120 6  -5998754.19946  20221204.2614          0.000  
  23341084.921    -1511153.147 5   -817211.26845  23341102.8374          0.000  
  19538794.456   -24679808.369 8 -19035785.14847  19538803.9894          0.000  
  21103638.610   -13426479.816 6 -10257385.44246  21103651.5814          0.000  
 02  1 30 13 11 59.9940000  0 10G 1G 3G 6G10G15G17G22G23G25G30
  23660076.722      -42890.707 4    -19645.54845  23660098.1404          0.000  
  23309359.633     -115507.769 4         0.000           0.000           0.000  
  19886072.289   -22595312.590 7 -16961588.62846  19886082.9174          0.000  
  23055960.954     -472224.191 5   -321021.09445  23055979.7054          0.000  
  20169712.725    -9510123.307 7  -7183869.56346  20169725.1814          0.000  
  19868593.063   -12903077.852 7  -9856100.46146  19868603.8364          0.000  
  20204763.807    -7966315.692 6  -6066023.88346  20204776.3824          0.000  
  23326614.405    -1587194.964 3   -876464.27645  23326634.6104          0.000  
  19542500.243   -24660334.614 8 -19020610.81947  19542509.7534          0.000  
  21118716.002   -13347248.125 6 -10195646.63246  21118728.8164          0.000  
 02  1 30 13 12 29.9940000  0 10G 1G 3G 6G10G15G17G22G23G25G30
  23659189.651      -47552.682 3    -23278.12045  23659205.7544          0.000  
  23290537.187     -214418.172 2         0.000           0.000           0.000  
  19896014.441   -22543066.351 7 -16920877.35746  19896023.6274          0.000  
  23053548.819     -484900.148 4   -330898.38645  23053568.6614          0.000  
  20150986.251    -9608530.947 7  -7260550.67146  20150998.7094          0.000  
  19855881.042   -12969879.766 7  -9908153.81846  19855891.5104          0.000  
  20188376.926    -8052429.086 7  -6133125.11146  20188388.0674          0.000  
  23312169.902    -1663099.516 2   -935610.21045  23312191.2104          0.000  
  19546311.203   -24640307.881 8 -19005005.59847  19546320.6754          0.000  
  21133834.193   -13267801.937 6 -10133740.67546  21133846.9814          0.000  
 02  1 30 13 12 59.9940000  0  9G 1G 6G10G15G17G22G23G25G30
  23658396.385      -51720.485 3    -26525.71444  23658417.5184          0.000  
  19905994.309   -22490622.023 7 -16880011.70746  19906004.5434          0.000  
  23051238.982     -497038.278 3   -340356.48745  23051258.7094          0.000  
  20132330.056    -9706569.289 7  -7336944.01646  20132341.9374          0.000  
  19843255.604   -13036226.780 8  -9959852.70947  19843265.8794          0.000  
  20172031.417    -8138324.829 6  -6200056.75146  20172042.8264          0.000  
  23297751.836    -1738864.198 1   -994647.14545  23297772.6604          0.000  
  19550227.295   -24619729.018 8 -18988970.16247  19550236.6884          0.000  
  21148993.037   -13188142.339 6 -10071668.40346  21149006.3474          0.000  
 02  1 30 13 13 29.9940000  0  9G 1G 6G10G15G17G22G23G25G30
  23657697.256      -55394.733 3    -29388.87145  23657716.0624          0.000  
  19916011.642   -22437980.791 7 -16838992.62846  19916021.4674          0.000  
  23049031.614     -508637.819 3   -349395.13045  23049055.1214          0.000  
  20113744.591    -9804235.592 7  -7413047.43846  20113756.5494          0.000  
  19830717.107   -13102116.826 7 -10011195.53347  19830728.1274          0.000  
  20155727.650    -8224001.307 7  -6266817.56546  20155739.1204          0.000  
  23283361.106    -1814486.265 1  -1053573.03645  23283386.2494          0.000  
  19554248.194   -24598599.365 8 -18972505.55447  19554257.8264          0.000  
  21164192.421   -13108270.111 6 -10009430.48946  21164205.8534          0.000  
 02  1 30 13 13 59.9940000  0 10G 1G 3G 6G10G15G17G22G23G25G30
  23657090.850      -58581.567 3    -31872.17445  23657111.5754          0.000  
  23234176.057      -95348.151 2         0.000           0.000           0.000  
  19926065.199   -22385149.146 7 -16797825.19446  19926075.1244          0.000  
  23046926.075     -519703.321 4   -358017.52645  23046941.0564          0.000  
  20095229.376    -9901532.733 7  -7488863.25646  20095242.1384          0.000  
  19818264.819   -13167553.648 7 -10062185.18247  19818275.8174          0.000  
  20139464.913    -8309462.235 6  -6333410.38546  20139476.0994          0.000  
  23268997.170    -1889968.029 3  -1112389.60145  23269022.6524          0.000  
  19558372.684   -24576924.903 8 -18955616.39047  19558382.5814          0.000  
  21179431.052   -13028191.544 6  -9947031.73946  21179443.3484          0.000  
 02  1 30 13 14 29.9940000  0 10G 1G 3G 6G10G15G17G22G23G25G30
  23656578.749      -61273.929 4    -33970.07345  23656598.4204          0.000  
  23215421.806     -193892.981 3     -7673.30355  23215441.5104          0.000  
  19936156.225   -22332120.622 7 -16756504.33546  19936166.6814          0.000  
  23044923.261     -530226.286 2   -366217.22245  23044942.4174          0.000  
  20076786.395    -9998450.309 7  -7564383.27246  20076798.5274          0.000  
  19805900.598   -13232527.685 7 -10112814.22747  19805911.3864          0.000  
  20123244.891    -8394698.183 6  -6399827.89046  20123256.5264          0.000  
  23254662.026    -1965299.111 5  -1171088.72545  23254684.2074          0.000  
  19562602.124   -24554699.046 8 -18938297.59647  19562611.7774          0.000  
  21194710.261   -12947899.558 6  -9884466.73746  21194722.7484          0.000  
 02  1 30 13 14 59.9940000  0 10G 1G 3G 6G10G15G17G22G23G25G30
  23656159.511      -63476.890 3    -35686.74745  23656184.5004          0.000  
  23196686.481     -292346.380 5    -84389.66145  23196705.9034          0.000  
  19946283.617   -22278901.125 7 -16715034.70546  19946293.8674          0.000  
  23043023.284     -540210.673 4   -373997.29845  23043042.7044          0.000  
  20058415.340   -10094990.147 7  -7639608.98646  20058428.1734          0.000  
  19793623.920   -13297041.727 7 -10163084.82547  19793635.2594          0.000  
  20107067.209    -8479712.066 6  -6466072.36046  20107078.9814          0.000  
  23240355.134    -2040481.176 5  -1229671.79145  23240376.9784          0.000  
  19566935.491   -24531927.370 8 -18920553.48347  19566944.9114          0.000  
  21210029.019   -12867399.678 6  -9821739.71946  21210042.5334          0.000  
 02  1 30 13 15 29.9940000  0 10G 1G 3G 6G10G15G17G22G23G25G30
  23655833.336      -65190.537 2    -37022.08945  23655861.3654          0.000  
  23177968.582     -390707.238 4   -161033.96945  23177988.2514          0.000  
  19956447.258   -22225491.059 8 -16673416.53046  19956456.5254          0.000  
  23041225.865     -549655.082 4   -381356.53445  23041244.8394          0.000  
  20040116.827   -10191149.068 7  -7714537.87846  20040129.4304          0.000  
  19781435.242   -13361093.218 7 -10212995.00147  19781446.2044          0.000  
  20090932.291    -8564501.414 7  -6532141.86846  20090944.1804          0.000  
  23226077.267    -2115510.768 5  -1288136.05745  23226097.2584          0.000  
  19571372.603   -24508610.348 8 -18902384.41047  19571381.9564          0.000  
  21225387.295   -12786692.039 6  -9758850.80146  21225400.4474          0.000  
 02  1 30 13 15 59.9940000  0 10G 1G 3G 6G10G15G17G22G23G25G30
  23655600.866      -66411.584 2    -37973.45243  23655616.8854          0.000  
  23159269.202     -488971.082 5   -237602.55645  23159287.5774          0.000  
  19966647.751   -22171887.575 7 -16631647.67546  19966659.1254          0.000  
  23039532.287     -558554.781 3   -388291.31345  23039554.8284          0.000  
  20021892.073   -10286920.207 7  -7789164.59846  20021903.5554          0.000  
  19769335.690   -13424676.433 7 -10262540.28347  19769346.3074          0.000  
  20074841.177    -8649060.406 6  -6598031.88246  20074852.8174          0.000  
  23211829.485    -2190381.146 3  -1346476.24445  23211844.8404          0.000  
  19575914.086   -24484744.717 8 -18883787.86547  19575923.4334          0.000  
  21240785.686   -12705773.234 6  -9695797.36446  21240798.4574          0.000  
 02  1 30 13 16 29.9940000  0 10G 1G 3G 6G10G15G17G22G23G25G30
  23655461.997      -67141.602 2         0.000           0.000           0.000  
  23140588.074     -587137.932 4   -314095.71545  23140606.4774          0.000  
  19976884.614   -22118092.686 7 -16589729.66946  19976894.3934          0.000  
  23037942.408     -566910.188 5   -394802.02045  23037958.4874          0.000  
  20003741.483   -10382301.632 7  -7863487.63446  20003752.2714          0.000  
  19757325.459   -13487790.413 8 -10311719.93547  19757335.4884          0.000  
  20058794.042    -8733388.229 7  -6663741.75346  20058805.2214          0.000  
  23197612.325    -2265090.056 3  -1404690.64245  23197627.5544          0.000  
  19580559.662   -24460332.339 8 -18864765.27347  19580569.2034          0.000  
  21256223.939   -12624645.006 6  -9632580.74846  21256238.2274          0.000  
 02  1 30 13 16 59.9940000  0 10G 1G 3G 6G10G15G17G22G23G25G30
  23655415.224      -67386.595 1         0.000           0.000           0.000  
  23121924.721     -685212.244 5   -390516.74545  23121942.9384          0.000  
  19987156.711   -22064112.680 7 -16547667.39946  19987166.8104          0.000  
  23036455.105     -574725.539 4   -400891.89245  23036471.9854          0.000  
  19985664.547   -10477295.918 7  -7937509.02946  19985677.0054          0.000  
  19745403.858   -13550438.581 8 -10360536.61746  19745414.2194          0.000  
  20042790.274    -8817488.239 7  -6729274.10346  20042801.6564          0.000  
  23183425.538    -2339639.695 3  -1462780.83445  23183445.0914          0.000  
  19585308.120   -24435379.328 8 -18845321.41147  19585317.2094          0.000  
  21271700.993   -12543313.243 6  -9569205.52146  21271714.7694          0.000  
 02  1 30 13 17 29.9940000  0 10G 1G 3G 6G10G15G17G22G23G25G30
  23655461.434      -67143.243 2         0.000           0.000           0.000  
  23103279.962     -783189.686 5   -466862.26145  23103297.9154          0.000  
  19997464.628   -22009944.595 7 -16505458.61646  19997476.5744          0.000  
  23035071.511     -581996.095 4   -406557.27445  23035093.7394          0.000  
  19967662.596   -10571896.414 7  -8011223.58446  19967674.3464          0.000  
  19733571.982   -13612615.208 7 -10408985.88547  19733582.6224          0.000  
  20026830.904    -8901354.763 7  -6794624.52746  20026842.6154          0.000  
  23169270.440    -2414023.246 4  -1520741.71245  23169291.9134          0.000  
  19590159.924   -24409882.920 8 -18825454.12247  19590169.5764          0.000  
  21287217.399   -12461774.832 6  -9505669.29346  21287231.3124          0.000  
 02  1 30 13 17 59.9940000  0  9G 3G 6G10G15G17G22G23G25G30
  23084654.595     -881064.678 5   -543127.96145  23084672.0814          0.000  
  20007809.083   -21955584.363 7 -16463100.09546  20007819.0944          0.000  
  23033792.773     -588716.268 5   -411793.73745  23033815.1184          0.000  
  19949737.063   -10666095.380 7  -8084625.23746  19949748.7264          0.000  
  19721831.175   -13674313.371 7 -10457062.30547  19721842.2874          0.000  
  20010917.297    -8984980.809 7  -6859787.55846  20010928.4834          0.000  
  23155148.547    -2488232.641 4  -1578566.92045  23155170.1834          0.000  
  19595115.879   -24383839.329 8 -18805160.48547  19595125.4414          0.000  
  21302773.981   -12380025.294 6  -9441968.51846  21302787.4324          0.000  
 02  1 30 13 18 29.9940000  0  9G 3G 6G10G15G17G22G23G25G30
  23066047.163     -978844.742 4   -619319.69245  23066066.6004          0.000  
  20018188.348   -21901041.387 7 -16420599.15946  20018199.0464          0.000  
  23032617.093     -594893.333 4   -416607.02045  23032635.8544          0.000  
  19931886.902   -10759898.259 7  -8157718.28846  19931898.9814          0.000  
  19710180.193   -13735539.398 8 -10504770.81747  19710190.3124          0.000  
  19995048.337    -9068372.677 7  -6924768.12646  19995059.7054          0.000  
  23141058.860    -2562273.258 5  -1636260.50945  23141078.9914          0.000  
  19600174.263   -24357257.400 7 -18784447.34647  19600183.9914          0.000  
  21318369.005   -12298073.754 6  -9378110.37146  21318382.8634          0.000  
 02  1 30 13 18 59.9940000  0  9G 3G 6G10G15G17G22G23G25G30
  23047457.054    -1076533.281 4   -695440.19545  23047475.3014          0.000  
  20028601.393   -21846320.927 7 -16377959.94946  20028611.6754          0.000  
  23031544.479     -600530.702 5   -420999.86145  23031561.2554          0.000  
  19914111.805   -10853306.622 7  -8230503.89746  19914122.7754          0.000  
  19698618.526   -13796295.923 7 -10552113.49447  19698628.8524          0.000  
  19979223.406    -9151532.716 7  -6989568.03646  19979234.4264          0.000  
  23127001.037    -2636146.361 4  -1693823.59945  23127019.9844          0.000  
  19605334.040   -24330142.623 8 -18763318.97447  19605343.6474          0.000  
  21334001.492   -12215924.983 6  -9314098.51346  21334014.3954          0.000  
 02  1 30 13 19 29.9940000  0  9G 3G 6G10G15G17G22G23G25G30
  23028884.967    -1174128.254 5   -771487.76845  23028901.2474          0.000  
  20039048.234   -21791422.644 7 -16335182.16046  20039058.5504          0.000  
  23030574.920     -605626.650 5   -424970.57345  23030595.2834          0.000  
  19896412.486   -10946316.418 7  -8302978.94446  19896423.4724          0.000  
  19687146.850   -13856579.683 7 -10599087.79147  19687157.4694          0.000  
  19963443.142    -9234457.807 7  -7054184.87646  19963454.5304          0.000  
  23112975.916    -2709847.642 4  -1751252.85945  23112996.0514          0.000  
  19610595.301   -24302494.704 8 -18741775.20347  19610604.8974          0.000  
  21349671.696   -12133578.397 6  -9249932.56146  21349685.0064          0.000  
 02  1 30 13 19 59.9940000  0  9G 3G 6G10G15G17G22G23G25G30
  23010332.253    -1271621.253 5   -847455.89145  23010347.6414          0.000  
  20049530.232   -21736339.666 7 -16292260.43646  20049540.8384          0.000  
  23029709.739     -610172.458 3   -428512.66045  23029727.8634          0.000  
  19878791.034   -11038917.012 7  -8375135.11646  19878802.3924          0.000  
  19675767.008   -13916380.986 8 -10645686.14247  19675777.4844          0.000  
  19947709.502    -9317138.230 7  -7118611.07646  19947720.2914          0.000  
  23098985.588    -2783366.232 4  -1808539.84545  23099006.3854          0.000  
  19615959.388   -24274306.562 8 -18719810.47747  19615968.3894          0.000  
  21365380.843   -12051026.908 6  -9185606.92846  21365393.9704          0.000  
 02  1 30 13 20 29.9940000  0  9G 3G 6G10G15G17G22G23G25G30
  22991799.062    -1369011.431 4   -923343.96545  22991813.3994          0.000  
  20060047.193   -21681072.956 7 -16249195.57046  20060057.8054          0.000  
  23028949.664     -614167.532 5   -431625.71945  23028969.2884          0.000  
  19861247.984   -11131105.686 7  -8446970.32146  19861260.3964          0.000  
  19664479.299   -13975698.223 8 -10691907.30047  19664489.8734          0.000  
  19932022.855    -9399571.855 7  -7182844.94746  19932032.5544          0.000  
  23085030.653    -2856699.089 4  -1865682.03745  23085052.7014          0.000  
  19621426.095   -24245579.236 8 -18697425.57847  19621435.4064          0.000  
  21381128.888   -11968271.115 6  -9121122.11546  21381142.9764          0.000  
 02  1 30 13 20 59.9940000  0  9G 3G 6G10G15G17G22G23G25G30
  22973285.124    -1466300.934 4   -999153.45645  22973301.7284          0.000  
  20070598.422   -21625626.384 7 -16205990.55446  20070608.6264          0.000  
  23028293.827     -617614.227 5   -434311.33145  23028313.6354          0.000  
  19843783.358   -11222882.724 8  -8518484.78447  19843795.0964          0.000  
  19653283.504   -14034532.380 8 -10737752.04047  19653293.7914          0.000  
  19916382.966    -9481759.679 7  -7246887.32246  19916393.0754          0.000  
  23071111.106    -2929846.161 5  -1922679.42245  23071130.7294          0.000  
  19626994.569   -24216316.877 8 -18674623.78147  19627004.0644          0.000  
  21396915.184   -11885314.671 6  -9056480.89946  21396928.7124          0.000  
 02  1 30 13 21 29.9940000  0  9G 3G 6G10G15G17G22G23G25G30
  22954791.955    -1563481.547 5  -1074878.29045  22954807.7504          0.000  
  20081185.129   -21569993.482 7 -16162640.31246  20081196.4474          0.000  
  23027743.601     -620504.873 3   -436563.83745  23027765.9914          0.000  
  19826398.961   -11314238.119 8  -8589670.67447  19826410.5304          0.000  
  19642181.338   -14092874.467 8 -10783213.34147  19642191.3834          0.000  
  19900791.564    -9563692.661 7  -7310731.11446  19900802.6634          0.000  
  23057228.679    -3002797.147 4  -1979523.99445  23057244.7444          0.000  
  19632665.983   -24186513.526 8 -18651400.43947  19632675.5194          0.000  
  21412740.954   -11802151.016 6  -8991678.23646  21412754.3274          0.000  
 02  1 30 13 21 59.9940000  0  9G 3G 6G10G15G17G22G23G25G30
  22936318.144    -1660559.631 3  -1150523.13845  22936337.3094          0.000  
  20091805.817   -21514181.884 7 -16119150.84146  20091816.1294          0.000  
  23027298.481     -622845.218 5   -438387.39045  23027316.5194          0.000  
  19809094.050   -11405175.725 8  -8660531.01847  19809105.3734          0.000  
  19631171.876   -14150729.371 8 -10828295.02647  19631181.5324          0.000  
  19885247.794    -9645375.335 7  -7374379.85646  19885259.7544          0.000  
  23043382.794    -3075555.745 3  -2036218.84745  23043402.3084          0.000  
  19638438.966   -24156176.477 8 -18627761.22047  19638448.7834          0.000  
  21428604.770   -11718787.364 6  -8926719.76146  21428617.7384          0.000  
 02  1 30 13 22 29.9940000  0  9G 3G 6G10G15G17G22G23G25G30
  22917864.365    -1757532.614 3  -1226086.18345  22917884.0964          0.000  
  20102460.678   -21458190.660 7 -16075521.39346  20102471.3414          0.000  
  23026958.042     -624632.998 4   -439780.44045  23026973.8174          0.000  
  19791869.480   -11495690.850 7  -8731062.16346  19791881.1054          0.000  
  19620255.802   -14208093.492 8 -10872994.28447  19620265.5254          0.000  
  19869752.315    -9726803.977 7  -7437830.64346  19869764.9164          0.000  
  23029574.585    -3148117.007 4  -2092759.70045  23029595.4874          0.000  
  19644313.657   -24125305.182 8 -18603705.72447  19644323.2644          0.000  
  21444506.820   -11635222.464 6  -8861604.45646  21444520.5404          0.000  
 02  1 30 13 22 59.9940000  0  9G 3G 6G10G15G17G22G23G25G30
  22899431.276    -1854397.485 4  -1301564.89745  22899450.2564          0.000  
  20113149.929   -21402018.746 7 -16031751.14046  20113160.1364          0.000  
  23026723.233     -625865.548 4   -440740.87445  23026742.1054          0.000  
  19774726.263   -11585778.648 8  -8801260.34446  19774737.7854          0.000  
  19609433.848   -14264963.009 7 -10917308.12647  19609444.2954          0.000  
  19854305.959    -9807974.438 7  -7501080.26846  19854318.0134          0.000  
  23015804.909    -3220475.854 3  -2149142.91445  23015824.1494          0.000  
  19650290.124   -24093898.853 8 -18579233.31647  19650299.4064          0.000  
  21460447.366   -11551455.011 6  -8796331.32846  21460460.7844          0.000  
 02  1 30 13 23 29.9940000  0  9G 3G 6G10G15G17G22G23G25G30
  22881017.444    -1951161.548 5  -1376965.07545  22881035.8774          0.000  
  20123871.879   -21345674.808 7 -15987846.86046  20123881.5564          0.000  
  23026593.098     -626550.130 5   -441274.24745  23026609.7684          0.000  
  19757663.301   -11675444.473 7  -8871129.68646  19757674.2274          0.000  
  19598704.848   -14321344.026 8 -10961241.32447  19598715.8474          0.000  
  19838907.699    -9888892.615 7  -7564133.29646  19838919.3394          0.000  
  23002072.920    -3292637.107 3  -2205372.15745  23002090.0314          0.000  
  19656366.756   -24061966.048 8 -18554350.64346  19656375.5014          0.000  
  21476424.743   -11467493.458 6  -8730906.96846  21476439.1624          0.000  
 02  1 30 13 23 59.9940000  0  9G 3G 6G10G15G17G22G23G25G30
  22862623.689    -2047820.543 5  -1452283.44145  22862639.8314          0.000  
  20134627.039   -21289156.365 7 -15943806.56846  20134637.5824          0.000  
  23026567.855     -626682.790 5   -441377.59745  23026587.6104          0.000  
  19740681.812   -11764682.235 8  -8940665.50147  19740693.3574          0.000  
  19588069.760   -14377231.522 8 -11004789.96447  19588080.2794          0.000  
  19823558.502    -9969553.107 7  -7626985.54846  19823569.5174          0.000  
  22988379.739    -3364594.479 4  -2261442.54545  22988399.5744          0.000  
  19662543.949   -24029504.963 8 -18529056.34946  19662552.5434          0.000  
  21492439.483   -11383335.191 6  -8665329.29045  21492454.4704          0.000  
 02  1 30 13 24 29.9940000  0  9G 3G 6G10G15G17G22G23G25G30
  22844248.982    -2144378.654 3  -1527523.17545  22844266.3984          0.000  
  20145414.285   -21232469.161 7 -15899634.81546  20145425.3764          0.000  
  23026646.872     -626268.131 4   -441054.54845  23026667.3274          0.000  
  19723781.401   -11853494.045 8  -9009869.38647  19723792.8134          0.000  
  19577527.974   -14432628.726 8 -11047956.55847  19577538.7484          0.000  
  19808257.673   -10049958.918 7  -7689639.35246  19808268.4884          0.000  
  22974725.024    -3436349.890 5  -2317355.64045  22974742.3804          0.000  
  19668820.527   -23996521.453 8 -18503354.94446  19668829.9654          0.000  
  21508490.744   -11298985.787 6  -8599602.73246  21508505.6734          0.000  
 02  1 30 13 24 59.9940000  0  9G 3G 6G10G15G17G22G23G25G30
  22825895.340    -2240825.882 4  -1602676.58145  22825914.9644          0.000  
  20156235.214   -21175605.049 7 -15855325.18346  20156245.6224          0.000  
  23026831.806     -625296.604 5   -440297.48145  23026854.0174          0.000  
  19706964.274   -11941868.229 7  -9078732.28347  19706976.0644          0.000  
  19567081.537   -14487524.812 8 -11090732.66747  19567091.6854          0.000  
  19793007.457   -10130098.957 7  -7752086.05646  19793018.3024          0.000  
  22961111.040    -3507891.162 4  -2373101.83445  22961130.3854          0.000  
  19675197.973   -23963008.046 8 -18477240.62647  19675208.0314          0.000  
  21524579.995   -11214436.992 6  -8533720.72345  21524594.4344          0.000  
 02  1 30 13 25 29.9940000  0  9G 3G 6G10G15G17G22G23G25G30
  22807561.081    -2337172.679 5  -1677751.62645  22807578.4144          0.000  
  20167087.574   -21118575.745 7 -15810886.85146  20167098.6444          0.000  
  23027120.376     -623778.553 4   -439114.56945  23027141.3904          0.000  
  19690228.877   -12029813.126 8  -9147260.66047  19690239.3914          0.000  
  19556728.654   -14541929.198 8 -11133125.62847  19556738.8784          0.000  
  19777806.187   -10209982.038 7  -7814332.52546  19777816.1464          0.000  
  22947536.237    -3579226.303 5  -2428687.46645  22947553.2454          0.000  
  19681673.936   -23928976.627 8 -18450722.68546  19681683.7294          0.000  
  21540705.036   -11129700.293 6  -8467692.39446  21540719.0764          0.000  
 02  1 30 13 25 59.9940000  0  9G 3G 6G10G15G17G22G23G25G30
  22789247.887    -2433407.995 5  -1752739.82245  22789264.1414          0.000  
  20177973.171   -21061371.859 7 -15766312.47646  20177984.1654          0.000  
  23027515.293     -621703.611 4   -437497.74445  23027532.4914          0.000  
  19673577.566   -12117315.977 8  -9215444.57747  19673588.6644          0.000  
  19546471.587   -14595830.063 8 -11175126.22747  19546482.1314          0.000  
  19762656.063   -10289596.130 7  -7876369.38146  19762666.4974          0.000  
  22934003.173    -3650342.091 5  -2484102.11245  22934021.8404          0.000  
  19688250.188   -23894418.153 8 -18423794.07846  19688260.3984          0.000  
  21556867.729   -11044766.151 6  -8401510.16146  21556881.4914          0.000  
 02  1 30 13 26 29.9940000  0  9G 3G 6G10G15G17G22G23G25G30
  22770953.673    -2529542.529 5  -1827649.53345  22770970.1884          0.000  
  20188889.655   -21004005.602 7 -15721611.58746  20188900.9614          0.000  
  23028014.251     -619082.353 5   -435455.14745  23028031.4874          0.000  
  19657008.725   -12204385.346 8  -9283290.71547  19657019.6624          0.000  
  19536308.530   -14649236.975 8 -11216741.94547  19536319.3854          0.000  
  19747555.398   -10368950.391 7  -7938203.81546  19747566.5094          0.000  
  22920510.236    -3721246.780 4  -2539352.25445  22920528.7964          0.000  
  19694924.365   -23859345.377 7 -18396464.68547  19694934.5934          0.000  
  21573065.685   -10959646.703 6  -8335183.53546  21573079.1784          0.000  
 02  1 30 13 26 59.9940000  0  9G 3G 6G10G15G17G22G23G25G30
  22752681.762    -2625560.881 5  -1902468.73845  22752698.0214          0.000  
  20199839.595   -20946463.517 7 -15676773.67546  20199850.1054          0.000  
  23028619.861     -615900.167 4   -432975.55245  23028639.8274          0.000  
  19640525.624   -12291004.225 8  -9350785.83747  19640536.3844          0.000  
  19526242.522   -14702134.007 8 -11257960.34447  19526252.6804          0.000  
  19732507.322   -10448028.528 7  -7999823.04846  19732519.0004          0.000  
  22907060.809    -3791922.853 4  -2594424.36745  22907078.9144          0.000  
  19701698.898   -23823745.151 8 -18368724.27547  19701708.3044          0.000  
  21589301.479   -10874328.171 6  -8268701.78846  21589315.0354          0.000  
 02  1 30 13 27 29.9940000  0  9G 3G 6G10G15G17G22G23G25G30
  22734430.668    -2721470.872 5  -1977203.52245  22734445.7054          0.000  
  20210821.270   -20888754.767 7 -15631805.92146  20210831.6214          0.000  
  23029330.563     -612165.021 3   -430065.05545  23029349.4314          0.000  
  19624127.150   -12377178.417 8  -9417934.44747  19624137.9734          0.000  
  19516272.282   -14754527.793 8 -11298786.63247  19516282.1964          0.000  
  19717510.578   -10526836.751 7  -8061231.95546  19717521.7804          0.000  
  22893654.053    -3862375.671 5  -2649322.45145  22893672.1794          0.000  
  19708572.033   -23787627.198 8 -18340580.50546  19708580.9904          0.000  
  21605573.462   -10788819.491 6  -8202071.88245  21605587.3824          0.000  
 02  1 30 13 27 59.9940000  0  9G 3G 6G10G15G17G22G23G25G30
  22716199.858    -2817273.734 5  -2051854.80145  22716215.3334          0.000  
  20221834.112   -20830882.216 7 -15586710.48146  20221844.8234          0.000  
  23030146.133     -607878.340 3   -426724.64045  23030170.0434          0.000  
  19607813.397   -12462907.272 8  -9484736.04747  19607824.3144          0.000  
  19506397.757   -14806418.665 8 -11339221.01247  19506407.5054          0.000  
  19702565.152   -10605374.945 7  -8122430.46546  19702575.8544          0.000  
  22880289.897    -3932604.269 5  -2704045.83145  22880308.2674          0.000  
  19715543.000   -23750994.641 8 -18312035.70547  19715552.9774          0.000  
  21621881.065   -10703123.311 6  -8135295.83446  21621896.1954          0.000  
 02  1 30 13 28 29.9940000  0  9G 3G 6G10G15G17G22G23G25G30
  22697990.314    -2912964.207 5  -2126418.49345  22698008.2664          0.000  
  20232878.841   -20772842.156 7 -15541484.55946  20232889.7724          0.000  
  23031067.580     -603035.631 3   -422951.08045  23031085.2824          0.000  
  19591585.769   -12548183.598 8  -9551185.02847  19591596.4974          0.000  
  19496620.058   -14857800.694 8 -11379258.89247  19496629.7254          0.000  
  19687672.423   -10683636.510 7  -8183413.42746  19687683.6444          0.000  
  22866969.783    -4002601.054 5  -2758588.59345  22866988.7834          0.000  
  19722612.529   -23713844.386 8 -18283087.47947  19722622.8534          0.000  
  21638225.040   -10617235.888 6  -8068370.78745  21638239.9594          0.000  
 02  1 30 13 28 59.9940000  0  9G 3G 6G10G15G17G22G23G25G30
  22679802.143    -3008542.135 5  -2200894.48845  22679817.1914          0.000  
  20243955.198   -20714635.886 7 -15496129.10746  20243966.2164          0.000  
  23032094.793     -597636.926 4   -418744.41645  23032116.5674          0.000  
  19575444.658   -12633005.271 8  -9617279.74347  19575455.7044          0.000  
  19486939.384   -14908672.856 8 -11418899.48347  19486949.0334          0.000  
  19672832.597   -10761620.216 7  -8244179.86546  19672843.5444          0.000  
  22853694.227    -4072363.732 5  -2812948.89745  22853714.4124          0.000  
  19729780.251   -23676178.225 8 -18253737.30146  19729789.6994          0.000  
  21654605.186   -10531158.475 6  -8001297.71446  21654620.8814          0.000  
 02  1 30 13 29 29.9940000  0  9G 3G 6G10G15G17G22G23G25G30
  22661635.501    -3104005.950 4  -2275281.70845  22661654.9474          0.000  
  20255063.124   -20656263.687 7 -15450644.37346  20255074.3714          0.000  
  23033228.247     -591681.535 5   -414103.75745  23033251.7574          0.000  
  19559390.679   -12717369.103 8  -9683017.70747  19559401.9594          0.000  
  19477356.135   -14959032.988 8 -11458141.09147  19477365.5754          0.000  
  19658046.121   -10839323.312 7  -8304727.63646  19658057.5174          0.000  
  22840463.906    -4141888.648 5  -2867123.90645  22840485.1084          0.000  
  19737045.914   -23637997.002 8 -18223985.77046  19737055.4684          0.000  
  21671021.447   -10444891.275 6  -7934076.77445  21671035.7594          0.000  
 02  1 30 13 29 59.9940000  0  9G 3G 6G10G15G17G22G23G25G30
  22643490.276    -3199358.325 5  -2349582.10145  22643508.8234          0.000  
  20266201.923   -20597729.386 7 -15405033.32646  20266212.7254          0.000  
  23034466.829     -585172.180 2   -409031.57645  23034485.1434          0.000  
  19543423.680   -12801275.735 8  -9748399.38347  19543434.7444          0.000  
  19467870.006   -15008882.722 8 -11496984.98447  19467880.1994          0.000  
  19643312.847   -10916746.670 7  -8365057.45946  19643323.4684          0.000  
  22827278.656    -4211175.848 5  -2921113.65145  22827295.7094          0.000  
  19744408.837   -23599304.911 8 -18193836.14847  19744418.2244          0.000  
  21687473.156   -10358437.930 6  -7866710.77645  21687488.9184          0.000  
 02  1 30 13 30 29.9940000  0  9G 3G 6G10G15G17G22G23G25G30
  22625366.014    -3294601.267 5  -2423797.13145  22625383.2884          0.000  
  20277370.870   -20539036.455 7 -15359298.65646  20277381.6704          0.000  
  23035810.483     -578111.428 2   -403529.76445  23035826.2104          0.000  
  19527543.652   -12884725.279 8  -9813424.90247  19527555.2774          0.000  
  19458480.750   -15058223.325 8 -11535432.16447  19458491.1774          0.000  
  19628632.711   -10993891.064 8  -8425169.89846  19628643.0534          0.000  
  22814138.608    -4280225.023 4  -2974917.91745  22814158.1474          0.000  
  19751868.130   -23560106.321 8 -18163291.86346  19751877.4444          0.000  
  21703959.604   -10271801.906 6  -7799202.38645  21703973.6754          0.000  
 02  1 30 13 30 59.9940000  0  9G 3G 6G10G15G17G22G23G25G30
  22607262.842    -3389733.639 5  -2497925.97045  22607279.5064          0.000  
  20288569.940   -20480185.206 7 -15313440.64346  20288581.0094          0.000  
  23037259.249     -570498.701 4   -397597.78745  23037276.5114          0.000  
  19511751.159   -12967714.990 8  -9878092.10047  19511762.6604          0.000  
  19449188.731   -15107052.872 8 -11573481.10547  19449198.4844          0.000  
  19614006.157   -11070754.156 8  -8485063.13546  19614016.4724          0.000  
  22801044.604    -4349032.863 4  -3028534.18445  22801062.4714          0.000  
  19759423.543   -23520402.540 8 -18132353.93246  19759432.8924          0.000  
  21720480.712   -10184983.493 6  -7731551.93946  21720494.3994          0.000  
 02  1 30 13 31 29.9940000  0  9G 3G 6G10G15G17G22G23G25G30
  22589181.812    -3484748.320 4  -2571963.16245  22589200.5524          0.000  
  20299800.177   -20421170.342 7 -15267455.13446  20299811.0244          0.000  
  23038814.064     -562327.554 3   -391230.59145  23038837.0624          0.000  
  19496047.858   -13050236.018 8  -9942394.11147  19496059.5604          0.000  
  19439995.405   -15155363.720 8 -11611125.87447  19440004.8674          0.000  
  19599434.681   -11147327.647 8  -8544730.71846  19599444.5854          0.000  
  22787998.550    -4417590.284 5  -3081955.30545  22788017.3584          0.000  
  19767076.037   -23480188.675 7 -18101018.51246  19767085.8154          0.000  
  21737037.535   -10097977.358 6  -7663755.20345  21737051.8334          0.000  
 02  1 30 13 31 59.9940000  0  9G 3G 6G10G15G17G22G23G25G30
  22571122.975    -3579646.618 5  -2645909.65245  22571143.1394          0.000  
  20311061.027   -20361994.585 7 -15221344.24346  20311071.8584          0.000  
  23040475.000     -553599.640 4   -384429.72345  23040493.7454          0.000  
  19480433.871   -13132287.734 8 -10006330.41347  19480444.4974          0.000  
  19430900.715   -15203156.334 8 -11648366.83347  19430910.4674          0.000  
  19584918.288   -11223611.349 7  -8604172.48246  19584928.7594          0.000  
  22775000.382    -4485896.068 5  -3135180.39645  22775018.4284          0.000  
  19774825.018   -23439467.725 8 -18069287.96846  19774834.3044          0.000  
  21753629.666   -10010786.022 6  -7595814.14446  21753644.5044          0.000  
 02  1 30 13 32 29.9940000  0  9G 3G 6G10G15G17G22G23G25G30
  22553085.672    -3674431.969 4  -2719768.09145  22553104.1274          0.000  
  20322351.599   -20302662.671 7 -15175111.68146  20322362.3954          0.000  
  23042241.032     -544319.328 3   -377198.34145  23042255.2444          0.000  
  19464908.838   -13213871.811 8 -10069902.32647  19464919.5374          0.000  
  19421904.148   -15250433.511 8 -11685206.14147  19421914.0664          0.000  
  19570456.657   -11299607.337 8  -8663390.06046  19570466.9054          0.000  
  22762049.720    -4553951.478 5  -3188210.30245  22762065.1264          0.000  
  19782669.444   -23398245.488 8 -18037166.80546  19782679.1344          0.000  
  21770256.062    -9923414.387 5  -7527732.60246  21770271.9764          0.000  
 02  1 30 13 32 59.9940000  0  9G 3G 6G10G15G17G22G23G25G30
  22535070.039    -3769104.020 5  -2793538.25945  22535087.5254          0.000  
  20333671.621   -20243176.001 7 -15128758.52546  20333682.8184          0.000  
  23044112.011     -534487.143 2   -369536.97345  23044134.4034          0.000  
  19449473.165   -13294986.499 8 -10133108.49747  19449484.3554          0.000  
  19413005.828   -15297194.363 8 -11721643.11847  19413016.0864          0.000  
  19556050.094   -11375314.224 8  -8722382.36547  19556060.5394          0.000  
  22749147.117    -4621754.317 5  -3241043.46745  22749163.0594          0.000  
  19790608.802   -23356524.298 8 -18004656.85047  19790619.0144          0.000  
  21786916.567    -9835863.924 5  -7459511.72845  21786932.9164          0.000  
 02  1 30 13 33 29.9940000  0  9G 3G 6G10G15G17G22G23G25G30
  22517077.336    -3863656.597 6  -2867215.30445  22517095.1314          0.000  
  20345022.018   -20183529.885 7 -15082281.12546  20345032.7764          0.000  
  23046089.246     -524097.080 3   -361440.85845  23046112.1124          0.000  
  19434128.420   -13375623.504 8 -10195942.43247  19434139.0424          0.000  
  19404207.078   -15343431.984 8 -11757672.39347  19404217.0924          0.000  
  19541700.019   -11450724.251 8  -8781143.35547  19541710.6644          0.000  
  22736294.196    -4689295.885 4  -3293672.99145  22736311.0944          0.000  
  19798643.810   -23314300.088 7 -17971754.93946  19798653.6924          0.000  
  21803612.077    -9748129.688 6  -7391147.67145  21803628.5174          0.000  
 02  1 30 13 33 59.9940000  0  9G 3G 6G10G15G17G22G23G25G30
  22499105.273    -3958100.127 5  -2940807.44845  22499119.1494          0.000  
  20356400.505   -20123735.947 7 -15035688.54546  20356411.6844          0.000  
  23048170.410     -513160.311 3   -352918.72845  23048195.8784          0.000  
  19418872.912   -13455791.306 8 -10258410.75247  19418883.3544          0.000  
  19395506.106   -15389155.854 8 -11793301.35047  19395516.0654          0.000  
  19527404.733   -11525846.267 8  -8839679.92647  19527415.5044          0.000  
  22723489.543    -4756584.175 5  -3346105.18145  22723510.5184          0.000  
  19806772.321   -23271584.786 8 -17938470.38646  19806781.7794          0.000  
  21820340.373    -9660223.238 6  -7322649.41445  21820354.9094          0.000  
 02  1 30 13 34 29.9940000  0  9G 3G 6G10G15G17G22G23G25G30
  22481155.138    -4052427.218 5  -3014308.80845  22481170.9024          0.000  
  20367808.255   -20063788.317 7 -14988976.19646  20367820.1404          0.000  
  23050357.072     -501669.990 4   -343965.25645  23050378.7514          0.000  
  19403708.439   -13535480.896 8 -10320506.45447  19403718.7994          0.000  
  19386904.366   -15434358.061 8 -11828523.81947  19386914.6554          0.000  
  19513165.862   -11600671.607 8  -8897985.32047  19513176.0004          0.000  
  22710734.765    -4823609.822 5  -3398332.67045  22710753.8094          0.000  
  19814995.171   -23228373.778 7 -17904799.54946  19815004.7284          0.000  
  21837102.481    -9572138.780 5  -7254012.40545  21837117.3924          0.000  
 02  1 30 13 34 59.9940000  0  9G 3G 6G10G15G17G22G23G25G30
  22463227.839    -4146633.784 3  -3087716.30045  22463245.2374          0.000  
  20379245.723   -20003684.470 7 -14942142.14846  20379256.8344          0.000  
  23052649.790     -489622.698 4   -334577.78445  23052671.1154          0.000  
  19388636.051   -13614686.516 8 -10382225.01547  19388646.8174          0.000  
  19378402.773   -15479033.997 8 -11863336.19147  19378413.2384          0.000  
  19498984.459   -11675194.948 8  -8956055.37747  19498995.3294          0.000  
  22698030.940    -4890366.428 4  -3450350.50545  22698046.4004          0.000  
  19823312.651   -23184665.396 7 -17870741.12846  19823322.6014          0.000  
  21853898.935    -9483873.787 6  -7185234.73545  21853914.5154          0.000  
 02  1 30 13 35 29.9940000  0  9G 3G 6G10G15G17G22G23G25G30
  22445322.546    -4240725.364 4  -3161034.18145  22445340.3924          0.000  
  20390711.614   -19943431.170 7 -14895191.59946  20390722.3274          0.000  
  23055047.184     -477024.668 4   -324761.17045  23055064.2434          0.000  
  19373655.006   -13693411.893 8 -10443569.36847  19373665.7214          0.000  
  19370000.427   -15523188.495 8 -11897742.25747  19370010.4294          0.000  
  19484859.749   -11749420.417 7  -9013893.34447  19484870.4324          0.000  
  22685377.899    -4956857.112 4  -3502161.19145  22685397.4554          0.000  
  19831723.302   -23140467.269 7 -17836301.09646  19831733.9344          0.000  
  21870728.438    -9395435.070 6  -7116321.73845  21870744.2674          0.000  
 02  1 30 13 35 59.9940000  0  9G 3G 6G10G15G17G22G23G25G30
  22427438.484    -4334706.004 5  -3234265.67245  22427455.1874          0.000  
  20402204.878   -19883033.922 7 -14848128.93146  20402215.8654          0.000  
  23057548.342     -463880.784 3   -314519.25345  23057566.6994          0.000  
  19358764.860   -13771659.601 8 -10504541.52047  19358775.4154          0.000  
  19361696.657   -15566825.082 8 -11931744.75247  19361706.5604          0.000  
  19470791.268   -11823350.503 8  -9071501.11747  19470802.2564          0.000  
  22672775.269    -5023083.744 5  -3553766.08745  22672793.7654          0.000  
  19840225.924   -23095785.778 7 -17801484.41946  19840236.4014          0.000  
  21887589.995    -9306828.267 6  -7047277.73545  21887605.8974          0.000  
 02  1 30 13 36 29.9940000  0  9G 3G 6G10G15G17G22G23G25G30
  22409576.514    -4428570.568 5  -3307406.61545  22409592.5564          0.000  
  20413726.229   -19822489.211 7 -14800951.33546  20413737.1674          0.000  
  23060153.969     -450186.814 2   -303848.56745  23060174.8254          0.000  
  19343966.937   -13849422.929 8 -10565136.24047  19343977.6564          0.000  
  19353492.523   -15609938.033 8 -11965339.21847  19353502.5064          0.000  
  19456780.205   -11896978.937 8  -9128873.85847  19456790.2664          0.000  
  22660224.217    -5089039.087 5  -3605159.60445  22660242.7064          0.000  
  19848821.130   -23050618.174 8 -17766288.97246  19848831.4244          0.000  
  21904484.268    -9218049.714 6  -6978099.89745  21904499.6504          0.000  
 02  1 30 13 36 59.9940000  0  8G 3G 6G15G17G22G23G25G30
  22391735.770    -4522323.348 5  -3380460.47745  22391752.2614          0.000  
  20425274.565   -19761802.837 7 -14753663.34446  20425286.3424          0.000  
  19329260.747   -13926704.345 8 -10625355.45047  19329271.4874          0.000  
  19345387.304   -15652531.128 8 -11998528.59747  19345397.8174          0.000  
  19442825.962   -11970308.682 8  -9186013.85447  19442836.0474          0.000  
  22647724.362    -5154725.235 5  -3656343.40045  22647742.1104          0.000  
  19857507.536   -23004971.105 7 -17730719.87846  19857517.7194          0.000  
  21921410.103    -9129105.236 6  -6908792.79645  21921424.4454          0.000  
 02  1 30 13 37 29.9940000  0  8G 3G 6G15G17G22G23G25G30
  22373916.980    -4615960.855 5  -3453424.48545  22373934.9844          0.000  
  20436850.242   -19700972.699 6 -14706263.35546  20436861.5634          0.000  
  19314647.164   -14003499.007 8 -10685195.35947  19314657.7974          0.000  
  19337381.696   -15694600.692 8 -12031310.03747  19337391.6154          0.000  
  19428929.500   -12043334.981 8  -9242917.41447  19428939.7434          0.000  
  22635276.834    -5220136.789 5  -3707313.29745  22635295.7654          0.000  
  19866285.499   -22958843.241 8 -17694776.16346  19866294.8174          0.000  
  21938367.910    -9039992.921 6  -6839354.92345  21938382.7044          0.000  
 02  1 30 13 37 59.9940000  0  8G 3G 6G15G17G22G23G25G30
  22356121.464    -4709476.480 5  -3526293.53945  22356138.9534          0.000  
  20448454.302   -19639993.536 7 -14658747.22046  20448465.1324          0.000  
  19300127.781   -14079798.580 8 -10744649.48947  19300138.0204          0.000  
  19329477.117   -15736139.451 8 -12063677.86647  19329486.8194          0.000  
  19415092.345   -12116049.769 8  -9299578.23347  19415103.3594          0.000  
  22622883.304    -5285264.865 5  -3758062.21845  22622899.5404          0.000  
  19875155.626   -22912230.814 7 -17658454.87546  19875164.8534          0.000  
  21955358.500    -8950707.669 5  -6769782.26245  21955372.5534          0.000  
 02  1 30 13 38 29.9940000  0  9G 3G 6G10G15G17G22G23G25G30
  22338349.397    -4802868.885 5  -3599066.56145  22338366.7894          0.000  
  20460086.660   -19578865.508 7 -14611115.07146  20460097.8824          0.000  
  23071621.872        2685.33514         0.000           0.000           0.000  
  19285703.203   -14155599.935 8 -10803715.38247  19285713.9134          0.000  
  19321673.902   -15777145.509 8 -12095630.58847  19321683.7274          0.000  
  19401314.947   -12188450.221 8  -9355994.09247  19401325.5874          0.000  
  22610544.447    -5350105.860 5  -3808587.40845  22610562.5614          0.000  
  19884117.681   -22865135.032 8 -17621756.90646  19884127.7704          0.000  
  21972382.066    -8861249.524 5  -6700074.91545  21972398.7144          0.000  
 02  1 30 13 38 59.9940000  0  9G 3G 6G10G15G17G22G23G25G30
  22320598.883    -4896147.470 5  -3671750.93945  22320614.6984          0.000  
  20471745.298   -19517599.223 7 -14563375.24646  20471756.5964          0.000  
  23074748.714       19122.696 2         0.000           0.000           0.000  
  19271371.964   -14230910.886 7 -10862399.16547  19271382.6534          0.000  
  19313970.363   -15817627.679 8 -12127175.09647  19313980.2734          0.000  
  19387595.781   -12260544.347 8  -9412171.27047  19387606.0574          0.000  
  22598258.685    -5414666.890 5  -3858894.53445  22598275.7834          0.000  
  19893169.593   -22817567.390 7 -17584691.32246  19893179.3314          0.000  
  21989436.434    -8771629.220 5  -6630241.16545  21989451.5634          0.000  
 02  1 30 13 39 29.9940000  0  9G 3G 6G10G15G17G22G23G25G30
  22302871.462    -4989303.987 5  -3744340.12445  22302888.3274          0.000  
  20483431.483   -19456188.051 7 -14515522.47146  20483442.8764          0.000  
  23077981.658       36110.959 4      4902.40755  23078002.6574          0.000  
  19257135.852   -14305721.831 8 -10920693.33047  19257146.3104          0.000  
  19306368.140   -15857577.409 8 -12158304.70147  19306377.8174          0.000  
  19373936.774   -12332322.615 8  -9468102.33947  19373946.4454          0.000  
  22586028.079    -5478937.538 4  -3908975.28745  22586046.4224          0.000  
  19902312.245   -22769522.180 7 -17547253.56246  19902323.6534          0.000  
  22006522.855    -8681840.083 5  -6560275.89445  22006536.8524          0.000  
 02  1 30 13 39 59.9940000  0  9G 3G 6G10G15G17G22G23G25G30
  22285166.968    -5082339.985 4  -3816835.47345  22285183.6144          0.000  
  20495144.801   -19394634.455 6 -14467558.77046  20495156.9344          0.000  
  23081318.981       53648.188 3     18567.77244  23081337.1254          0.000  
  19242994.898   -14380032.467 8 -10978597.64047  19243005.6104          0.000  
  19298867.096   -15896995.486 8 -12189020.05247  19298876.6384          0.000  
  19360337.919   -12403784.966 8  -9523787.21347  19360348.1264          0.000  
  22573852.955    -5542917.073 5  -3958829.33745  22573872.2344          0.000  
  19911545.264   -22721002.754 8 -17509446.30246  19911556.1264          0.000  
  22023640.929    -8591884.976 5  -6490181.31245  22023658.3944          0.000  
 02  1 30 13 40 29.9940000  0  8G 3G 6G15G17G22G23G25G30
  22267486.407    -5175250.370 4  -3889232.95745  22267502.7744          0.000  
  20506885.873   -19332934.993 7 -14419481.37146  20506897.6174          0.000  
  19228950.409   -14453836.219 8 -11036106.97747  19228961.2564          0.000  
  19291468.179   -15935876.851 8 -12219317.18547  19291478.1424          0.000  
  19346800.327   -12474925.263 8  -9579221.13947  19346810.4794          0.000  
  22561734.592    -5606598.534 5  -4008450.96545  22561752.4394          0.000  
  19920868.985   -22672006.913 8 -17471267.80846  19920878.3424          0.000  
  22040791.273    -8501760.667 5  -6419954.82745  22040808.2124          0.000  
 02  1 30 13 40 59.9940000  0  8G 3G 6G15G17G22G23G25G30
  22249828.611    -5268041.939 5  -3961537.79145  22249844.6104          0.000  
  20518653.159   -19271097.889 6 -14371296.72046  20518665.5884          0.000  
  19215001.429   -14527138.316 8 -11093225.41147  19215012.5274          0.000  
  19284170.210   -15974227.754 8 -12249200.96847  19284180.2094          0.000  
  19333322.985   -12545748.737 8  -9634408.18747  19333333.0984          0.000  
  22549672.185    -5669986.440 5  -4057843.89345  22549691.9664          0.000  
  19930281.482   -22622544.230 7 -17432725.53346  19930291.8104          0.000  
  22057972.259    -8411475.270 5  -6349602.84145  22057989.3294          0.000  
 02  1 30 13 41 29.9940000  0  8G 3G 6G15G17G22G23G25G30
  22232193.870    -5360712.925 5  -4033748.72645  22232208.7174          0.000  
  20530446.750   -19209122.635 6 -14323004.45046  20530458.7794          0.000  
  19201148.577   -14599935.336 8 -11149950.28347  19201159.5464          0.000  
  19276973.593   -16012046.072 8 -12278669.74947  19276983.1124          0.000  
  19319906.570   -12616252.153 8  -9689345.84247  19319916.7764          0.000  
  22537666.403    -5733076.843 5  -4107005.03745  22537686.7544          0.000  
  19939782.705   -22572615.256 8 -17393819.90946  19939793.0634          0.000  
  22075183.890    -8321028.446 5  -6279125.09645  22075199.6644          0.000  
 02  1 30 13 41 59.9940000  0  8G 3G 6G15G17G22G23G25G30
  22214581.953    -5453263.819 5  -4105866.04745  22214597.6844          0.000  
  20542266.284   -19147010.967 7 -14274605.85046  20542277.4234          0.000  
  19187392.036   -14672226.415 7 -11206280.92247  19187402.6004          0.000  
  19269878.296   -16049331.835 8 -12307723.55147  19269888.4774          0.000  
  19306551.277   -12686434.420 8  -9744033.26947  19306561.5484          0.000  
  22525717.578    -5795867.942 5  -4155932.89045  22525734.7464          0.000  
  19949372.223   -22522222.453 7 -17354552.89546  19949381.7414          0.000  
  22092425.820    -8230422.259 5  -6208523.15645  22092440.8254          0.000  
 02  1 30 13 42 29.9940000  0  8G 3G 6G15G17G22G23G25G30
  22196992.100    -5545697.465 5  -4177892.01045  22197008.5324          0.000  
  20554110.941   -19084767.195 6 -14226104.31746  20554123.1484          0.000  
  19173731.489   -14744012.911 6 -11262218.36647  19173741.9524          0.000  
  19262883.864   -16086087.716 8 -12336364.46047  19262894.0204          0.000  
  19293256.732   -12756297.403 8  -9798471.88547  19293267.8274          0.000  
  22513825.486    -5858360.692 5  -4204628.32245  22513843.4654          0.000  
  19959048.865   -22471371.520 7 -17314928.88246  19959058.9634          0.000  
  22109697.119    -8139660.954 4  -6137800.41745  22109717.7184          0.000  
 02  1 30 13 42 59.9940000  0  8G 3G 6G15G17G22G23G25G30
  22179427.560    -5637998.697 5  -4249814.82145  22179442.9374          0.000  
  20565983.415   -19022377.307 7 -14177488.96946  20565995.3274          0.000  
  19160170.154   -14815277.862 8 -11317749.41947  19160179.9064          0.000  
  19255993.274   -16122297.897 8 -12364580.16347  19256003.4424          0.000  
  19280026.140   -12825824.285 8  -9852648.60447  19280037.4244          0.000  
  22501993.331    -5920537.555 5  -4253077.52445  22502011.6174          0.000  
  19968815.082   -22420049.932 7 -17274938.11646  19968825.5294          0.000  
  22127000.578    -8048730.679 4  -6066945.93945  22127016.5584          0.000  
 02  1 30 13 43 29.9940000  0  8G 3G 6G15G17G22G23G25G30
  22161886.232    -5730178.262 5  -4321642.82345  22161901.7614          0.000  
  20577881.384   -18959853.661 6 -14128769.33346  20577893.3584          0.000  
  19146706.230   -14886030.909 8 -11372881.59447  19146716.0224          0.000  
  19249204.466   -16157973.116 8 -12392379.00247  19249214.8254          0.000  
  19266857.731   -12895024.442 8  -9906570.74547  19266868.5534          0.000  
  22490219.614    -5982407.325 4  -4301287.53545  22490236.0324          0.000  
  19978668.338   -22368271.115 7 -17234591.08946  19978678.5154          0.000  
  22144333.929    -7957644.238 4  -5995969.85845  22144351.0514          0.000  
 02  1 30 13 43 59.9940000  0  8G 3G 6G15G17G22G23G25G30
  22144367.484    -5822239.392 5  -4393378.54145  22144381.6554          0.000  
  20589803.914   -18897200.881 6 -14079949.10146  20589815.8624          0.000  
  19133339.316   -14956274.057 8 -11427616.43847  19133349.7084          0.000  
  19242516.900   -16193116.347 8 -12419763.31347  19242526.9834          0.000  
  19253751.137   -12963899.822 8  -9960239.82447  19253761.4234          0.000  
  22478504.134    -6043971.193 4  -4349259.19645  22478522.0434          0.000  
  19988607.499   -22316041.022 7 -17193892.41446  19988618.5274          0.000  
  22161696.228    -7866406.055 3  -5924875.39445  22161716.2334          0.000  
 02  1 30 13 44 29.9940000  0  8G 3G 6G15G17G22G23G25G30
  22126872.989    -5914172.924 5  -4465014.88245  22126886.9104          0.000  
  20601752.548   -18834410.870 6 -14031021.94446  20601764.5074          0.000  
  19120071.527   -15025996.446 7 -11481945.51647  19120081.9634          0.000  
  19235932.415   -16227718.086 8 -12446725.68347  19235941.8344          0.000  
  19240708.375   -13032439.712 8 -10013647.47047  19240718.6994          0.000  
  22466849.054    -6105217.858 5  -4396983.66345  22466867.2984          0.000  
  19998633.814   -22263352.562 7 -17152836.54746  19998644.9614          0.000  
  22179089.003    -7775008.516 5  -5853656.78045  22179109.1374          0.000  
 02  1 30 13 44 59.9940000  0  8G 3G 6G15G17G22G23G25G30
  22109402.257    -6005981.336 5  -4536553.73745  22109416.1304          0.000  
  20613726.620   -18771487.264 7 -13981990.65346  20613738.7644          0.000  
  19106902.729   -15095198.953 6 -11535869.47047  19106912.3944          0.000  
  19229450.557   -16261780.431 8 -12473267.74547  19229459.9864          0.000  
  19227729.252   -13100645.181 8 -10066794.52647  19227739.6884          0.000  
  22455254.369    -6166147.552 5  -4444461.11545  22455271.4974          0.000  
  20008746.409   -22210210.795 7 -17111427.48746  20008755.5124          0.000  
  22196511.158    -7683455.318 5  -5782317.01745  22196529.7564          0.000  
 02  1 30 13 45 29.9940000  0  8G 3G 6G15G17G22G23G25G30
  22091955.539    -6097663.910 5  -4607994.50245  22091969.6584          0.000  
  20625725.980   -18708430.737 6 -13932855.83346  20625737.9074          0.000  
  19093833.196   -15163879.698 6 -11589386.86847  19093842.6134          0.000  
  19223071.462   -16295302.542 8 -12499388.84047  19223081.3094          0.000  
  19214814.117   -13168514.166 8 -10119679.37347  19214824.5934          0.000  
  22443720.682    -6226757.558 5  -4491689.52645  22443739.7954          0.000  
  20018944.909   -22156617.710 7 -17069666.75246  20018954.9304          0.000  
  22213962.911    -7591747.581 5  -5710856.72945  22213979.6584          0.000  
 02  1 30 13 45 59.9940000  0  8G 3G 6G15G17G22G23G25G30
  22074531.678    -6189226.810 6  -4679342.02745  22074544.1834          0.000  
  20637749.216   -18645248.912 7 -13883623.36246  20637761.3424          0.000  
  19080862.034   -15232043.286 8 -11642501.27747  19080871.6934          0.000  
  19216794.034   -16328290.535 8 -12525093.76247  19216804.2094          0.000  
  19201962.091   -13236051.518 8 -10172305.81647  19201971.8244          0.000  
  22432246.924    -6287051.972 5  -4538672.04445  22432266.7394          0.000  
  20029227.580   -22102582.393 7 -17027561.40646  20029238.3114          0.000  
  22231442.600    -7499893.029 5  -5639282.09945  22231460.0754          0.000  
 02  1 30 13 46 29.9940000  0  8G 3G 6G15G17G22G23G25G30
  22057131.589    -6280663.800 5  -4750591.44345  22057144.8304          0.000  
  20649797.229   -18581936.937 6 -13834289.44046  20649808.8914          0.000  
  19067990.657   -15299682.456 8 -11695207.06047  19068000.9004          0.000  
  19210619.474   -16360737.994 8 -12550377.46847  19210629.4904          0.000  
  19189174.680   -13303249.662 8 -10224667.95947  19189184.5374          0.000  
  22420834.799    -6347022.594 5  -4585402.21845  22420852.1084          0.000  
  20039595.095   -22048101.255 7 -16985108.68146  20039606.2014          0.000  
  22248951.123    -7407886.967 4  -5567589.37645  22248969.8194          0.000  
 02  1 30 13 46 59.9940000  0  8G 3G 6G15G17G22G23G25G30
  22039755.201    -6371976.049 5  -4821743.66145  22039769.9214          0.000  
  20661869.600   -18518496.959 6 -13784855.82146  20661880.8984          0.000  
  19055219.219   -15366796.536 8 -11747503.67747  19055229.1994          0.000  
  19204547.648   -16392645.584 8 -12575240.50547  19204557.5884          0.000  
  19176451.956   -13370107.910 8 -10276765.24647  19176461.3774          0.000  
  22409484.532    -6406668.078 5  -4631879.03645  22409504.3804          0.000  
  20050046.735   -21993177.567 7 -16942311.11046  20050057.1414          0.000  
  22266487.993    -7315731.719 5  -5495780.44345  22266506.9124          0.000  
 02  1 30 13 47 29.9940000  0  8G 3G 6G15G17G22G23G25G30
  22022402.145    -6463165.750 5  -4892800.37045  22022415.5964          0.000  
  20673965.615   -18454932.629 7 -13735325.25846  20673976.6104          0.000  
  19042547.503   -15433386.748 7 -11799392.08747  19042557.7094          0.000  
  19198578.129   -16424015.580 8 -12599684.63447  19198587.9114          0.000  
  19163793.697   -13436627.360 8 -10328598.53247  19163803.2164          0.000  
  22398196.059    -6465988.851 5  -4678102.87945  22398213.5454          0.000  
  20060581.754   -21937816.308 7 -16899172.58546  20060591.4794          0.000  
  22284052.477    -7223431.269 5  -5423858.28245  22284072.5144          0.000  
 02  1 30 13 47 59.9940000  0  8G 3G 6G15G17G22G23G25G30
  22005074.269    -6554222.974 5  -4963753.93145  22005088.8304          0.000  
  20686086.932   -18391234.959 6 -13685690.82846  20686098.2834          0.000  
  19029977.646   -15499441.546 7 -11850863.29447  19029987.7984          0.000  
  19192712.881   -16454837.558 8 -12623701.74047  19192722.8074          0.000  
  19151202.097   -13502796.441 8 -10380158.77447  19151211.8854          0.000  
  22386971.673    -6524972.762 5  -4724064.21145  22386989.4144          0.000  
  20071201.367   -21882010.353 7 -16855687.52746  20071211.6204          0.000  
  22301646.207    -7130976.952 4  -5351816.27145  22301664.3814          0.000  
 02  1 30 13 48 29.9940000  0  8G 3G 6G15G17G22G23G25G30
  21987770.608    -6645152.895 4  -5034608.22145  21987784.7924          0.000  
  20698232.250   -18327410.890 6 -13635957.91846  20698243.3974          0.000  
  19017508.777   -15564965.346 8 -11901920.74347  19017519.2704          0.000  
  19186950.821   -16485117.284 8 -12647296.31847  19186960.4924          0.000  
  19138676.358   -13568619.461 8 -10431449.38447  19138686.3984          0.000  
  22375810.702    -6583623.386 5  -4769765.84445  22375826.4934          0.000  
  20081903.975   -21825768.054 7 -16811862.45046  20081914.4904          0.000  
  22319267.800    -7038375.976 4  -5279659.97245  22319285.1884          0.000  
 02  1 30 13 48 59.9940000  0  8G 3G 6G15G17G22G23G25G30
  21970490.948    -6735956.495 4  -5105364.06445  21970506.0204          0.000  
  20710401.286   -18263462.485 6 -13586128.05946  20710413.6804          0.000  
  19005141.072   -15629957.667 7 -11952564.05847  19005151.4464          0.000  
  19181291.825   -16514855.466 8 -12670468.89947  19181300.9564          0.000  
  19126216.588   -13634095.701 8 -10482469.76547  19126227.0224          0.000  
  22364713.388    -6641939.538 5  -4815206.85245  22364731.5104          0.000  
  20092688.943   -21769092.889 7 -16767700.08846  20092699.9684          0.000  
  22336916.875    -6945630.638 4  -5207391.22645  22336932.8634          0.000  
 02  1 30 13 49 29.9940000  0  8G 3G 6G15G17G22G23G25G30
  21953236.279    -6826630.207 5  -5176018.76645  21953251.4914          0.000  
  20722594.442   -18199387.428 6 -13536199.59846  20722606.6754          0.000  
  18992875.503   -15694413.633 6 -12002789.43547  18992885.5994          0.000  
  19175736.612   -16544048.299 8 -12693216.54647  19175746.0134          0.000  
  19113823.776   -13699220.192 8 -10533216.05247  19113834.2554          0.000  
  22353680.751    -6699915.624 5  -4860382.89345  22353699.9964          0.000  
  20103556.497   -21711983.709 7 -16723199.55546  20103568.1154          0.000  
  22354593.840    -6852738.911 3  -5135008.34945  22354611.9864          0.000  
 02  1 30 13 49 59.9940000  0  8G 3G 6G15G17G22G23G25G30
  21936006.371    -6917173.902 5  -5246572.07845  21936021.5734          0.000  
  20734811.532   -18135186.630 7 -13486173.09246  20734824.0574          0.000  
  18980712.258   -15758331.799 7 -12052595.74447  18980722.2354          0.000  
  19170285.216   -16572695.552 8 -12715539.06347  19170295.2104          0.000  
  19101498.240   -13763991.265 8 -10583686.95747  19101508.5514          0.000  
  22342713.312    -6757549.263 5  -4905292.08145  22342729.9584          0.000  
  20114506.168   -21654443.271 7 -16678362.96946  20114517.5444          0.000  
  22372298.303    -6759702.178 3  -5062512.52845  22372314.7274          0.000  
 02  1 30 13 50 29.9940000  0  8G 3G 6G15G17G22G23G25G30
  21918800.469    -7007590.528 5  -5317026.42745  21918817.1784          0.000  
  20747051.754   -18070864.338 6 -13436051.94446  20747064.5204          0.000  
  18968650.931   -15821714.324 7 -12101984.67547  18968660.9814          0.000  
  19164937.012   -16600800.420 8 -12737438.93547  19164946.9174          0.000  
  19089239.550   -13828410.830 8 -10633883.97047  19089249.6554          0.000  
  22331810.820    -6814841.770 5  -4949935.45545  22331828.0614          0.000  
  20125536.917   -21596477.147 7 -16633194.68746  20125546.9554          0.000  
  22390029.548    -6666525.059 4  -4989907.32445  22390047.3304          0.000  
 02  1 30 13 50 59.9940000  0  8G 3G 6G15G17G22G23G25G30
  21901619.214    -7097877.829 5  -5387379.96545  21901634.5094          0.000  
  20759315.303   -18006419.434 6 -13385835.24646  20759327.8764          0.000  
  18956692.302   -15884557.081 8 -12150953.01247  18956702.2354          0.000  
  19159692.531   -16628360.239 8 -12758914.10347  19159702.4824          0.000  
  19077048.502   -13892474.852 8 -10683803.93147  19077058.0294          0.000  
  22320974.145    -6871788.292 5  -4994309.29245  22320990.9204          0.000  
  20136648.531   -21538085.672 7 -16587694.93546  20136659.9104          0.000  
  22407787.760    -6573206.573 4  -4917191.90945  22407806.3764          0.000  
 02  1 30 13 51 29.9940000  0  8G 3G 6G15G17G22G23G25G30
  21884463.115    -7188033.534 6  -5457630.88445  21884480.0034          0.000  
  20771602.282   -17941851.127 6 -13335522.39246  20771615.1584          0.000  
  18944836.997   -15946856.826 8 -12199498.22347  18944846.8674          0.000  
  19154552.162   -16655373.085 8 -12779963.05247  19154562.0184          0.000  
  19064925.807   -13956179.929 8 -10733444.19147  19064935.1184          0.000  
  22310204.099    -6928385.089 6  -5038410.53645  22310218.8964          0.000  
  20147840.977   -21479269.622 7 -16541864.36546  20147851.9814          0.000  
  22425572.880    -6479746.410 3  -4844366.22245  22425590.8034          0.000  
 02  1 30 13 51 59.9940000  0  8G 3G 6G15G17G22G23G25G30
  21867332.106    -7278057.086 5  -5527778.91245  21867346.7334          0.000  
  20783912.648   -17877159.924 6 -13285113.77546  20783926.3624          0.000  
  18933085.391   -16008611.796 8 -12247618.93047  18933094.9434          0.000  
  19149516.025   -16681838.281 8 -12800585.26547  19149525.4464          0.000  
  19052871.794   -14019523.850 8 -10782803.02647  19052881.0114          0.000  
  22299500.923    -6984629.403 5  -5082237.09745  22299516.7204          0.000  
  20159113.783   -21420031.185 7 -16495704.66946  20159124.4054          0.000  
  22443384.905    -6386145.185 3  -4771430.40545  22443401.1314          0.000  
 02  1 30 13 52 29.9940000  0  8G 3G 6G15G17G22G23G25G30
  21850226.295    -7367948.347 6  -5597823.82245  21850239.5674          0.000  
  20796246.198   -17812346.991 6 -13234610.30346  20796258.7544          0.000  
  18921437.613   -16069821.210 8 -12295314.53147  18921447.6534          0.000  
  19144584.024   -16707756.018 8 -12820780.87747  19144593.6964          0.000  
  19040886.704   -14082505.473 8 -10831879.55247  19040896.6074          0.000  
  22288865.253    -7040519.404 5  -5125787.56045  22288882.8824          0.000  
  20170466.396   -21360373.059 7 -16449217.94246  20170476.9134          0.000  
  22461223.349    -6292404.578 3  -4698386.29745  22461245.7354          0.000  
 02  1 30 13 52 59.9940000  0  8G 3G 6G15G17G22G23G25G30
  21833144.425    -7457713.732 5  -5667770.63045  21833158.6834          0.000  
  20808601.507   -17747419.698 6 -13184017.73246  20808614.6014          0.000  
  18909892.663   -16130490.210 7 -12342589.04047  18909903.1614          0.000  
  19139755.007   -16733132.540 8 -12840554.77247  19139764.1654          0.000  
  19028969.694   -14145129.489 8 -10880677.42847  19028979.3474          0.000  
  22278296.236    -7096059.493 5  -5169065.37545  22278311.5834          0.000  
  20181897.103   -21300304.598 7 -16402411.48146  20181908.4454          0.000  
  22479086.915    -6198532.513 3  -4625239.54945  22479106.3784          0.000  
 02  1 30 13 53 29.9940000  0  8G 3G 6G15G17G22G23G25G30
  21816088.122    -7547343.771 5  -5737611.99445  21816102.0854          0.000  
  20820980.164   -17682369.793 6 -13133329.60446  20820993.1824          0.000  
  18898452.612   -16190607.923 7 -12389433.96447  18898462.9314          0.000  
  19135030.782   -16757958.429 8 -12859899.60447  19135040.7844          0.000  
  19017122.805   -14207385.085 8 -10929188.23247  19017132.4584          0.000  
  22267795.919    -7151238.071 5  -5212061.47745  22267812.2104          0.000  
  20193407.195   -21239818.907 7 -16355279.89446  20193418.2424          0.000  
  22496976.993    -6104520.996 3  -4551984.08845  22496990.8704          0.000  
 02  1 30 13 53 59.9940000  0  8G 3G 6G15G17G22G23G25G30
  21799057.719    -7636837.861 5  -5807347.43045  21799073.9014          0.000  
  20833382.030   -17617198.113 6 -13082546.60246  20833394.1504          0.000  
  18887117.738   -16250172.741 8 -12435848.05047  18887127.3964          0.000  
  19130411.392   -16782233.412 8 -12878815.16547  19130421.5024          0.000  
  19005346.381   -14269270.367 8 -10977410.48547  19005355.9904          0.000  
  22257364.787    -7206052.929 5  -5254774.17245  22257383.7374          0.000  
  20204996.285   -21178918.333 7 -16307825.03346  20205006.9674          0.000  
  22514893.278    -6010371.118 2  -4478621.10143  22514912.0004          0.000  
 02  1 30 13 54 29.9940000  0  8G 3G 6G15G17G22G23G25G30
  21782050.806    -7726209.689 5  -5876987.61745  21782064.5674          0.000  
  20845804.275   -17551919.333 6 -13031680.13746  20845817.1554          0.000  
  18875885.673   -16309197.311 7 -12481841.17847  18875895.0414          0.000  
  19125894.236   -16805971.188 8 -12897312.12047  19125903.9744          0.000  
  18993638.142   -14330797.667 7 -11025353.79347  18993647.8694          0.000  
  22247000.878    -7260515.484 5  -5297212.31845  22247019.0834          0.000  
  20216661.221   -21117619.246 7 -16260059.63246  20216671.5764          0.000  
  22532833.072    -5916098.036 3  -4405161.95045  22532849.8004          0.000  
 02  1 30 13 54 59.9940000  0  8G 3G 6G15G17G22G23G25G30
  21765070.214    -7815442.990 5  -5946519.82645  21765082.3444          0.000  
  20858249.738   -17486518.515 6 -12980718.60046  20858262.8984          0.000  
  18864759.668   -16367664.487 7 -12527399.97247  18864769.5084          0.000  
  19121482.307   -16829155.890 8 -12915378.10947  19121491.7654          0.000  
  18982001.390   -14391949.291 8 -11073004.37147  18982011.2034          0.000  
  22236707.432    -7314607.766 5  -5339361.95445  22236724.0834          0.000  
  20228404.441   -21055908.381 7 -16211973.35746  20228414.6684          0.000  
  22550798.945    -5821687.306 2  -4331595.43545  22550821.3704          0.000  
 02  1 30 13 55 29.9940000  0  8G 3G 6G15G17G22G23G25G30
  21748115.068    -7904542.036 5  -6015947.41745  21748130.8914          0.000  
  20870717.387   -17421000.900 6 -12929666.05246  20870730.3744          0.000  
  18853739.198   -16425577.004 8 -12572526.56547  18853749.7084          0.000  
  19117174.896   -16851791.534 8 -12933016.27047  19117184.3224          0.000  
  18970435.555   -14452727.981 7 -11120364.32447  18970445.2244          0.000  
  22226483.977    -7368331.925 5  -5381224.74645  22226500.6164          0.000  
  20240224.756   -20993792.793 7 -16163571.72746  20240235.2134          0.000  
  22568790.297    -5727144.376 4  -4257926.02645  22568807.5264          0.000  
 02  1 30 13 55 59.9940000  0  8G 3G 6G15G17G22G23G25G30
  21731184.830    -7993510.154 6  -6085272.93245  21731198.3174          0.000  
  20883206.416   -17355370.891 6 -12878525.89846  20883219.1964          0.000  
  18842823.867   -16482937.268 6 -12617222.83547  18842834.5694          0.000  
  19112971.293   -16873881.638 8 -12950229.33447  19112981.1434          0.000  
  18958940.360   -14513135.564 8 -11167435.10747  18958950.1574          0.000  
  22216330.241    -7421689.402 5  -5422801.83745  22216346.0974          0.000  
  20252120.884   -20931278.681 7 -16114859.56446  20252131.9424          0.000  
  22586805.859    -5632473.984 3  -4184157.09544  22586824.8634          0.000  
 02  1 30 13 56 29.9940000  0  8G 3G 6G15G17G22G23G25G30
  21714279.517    -8082346.793 5  -6154496.06245  21714293.5594          0.000  
  20895716.715   -17289629.264 6 -12827298.80446  20895730.0074          0.000  
  18832013.893   -16539744.122 6 -12661487.87747  18832024.1114          0.000  
  19108871.500   -16895426.052 8 -12967017.17847  19108881.6134          0.000  
  18947516.141   -14573170.261 8 -11214215.34647  18947525.1384          0.000  
  22206246.744    -7474677.886 5  -5464091.43045  22206261.7014          0.000  
  20264092.445   -20868368.317 7 -16065838.64746  20264103.1044          0.000  
  22604845.370    -5537677.555 4  -4110290.18745  22604865.1414          0.000  
 02  1 30 13 56 59.9940000  0  8G 3G 6G15G17G22G23G25G30
  21697401.139    -8171041.786 5  -6223608.81545  21697416.6514          0.000  
  20908249.991   -17223767.030 6 -12775977.71046  20908261.8594          0.000  
  18821311.379   -16595986.311 6 -12705312.92647  18821321.4264          0.000  
  19104877.454   -16916414.719 8 -12983371.98147  19104887.0894          0.000  
  18936165.046   -14632820.424 8 -11260695.94047  18936174.5694          0.000  
  22196235.596    -7527285.336 5  -5505084.05545  22196251.9254          0.000  
  20276140.822   -20805054.470 7 -16016503.30246  20276152.4384          0.000  
  22622910.506    -5442746.456 5  -4036318.22845  22622930.3434          0.000  
 02  1 30 13 57 29.9940000  0  8G 3G 6G15G17G22G23G25G30
  21680549.455    -8259596.829 5  -6292612.49445  21680563.6474          0.000  
  20920805.716   -17157786.960 6 -12724564.79846  20920818.2174          0.000  
  18810716.151   -16651664.554 7 -12748698.53247  18810726.4664          0.000  
  19100988.810   -16936849.679 8 -12999295.32547  19100998.4094          0.000  
  18924887.025   -14692086.459 8 -11306877.21147  18924897.1644          0.000  
  22186297.124    -7579511.513 5  -5545779.61945  22186315.2564          0.000  
  20288265.174   -20741341.659 7 -15966857.07446  20288276.5624          0.000  
  22641000.545    -5347683.888 3  -3962243.87245  22641021.8094          0.000  
 02  1 30 13 57 59.9940000  0  8G 3G 6G15G17G22G23G25G30
  21663723.592    -8348015.952 5  -6361510.31445  21663737.3474          0.000  
  20933382.793   -17091694.455 6 -12673064.26746  20933395.7554          0.000  
  18800227.602   -16706782.114 7 -12791647.24247  18800237.9244          0.000  
  19097204.698   -16956735.454 8 -13014790.73947  19097214.3314          0.000  
  18913681.532   -14750971.119 8 -11352761.30247  18913691.1554          0.000  
  22176430.879    -7631358.844 6  -5586179.98345  22176446.3654          0.000  
  20300463.964   -20677236.985 7 -15916905.49946  20300474.2644          0.000  
  22659114.517    -5252495.655 3  -3888071.53245  22659139.3964          0.000  
 02  1 30 13 58 29.9940000  0  8G 3G 6G15G17G22G23G25G30
  21646923.057    -8436302.593 6  -6430304.92245  21646935.8064          0.000  
  20945980.429   -17025493.950 6 -12621479.60346  20945993.1434          0.000  
  18789845.262   -16761341.549 6 -12834161.05247  18789855.2974          0.000  
  19093524.386   -16976075.749 8 -13029861.10347  19093534.0904          0.000  
  18902548.190   -14809476.615 8 -11398349.94847  18902557.6674          0.000  
  22166636.338    -7682828.970 5  -5626286.37245  22166651.5454          0.000  
  20312736.108   -20612746.944 7 -15866653.65846  20312745.6834          0.000  
  22677251.503    -5157186.778 4  -3813805.32145  22677272.7984          0.000  
 02  1 30 13 58 59.9940000  0  8G 3G 6G15G17G22G23G25G30
  21630148.054    -8524455.631 6  -6498995.45046  21630160.7234          0.000  
  20958598.712   -16959185.142 6 -12569810.52646  20958612.0374          0.000  
  18779569.614   -16815340.417 6 -12876238.05947  18779579.5244          0.000  
  19089948.060   -16994869.530 8 -13044505.61347  19089958.1374          0.000  
  18891487.629   -14867600.116 7 -11443640.94447  18891497.5634          0.000  
  22156914.162    -7733918.581 5  -5666096.32345  22156930.4164          0.000  
  20325081.251   -20547873.033 6 -15816102.72146  20325092.7784          0.000  
  22695411.301    -5061757.490 3  -3739445.25445  22695433.6784          0.000  
 02  1 30 13 59 29.9940000  0  8G 3G 6G15G17G22G23G25G30
  21613399.426    -8612469.876 6  -6567577.77445  21613412.1294          0.000  
  20971238.378   -16892764.074 6 -12518054.00446  20971252.5614          0.000  
  18769401.757   -16868772.807 6 -12917873.65047  18769411.9744          0.000  
  19086476.658   -17013111.883 8 -13058720.42447  19086486.1534          0.000  
  18880501.060   -14925335.110 6 -11488629.21447  18880510.8424          0.000  
  22147265.681    -7784621.009 5  -5705604.55345  22147282.3534          0.000  
  20337499.859   -20482613.210 7 -15765251.04046  20337511.2724          0.000  
  22713594.799    -4966204.328 3  -3664988.52745  22713608.6264          0.000  
