     2.10           OBSERVATION DATA    G (GPS)             RINEX VERSION / TYPE
teqc  2005Sep1      gpsops              20080528 00:03:37UTCPGM / RUN BY / DATE
    30.0000                                                 INTERVAL
     1     1                                                WAVELENGTH FACT L1/2
     7    L1    L2    P1    P2    C1    S1    S2            # / TYPES OF OBSERV
Linux 2.4.20-8|Pentium IV|gcc|Linux|486/DX+                 COMMENT
soc2rnx ver 1.19    gpsops              28-May-2008 00:03:36COMMENT
S1, if present, is the SNR for the C/A data stream on L1.   COMMENT
 SNR is mapped to RINEX snr flag value [1,4-9]              COMMENT
    SNR:   >316  >100  >31.6  >10  >3.2    >0 bad=0         COMMENT
L1 & L2:      9     8     7     6     5     4     1         COMMENT
                                                            COMMENT
This data is provided as a public service by NASA/JPL.      COMMENT
No warranty is expressed or implied regarding suitability   COMMENT
for use.  For further information, contact:                 COMMENT
Dave Stowers, NASA/JPL m/s 238-600                          COMMENT
4800 Oak Grove Drive, Pasadena CA 91109 USA                 COMMENT
                                                            COMMENT
Forced Modulo Decimation to 30 seconds                      COMMENT
  2008     5    27     0     0    0.0000000     GPS         TIME OF FIRST OBS
DSN                 JPL                                     OBSERVER / AGENCY
451-U               AOAD/M_T        NONE                    ANT # / TYPE
  4849202.3940  -360328.9929  4114913.1862                  APPROX POSITION XYZ
        0.0254        0.0000        0.0000                  ANTENNA: DELTA H/E/N
LP03574             ASHTECH Z-XII3      CC00                REC # / TYPE / VERS
MADR                                                        MARKER NAME
13407S012                                                   MARKER NUMBER
                                                            END OF HEADER
 08  5 27  0  0  0.0000000  0  8G 6G21G29G30G31G 3G24G16
 114882249.33248  89518626.24848  21861373.4054   21861376.2644   21861373.5894
       238.000         204.000
 110254184.33348  85912345.81348  20980679.0014   20980680.5424   20980679.8634
       249.000         223.000
 120713732.89848  94062638.76348  22971066.7834   22971069.3844   22971066.3794
       231.000         194.000
 127596858.63848  99426108.12048  24280886.5204   24280890.7184   24280887.1834
       218.000         159.000
 113742340.75548  88630389.25948  21644452.3124   21644453.7974   21644451.9784
       245.000         216.000
 122838795.24448  95718531.73348  23375451.5884   23375454.5834   23375451.0024
       216.000         162.000
 117616989.64848  91649585.97448  22381782.3054   22381787.0184   22381782.7914
       238.000         201.000
 111208337.76148  86655834.69148  21162252.8314   21162255.1284   21162253.5234
       248.000         220.000
 08  5 27  0  0 30.0000000  0  8G 6G21G29G30G31G 3G24G16
 114825074.22548  89474074.23348  21850493.1514   21850496.1524   21850493.1974
       236.000         204.000
 110238993.41748  85900508.75448  20977788.2394   20977789.7274   20977788.6424
       248.000         223.000
 120793260.51648  94124608.31248  22986200.7214   22986203.2344   22986200.3684
       233.000         197.000
 127695503.22248  99502974.07548  24299658.6784   24299661.6504   24299658.3424
       214.000         155.000
 113813855.33948  88686114.90648  21658061.2464   21658062.5594   21658061.0534
       245.000         216.000
 122751831.52048  95650767.84448  23358902.5194   23358906.2154   23358902.5684
       218.000         162.000
 117688379.74648  91705214.61548  22395367.4394   22395371.8074   22395368.1844
       238.000         199.000
 111152642.00248  86612435.40848  21151654.5184   21151656.5154   21151654.6754
       248.000         221.000
 08  5 27  0  1  0.0000000  0  8G 6G21G29G30G31G 3G24G16
 114768127.75148  89429700.36948  21839656.6934   21839659.6324   21839656.6524
       237.000         204.000
 110224313.66448  85889069.99748  20974994.5674   20974996.2464   20974994.7994
       249.000         223.000
 120872862.07948  94186635.51448  23001349.1224   23001351.0114   23001348.9344
       234.000         196.000
 127794280.59448  99579943.49548  24318454.6494   24318457.7604   24318453.7084
       213.000         154.000
 113885789.80948  88742167.74148  21671749.9164   21671751.3704   21671749.7454
       245.000         216.000
 122665022.63348  95583124.57448  23342383.5154   23342386.4384   23342384.5474
       216.000         162.000
 117760182.70648  91761164.98048  22409031.5204   22409034.4524   22409032.0864
       240.000         199.000
 111097195.70048  86569230.51448  21141103.6084   21141105.6714   21141104.0884
       248.000         221.000
 08  5 27  0  1 30.0000000  0  8G 6G21G29G30G31G 3G24G16
 114711409.88248  89385504.63948  21828863.5484   21828866.4124   21828863.7244
       237.000         204.000
 110210145.07648  85878029.54548  20972298.7654   20972300.2214   20972299.8154
       248.000         224.000
 120952536.29248  94248719.27048  23016509.5364   23016512.2034   23016509.5414
       233.000         195.000
 127893189.57748  99657015.42348  24337277.0164   24337280.0014   24337275.9704
       215.000         156.000
 113958141.53848  88798545.70248  21685517.8754   21685519.5354   21685517.5994
       244.000         216.000
 122578368.73848  95515602.09548  23325893.2394   23325897.2694   23325893.9024
       215.000         162.000
 117832396.11648  91817435.16248  22422773.0804   22422775.7614   22422773.5744
       238.000         199.000
 111042000.13948  86526221.00048  21130600.0294   21130602.1394   21130600.3484
       248.000         221.000
 08  5 27  0  2  0.0000000  0  8G 6G21G29G30G31G 3G24G16
 114654920.85648  89341487.23348  21818113.9154   21818116.7504   21818113.9354
       236.000         204.000
 110196487.68448  85867387.43948  20969699.6344   20969701.0734   20969699.7084
       249.000         223.000
 121032281.88648  94310858.68248  23031685.8764   23031687.5094   23031685.7134
       237.000         198.000
 127992229.63648  99734189.51748  24356123.8134   24356126.7064   24356123.1334
       213.000         153.000
 114030908.62148  88855247.31648  21699364.8114   21699366.5924   21699364.4274
       245.000         216.000
 122491871.02348  95448201.29848  23309432.8804   23309437.2664   23309433.1094
       213.000         163.000
 117905017.72348  91874023.42548  22436592.6594   22436595.7904   22436593.1594
       238.000         199.000
 110987057.24748  86483408.36748  21120144.9654   21120146.8584   21120145.4894
       248.000         221.000
 08  5 27  0  2 30.0000000  0  8G 6G21G29G30G31G 3G24G16
 114598660.16348  89297647.75448  21807408.1374   21807410.7334   21807408.2014
       238.000         205.000
 110183340.91948  85857143.21248  20967197.7634   20967199.4484   20967198.6914
       249.000         223.000
 121112098.11748  94373053.13048  23046873.7864   23046876.2824   23046874.1054
       232.000         196.000
 128091399.06648  99811464.41348  24374994.6544   24374998.4094   24374994.4284
       215.000         153.000
 114104087.88548  88912270.11148  21713290.7034   21713292.1124   21713290.6164
       245.000         215.000
 122405528.98748  95380921.83748  23293003.2724   23293006.4334   23293003.2964
       216.000         161.000
 117978044.05448  91930927.07248  22450488.7224   22450493.3364   22450488.6024
       237.000         199.000
 110932367.85148  86440793.26648  21109737.7944   21109739.8694   21109738.2074
       248.000         222.000
 08  5 27  0  3  0.0000000  0  8G 6G21G29G30G31G 3G24G16
 114542628.06548  89253986.40948  21796745.3344   21796748.2664   21796745.6324
       237.000         205.000
 110170705.15048  85847297.17748  20964793.2524   20964794.8924   20964793.6864
       248.000         223.000
 121191984.03648  94435301.88448  23062075.2754   23062078.1624   23062074.9394
       235.000         198.000
 128190696.93148  99888839.39348  24393890.6504   24393893.8084   24393890.3894
       214.000         154.000
 114177677.37648  88969612.56348  21727294.2614   21727295.6094   21727294.0104
       245.000         215.000
 122319343.70748  95313764.48348  23276602.3954   23276606.2114   23276601.9454
       212.000         162.000
 118051473.21348  91988144.62248  22464461.8784   22464467.1804   22464461.4844
       236.000         200.000
 110877933.78648  86398377.12048  21099379.2514   21099381.2584   21099379.6584
       247.000         221.000
 08  5 27  0  3 30.0000000  0  8G 6G21G29G30G31G 3G24G16
 114486824.55048  89210503.17048  21786126.2784   21786129.1474   21786126.5814
       237.000         205.000
 110158581.34748  85837850.06848  20962486.0814   20962487.8694   20962486.4824
       249.000         224.000
 121271938.53348  94497604.08048  23077291.2294   23077293.0474   23077291.5534
       236.000         198.000
 128290122.43448  99966313.79848  24412810.5664   24412813.6054   24412810.5144
       218.000         157.000
 114251674.89048  89027272.96448  21741375.6184   21741376.8764   21741375.4854
       245.000         215.000
 122233315.76648  95246729.78848  23260231.2214   23260235.5694   23260231.2734
       216.000         165.000
 118125302.59348  92045674.01048  22478511.0004   22478516.3724   22478511.2684
       237.000         199.000
 110823756.58848  86356161.13348  21089069.7864   21089071.8224   21089069.8764
       249.000         222.000
 08  5 27  0  4  0.0000000  0  8G 6G21G29G30G31G 3G24G16
 114431249.21548  89167197.73748  21775550.4574   21775553.3134   21775550.7494
       237.000         204.000
 110146968.62848  85828801.20648  20960276.4064   20960277.9024   20960277.1294
       248.000         224.000
 121351960.28148  94559958.64848  23092517.8184   23092520.6444   23092517.2694
       234.000         196.000
 128389674.02248 100043886.45848  24431754.8244   24431758.2864   24431754.2474
       218.000         160.000
 114326077.67548  89085249.15348  21755533.9084   21755535.1994   21755533.5804
       246.000         214.000
 122147445.35648  95179817.79848  23243891.7444   23243894.9724   23243891.2874
       220.000         170.000
 118199529.27648  92103512.98448  22492636.2224   22492640.3444   22492636.7454
       236.000         197.000
 110769837.70148  86314146.42948  21078809.4074   21078811.2034   21078809.8874
       249.000         222.000
 08  5 27  0  4 30.0000000  0  8G 6G21G29G30G31G 3G24G16
 114375903.13748  89124070.93548  21765018.3254   21765021.4014   21765018.2284
       238.000         206.000
 110135867.96348  85820151.34848  20958163.7964   20958165.5414   20958164.0654
       249.000         223.000
 121432049.17048  94622365.57148  23107758.6954   23107760.8504   23107758.5254
       236.000         196.000
 128489351.62448 100121557.29948  24450722.4604   24450725.7854   24450722.3464
       217.000         158.000
 114400883.83248  89143539.65948  21769768.9154   21769770.2284   21769768.7094
       242.000         214.000
 122061733.26548  95113029.19448  23227580.6274   23227584.5864   23227580.2834
       220.000         167.000
 118274151.75848  92161660.36548  22506835.9274   22506839.4724   22506835.8364
       234.000         195.000
 110716179.14448  86272334.57248  21068598.3744   21068600.3954   21068598.7044
       249.000         222.000
 08  5 27  0  5  0.0000000  0  8G 6G21G29G30G31G 3G24G16
 114320785.68248  89081122.28248  21754530.0334   21754533.0154   21754530.1984
       239.000         206.000
 110125278.57748  85811899.89248  20956148.8194   20956150.3874   20956149.5854
       248.000         223.000
 121512203.62048  94684823.58748  23123011.5504   23123013.5734   23123011.3344
       234.000         195.000
 128589153.39848 100199324.93548  24469713.9174   24469717.1754   24469713.8254
       216.000         157.000
 114476090.34148  89202142.12648  21784080.4164   21784081.7694   21784080.0614
       244.000         215.000
 121976180.21048  95046364.50448  23211300.3094   23211304.1444   23211301.5254
       222.000         169.000
 118349166.78248  92220113.62848  22521110.9294   22521113.6294   22521110.5034
       238.000         196.000
 110662781.99148  86230726.41348  21058437.2684   21058439.3914   21058437.8004
       249.000         222.000
 08  5 27  0  5 30.0000000  0  8G 6G21G29G30G31G 3G24G16
 114265896.77648  89038351.72548  21744085.0434   21744087.8864   21744085.4544
       239.000         206.000
 110115199.96648  85804046.43848  20954231.0244   20954232.4384   20954231.5014
       249.000         224.000
 121592422.63848  94747331.89048  23138275.9884   23138279.0024   23138275.8924
       233.000         194.000
 128689078.23848 100277188.41948  24488728.9934   24488732.3484   24488728.5944
       218.000         156.000
 114551695.01748  89261054.85348  21798467.5304   21798469.0004   21798467.4394
       243.000         214.000
 121890785.94948  94979823.55648  23195051.0024   23195053.6954   23195052.4534
       225.000         172.000
 118424571.71348  92278870.71548  22535460.2654   22535462.7214   22535460.9874
       238.000         196.000
 110609647.55148  86189322.96448  21048325.9864   21048327.8954   21048326.3594
       248.000         222.000
 08  5 27  0  6  0.0000000  0  8G 6G21G29G30G31G 3G24G16
 114211236.24048  88995759.11548  21733683.4164   21733686.4964   21733683.7384
       240.000         207.000
 110105633.34048  85796591.93548  20952410.4934   20952412.0144   20952410.9154
       248.000         224.000
 121672705.17748  94809889.68848  23153553.8944   23153556.3384   23153554.0524
       234.000         195.000
 128789125.50748 100355147.31348  24507767.6394   24507770.3054   24507767.5274
       221.000         159.000
 114627694.90848  89320275.53748  21812929.8774   21812931.1734   21812929.4604
       245.000         214.000
 121805550.77648  94913406.55248  23178831.0944   23178834.0474   23178830.9584
       224.000         173.000
 118500364.10348  92337929.72548  22549883.0464   22549885.9884   22549883.1314
       237.000         197.000
 110556777.45848  86148125.49948  21038265.1424   21038267.1724   21038265.2914
       248.000         223.000
 08  5 27  0  6 30.0000000  0  8G 6G21G29G30G31G 3G24G16
 114156804.95248  88953345.14748  21723325.6284   21723328.5254   21723326.1724
       240.000         207.000
 110096579.15148  85789536.73148  20950687.5534   20950689.1484   20950688.2674
       248.000         224.000
 121753051.11848  94872496.90048  23168843.4744   23168846.0804   23168843.4084
       234.000         195.000
 128889294.63648 100433201.16048  24526829.5414   24526832.1024   24526829.7284
       221.000         163.000
 114704088.77748  89379803.22748  21827467.0504   21827468.2804   21827467.1684
       243.000         213.000
 121720476.28848  94847114.75948  23162642.0584   23162645.2044   23162641.8434
       225.000         174.000
 118576542.06948  92397289.18948  22564379.1054   22564382.4974   22564379.1554
       237.000         196.000
 110504174.55648  86107136.23248  21028255.3604   21028257.1174   21028255.6474
       250.000         223.000
 08  5 27  0  7  0.0000000  0  8G 6G21G29G30G31G 3G24G16
 114102603.09148  88911109.95048  21713011.1894   21713013.9594   21713011.5624
       239.000         207.000
 110088036.92948  85782880.46448  20949062.0394   20949063.5884   20949062.5874
       248.000         224.000
 121833459.71948  94935152.93548  23184144.1144   23184147.0454   23184144.2234
       233.000         193.000
 128989584.58348 100511349.15448  24545913.6334   24545916.7594   24545912.9694
       218.000         162.000
 114780874.11548  89439635.94548  21842078.8694   21842080.1824   21842078.4414
       243.000         213.000
 121635563.19748  94780948.76748  23146483.6534   23146487.4394   23146484.8824
       223.000         175.000
 118653103.33748  92456947.32548  22578948.3024   22578951.9144   22578947.8574
       238.000         198.000
 110451840.18148  86066356.20248  21018296.4464   21018298.2144   21018297.0904
       249.000         223.000
 08  5 27  0  7 30.0000000  0  8G 6G21G29G30G31G 3G24G16
 114048630.20048  88869053.16548  21702740.6244   21702743.2014   21702740.9224
       239.000         207.000
 110080006.46048  85776622.96548  20947533.6884   20947535.3904   20947533.9674
       248.000         224.000
 121913929.38748  94997856.57148  23199457.2314   23199459.8154   23199457.2424
       234.000         192.000
 129089994.07148 100589590.31448  24565021.3194   24565024.4724   24565021.0944
       220.000         163.000
 114858047.85948  89499771.33948  21856764.5424   21856765.9314   21856764.3044
       244.000         213.000
 121550811.94648  94714908.84948  23130355.7104   23130359.9134   23130355.9004
       222.000         173.000
 118730045.00948  92516901.88048  22593590.0374   22593593.9304   22593590.6504
       237.000         198.000
 110399775.42648  86025786.27848  21008388.6604   21008390.6784   21008389.0064
       249.000         223.000
 08  5 27  0  8  0.0000000  0  8G 6G21G29G30G31G 3G24G16
 113994886.48648  88827174.95848  21692513.4664   21692516.2134   21692513.1504
       239.000         208.000
 110072487.65648  85770764.16248  20946103.0164   20946104.6244   20946103.6604
       248.000         224.000
 121994459.63148  95060607.39348  23214781.2124   23214784.3134   23214780.7984
       231.000         192.000
 129190521.72248 100667923.57648  24584151.7214   24584153.8654   24584151.6444
       218.000         160.000
 114935607.83148  89560207.66348  21871523.7794   21871525.2854   21871523.8424
       242.000         213.000
 121466222.76248  94648995.22948  23114258.7324   23114262.5714   23114259.2744
       224.000         174.000
 118807364.60948  92577150.91448  22608303.2044   22608307.8024   22608303.3634
       236.000         198.000
 110347981.94648  85985427.73048  20998532.7744   20998534.6474   20998533.1214
       249.000         223.000
 08  5 27  0  8 30.0000000  0  9G 6G21G29G30G31G 3G24G16G18
 113941371.55348  88785475.03848  21682329.6994   21682332.5974   21682329.3134
       240.000         208.000
 110065480.19648  85765303.82048  20944769.5254   20944771.1474   20944769.9344
       247.000         224.000
 122075049.29148  95123404.50248  23230116.8884   23230120.0324   23230116.6374
       231.000         192.000
 129291166.25548 100746347.87748  24603303.6744   24603306.8164   24603303.8074
       219.000         162.000
 115013551.42048  89620942.92348  21886355.7764   21886357.2394   21886355.4184
       242.000         212.000
 121381795.57748  94583207.84148  23098192.9444   23098196.2034   23098193.4414
       225.000         174.000
 118885059.11648  92637692.11048  22623087.8644   22623093.1044   22623088.3754
       235.000         198.000
 110296461.23548  85945281.73548  20988728.4374   20988730.5164   20988728.8854
       249.000         223.000
 140337512.03458  91561689.36658  24802410.4535   24802411.7835   24802410.7375
       214.000         148.000
 08  5 27  0  9  0.0000000  0  9G 6G21G29G30G31G 3G24G16G18
 113888085.85148  88743953.72348  21672189.9904   21672192.7424   21672190.7254
       241.000         209.000
 110058984.75248  85760242.44248  20943533.4314   20943535.1174   20943533.8204
       248.000         224.000
 122155697.74648  95186247.42548  23245463.9464   23245467.0394   23245463.4134
       232.000         194.000
 129391927.10648 100824862.80448  24622477.2334   24622480.8284   24622477.3524
       215.000         162.000
 115091876.15748  89681975.18348  21901260.4134   21901261.8554   21901260.1264
       242.000         212.000
 121297531.65748  94517547.66048  23082157.8624   23082161.3784   23082158.6624
       226.000         174.000
 118963126.52648  92698523.86848  22637943.5634   22637949.3394   22637944.2344
       233.000         197.000
 110245215.38648  85905349.91248  20978976.8464   20978978.8104   20978977.0174
       250.000         224.000
 140258518.71648  91500136.23448  24787377.3134   24787380.2244   24787378.3224
       212.000         148.000
 08  5 27  0  9 30.0000000  0  9G 6G21G29G30G31G 3G24G16G18
 113835029.82748  88702611.38048  21662093.8524   21662096.4804   21662093.9124
       240.000         209.000
 110053001.33448  85755580.05148  20942394.9794   20942396.3754   20942395.5294
       249.000         224.000
 122236404.35148  95249135.66548  23260822.3444   23260824.7324   23260822.0734
       233.000         192.000
 129492803.69348 100903467.96048  24641673.8164   24641676.5364   24641673.8404
       214.000         162.000
 115170580.24248  89743303.03248  21916237.4054   21916238.7924   21916237.3414
       242.000         212.000
 121213432.00348  94452015.45948  23066154.4624   23066157.1514   23066154.7414
       226.000         174.000
 119041564.69148  92759644.52748  22652869.8354   22652875.9454   22652869.7804
       234.000         197.000
 110194246.10448  85865633.59848  20969277.7674   20969279.6664   20969278.1674
       250.000         224.000
 140179572.66448  91438619.90648  24772353.8944   24772357.6734   24772353.9594
       209.000         148.000
 08  5 27  0 10  0.0000000  0  9G 6G21G29G30G31G 3G24G16G18
 113782203.28248  88661447.85648  21652041.1744   21652043.8744   21652041.0394
       241.000         209.000
 110047529.61548  85751316.38848  20941353.6104   20941355.0824   20941354.0624
       249.000         223.000
 122317168.42348  95312068.67348  23276190.8364   23276193.6814   23276190.5514
       231.000         190.000
 129593794.73648 100982162.25548  24660891.0484   24660894.7124   24660891.4054
       212.000         156.000
 115249660.66748  89804924.13248  21931285.7614   21931287.3604   21931285.3814
       242.000         211.000
 121129496.37948  94386611.10548  23050181.6444   23050184.6224   23050182.0854
       224.000         174.000
 119120370.78448  92821051.88648  22667866.2684   22667872.2664   22667866.9044
       234.000         196.000
 110143554.87148  85826133.94448  20959631.5534   20959633.3454   20959631.8734
       250.000         224.000
 140100676.76848  91377142.59948  24757340.5944   24757343.3094   24757341.2694
       209.000         150.000
 08  5 27  0 10 30.0000000  0  9G 6G21G29G30G31G 3G24G16G18
 113729606.39648  88620463.27948  21642032.0654   21642034.9804   21642032.5614
       240.000         209.000
 110042569.98548  85747451.75148  20940409.7504   20940411.1854   20940410.2844
       249.000         224.000
 122397989.14648  95375045.82248  23291570.5364   23291573.2244   23291570.2404
       231.000         189.000
 129694899.35448 101060945.11548  24680130.4834   24680133.8604   24680129.8864
       214.000         156.000
 115329115.56648  89866837.03548  21946405.6834   21946406.8004   21946405.2004
       243.000         211.000
 121045725.65148  94321335.22748  23034240.5644   23034243.6894   23034240.6404
       224.000         174.000
 119199542.54248  92882744.16648  22682931.9804   22682937.7394   22682932.0294
       234.000         195.000
 110093143.46948  85786852.33848  20950038.6524   20950040.6514   20950039.0124
       250.000         225.000
 140021833.92048  91315706.59848  24742337.1594   24742340.4164   24742337.5284
       211.000         152.000
 08  5 27  0 11  0.0000000  0  9G 6G21G29G30G31G 3G24G16G18
 113677238.67248  88579657.27848  21632066.8254   21632069.7004   21632067.1504
       240.000         209.000
 110038120.71148  85743984.79648  20939563.2524   20939564.6814   20939563.7924
       248.000         224.000
 122478865.03148  95438065.97548  23306961.1434   23306963.2294   23306961.3604
       231.000         189.000
 129796116.16048 101139815.36348  24699391.3094   24699395.0354   24699391.4564
       210.000         153.000
 115408941.32948  89929038.92148  21961596.1084   21961597.3624   21961596.1114
       242.000         210.000
 120962120.00548  94256187.99048  23018331.1034   23018334.4474   23018331.5204
       224.000         176.000
 119279076.65548  92944718.79848  22698066.8384   22698071.9704   22698067.2814
       235.000         195.000
 110043013.04948  85747789.68248  20940498.9804   20940500.9714   20940499.1434
       251.000         225.000
 139943046.03148  91254313.45648  24727345.3784   24727347.1924   24727345.2244
       211.000         149.000
 08  5 27  0 11 30.0000000  0  9G 6G21G29G30G31G 3G24G16G18
 113625100.24448  88539029.95048  21622145.3544   21622148.2204   21622145.4134
       241.000         210.000
 110034182.71148  85740916.23948  20938813.6374   20938815.4104   20938813.9944
       249.000         224.000
 122559795.36848  95501128.56248  23322361.8164   23322364.0074   23322361.2734
       232.000         190.000
 129897443.61848 101218771.77448  24718673.8684   24718676.7374   24718673.5614
       207.000         150.000
 115489135.67548  89991528.01648  21976856.4954   21976857.8714   21976856.0304
       243.000         211.000
 120878679.84748  94191169.72848  23002453.1654   23002456.4424   23002453.4954
       224.000         177.000
 119358970.68048  93006973.88948  22713270.3184   22713274.6444   22713270.6024
       236.000         193.000
 109993165.40548  85708947.36848  20931013.5044   20931015.2894   20931013.7824
       250.000         225.000
 139864316.07948  91192965.51348  24712362.6994   24712365.6544   24712363.1534
       211.000         145.000
 08  5 27  0 12  0.0000000  0  9G 6G21G29G30G31G 3G24G16G18
 113573190.83548  88498581.07648  21612267.4284   21612270.2054   21612267.5414
       241.000         210.000
 110030755.11648  85738245.39248  20938161.6804   20938163.1394   20938162.4314
       249.000         224.000
 122640779.18648  95564232.80848  23337772.4904   23337774.6214   23337772.6744
       230.000         188.000
 129998880.75048 101297813.66448  24737976.2354   24737979.7934   24737976.1644
       213.000         150.000
 115569695.86448  90054302.18148  21992186.5334   21992188.0624   21992186.5264
       241.000         211.000
 120795405.99548  94126281.00648  22986606.9694   22986609.8744   22986607.3654
       226.000         180.000
 119439222.17648  93069507.52448  22728541.6914   22728545.2054   22728541.9134
       233.000         192.000
 109943601.75248  85670326.34648  20921581.6774   20921583.5604   20921582.0134
       250.000         225.000
 139785646.68348  91131664.75348  24697392.3404   24697395.7714   24697393.1344
       208.000         142.000
 08  5 27  0 12 30.0000000  0  9G 6G21G29G30G31G 3G24G16G18
 113521510.67748  88458310.84448  21602432.8824   21602435.6704   21602433.3294
       241.000         210.000
 110027837.99948  85735972.32248  20937606.4654   20937608.0244   20937606.9104
       249.000         224.000
 122721815.61048  95627378.05348  23353193.1754   23353195.2424   23353193.0064
       229.000         188.000
 130100426.71048 101376940.43748  24757300.2764   24757302.8414   24757301.8014
       215.000         152.000
 115650619.20048  90117359.31348  22007585.5994   22007587.4524   22007585.2694
       241.000         211.000
 120712298.43748  94061521.89848  22970792.2354   22970795.1344   22970792.5634
       224.000         178.000
 119519828.50048  93132317.64548  22743880.5834   22743883.7084   22743880.2084
       233.000         192.000
 109894323.76848  85631927.92548  20912204.5164   20912206.2264   20912204.9334
       251.000         225.000
 139707040.95348  91070413.45248  24682434.9884   24682437.7244   24682436.0094
       210.000         147.000
 08  5 27  0 13  0.0000000  0  9G 6G21G29G30G31G 3G24G16G18
 113470060.79148  88418220.04248  21592642.2164   21592645.0454   21592642.2074
       242.000         210.000
 110025431.43848  85734097.09448  20937148.3724   20937150.0744   20937148.8314
       248.000         225.000
 122802904.79748  95690564.41248  23368624.1174   23368626.0754   23368624.5484
       230.000         187.000
 130202081.44348 101456151.91348  24776644.3564   24776647.4264   24776643.7964
       215.000         156.000
 115731904.45148  90180698.46248  22023053.8824   22023055.2634   22023053.2524
       242.000         210.000
 120629358.91648  93996893.72748  22955008.8324   22955012.2424   22955008.7474
       225.000         176.000
 119600788.19848  93195403.12648  22759287.1114   22759289.4434   22759286.4784
       234.000         191.000
 109845334.05648  85593754.13748  20902882.0284   20902883.6934   20902882.5364
       251.000         225.000
 139628502.86348  91009214.92948  24667489.5224   24667491.9264   24667489.8044
       215.000         150.000
 08  5 27  0 13 30.0000000  0  9G 6G21G29G30G31G 3G24G16G18
 113418840.41648  88378308.07848  21582895.4984   21582898.2884   21582895.8034
       242.000         210.000
 110023535.81448  85732619.98848  20936788.0384   20936789.4314   20936788.4404
       249.000         224.000
 122884045.62848  95753791.01248  23384064.5424   23384066.9604   23384064.8454
       227.000         187.000
 130303843.04848 101535446.68148  24796009.2174   24796011.3104   24796008.4354
       217.000         155.000
 115813548.26848  90244317.01748  22038590.1234   22038591.4974   22038589.9434
       242.000         210.000
 120546587.19048  93932396.30548  22939257.5934   22939261.2044   22939258.6714
       225.000         177.000
 119682097.84248  93258761.28248  22774759.5864   22774762.0814   22774760.0084
       233.000         190.000
 109796634.08248  85555806.11348  20893614.8834   20893616.5104   20893615.2424
       251.000         225.000
 139550034.32248  90948070.68948  24652557.6684   24652558.9174   24652558.9464
       205.000         147.000
 08  5 27  0 14  0.0000000  0  9G 6G21G29G30G31G 3G24G16G18
 113367849.76348  88338575.11648  21573192.1364   21573194.8664   21573192.2064
       241.000         211.000
 110022150.23748  85731540.33748  20936523.7494   20936525.6184   20936524.3274
       248.000         224.000
 122965237.12848  95817057.10448  23399514.5444   23399517.2414   23399514.2444
       229.000         187.000
 130405710.81348 101614824.21048  24815393.7494   24815396.9104   24815394.5324
       217.000         155.000
 115895548.54548  90308213.32048  22054194.2474   22054195.7964   22054194.1004
       242.000         210.000
 120463984.12148  93868030.28748  22923539.2074   22923541.9994   22923540.0844
       225.000         178.000
 119763755.07448  93322390.28448  22790298.3804   22790300.8014   22790298.8824
       232.000         189.000
 109748225.06248  85518084.80848  20884402.7994   20884404.5524   20884403.1834
       251.000         226.000
 139471638.12948  90886982.82848  24637639.6844   24637641.6804   24637640.4034
       203.000         136.000
 08  5 27  0 14 30.0000000  0  9G 6G21G29G30G31G 3G24G16G18
 113317086.71848  88299019.50748  21563532.4524   21563534.8594   21563532.5384
       241.000         210.000
 110021272.12348  85730856.10148  20936356.8544   20936358.4404   20936357.0324
       250.000         224.000
 123046476.39648  95880360.41548  23414973.8974   23414976.5694   23414974.3414
       227.000         185.000
 130507681.11848 101694281.64848  24834798.5194   24834802.0384   24834797.9434
       217.000         155.000
 115977900.14948  90372383.39148  22069865.2644   22069866.9494   22069864.6634
       243.000         211.000
 120381547.73048  93803794.15748  22907852.0174   22907854.8874   22907852.4204
       225.000         176.000
 119845755.31648  93386286.56548  22805902.2934   22805904.9054   22805902.6454
       232.000         187.000
 109700106.67948  85480589.97448  20875246.1684   20875247.9834   20875246.6614
       251.000         226.000
 139393314.74748  90825951.65348  24622734.9014   24622735.2544   24622735.0464
       191.000         125.000
 08  5 27  0 15  0.0000000  0  9G 6G21G29G30G31G 3G24G16G18
 113266553.91948  88259643.31648  21553916.0864   21553918.9234   21553916.1514
       241.000         211.000
 110020904.37348  85730569.54248  20936287.4124   20936288.4264   20936287.9664
       249.000         224.000
 123127765.39848  95943702.46348  23430442.6054   23430445.4404   23430442.5724
       227.000         185.000
 130609755.62748 101773820.26048  24854222.0774   24854225.7054   24854221.2174
       212.000         153.000
 116060603.11048  90436827.24048  22085603.3384   22085604.6984   22085603.3674
       243.000         210.000
 120299281.18348  93739690.39248  22892196.8854   22892200.3714   22892197.2924
       224.000         176.000
 119928098.53248  93450450.10848  22821571.9844   22821574.0154   22821572.4154
       229.000         187.000
 109652283.12148  85443324.87048  20866145.6424   20866147.5034   20866145.9784
       250.000         226.000
 119315016.13658 110764926.85558  24607844.6085   24607850.1195   24607846.1305
       197.000         125.000
 08  5 27  0 15 30.0000000  0  9G 6G21G29G30G31G 3G24G16G18
 113216251.77348  88220446.86048  21544344.0914   21544346.9944   21544344.1504
       241.000         212.000
 110021046.83548  85730680.57148  20936313.8284   20936315.4204   20936314.5184
       248.000         223.000
 123209103.68048  96007082.92848  23445920.8574   23445923.4604   23445920.8304
       228.000         185.000
 130711933.80848 101853439.70048  24873665.7414   24873669.2384   24873664.9194
       214.000         154.000
 116143655.28348  90501543.22448  22101407.6454   22101408.8274   22101407.5434
       242.000         209.000
 120217185.42848  93675719.69548  22876574.8654   22876577.9474   22876574.6194
       226.000         177.000
 120010782.38048  93514879.07948  22837305.8724   22837308.3054   22837305.4184
       229.000         186.000
 109604756.59948  85406291.22648  20857101.5694   20857103.4554   20857101.7444
       251.000         226.000
 119236853.16948 110704020.74448  24592970.2054   24592973.8084   24592970.2404
       197.000         133.000
 08  5 27  0 16  0.0000000  0  9G 6G21G29G30G31G 3G24G16G18
 113166179.03348  88181429.15848  21534815.3234   21534818.3084   21534815.3454
       241.000         211.000
 110021698.04148  85731188.01448  20936437.9624   20936439.4034   20936438.1254
       249.000         224.000
 123290489.25648  96070500.24748  23461408.3284   23461410.8014   23461409.1014
       227.000         185.000
 130814212.94648 101933137.76848  24893128.6564   24893131.9784   24893128.0164
       218.000         157.000
 116227052.92948  90566528.38748  22117277.5044   22117278.6804   22117277.1614
       241.000         208.000
 120135259.72848  93611881.50748  22860984.8884   22860988.5534   22860985.2244
       226.000         178.000
 120093803.02248  93579570.47148  22853104.2544   22853107.0364   22853103.7924
       229.000         187.000
 109557527.64348  85369489.45048  20848114.1904   20848116.2554   20848114.7264
       251.000         227.000
 119158773.68348 110643179.61648  24578113.0264   24578115.2524   24578112.3654
       203.000         139.000
 08  5 27  0 16 30.0000000  0  9G 6G21G29G30G31G 3G24G16G18
 113116336.39248  88142590.75348  21525330.5474   21525333.6734   21525331.0034
       241.000         212.000
 110022858.17148  85732092.01448  20936659.2264   20936660.2144   20936659.9144
       249.000         224.000
 123371922.13948  96133954.42348  23476903.8734   23476907.0514   23476903.5634
       226.000         184.000
 130916592.65848 102012914.21048  24912611.5504   24912614.4874   24912611.6574
       219.000         156.000
 116310794.05248  90631781.19048  22133212.7724   22133214.1044   22133212.3544
       242.000         209.000
 120053505.14248  93548176.64448  22845427.7884   22845430.4674   22845428.4024
       228.000         179.000
 120177158.64848  93644522.89848  22868966.1894   22868969.4724   22868966.1014
       230.000         186.000
 109510598.04248  85332920.93948  20839183.8604   20839185.8344   20839184.2674
       251.000         227.000
 119080780.97348 110582406.07948  24563271.5434   24563275.0284   24563272.2724
       205.000         143.000
 08  5 27  0 17  0.0000000  0  9G 6G21G29G30G31G 3G24G16G18
 113066723.25948  88103931.18248  21515889.6154   21515892.6274   21515890.0214
       241.000         212.000
 110024526.15848  85733391.75948  20936975.8834   20936977.6784   20936976.3774
       248.000         224.000
 123453401.03248  96197444.46548  23492408.7114   23492412.0904   23492408.2264
       225.000         183.000
 131019071.53848 102092767.98248  24932111.8854   24932115.6854   24932111.7074
       214.000         153.000
 116394875.22348  90697298.98148  22149213.2064   22149214.5354   22149212.9624
       242.000         210.000
 119971922.10048  93484605.48748  22829902.3174   22829906.0974   22829902.3204
       225.000         180.000
 120260846.35748  93709734.08848  22884891.4724   22884894.9114   22884892.1374
       229.000         186.000
 109463969.12748  85296586.73148  20830310.5494   20830312.4334   20830311.1254
       251.000         227.000
 119002877.31348 110521701.85348  24548446.5464   24548450.8604   24548446.8294
       202.000         138.000
 08  5 27  0 17 30.0000000  0  9G 6G21G29G30G31G 3G24G16G18
 113017339.06148  88065450.00248  21506491.9974   21506494.8454   21506492.1314
       241.000         212.000
 110026700.65348  85735086.18248  20937389.7334   20937391.3844   20937390.0884
       249.000         224.000
 123534924.41648  96260969.14048  23507921.9134   23507925.6584   23507922.3434
       223.000         183.000
 131121647.76548 102172697.56948  24951631.7034   24951634.9014   24951631.1824
       211.000         154.000
 116479293.33548  90763079.31548  22165277.5414   22165279.0484   22165277.4084
       242.000         209.000
 119890510.34048  93421167.77348  22814410.6004   22814413.7234   22814410.6684
       228.000         181.000
 120344862.49448  93775201.20348  22900879.0354   22900882.9124   22900879.7064
       229.000         186.000
 109417641.88148  85260487.58348  20821494.8024   20821496.7054   20821495.2154
       251.000         227.000
 118925065.18548 110461069.01648  24533638.9814   24533641.8404   24533640.4464
       196.000         133.000
 08  5 27  0 18  0.0000000  0  9G 6G21G29G30G31G 3G24G16G18
 112968184.69648  88027147.90648  21497138.3584   21497140.9934   21497137.8904
       241.000         212.000
 110029382.79748  85737176.16448  20937900.4884   20937901.9394   20937901.1514
       248.000         224.000
 123616492.48748  96324528.64248  23523444.6304   23523447.1974   23523444.4294
       226.000         183.000
 131224321.20348 102252702.90548  24971169.4114   24971172.6564   24971169.7144
       209.000         148.000
 116564046.73548  90829120.90848  22181405.3414   22181406.9844   22181405.1594
       242.000         208.000
 119809271.27348  93357864.61548  22798950.9934   22798953.5854   22798951.0994
       225.000         178.000
 120429205.69348  93840923.17748  22916928.9504   22916933.5274   22916928.7814
       228.000         187.000
 109371618.81648  85224625.45948  20812736.9944   20812738.8354   20812737.3784
       252.000         227.000
 118847348.10548 110400510.29148  24518850.3284   24518851.7984   24518851.0374
       202.000         134.000
 08  5 27  0 18 30.0000000  0  9G 6G21G29G30G31G 3G24G16G18
 112919259.79848  87989024.63048  21487828.1944   21487830.9594   21487828.1244
       241.000         212.000
 110032571.86348  85739661.16548  20938507.1174   20938508.8034   20938507.5414
       249.000         224.000
 123698104.21148  96388122.15348  23538974.6984   23538977.1104   23538974.5294
       226.000         182.000
 131327090.30448 102332782.74348  24990725.6294   24990728.9064   24990724.9084
       201.000         147.000
 116649132.25748  90895421.31348  22197596.7604   22197597.9634   22197596.5764
       242.000         208.000
 119728204.67548  93294695.86548  22783524.5424   22783527.4064   22783524.8004
       225.000         179.000
 120513873.10248  93906897.78548  22933040.8484   22933045.2544   22933040.7084
       228.000         187.000
 109325901.39448  85189001.50248  20804037.2424   20804039.1074   20804037.7904
       251.000         227.000
 118769728.72048 110340027.71748  24504080.4834   24504081.5654   24504081.4944
       198.000         136.000
 08  5 27  0 19  0.0000000  0  9G 6G21G29G30G31G 3G24G16G18
 112870564.35748  87951080.14948  21478561.6344   21478564.5494   21478561.6004
       242.000         212.000
 110036266.88948  85742540.41648  20939210.3164   20939211.9454   20939210.7944
       249.000         224.000
 123779758.70748  96451749.03148  23554513.3534   23554515.3794   23554512.9274
       226.000         180.000
 131429954.04748 102412936.31648  25010298.6294   25010303.2684   25010297.2354
       197.000         142.000
 116734547.15848  90961978.36848  22213850.5224   22213852.2044   22213850.4444
       241.000         207.000
 119647311.11448  93231661.95748  22768130.8234   22768134.2724   22768130.5894
       225.000         179.000
 120598861.93448  93973122.84948  22949213.6624   22949218.0464   22949213.5704
       227.000         186.000
 109280491.14948  85153616.89948  20795395.8964   20795397.7764   20795396.3274
       251.000         227.000
 118692209.70048 110279623.40648  24489328.2324   24489329.9924   24489328.2374
       198.000         136.000
 08  5 27  0 19 30.0000000  0  9G 6G21G29G30G31G 3G24G16G18
 112822098.70848  87913314.71848  21469338.9964   21469341.7594   21469339.5894
       242.000         213.000
 110040468.11848  85745814.10948  20940009.6644   20940011.3014   20940010.2994
       248.000         223.000
 123861455.48448  96515408.82948  23570059.3874   23570061.5944   23570059.0394
       226.000         180.000
 131532911.34248 102493162.75248  25029890.5924   25029896.1134   25029892.3374
       189.000         138.000
 116820289.39748  91028790.48948  22230166.6394   22230168.3324   22230165.9064
       241.000         208.000
 119566591.88248  93168763.88948  22752770.4754   22752773.8664   22752771.0074
       225.000         180.000
 120684169.85048  94039596.54348  22965447.0784   22965451.8064   22965447.2954
       229.000         186.000
 109235389.97348  85118473.12848  20786813.5524   20786815.2654   20786813.9274
       251.000         227.000
 118614794.32548 110219299.78348  24474597.7354   24474599.2824   24474599.1964
       200.000         137.000
 08  5 27  0 20  0.0000000  0  9G 6G21G29G30G31G 3G24G16G18
 112773862.04348  87875727.72448  21460160.0354   21460162.9474   21460160.6104
       243.000         214.000
 110045174.10048  85749481.11648  20940905.1404   20940906.5244   20940905.6054
       248.000         223.000
 123943193.39148  96579100.67548  23585613.5914   23585615.7344   23585613.8664
       225.000         180.000
 131635960.75748 102573460.84648  25049499.9734   25049505.2544   25049499.6614
       188.000         139.000
 116906355.22048  91095854.75148  22246544.5844   22246546.1774   22246544.2684
       242.000         208.000
 119486046.06748  93106000.94048  22737443.2674   22737446.6524   22737443.4504
       227.000         180.000
 120769793.69048  94106316.41648  22981741.0824   22981745.5644   22981741.2684
       228.000         186.000
 109190598.93948  85083571.03148  20778290.0084   20778291.8884   20778290.3204
       251.000         227.000
 118537484.68648 110159058.46248  24459886.5864   24459888.6084   24459885.8484
       196.000         134.000
 08  5 27  0 20 30.0000000  0  9G 6G21G29G30G31G 3G24G16G18
 112725855.03848  87838319.68148  21451024.4944   21451027.5464   21451024.5364
       242.000         214.000
 110050384.41048  85753541.10148  20941896.8504   20941898.1694   20941897.4034
       249.000         224.000
 124024972.20048  96642824.40548  23601175.7094   23601178.0214   23601175.5024
       226.000         182.000
 131739101.45148 102653830.23348  25069130.3894   25069131.1144   25069129.1324
       203.000         148.000
 116992742.81548  91163169.74748  22262983.9464   22262985.1654   22262983.8064
       242.000         208.000
 119405675.12648  93043374.25748  22722149.5174   22722152.5084   22722150.1054
       226.000         180.000
 120855731.19648  94173280.71148  22998094.1304   22998098.8844   22998093.9074
       227.000         185.000
 109146120.01648  85048912.13948  20769825.7694   20769827.7934   20769826.1154
       251.000         227.000
 118460283.65448 110098901.76848  24445195.3444   24445195.7654   24445196.4574
       197.000         132.000
 08  5 27  0 21  0.0000000  0  9G 6G21G29G30G31G 3G24G16G18
 112678077.84548  87801090.70848  21441932.8054   21441935.7394   21441933.0474
       243.000         213.000
 110056099.64148  85757994.53948  20942984.3874   20942985.8394   20942984.9704
       247.000         223.000
 124106791.39048  96706579.59548  23616745.5654   23616747.8984   23616745.3464
       228.000         184.000
 131842332.66548 102734270.18148  25088773.3664   25088776.0544   25088774.4114
       208.000         154.000
 117079449.29148  91230733.23448  22279483.4384   22279484.8664   22279483.3464
       241.000         207.000
 119325479.63048  92980884.30048  22706888.1284   22706892.1204   22706888.1514
       226.000         181.000
 120941980.01848  94240487.58148  23014506.7234   23014511.3774   23014506.7534
       227.000         185.000
 109101955.22448  85014498.02148  20761421.5024   20761423.4254   20761421.9974
       251.000         227.000
 118383194.73048 110038832.47948  24430523.4734   24430527.1184   24430524.6624
       197.000         129.000
 08  5 27  0 21 30.0000000  0  9G 6G21G29G30G31G 3G24G16G18
 112630530.30548  87764040.69248  21432884.6784   21432887.5684   21432884.7474
       242.000         213.000
 110062318.86348  85762840.69648  20944167.4984   20944169.1854   20944167.8054
       249.000         223.000
 124188650.14748  96770365.60748  23632322.4314   23632325.0674   23632322.7424
       225.000         182.000
 131945652.89848 102814779.46448  25108434.7264   25108437.7474   25108434.4424
       213.000         159.000
 117166471.95548  91298543.07948  22296043.3734   22296044.8684   22296043.2074
       242.000         208.000
 119245459.81448  92918531.22348  22691661.4464   22691664.4884   22691661.9464
       227.000         182.000
 121028537.41048  94307934.88248  23030978.3164   23030982.7554   23030978.2414
       229.000         186.000
 109058105.88448  84980329.70748  20753077.3814   20753079.1924   20753077.8484
       252.000         227.000
 118306220.77948 109978852.86648  24415877.4354   24415879.0454   24415879.0434
       195.000         128.000
 08  5 27  0 22  0.0000000  0  9G 6G21G29G30G31G 3G24G16G18
 112583212.45948  87727169.65648  21423880.2214   21423883.0684   21423879.9884
       242.000         213.000
 110069041.42148  85768079.05348  20945447.1034   20945448.4914   20945448.0934
       249.000         224.000
 124270547.81648  96834181.99348  23647907.1214   23647909.6284   23647906.9014
       226.000         181.000
 132049061.00448 102895357.26948  25128112.0434   25128115.3344   25128111.7884
       217.000         161.000
 117253808.39048  91366597.42348  22312663.2224   22312664.3024   22312663.0674
       240.000         207.000
 119165616.19448  92856315.43848  22676467.2454   22676470.8484   22676467.1924
       229.000         185.000
 121115401.07448  94375620.86448  23047508.2744   23047511.9834   23047509.1574
       227.000         185.000
 109014573.67148  84946408.50748  20744793.4904   20744795.2764   20744794.0354
       251.000         227.000
 118229364.52648 109918964.94148  24401253.2284   24401254.8694   24401252.6024
       200.000         129.000
 08  5 27  0 22 30.0000000  0  9G 6G21G29G30G31G 3G24G16G18
 112536124.46148  87690477.71748  21414920.0244   21414922.4984   21414919.8124
       243.000         213.000
 110076266.98048  85773709.37048  20946822.0754   20946823.6664   20946822.6564
       248.000         224.000
 124352483.65648  96898028.08248  23663499.2484   23663501.7394   23663499.1044
       228.000         181.000
 132152556.18048 102976002.87248  25147807.2054   25147810.0114   25147806.9884
       217.000         159.000
 117341455.73648  91434894.05448  22329341.7874   22329342.8534   22329341.2304
       241.000         205.000
 119085949.37048  92794237.42748  22661307.5814   22661310.9524   22661308.3334
       229.000         185.000
 121202568.32548  94443543.37948  23064095.1824   23064099.4774   23064095.3424
       227.000         184.000
 108971360.49548  84912735.90148  20736570.1724   20736571.9794   20736570.5354
       251.000         227.000
 118152628.76548 109859170.93248  24386647.5334   24386652.2084   24386649.1434
       197.000         129.000
 08  5 27  0 23  0.0000000  0  9G 6G21G29G30G31G 3G24G16G18
 112489265.85348  87653964.52648  21406003.1484   21406005.7574   21406003.4594
       243.000         214.000
 110083994.46348  85779730.79248  20948292.5594   20948294.0174   20948292.8724
       249.000         224.000
 124434456.99948  96961903.39348  23679098.4864   23679100.8744   23679098.7214
       229.000         183.000
 132256136.92348 103056715.23048  25167517.6034   25167519.7824   25167517.0024
       218.000         156.000
 117429410.90448  91503430.54148  22346078.9544   22346080.2064   22346078.6904
       239.000         205.000
 119006460.21348  92732297.83648  22646180.7734   22646184.1514   22646180.8774
       227.000         182.000
 121290036.41848  94511700.33748  23080739.7994   23080744.3924   23080740.6784
       228.000         184.000
 108928467.74948  84879312.98248  20728408.1324   20728409.7064   20728408.5664
       251.000         227.000
 118076016.23648 109799472.85848  24372071.2704   24372073.7994   24372071.2514
       194.000         128.000
 08  5 27  0 23 30.0000000  0  8G 6G21G29G30G31G 3G24G16
 112442637.11748  87617630.46448  21397129.9574   21397132.5904   21397130.0384
       242.000         214.000
 110092223.68948  85786143.18048  20949858.5894   20949859.9824   20949859.2954
       249.000         224.000
 124516467.21548  97025807.44748  23694704.3064   23694707.0364   23694704.1964
       228.000         183.000
 132359802.53048 103137493.64048  25187244.7594   25187247.5544   25187244.5884
       215.000         155.000
 117517671.75948  91572205.22948  22362874.2094   22362875.8854   22362873.6154
       239.000         205.000
 118927148.77848  92670496.73648  22631088.7634   22631091.5764   22631089.2404
       228.000         182.000
 121377802.94748  94580089.82848  23097440.8584   23097445.8194   23097441.9034
       226.000         184.000
 108885897.21348  84846141.14348  20720307.0414   20720308.8534   20720307.4274
       251.000         227.000
 08  5 27  0 24  0.0000000  0  8G 6G21G29G30G31G 3G24G16
 112396237.94348  87581475.27948  21388300.1774   21388303.1364   21388300.2154
       243.000         214.000
 110100953.95848  85792945.99648  20951519.6104   20951521.1934   20951520.0284
       248.000         224.000
 124598513.56648  97089739.65548  23710317.2454   23710320.1444   23710317.8164
       227.000         182.000
 132463551.40048 103218336.88548  25206987.1074   25206990.7834   25206986.5054
       219.000         153.000
 117606234.98248  91641215.51648  22379727.1944   22379728.9594   22379727.0604
       240.000         205.000
 118848015.39548  92608834.37348  22616029.7904   22616033.4194   22616030.1864
       227.000         184.000
 121465865.00548  94648709.61248  23114198.5874   23114203.3624   23114198.2054
       225.000         184.000
 108843650.17848  84813221.37748  20712267.7554   20712269.5144   20712268.0794
       251.000         228.000
 08  5 27  0 24 30.0000000  0  9G 6G21G29G30G31G 3G24G16G18
 112350068.65448  87545499.22048  21379514.7414   21379517.4904   21379515.2204
       242.000         214.000
 110110184.89248  85800138.94048  20953276.3344   20953277.9214   20953276.7894
       249.000         224.000
 124680595.82648  97153699.85748  23725936.8034   23725939.6274   23725936.9394
       224.000         181.000
 132567382.63448 103299244.33148  25226745.6964   25226748.0254   25226745.7554
       214.000         144.000
 117695098.39348  91710459.72648  22396637.7524   22396638.9604   22396637.7194
       240.000         205.000
 118769060.88848  92547311.41748  22601005.4374   22601009.1004   22601005.2594
       229.000         185.000
 121554220.42048  94717557.98448  23131012.1594   23131016.9644   23131012.0024
       228.000         184.000
 108801728.85648  84780555.40748  20704290.5774   20704292.3034   20704290.8814
       251.000         228.000
 137846953.25258  89620984.50658  24328479.9675   24328485.2725   24328479.4985
       193.000         126.000
 08  5 27  0 25  0.0000000  0  9G 6G21G29G30G31G 3G24G16G18
 112304129.28348  87509702.31548  21370772.4674   21370775.6244   21370772.2594
       243.000         215.000
 110119915.77748  85807721.45248  20955128.1864   20955129.6224   20955128.8014
       250.000         223.000
 124762713.16648  97217687.37048  23741563.2844   23741565.8504   23741562.6134
       228.000         182.000
 132671294.98548 103380214.93648  25246520.2684   25246522.9364   25246519.6184
       210.000         142.000
 117784259.21348  91779935.67948  22413604.2874   22413605.5194   22413604.3914
       239.000         204.000
 118690286.14248  92485928.49648  22586015.2894   22586018.2584   22586015.8134
       229.000         184.000
 121642866.53148  94786632.86648  23147881.0254   23147885.8334   23147881.0444
       226.000         185.000
 108760134.75848  84748144.42848  20696375.3944   20696377.1734   20696375.7784
       251.000         228.000
 137770863.03448  89561693.42848  24314001.7214   24314002.9664   24314001.7444
       193.000         127.000
 08  5 27  0 25 30.0000000  0  8G 6G21G29G31G 3G24G16G18
 112258419.67648  87474084.44648  21362074.5874   21362077.3634   21362074.5794
       243.000         214.000
 110130145.52048  85815692.68948  20957074.7474   20957076.0854   20957075.3254
       249.000         223.000
 124844865.12048  97281701.87348  23757196.2294   23757198.8354   23757196.2554
       226.000         179.000
 117873714.61448  91849641.17348  22430627.0994   22430628.3694   22430626.4774
       240.000         204.000
 118611690.83548  92424685.42648  22571058.4894   22571062.3284   22571059.3004
       228.000         184.000
 121731800.79448  94855932.27248  23164805.0824   23164809.3944   23164804.1694
       229.000         186.000
 108718869.46348  84715989.65748  20688522.8014   20688524.7344   20688523.2644
       250.000         228.000
 137694910.48548  89502509.67948  24299546.1714   24299549.4834   24299547.9864
       198.000         124.000
 08  5 27  0 26  0.0000000  0  8G 6G21G29G31G 3G24G16G18
 112212939.38648  87438645.26148  21353419.8334   21353422.4584   21353419.9804
       244.000         214.000
 110140873.21548  85824051.94348  20959116.1044   20959117.5534   20959116.5544
       249.000         223.000
 124927050.30548  97345742.28348  23772835.5714   23772837.7874   23772834.9734
       227.000         178.000
 117963461.15248  91919573.52948  22447705.3094   22447706.6194   22447704.8424
       239.000         203.000
 118533275.63648  92363582.69648  22556136.6314   22556140.0274   22556136.6824
       227.000         183.000
 121821019.99648  94925453.71748  23181782.7474   23181787.1304   23181783.0954
       228.000         185.000
 108677934.11848  84684091.98648  20680732.9514   20680734.9854   20680733.3274
       250.000         228.000
 137619097.99848  89443435.02048  24285119.6714   24285122.0664   24285121.9534
       194.000         122.000
 08  5 27  0 26 30.0000000  0  7G 6G21G29G31G 3G24G16
 112167688.93648  87403385.18148  21344808.8694   21344811.6164   21344809.2194
       243.000         214.000
 110152098.85948  85832799.20248  20961252.3704   20961253.6404   20961252.8974
       249.000         223.000
 125009268.29448  97409808.25048  23788481.1914   23788483.5374   23788481.3244
       227.000         179.000
 118053496.69148  91989731.08548  22464838.6094   22464839.8084   22464838.2954
       238.000         202.000
 118455041.07348  92302620.72548  22541249.1874   22541252.3544   22541249.7744
       230.000         184.000
 121910522.20248  94995195.70648  23198814.4504   23198818.7434   23198814.7914
       225.000         184.000
 108637330.70248  84652452.96948  20673006.3364   20673008.3534   20673006.6674
       250.000         228.000
 08  5 27  0 27  0.0000000  0  7G 6G21G29G31G 3G24G16
 112122667.56848  87368303.61248  21336241.4064   21336244.2744   21336241.6464
       244.000         214.000
 110163820.45748  85841932.92348  20963482.6244   20963484.3454   20963483.0574
       248.000         223.000
 125091518.25448  97473899.12648  23804132.7374   23804135.2214   23804132.7964
       225.000         177.000
 118143817.79248  92060111.16048  22482026.2364   22482027.4144   22482025.9254
       240.000         203.000
 118376987.37748  92241799.65348  22526396.2754   22526399.2604   22526396.2334
       231.000         186.000
 122000303.99848  95065155.53648  23215899.2004   23215903.7624   23215898.8044
       228.000         183.000
 108597060.27648  84621073.41848  20665343.3264   20665345.1864   20665343.7624
       250.000         228.000
 08  5 27  0 27 30.0000000  0  8G 6G21G29G31G 3G24G16G18
 112077875.88148  87333401.00148  21327718.0604   21327720.7654   21327718.3354
       244.000         215.000
 110176038.32948  85851453.34848  20965807.6964   20965809.3664   20965808.1514
       250.000         223.000
 125173800.21048  97538014.94548  23819790.6304   23819793.3314   23819790.3234
       224.000         176.000
 118234422.39848  92130712.13648  22499267.5264   22499269.1234   22499267.5854
       237.000         202.000
 118299115.28148  92181120.13848  22511578.0244   22511581.1794   22511578.5004
       232.000         188.000
 122090363.06648  95135331.42648  23233036.7214   23233041.5014   23233036.7414
       227.000         184.000
 108557125.11148  84589955.11048  20657743.9044   20657745.6474   20657744.3704
       250.000         228.000
 117392617.46058 109266976.69058  24242007.3625   24242009.2815   24242008.7565
       198.000         128.000
 08  5 27  0 28  0.0000000  0  8G 6G21G29G31G 3G24G16G18
 112033313.25248  87298676.88948  21319238.0864   21319240.9754   21319238.4044
       243.000         215.000
 110188751.12748  85861359.43348  20968227.0604   20968228.5324   20968227.6314
       249.000         223.000
 125256112.67448  97602154.53148  23835453.5384   23835456.4214   23835453.5154
       224.000         174.000
 118325306.77948  92201531.12348  22516562.2314   22516563.9244   22516561.8424
       239.000         202.000
 118221424.66648  92120582.02348  22496793.8514   22496796.7894   22496793.9604
       230.000         186.000
 122180696.45648  95205721.08748  23250226.7664   23250231.4964   23250227.7694
       228.000         183.000
 108517526.24448  84559098.85948  20650208.2854   20650210.2084   20650208.6634
       250.000         228.000
 117317393.96948 109208361.08748  24227692.0994   24227693.7964   24227696.5254
       186.000         126.000
 08  5 27  0 28 30.0000000  0  7G 6G21G29G31G 3G24G16
 111988980.75248  87264132.09348  21310801.9004   21310804.7404   21310801.7524
       244.000         215.000
 110201959.14548  85871651.40248  20970740.2244   20970741.8084   20970740.6054
       249.000         224.000
 125338456.34348  97666318.42348  23851123.6764   23851125.9854   23851123.9204
       222.000         174.000
 118416469.37448  92272566.89448  22533909.7564   22533911.4764   22533909.8594
       237.000         201.000
 118143917.20748  92060186.62148  22482044.4844   22482047.2954   22482044.4664
       230.000         186.000
 122271302.78648  95276323.40948  23267468.7304   23267473.4444   23267468.7944
       230.000         184.000
 108478266.47548  84528506.83248  20642737.4954   20642739.4074   20642737.9904
       250.000         228.000
 08  5 27  0 29  0.0000000  0  8G 6G21G29G31G 3G24G16G18
 111944878.05548  87229766.36048  21302409.4224   21302412.3304   21302409.7394
       244.000         216.000
 110215661.29648  85882328.40948  20973347.9224   20973349.2034   20973348.4574
       249.000         224.000
 125420830.30848  97730505.93348  23866798.8924   23866801.1944   23866798.1074
       222.000         174.000
 118507907.03948  92343817.01048  22551309.8904   22551311.7124   22551309.1274
       237.000         201.000
 118066593.38848  91999934.29048  22467330.4574   22467333.1674   22467330.5574
       230.000         186.000
 122362179.27948  95347136.26048  23284761.9654   23284766.4914   23284762.1634
       231.000         184.000
 108439346.89248  84498179.88848  20635331.3074   20635333.0884   20635331.6904
       250.000         228.000
 137167375.06558  89091457.07458  24199150.3745   24199151.4815   24199153.6055
       202.000         127.000
 08  5 27  0 29 30.0000000  0  8G 6G21G29G31G 3G24G16G18
 111901005.67748  87195580.10648  21294060.6354   21294063.8554   21294060.9484
       243.000         216.000
 110229857.23548  85893390.18448  20976049.2404   20976050.6114   20976049.6914
       250.000         224.000
 125503234.40948  97794716.93348  23882479.9784   23882482.1154   23882479.9274
       222.000         174.000
 118599617.71948  92415279.87748  22568762.0064   22568763.6904   22568761.5754
       238.000         201.000
 117989453.78248  91939825.52948  22452650.5634   22452654.4204   22452650.4344
       230.000         187.000
 122453323.73648  95418157.89548  23302106.3774   23302110.5274   23302107.1374
       229.000         183.000
 108400769.26248  84468119.40448  20627990.1184   20627992.1544   20627990.5564
       250.000         228.000
 137092625.91048  89033210.97848  24184926.5464   24184928.9934   24184928.3764
       197.000         132.000
 08  5 27  0 30  0.0000000  0  8G 6G21G29G31G 3G24G16G18
 111857362.31248  87161572.29448  21285755.5704   21285758.5074   21285755.6034
       244.000         215.000
 110244544.46548  85904834.78448  20978844.1094   20978845.5584   20978844.6764
       250.000         224.000
 125585666.65348  97858949.84648  23898165.8774   23898168.2414   23898166.1404
       220.000         171.000
 118691597.23748  92486952.22148  22586265.1144   22586266.8854   22586265.0434
       236.000         199.000
 117912497.92148  91879859.94948  22438006.6124   22438010.1124   22438006.3654
       230.000         188.000
 122544732.18148  95489385.24948  23319500.7704   23319504.9884   23319500.8154
       230.000         182.000
 108362534.42548  84438326.02848  20620714.3394   20620716.3204   20620714.8354
       249.000         228.000
 137018039.26448  88975091.57748  24170735.3794   24170736.1674   24170736.5944
       193.000         132.000
 08  5 27  0 30 30.0000000  0  8G 6G21G29G31G 3G24G16G18
 111813948.75748  87127743.55548  21277494.3814   21277496.9654   21277494.8904
       244.000         216.000
 110259723.35348  85916662.49348  20981732.6154   20981733.9624   20981733.0974
       249.000         223.000
 125668127.41348  97923205.00848  23913857.8824   23913860.4654   23913857.9424
       223.000         171.000
 118783843.46548  92558832.39548  22603818.7644   22603820.6414   22603818.4524
       237.000         199.000
 117835726.75548  91820038.28348  22423397.9244   22423400.9784   22423398.0554
       231.000         189.000
 122636402.87248  95560816.93848  23336945.3404   23336949.0174   23336946.0424
       228.000         182.000
 108324644.78648  84408801.63348  20613504.3574   20613505.9854   20613504.7794
       250.000         229.000
 136943619.06048  88917101.79848  24156572.6284   24156575.9624   24156571.8224
       207.000         138.000
 08  5 27  0 31  0.0000000  0  8G 6G21G29G31G 3G24G16G18
 111770764.19048  87094093.25448  21269276.5274   21269279.5194   21269276.8864
       245.000         216.000
 110275392.22148  85928872.01248  20984714.1674   20984715.6204   20984714.4044
       250.000         223.000
 125750615.16648  97987481.21048  23929554.3724   23929557.1134   23929554.0364
       216.000         169.000
 118876352.87948  92630917.63748  22621422.7834   22621424.4294   22621422.5874
       237.000         199.000
 117759140.07748  91760360.35848  22408823.6654   22408826.9384   22408824.2514
       231.000         188.000
 122728332.36748  95632450.31648  23354438.6524   23354442.4774   23354438.4364
       230.000         182.000
 108287100.95848  84379546.70748  20606360.0074   20606361.7894   20606360.5084
       250.000         229.000
 136869367.20948  88859243.16848  24142443.7574   24142445.6644   24142445.0144
       195.000         135.000
 08  5 27  0 31 30.0000000  0  9G 6G21G29G31G 3G24G16G22G18
 111727809.31948  87060621.93348  21261102.5654   21261105.3374   21261102.9874
       244.000         216.000
 110291551.05548  85941463.31448  20987788.9734   20987790.3954   20987789.6454
       249.000         223.000
 125833130.17248  98051778.62648  23945256.4344   23945260.1264   23945256.2884
       216.000         169.000
 118969123.05048  92703206.06348  22639076.3104   22639078.1834   22639076.4404
       235.000         199.000
 117682738.95648  91700827.04048  22394285.0554   22394288.1874   22394285.4324
       231.000         187.000
 122820518.53248  95704283.68948  23371981.2114   23371985.0544   23371981.5894
       228.000         182.000
 108249905.45948  84350563.20348  20599281.7434   20599283.6414   20599282.0884
       251.000         229.000
 142525408.95658  93266566.92958  25218734.9315   25218733.8085   25218736.4665
       210.000         143.000
 136795287.31248  88801518.63248  24128346.7544   24128348.5224   24128347.9404
       203.000         138.000
 08  5 27  0 32  0.0000000  0  9G 6G21G29G31G 3G24G16G22G18
 121685071.33258  77027315.74458  21252972.1905   21252975.3575   21252971.9805
       244.000         217.000
 120308199.96158  75954435.71458  20990957.2315   20990958.7865   20990957.5085
       250.000         224.000
 125915672.04048  98116096.96348  23960963.3354   23960967.1174   23960962.8094
       218.000         170.000
 119062151.60148  92775695.82948  22656779.1774   22656780.7444   22656778.2094
       236.000         197.000
 117606524.19548  91641438.93748  22379781.4834   22379785.0434   22379781.8754
       230.000         188.000
 122912959.45748  95776315.55948  23389572.0694   23389576.1274   23389572.3214
       228.000         182.000
 108213060.18448  84321852.60548  20592270.3024   20592272.3134   20592270.7004
       250.000         229.000
 142435758.97748  93196709.87548  25201674.8464   25201675.6154   25201675.8304
       207.000         142.000
 136721382.43848  88743930.44248  24114282.7504   24114285.2014   24114282.8904
       209.000         145.000
 08  5 27  0 32 30.0000000  0  9G 6G21G29G31G 3G24G16G22G18
 101642577.53058  96994203.91958  21244885.7865   21244888.7175   21244885.7145
       244.000         217.000
 100325337.21058  95967789.64058  20994217.9845   20994219.6055   20994218.7875
       249.000         224.000
 125998240.62848  98180436.08848  23976676.4834   23976679.4414   23976676.1304
       220.000         173.000
 119155436.13248  92848385.07148  22674530.3674   22674531.4484   22674530.3784
       235.000         197.000
 117530496.71748  91582196.77448  22365314.1634   22365317.3864   22365314.1274
       232.000         189.000
 123005652.91148  95848544.20348  23407210.9034   23407215.1584   23407210.3824
       228.000         181.000
 108176566.75448  84293416.17348  20585325.9614   20585327.8984   20585326.3524
       251.000         229.000
 142345981.83048  93126753.77348  25184589.1814   25184589.5834   25184589.4554
       202.000         144.000
 136647655.40848  88686480.80948  24100253.2224   24100255.2284   24100254.7194
       207.000         142.000
 08  5 27  0 33  0.0000000  0  9G 6G21G29G31G 3G24G16G22G18
 101600311.90348  96961269.67248  21236842.7824   21236845.7104   21236842.9894
       246.000         217.000
 100342960.08948  95981521.76048  20997571.5324   20997573.1194   20997571.7854
       250.000         224.000
 126080834.51348  98244794.95248  23992393.5014   23992396.5214   23992393.7224
       219.000         170.000
 119248972.87448  92921270.83048  22692330.0584   22692331.6774   22692330.1114
       234.000         198.000
 117454655.34248  91523099.60948  22350882.2224   22350885.2884   22350882.2874
       231.000         190.000
 123098594.89448  95920966.51848  23424897.0544   23424901.4224   23424897.0374
       227.000         181.000
 108140425.83548  84265254.42248  20578448.4944   20578450.4664   20578448.8934
       250.000         229.000
 142256079.18148  93056699.84948  25167482.2104   25167483.2214   25167480.9864
       211.000         150.000
 136574108.28048  88629171.35948  24086256.2144   24086258.6154   24086256.4834
       209.000         145.000
 08  5 27  0 33 30.0000000  0  9G 6G21G29G31G 3G24G16G22G18
 101558275.75748  96928514.24148  21228843.7234   21228846.4444   21228844.3274
       245.000         216.000
 100361069.17048  95995632.73848  21001017.5714   21001019.0514   21001018.1114
       250.000         224.000
 126163453.29948  98309173.25748  24008115.3614   24008118.0054   24008115.2324
       214.000         168.000
 119342759.18148  92994351.05248  22710177.1924   22710178.7914   22710176.4374
       235.000         198.000
 117379001.65048  91464148.70348  22336485.5194   22336489.0234   22336485.8614
       231.000         192.000
 123191783.41948  95993580.93748  23442630.4944   23442634.9294   23442630.8684
       229.000         181.000
 108104639.62848  84237369.06748  20571638.7904   20571640.6084   20571639.0914
       251.000         229.000
 142166053.94848  92986550.33348  25150351.4214   25150351.4984   25150351.5544
       200.000         145.000
 136500744.29048  88572004.65648  24072296.3774   24072299.6084   24072297.6824
       207.000         148.000
 08  5 27  0 34  0.0000000  0  9G 6G21G29G31G 3G24G16G22G18
 101516469.31948  96895937.79848  21220888.1094   21220890.7424   21220888.3774
       245.000         216.000
 100379663.39048  96010121.74848  21004556.0954   21004557.4324   21004556.8984
       250.000         224.000
 126246096.68348  98373570.68248  24023841.6394   24023844.7524   24023840.6934
       209.000         165.000
 119436792.48648  93067623.74248  22728071.0064   22728072.8164   22728070.8184
       234.000         197.000
 117303536.25748  91405344.52648  22322125.2824   22322128.3694   22322125.1704
       232.000         191.000
 123285216.14248  96066385.66348  23460410.3454   23460414.3524   23460411.2624
       229.000         182.000
 108069209.64248  84209761.29148  20564896.6224   20564898.4664   20564897.1274
       251.000         229.000
 142075908.66648  92916307.29848  25133195.5084   25133197.8704   25133195.6064
       206.000         144.000
 136427566.41648  88514982.93148  24058370.1334   24058373.4644   24058369.6674
       206.000         145.000
 08  5 27  0 34 30.0000000  0  9G 6G21G29G31G 3G24G16G22G18
 101474892.60548  96863540.36948  21212976.2814   21212978.9984   21212976.3624
       245.000         217.000
 100398741.86048  96024988.09148  21008186.4644   21008187.9594   21008186.8464
       250.000         224.000
 126328764.05048  98437986.82248  24039572.8864   24039575.4684   24039572.1034
       217.000         165.000
 119531069.72648  93141086.51848  22746011.5834   22746013.0394   22746011.4704
       234.000         197.000
 117228259.45048  91346687.27848  22307800.4004   22307803.4664   22307800.2564
       232.000         191.000
 123378890.44848  96139378.61448  23478235.8724   23478240.1274   23478236.6064
       229.000         181.000
 108034137.48548  84182432.33548  20558222.5094   20558224.4204   20558222.8254
       250.000         229.000
 141985645.77048  92845972.62848  25116020.3404   25116022.0284   25116020.9394
       207.000         141.000
 136354577.52148  88458108.48048  24044480.8134   24044483.3094   24044481.4304
       211.000         148.000
 08  5 27  0 35  0.0000000  0  9G 6G21G29G31G 3G24G16G22G18
 101433544.94148  96831321.41248  21205108.1794   21205110.9904   21205108.0614
       245.000         217.000
 100418302.68748  96040230.30748  21011908.6754   21011910.1424   21011909.1474
       250.000         224.000
 126411454.35948  98502420.81648  24055307.5614   24055311.0284   24055308.5804
       214.000         167.000
 119625587.49248  93214736.71248  22763997.6954   22763999.2864   22763998.1144
       234.000         195.000
 117153170.89048  91288176.73048  22293511.5154   22293514.5844   22293511.5444
       232.000         192.000
 123472803.16248  96212557.33148  23496106.5954   23496111.1334   23496107.0984
       229.000         181.000
 107999423.90348  84155382.79348  20551616.7234   20551618.6694   20551617.0464
       250.000         229.000
 141895266.96548  92775547.53448  25098822.1944   25098822.9474   25098823.8754
       210.000         143.000
 136281779.77548  88401382.95548  24030628.9884   24030631.6114   24030630.0484
       217.000         153.000
 08  5 27  0 35 30.0000000  0  9G 6G21G29G31G 3G24G16G22G18
 101392426.86748  96799281.36548  21197283.5764   21197286.3454   21197283.7194
       244.000         217.000
 100438346.07448  96055848.53048  21015722.9304   21015724.3224   21015723.3094
       250.000         224.000
 126494167.64848  98566872.74948  24071047.5724   24071051.0454   24071047.0434
       213.000         166.000
 119720343.67148  93288572.67948  22782028.7274   22782030.4164   22782028.4204
       232.000         194.000
 117078271.43848  91229813.55548  22279258.2604   22279261.6834   22279258.6904
       232.000         192.000
 123566952.09948  96285920.11848  23514022.9674   23514027.0634   23514023.4004
       229.000         181.000
 107965071.39248  84128614.60748  20545079.7304   20545081.6184   20545080.2854
       250.000         229.000
 141804775.36148  92705034.62148  25081602.9524   25081601.3484   25081602.8604
       214.000         143.000
 136209176.55148  88344809.02048  24016812.3284   24016815.2014   24016812.9904
       213.000         154.000
 08  5 27  0 36  0.0000000  0  9G 6G21G29G31G 3G24G16G22G18
 101351538.34148  96767420.18848  21189502.7724   21189505.7274   21189503.1144
       245.000         218.000
 100458870.73548  96071841.77848  21019628.5814   21019629.9914   21019629.0004
       250.000         224.000
 126576903.28448  98631342.10048  24086791.7404   24086794.8024   24086792.0704
       209.000         163.000
 119815335.52348  93362592.28848  22800105.1864   22800107.0554   22800104.4464
       234.000         195.000
 117003562.42648  91171598.75748  22265041.8374   22265044.8954   22265042.3224
       232.000         193.000
 123661335.01348  96359465.22848  23531983.4904   23531987.2994   23531984.3774
       229.000         181.000
 107931081.57848  84102129.03948  20538611.5934   20538613.5604   20538611.9984
       250.000         229.000
 141714173.90948  92634436.14348  25064360.1994   25064361.0184   25064359.7994
       210.000         146.000
 136136770.77848  88288388.94448  24003034.5894   24003037.4144   24003035.7674
       218.000         160.000
 08  5 27  0 36 30.0000000  0  9G 6G21G29G31G 3G24G16G22G18
 101310879.20648  96735737.75848  21181765.5444   21181768.4604   21181765.6274
       244.000         217.000
 100479875.32248  96088208.99148  21023625.6214   21023627.0894   21023626.1574
       250.000         224.000
 126659660.50448  98695828.21548  24102538.9424   24102543.1454   24102538.2594
       210.000         163.000
 119910559.16548  93436792.52248  22818226.3044   22818227.5644   22818226.2354
       236.000         196.000
 116929043.41448  91113532.00248  22250861.5074   22250864.5034   22250861.7214
       233.000         191.000
 123755948.84648  96433190.28348  23549988.1444   23549991.7954   23549988.0284
       226.000         179.000
 107897455.54848  84075926.94048  20532212.6244   20532214.6404   20532212.9394
       250.000         229.000
 141623464.63148  92563753.55148  25047099.1214   25047101.1744   25047098.0574
       212.000         151.000
 136064564.74748  88232124.48548  23989293.6684   23989296.4434   23989293.8054
       219.000         160.000
 08  5 27  0 37  0.0000000  0  9G 6G21G29G31G 3G24G16G22G18
 101270450.25248  96704234.68548  21174072.1084   21174075.0604   21174072.2924
       245.000         217.000
 100501359.61048  96104950.00148  21027714.0594   21027715.5174   21027714.6204
       250.000         224.000
 126742439.92248  98760331.65148  24118291.8084   24118295.2934   24118291.5354
       211.000         163.000
 120006013.38648  93511172.42148  22836390.6804   22836392.1674   22836391.0594
       234.000         195.000
 116854716.12648  91055614.64248  22236717.3204   22236720.2894   22236717.3844
       232.000         192.000
 123850791.98948  96507094.01748  23568035.7584   23568039.8684   23568035.3594
       228.000         178.000
 107864195.98148  84050010.39648  20525883.6354   20525885.5434   20525883.9944
       249.000         229.000
 141532651.10048  92492989.71948  25029820.1514   25029819.7424   25029819.5974
       205.000         147.000
 135992562.61448  88176018.96048  23975592.9354   23975594.6244   23975594.1684
       221.000         165.000
 08  5 27  0 37 30.0000000  0  9G 6G21G29G31G 3G24G16G22G18
 101230250.30448  96672910.05048  21166422.5304   21166425.2844   21166422.6984
       245.000         217.000
 100523321.11548  96122062.86548  21031893.1174   21031894.5784   21031893.3734
       251.000         224.000
 126825239.81148  98824851.02148  24134048.1664   24134051.6594   24134047.9644
       212.000         164.000
 120101694.14748  93585728.85848  22854597.7384   22854599.2564   22854597.8634
       232.000         194.000
 116780579.59648  90997845.94748  22222609.2514   22222613.1804   22222609.8284
       234.000         195.000
 123945860.57748  96581173.43848  23586126.7024   23586130.9304   23586127.1474
       225.000         179.000
 107831303.10148  84024379.58148  20519624.3464   20519626.2674   20519624.7064
       250.000         229.000
 141441733.98548  92422145.25148  25012516.0364   25012518.9174   25012515.9634
       198.000         144.000
 135920765.65848  88120073.29948  23961930.1184   23961932.7144   23961931.0894
       224.000         167.000
 08  5 27  0 38  0.0000000  0  9G 6G21G29G31G 3G24G16G22G18
 101190280.11048  96641764.45248  21158816.3424   21158819.1364   21158816.5984
       245.000         217.000
 100545760.09748  96139547.78848  21036163.2494   21036164.5874   21036164.0424
       250.000         224.000
 126908060.34348  98889386.50848  24149808.9804   24149811.8004   24149809.3014
       205.000         162.000
 120197599.09248  93660459.96448  22872847.4814   22872849.8834   22872847.1174
       231.000         192.000
 116706635.24048  90940226.98548  22208538.6304   22208542.2904   22208539.0734
       234.000         196.000
 124041152.99748  96655427.26248  23604260.1754   23604264.3614   23604259.7344
       228.000         178.000
 107798779.17348  83999036.26148  20513435.2704   20513437.3024   20513435.5164
       249.000         230.000
 141350717.28448  92351223.15348  24995197.4374   24995199.4204   24995197.5334
       209.000         150.000
 135849177.03948  88064289.96548  23948307.5654   23948309.7504   23948308.4184
       222.000         169.000
 08  5 27  0 38 30.0000000  0  9G 6G21G29G31G 3G24G16G22G18
 101150538.95948  96610797.32148  21151253.8004   21151256.5834   21151254.1184
       245.000         217.000
 100568674.50148  96157403.17548  21040523.5644   21040525.0034   21040523.9734
       250.000         223.000
 126990900.27848  98953937.10648  24165572.1784   24165575.7334   24165570.8954
       210.000         162.000
 120293724.54748  93735362.89748  22891139.6594   22891141.4944   22891139.2564
       232.000         193.000
 116632882.90948  90882757.65148  22194503.7034   22194507.0814   22194503.6004
       234.000         194.000
 124136666.18248  96729853.11848  23622435.5994   23622439.9074   23622436.0164
       226.000         177.000
 107766625.24148  83973981.25148  20507316.5984   20507318.4794   20507316.7894
       250.000         229.000
 141259602.77748  92280224.79148  24977858.9344   24977860.1764   24977860.6474
       214.000         151.000
 135777800.02148  88008671.53448  23934724.8284   23934726.9154   23934725.6774
       224.000         172.000
 08  5 27  0 39  0.0000000  0  9G 6G21G29G31G 3G24G16G22G18
 101111028.02248  96580009.58548  21143735.2414   21143738.0954   21143735.5064
       245.000         218.000
 100592064.45648  96175629.11748  21044974.6054   21044975.8514   21044975.4954
       249.000         223.000
 127073760.44348  99018503.45748  24181339.8154   24181343.3164   24181338.3854
       214.000         164.000
 120390069.03448  93810436.50948  22909473.4634   22909475.3234   22909473.6214
       230.000         193.000
 116559323.87348  90825438.92548  22180506.5784   22180509.0244   22180507.2534
       236.000         194.000
 124232398.40348  96804449.63548  23640652.5784   23640657.0204   23640652.1994
       225.000         174.000
 107734844.12948  83949216.75248  20501268.9164   20501270.7184   20501269.3974
       250.000         230.000
 141168394.15848  92209153.06348  24960502.7764   24960504.0564   24960503.4784
       216.000         152.000
 135706637.85148  87953220.50148  23921182.8124   23921185.3404   23921183.0774
       222.000         172.000
 08  5 27  0 39 30.0000000  0  9G 6G21G29G31G 3G24G16G22G18
 101071746.31748  96549400.47148  21136259.9454   21136262.9674   21136260.0954
       245.000         218.000
 100615927.67348  96194223.83948  21049515.4594   21049516.9824   21049515.8754
       249.000         223.000
 127156639.22548  99083084.29148  24197112.2174   24197114.6504   24197113.0674
       214.000         165.000
 120486628.73948  93885677.81148  22927848.3984   22927850.1024   22927847.9664
       231.000         192.000
 116485957.78348  90768270.56348  22166545.0774   22166547.9494   22166545.9404
       234.000         196.000
 124328346.37748  96879214.29348  23658911.1084   23658915.2564   23658910.7854
       225.000         172.000
 107703436.10748  83924742.96948  20495292.1474   20495293.9394   20495292.5544
       250.000         230.000
 141077093.08148  92138009.36148  24943129.4234   24943129.6984   24943128.6604
       212.000         150.000
 135635692.56048  87897938.48348  23907682.5274   23907684.6594   23907683.4004
       223.000         173.000
 08  5 27  0 40  0.0000000  0  9G 6G21G29G31G 3G24G16G22G18
 101032693.80048  96518969.94548  21128828.6954   21128831.5574   21128828.8104
       245.000         218.000
 100640262.96548  96213186.40548  21054146.2084   21054147.7664   21054146.6024
       250.000         223.000
 127239536.25948  99147679.36448  24212887.0534   24212889.2654   24212887.0574
       213.000         166.000
 120583400.47748  93961084.35248  22946263.5204   22946264.7544   22946262.8904
       231.000         194.000
 116412785.20048  90711252.99148  22152620.6524   22152623.6934   22152620.0104
       236.000         197.000
 124424507.37548  96954144.93048  23677210.0764   23677214.1174   23677210.3074
       227.000         174.000
 107672402.56048  83900560.99048  20489386.4994   20489388.4424   20489386.8664
       249.000         230.000
 140985701.76148  92066795.26948  24925737.0524   24925738.4784   24925738.6954
       203.000         139.000
 135564966.92748  87842827.59748  23894223.7584   23894226.3444   23894224.4714
       225.000         175.000
 08  5 27  0 40 30.0000000  0  9G 6G21G29G31G 3G24G16G22G18
 100993870.70948  96488718.20048  21121440.6984   21121443.6984   21121440.8094
       244.000         217.000
 100665069.91648  96232516.50548  21058866.9754   21058868.5474   21058867.4384
       250.000         223.000
 127322451.44748  99212288.57348  24228665.2824   24228668.0384   24228664.6254
       210.000         166.000
 120680381.99748  94036654.34348  22964718.3884   22964720.1414   22964717.8694
       231.000         191.000
 116339806.85348  90654386.75748  22138733.7384   22138736.3514   22138734.4814
       237.000         196.000
 124520879.26848  97029239.91548  23695549.1404   23695552.8284   23695549.5694
       227.000         175.000
 107641745.74948  83876672.56748  20483552.7364   20483554.6894   20483553.0384
       249.000         230.000
 140894223.36048  91995513.32448  24908329.8574   24908329.5214   24908330.9074
       197.000         141.000
 135494464.02148  87787890.29748  23880807.3254   23880810.2144   23880807.7264
       223.000         174.000
 08  5 27  0 41  0.0000000  0  9G 6G21G29G31G 3G24G16G22G18
 100955276.59748  96458644.86148  21114096.5584   21114099.3494   21114096.7304
       245.000         218.000
 100690346.79548  96252212.77548  21063676.9484   21063678.3454   21063677.6574
       249.000         223.000
 127405383.78648  99276911.12948  24244446.5754   24244449.6074   24244446.6974
       210.000         166.000
 120777569.66948  94112384.98148  22983212.3534   22983214.0704   22983212.2064
       231.000         191.000
 116267022.64748  90597671.79848  22124882.8684   22124885.9794   22124883.3174
       235.000         195.000
 124617458.92948  97104496.79148  23713927.6724   23713931.4034   23713927.9084
       226.000         174.000
 107611466.36648  83853078.24748  20477790.8374   20477792.8834   20477791.1754
       250.000         230.000
 140802659.75348  91924165.16648  24890904.6614   24890906.5794   24890902.8194
       210.000         150.000
 135424185.92048  87733128.15248  23867434.1594   23867436.6314   23867435.2714
       223.000         173.000
 08  5 27  0 41 30.0000000  0  9G 6G21G29G31G 3G24G16G22G18
 100916912.65748  96428750.88648  21106796.2044   21106799.0404   21106796.5544
       245.000         218.000
 100716093.36548  96272275.04448  21068576.4494   21068577.8814   21068576.8814
       250.000         222.000
 127488333.57848  99341547.31448  24260231.5584   24260234.3714   24260231.8814
       214.000         166.000
 120874961.85248  94188274.98248  23001745.4144   23001747.2414   23001745.7454
       230.000         191.000
 116194434.21348  90541109.40348  22111070.1424   22111073.0704   22111070.3094
       235.000         197.000
 124714244.74448  97179914.28748  23732345.2914   23732349.0164   23732345.8454
       222.000         171.000
 107581567.24948  83829780.23848  20472101.3094   20472103.2054   20472101.7304
       250.000         230.000
 140711015.07248  91852753.76548  24873466.0024   24873467.5854   24873467.4024
       212.000         155.000
 135354136.71148  87678544.35248  23854103.9944   23854106.2934   23854104.3904
       223.000         173.000
 08  5 27  0 42  0.0000000  0  9G 6G21G29G31G 3G24G16G22G18
 100878778.31848  96399035.82848  21099539.4064   21099542.0444   21099539.9844
       245.000         217.000
 100742308.13748  96292702.13748  21073564.9224   21073566.2534   21073565.6144
       250.000         222.000
 127571300.43348  99406196.78048  24276019.6984   24276022.7464   24276019.4234
       215.000         167.000
 120972555.13048  94264321.67848  23020317.1894   23020318.6044   23020316.6564
       229.000         191.000
 116122041.59748  90484699.59148  22097294.0254   22097297.2034   22097294.0964
       235.000         196.000
 124811233.85748  97255490.21648  23750802.1614   23750805.3134   23750802.0274
       221.000         171.000
 107552049.61848  83806779.48748  20466484.2774   20466486.1384   20466484.7104
       250.000         230.000
 140619291.05148  91781280.56648  24856011.7464   24856012.8874   24856011.5224
       213.000         156.000
 135284318.54248  87624140.63948  23840818.5904   23840820.3154   23840819.5014
       222.000         171.000
 08  5 27  0 42 30.0000000  0  9G 6G21G29G31G 3G24G16G22G18
 100840874.26948  96369500.20948  21092326.7474   21092329.4134   21092326.9984
       245.000         218.000
 100768990.19048  96313493.34948  21078642.3244   21078643.9204   21078643.0864
       249.000         222.000
 127654284.83948  99470859.88848  24291811.4784   24291814.0784   24291811.1674
       216.000         169.000
 121070347.63348  94340523.60048  23038926.4554   23038928.5114   23038925.8674
       229.000         192.000
 116049846.08348  90428443.36148  22083555.5164   22083558.2684   22083555.6894
       236.000         195.000
 124908424.57648  97331223.23348  23769296.4624   23769300.4574   23769296.3484
       222.000         170.000
 107522915.45848  83784077.54148  20460940.2604   20460941.9724   20460940.6964
       250.000         230.000
 140527491.20548  91709748.19148  24838542.8834   24838545.2934   24838543.4034
       213.000         153.000
 135214735.15648  87569919.82848  23827577.1914   23827579.2724   23827577.2174
       220.000         170.000
 08  5 27  0 43  0.0000000  0  9G 6G21G29G31G 3G24G16G22G18
 100803199.28748  96340143.09848  21085156.9564   21085160.0494   21085157.2244
       244.000         217.000
 100796137.23648  96334646.90048  21083808.1664   21083809.6404   21083808.7944
       249.000         221.000
 127737284.58648  99535534.99948  24307605.9154   24307607.9364   24307605.9484
       216.000         168.000
 121168334.74948  94416877.17348  23057572.6184   23057574.8534   23057572.6164
       230.000         191.000
 115977846.59448  90372339.87148  22069854.5394   22069857.3274   22069854.6504
       236.000         197.000
 125005813.41048  97407110.63248  23787828.5834   23787832.6734   23787828.6724
       220.000         168.000
 107494165.16148  83761674.71548  20455469.1534   20455470.9674   20455469.5584
       249.000         230.000
 140435616.98248  91638157.94148  24821061.0154   24821061.0074   24821061.5554
       212.000         147.000
 135145387.92648  87515883.03948  23814380.6344   23814382.6794   23814380.8184
       221.000         169.000
 08  5 27  0 43 30.0000000  0  9G 6G21G29G31G 3G24G16G22G18
 100765754.26748  96310965.16348  21078031.5344   21078034.3684   21078031.3434
       245.000         218.000
 100823749.12948  96356162.66548  21089062.4094   21089064.0374   21089062.5464
       250.000         221.000
 127820299.91248  99600222.22648  24323403.6034   24323405.9624   24323403.2734
       214.000         167.000
 121266514.60748  94493380.94448  23076255.9114   23076257.3804   23076255.5654
       230.000         190.000
 115906044.71848  90316390.37548  22056191.1794   22056194.3004   22056191.2094
       235.000         198.000
 125103398.43648  97483150.91748  23806398.3294   23806403.0354   23806397.3564
       221.000         168.000
 107465800.87348  83739572.67248  20450071.5754   20450073.5404   20450071.8264
       249.000         231.000
 140343671.77548  91566512.28648  24803562.2894   24803563.1314   24803563.5444
       206.000         142.000
 135076280.65948  87462033.27548  23801229.7184   23801231.7854   23801229.6364
       224.000         168.000
 08  5 27  0 44  0.0000000  0  9G 6G21G29G31G 3G24G16G22G18
 100728538.62548  96281965.97448  21070949.7204   21070952.5204   21070949.8684
       245.000         218.000
 100851824.16248  96378039.31448  21094405.1284   21094406.3694   21094405.5764
       250.000         221.000
 127903330.40648  99664921.25648  24339203.0994   24339205.5964   24339202.3764
       217.000         167.000
 121364883.83948  94570032.28448  23094974.7194   23094976.1854   23094975.0364
       230.000         189.000
 115834440.49648  90260594.88448  22042565.3534   22042568.2534   22042565.2414
       237.000         197.000
 125201176.66648  97559341.72948  23825004.9394   23825009.1834   23825004.8264
       222.000         167.000
 107437823.97848  83717772.49148  20444747.9274   20444749.7444   20444748.2834
       248.000         230.000
 140251657.43748  91494812.93148  24786052.1944   24786053.4304   24786050.9124
       204.000         144.000
 135007415.57648  87408372.18348  23788125.2274   23788127.1664   23788125.4184
       222.000         168.000
 08  5 27  0 44 30.0000000  0  9G 6G21G29G31G 3G24G16G22G18
 100691552.45848  96253145.58648  21063911.6584   21063914.2944   21063911.6854
       245.000         218.000
 100880360.79448  96400275.65548  21099835.4424   21099836.6964   21099835.9484
       250.000         221.000
 127986375.46148  99729631.69348  24355006.5654   24355008.7014   24355007.1754
       215.000         168.000
 121463439.65748  94646829.00648  23113729.6614   23113731.4584   23113729.3484
       230.000         191.000
 115763034.32748  90204953.72848  22028977.0744   22028980.0294   22028977.5004
       236.000         197.000
 125299145.55848  97635681.12648  23843647.7664   23843652.7254   23843648.1244
       221.000         168.000
 107410235.48748  83696274.96448  20439497.7884   20439499.7414   20439498.2184
       248.000         230.000
 140159576.73148  91423061.81848  24768530.1304   24768532.0784   24768529.0394
       213.000         154.000
 134938795.42348  87354901.94548  23775067.3414   23775069.1194   23775067.3914
       226.000         172.000
 08  5 27  0 45  0.0000000  0  9G 6G21G29G31G 3G24G16G22G18
 100654795.71948  96224503.97548  21056916.9754   21056919.7884   21056916.9804
       245.000         218.000
 100909358.02948  96422870.90548  21105353.3994   21105354.6764   21105354.1064
       249.000         221.000
 128069434.46548  99794352.97048  24370811.8094   24370814.2214   24370811.8824
       215.000         169.000
 121562179.17248  94723768.87048  23132519.1424   23132521.1464   23132518.5894
       228.000         190.000
 115691826.57148  90149467.18048  22015426.5094   22015430.0604   22015426.9924
       237.000         199.000
 125397302.76348  97712167.25548  23862326.7924   23862331.2404   23862326.1254
       221.000         168.000
 107383037.13348  83675081.43748  20434322.2544   20434324.1164   20434322.5134
       248.000         230.000
 140067433.06848  91351261.59248  24750996.8674   24750997.4614   24750996.0164
       216.000         159.000
 134870422.97248  87301624.73548  23762056.1614   23762058.7314   23762057.1704
       225.000         171.000
 08  5 27  0 45 30.0000000  0  9G 6G21G29G31G 3G24G16G22G18
 100618268.17248  96196040.94848  21049966.0804   21049968.7374   21049965.9294
       246.000         218.000
 100938814.24148  96445823.80548  21110958.8064   21110960.0594   21110959.0414
       250.000         221.000
 128152507.06748  99859084.82448  24386619.8154   24386622.5214   24386620.1234
       216.000         168.000
 121661099.26548  94800849.43648  23151342.7004   23151344.6954   23151341.9554
       229.000         189.000
 115620817.86148  90094135.74748  22001914.0394   22001917.8484   22001915.3084
       236.000         198.000
 125495645.58948  97788798.02248  23881040.9124   23881045.2464   23881041.4744
       222.000         168.000
 107356230.41848  83654193.08548  20429221.1864   20429222.9104   20429221.5424
       248.000         230.000
 139975228.44748  91279413.91848  24733450.8214   24733451.5944   24733452.0584
       215.000         156.000
 134802300.79748  87248542.54648  23749093.4324   23749095.1184   23749093.7094
       226.000         173.000
 08  5 27  0 46  0.0000000  0  9G 6G21G29G31G 3G24G16G22G18
 100581969.87148  96167756.56448  21043058.6604   21043061.3614   21043059.3354
       246.000         218.000
 100968728.15848  96469133.35148  21116651.0854   21116652.3794   21116651.6254
       250.000         221.000
 128235593.07348  99923827.11648  24402430.4544   24402433.3844   24402430.2874
       216.000         170.000
 121760197.11848  94878068.51648  23170200.4984   23170202.4084   23170201.0484
       228.000         187.000
 115550008.20448  90038959.39348  21988439.8624   21988442.6274   21988439.6214
       236.000         198.000
 125594171.51148  97865571.46948  23899789.6764   23899793.5564   23899788.9454
       222.000         168.000
 107329816.69648  83633610.96148  20424194.8504   20424196.5774   20424195.2744
       248.000         231.000
 139882965.14048  91207520.51448  24715893.1704   24715893.7864   24715894.0334
       203.000         148.000
 134734431.28248  87195657.23148  23736177.9104   23736180.2804   23736178.3704
       225.000         174.000
 08  5 27  0 46 30.0000000  0  9G 6G21G29G31G 3G24G16G22G18
 100545902.17748  96139651.86848  21036195.1644   21036197.7304   21036195.2214
       245.000         218.000
 100999099.60848  96492799.41748  21122430.7334   21122432.0574   21122431.3814
       250.000         221.000
 128318692.97948  99988580.24948  24418244.1024   24418246.8294   24418243.5384
       215.000         167.000
 121859470.72048  94955424.55848  23189091.2104   23189093.1244   23189090.6524
       227.000         188.000
 115479399.61948  89983939.72248  21975003.5104   21975006.0714   21975003.1194
       236.000         199.000
 125692879.26448  97942486.57948  23918573.5934   23918577.3614   23918573.9964
       223.000         166.000
 107303798.64148  83613337.15148  20419243.7814   20419245.5244   20419244.1994
       248.000         231.000
 139790647.18248  91135584.54948  24698323.7534   24698326.6544   24698323.1694
       202.000         144.000
 134666818.58348  87142972.02948  23723311.3594   23723314.1754   23723311.9264
       224.000         172.000
 08  5 27  0 47  0.0000000  0  9G 6G21G29G31G 3G24G16G22G18
 100510063.82248  96111725.87248  21029375.4624   21029378.0974   21029375.3814
       246.000         219.000
 101029926.30348  96516820.22148  21128296.8244   21128298.2594   21128297.4174
       250.000         221.000
 128401805.41948 100053343.16948  24434059.8994   24434062.2824   24434060.0114
       215.000         169.000
 121958916.35048  95032914.65148  23208015.6984   23208017.1004   23208015.1594
       230.000         187.000
 115408991.27848  89929076.09748  21961604.9674   21961608.1484   21961605.6624
       236.000         199.000
 125791765.21148  98019540.57048  23937390.9764   23937394.5314   23937390.4794
       223.000         167.000
 107278176.52548  83593371.86348  20414367.9904   20414369.8574   20414368.3264
       248.000         230.000
 139698276.15348  91063607.14248  24680747.3474   24680748.4264   24680747.0704
       209.000         144.000
 134599464.67848  87090488.50748  23710494.5854   23710496.8994   23710495.3374
       224.000         173.000
 08  5 27  0 47 30.0000000  0  9G 6G21G29G31G 3G24G16G22G18
 100474454.65748  96083978.46848  21022599.1804   21022601.8524   21022599.2884
       246.000         218.000
 101061206.77148  96541194.61048  21134249.3274   21134250.7634   21134249.7764
       250.000         221.000
 128484929.62448 100118115.24948  24449878.7184   24449880.9654   24449877.7634
       220.000         172.000
 122058530.86748  95110536.31548  23226971.3984   23226973.8034   23226970.7314
       229.000         188.000
 115338783.95648  89874369.09348  21948244.9434   21948247.8024   21948245.0094
       235.000         199.000
 125890826.74248  98096731.37248  23956241.9174   23956245.4014   23956242.7884
       223.000         168.000
 107252951.64348  83573716.11348  20409567.7154   20409569.6764   20409568.1104
       247.000         230.000
 139605854.51648  90991590.25948  24663160.2474   24663160.4404   24663161.1234
       216.000         150.000
 134532372.13848  87038208.63048  23697727.4744   23697730.1094   23697728.3714
       227.000         173.000
 08  5 27  0 48  0.0000000  0  9G 6G21G29G31G 3G24G16G22G18
 100439074.79948  96056409.74748  21015866.7224   21015869.4624   21015866.9334
       245.000         219.000
 101092939.86348  96565921.70148  21140287.8594   21140289.1714   21140288.2574
       249.000         221.000
 128568065.73948 100182896.58748  24465697.6614   24465701.0074   24465698.5794
       216.000         169.000
 122158311.95148  95188287.81548  23245959.4754   23245961.3174   23245959.4094
       229.000         188.000
 115268778.09748  89819819.10348  21934922.8924   21934926.2124   21934922.6184
       235.000         198.000
 125990061.73948  98174057.33248  23975125.4174   23975129.5564   23975125.6174
       219.000         170.000
 107228125.61948  83554371.15748  20404843.4894   20404845.3744   20404843.8664
       247.000         230.000
 139513385.73748  90919536.62348  24645565.1014   24645565.2354   24645564.7674
       212.000         156.000
 134465543.66748  86986134.51848  23685010.6784   23685012.7304   23685011.8934
       229.000         173.000
 08  5 27  0 48 30.0000000  0  9G 6G21G29G31G 3G24G16G22G18
 100403924.75348  96029020.10048  21009177.9264   21009180.5994   21009177.7284
       246.000         219.000
 101125124.41748  96591000.57548  21146412.2934   21146413.8474   21146412.5094
       250.000         221.000
 128651213.49148 100247687.02648  24481521.0104   24481523.1074   24481520.7764
       217.000         170.000
 122258256.53848  95266166.68148  23264978.3124   23264980.3064   23264978.3354
       231.000         188.000
 115198974.28048  89765426.51548  21921639.8904   21921642.9694   21921639.9924
       236.000         199.000
 126089468.08048  98251516.80348  23994042.1024   23994045.7944   23994041.4264
       222.000         169.000
 107203700.22848  83535338.38448  20400195.5894   20400197.4624   20400195.9534
       247.000         230.000
 139420872.15048  90847448.21148  24627959.2774   24627961.1694   24627958.4394
       213.000         157.000
 134398982.26548  86934268.53548  23672344.0214   23672346.4124   23672345.3154
       226.000         172.000
 08  5 27  0 49  0.0000000  0  9G 6G21G29G31G 3G24G16G22G18
 100369003.75148  96001808.93848  21002532.6884   21002535.3974   21002533.1164
       246.000         219.000
 101157758.49348  96616429.72848  21152622.5094   21152623.9344   21152622.9134
       250.000         221.000
 128734371.82848 100312485.72748  24497344.8974   24497348.1404   24497344.3704
       215.000         172.000
 122358361.16748  95344170.26448  23284027.1644   23284028.9524   23284027.5124
       227.000         188.000
 115129372.16348  89711191.12248  21908394.9884   21908398.3404   21908395.8374
       237.000         200.000
 126189042.29848  98329107.11248  24012990.4734   24012994.2714   24012991.3714
       222.000         169.000
 107179676.41048  83516618.52548  20395624.0404   20395625.9054   20395624.3564
       247.000         230.000
 139328316.07748  90775326.63248  24610346.7454   24610348.5604   24610347.4074
       210.000         157.000
 134332690.25548  86882612.41348  23659729.5924   23659730.9994   23659730.2144
       227.000         172.000
 08  5 27  0 49 30.0000000  0 10G 6G21G29G19G31G 3G24G16G22G18
 100334309.87448  95974774.75048  20995930.5414   20995933.3814   20995930.7464
       245.000         219.000
 101190838.74648  96642206.55148  21158917.4254   21158918.9744   21158918.1594
       250.000         221.000
 128817538.69048 100377291.06748  24513171.0674   24513174.6264   24513170.4994
       216.000         174.000
 128003915.26058  99743305.09058  24358339.3395   24358341.9825   24358339.9585
       211.000         157.000
 122458621.04548  95422294.81348  23303106.3044   23303107.8044   23303105.0054
       228.000         187.000
 115059970.46548  89657111.88348  21895188.7364   21895191.5344   21895189.6554
       237.000         200.000
 126288780.30648  98406825.03248  24031969.9534   24031973.5984   24031971.0404
       224.000         168.000
 107156053.66048  83498211.18848  20391128.8224   20391130.6914   20391129.1824
       247.000         230.000
 139235718.45548  90703172.68948  24592725.6844   24592727.5444   24592726.3744
       201.000         149.000
 134266668.24448  86831166.72048  23647165.6604   23647167.7584   23647166.9674
       223.000         173.000
 08  5 27  0 50  0.0000000  0 10G 6G21G29G19G31G 3G24G16G22G18
 100299844.35948  95947918.50648  20989371.8734   20989374.6004   20989371.8644
       245.000         219.000
 101224365.05748  96668330.94948  21165297.2584   21165298.8184   21165297.6864
       250.000         221.000
 128900714.60148 100442103.41148  24528999.0524   24529002.4814   24528999.5714
       218.000         173.000
 127921424.92748  99679026.94348  24342642.6664   24342644.1134   24342643.8294
       210.000         159.000
 122559034.55648  95500539.09148  23322214.4604   23322216.2394   23322214.9774
       228.000         188.000
 114990771.40948  89603190.54748  21882020.2234   21882023.4704   21882020.8914
       237.000         200.000
 126388680.90348  98484669.65948  24050980.7564   24050984.0814   24050982.4174
       221.000         167.000
 107132834.61748  83480118.42148  20386710.3094   20386712.1264   20386710.8294
       247.000         230.000
 139143082.97248  90630989.26548  24575096.9934   24575099.5494   24575097.0564
       208.000         153.000
 134200919.95848  86779934.30848  23634653.8374   23634655.7254   23634654.3064
       223.000         172.000
 08  5 27  0 50 30.0000000  0 10G 6G21G29G19G31G 3G24G16G22G18
 100265608.31348  95921241.06848  20982857.0754   20982859.7814   20982856.8984
       246.000         219.000
 101258337.02548  96694802.61948  21171761.7904   21171763.4634   21171762.0514
       250.000         221.000
 128983900.52048 100506923.60148  24544829.2114   24544832.0914   24544829.4914
       221.000         173.000
 127839039.58348  99614830.60548  24326964.7864   24326966.8034   24326964.5584
       212.000         161.000
 122659599.74348  95578901.55348  23341351.1374   23341353.0694   23341351.3654
       227.000         184.000
 114921776.03348  89549427.92648  21868890.8714   21868894.2824   21868890.7614
       236.000         200.000
 126488742.45248  98562639.69748  24070021.6454   24070025.0484   24070020.4434
       219.000         166.000
 107110021.76848  83462342.17148  20382369.1084   20382370.9154   20382369.2704
       247.000         230.000
 139050413.41648  90558779.23448  24557463.9024   24557465.0954   24557462.9234
       217.000         157.000
 134135449.51748  86728918.41848  23622195.4884   23622197.6964   23622195.5984
       226.000         176.000
 08  5 27  0 51  0.0000000  0 11G 6G25G21G29G19G31G 3G24G16G22G18
 100231602.54348  95894743.07048  20976385.8934   20976388.6964   20976386.1064
       246.000         219.000
 139498784.18658  90908135.98258  24642806.1055   24642808.2735   24642805.9265
       218.000         168.000
 101292753.97648  96721621.02048  21178311.1824   21178312.7004   21178311.6014
       250.000         221.000
 129067096.88248 100571751.89448  24560660.5194   24560664.1364   24560661.1274
       216.000         171.000
 127756760.60548  99550717.15848  24311308.2524   24311309.1294   24311310.1094
       215.000         162.000
 122760314.54148  95657380.56748  23360516.1934   23360518.6664   23360515.4494
       224.000         184.000
 114852986.05648  89495825.36248  21855800.7584   21855803.7394   21855800.7874
       238.000         201.000
 126588963.47148  98640734.00648  24089093.0264   24089096.5304   24089092.4344
       218.000         164.000
 107087617.00348  83444883.91448  20378105.7684   20378107.5154   20378106.2384
       247.000         230.000
 138957713.47648  90486545.53948  24539823.6904   24539823.6714   24539824.5194
       221.000         153.000
 134070260.38848  86678121.72848  23609790.2684   23609792.4604   23609790.8094
       229.000         174.000
 08  5 27  0 51 30.0000000  0 11G 6G25G21G29G19G31G 3G24G16G22G18
 100197827.75348  95868425.05148  20969959.0074   20969961.5884   20969959.2864
       246.000         220.000
 139438681.19648  90861302.47648  24631368.2964   24631371.0984   24631368.5584
       214.000         164.000
 101327615.13948  96748785.55748  21184945.1124   21184946.5334   21184945.4944
       250.000         221.000
 129150303.90648 100636588.58648  24576494.4054   24576497.1104   24576494.3504
       213.000         171.000
 127674589.05348  99486687.41248  24295671.5124   24295672.8434   24295672.5224
       210.000         163.000
 122861176.78148  95735974.51248  23379710.1514   23379711.4234   23379708.8844
       227.000         183.000
 114784402.43348  89442383.59148  21842749.2984   21842752.5714   21842749.9224
       237.000         200.000
 126689342.14048  98718951.15148  24108194.1934   24108198.0574   24108193.9264
       219.000         164.000
 107065622.68248  83427745.48348  20373920.3414   20373922.2184   20373920.6644
       246.000         230.000
 138864986.39348  90414290.61948  24522178.2514   24522177.2164   24522178.5044
       215.000         151.000
 134005355.78348  86627546.70348  23597439.6404   23597441.1654   23597440.1364
       227.000         174.000
 08  5 27  0 52  0.0000000  0 11G 6G25G21G29G19G31G 3G24G16G22G18
 100164284.01248  95842287.07948  20963575.5554   20963578.3954   20963575.5954
       246.000         220.000
 139378993.78948  90814792.85748  24620009.7464   24620012.1634   24620010.5134
       217.000         167.000
 101362919.35648  96776295.33348  21191663.4054   21191664.5954   21191664.1434
       249.000         221.000
 129233521.22748 100701433.18448  24592330.2154   24592333.2264   24592329.1414
       219.000         174.000
 127592524.80848  99422741.25748  24280054.3284   24280056.5664   24280054.2884
       215.000         166.000
 122962183.66348  95814681.15248  23398931.0774   23398932.9184   23398931.8124
       227.000         182.000
 114716025.46248  89389102.84948  21829737.8224   21829740.7554   21829738.0784
       238.000         201.000
 126789875.93248  98797289.18848  24127325.4754   24127328.7604   24127326.3014
       221.000         165.000
 107044040.30848  83410928.04648  20369813.2104   20369815.1584   20369813.5204
       246.000         230.000
 138772234.82548  90342016.69748  24504527.9824   24504528.4214   24504527.5994
       201.000         147.000
 133940738.32248  86577195.45448  23585143.0624   23585145.1894   23585143.5854
       227.000         174.000
 08  5 27  0 52 30.0000000  0 11G 6G25G21G29G19G31G 3G24G16G22G18
 100130970.92548  95816328.83048  20957236.4564   20957239.0584   20957236.3754
       246.000         220.000
 139319723.59548  90768608.34248  24608730.7934   24608734.4834   24608731.5064
       220.000         170.000
 101398664.45848  96804148.65848  21198465.1914   21198466.6834   21198465.4244
       250.000         221.000
 129316748.14348 100766285.34948  24608167.3164   24608170.3854   24608167.1964
       218.000         175.000
 127510568.05648  99358878.87048  24264458.7774   24264460.1654   24264459.8684
       215.000         166.000
 123063331.79348  95893497.85648  23418178.3374   23418180.8154   23418178.7664
       224.000         180.000
 114647855.08848  89335983.08948  21816765.4614   21816768.7564   21816765.5944
       237.000         202.000
 126890562.36048  98875746.15348  24146485.0134   24146488.9064   24146487.1464
       221.000         164.000
 107022870.73248  83394432.27448  20365784.6634   20365786.6814   20365785.0994
       246.000         230.000
 138679461.66648  90269725.99948  24486871.4614   24486875.5394   24486870.1774
       201.000         150.000
 133876410.40648  86527069.82148  23572901.7204   23572904.2384   23572902.9284
       224.000         173.000
 08  5 27  0 53  0.0000000  0 11G 6G25G21G29G19G31G 3G24G16G22G18
 100097888.18748  95790550.08348  20950940.9514   20950943.6364   20950940.6664
       246.000         220.000
 139260871.77948  90722749.80448  24597531.8994   24597534.7234   24597531.8014
       215.000         163.000
 101434849.01148  96832344.41748  21205351.0294   21205352.3924   21205351.5844
       250.000         221.000
 129399984.10048 100831144.52348  24624007.1514   24624009.9614   24624006.5844
       218.000         175.000
 127428718.36048  99295099.90648  24248883.6014   24248884.7894   24248885.5134
       216.000         168.000
 123164618.18948  95972422.28148  23437452.4914   23437455.1214   23437450.6004
       225.000         180.000
 114579892.11348  89283024.92248  21803832.8264   21803835.4254   21803832.9484
       238.000         201.000
 126991398.98848  98954320.13048  24165673.6684   24165677.8554   24165675.1384
       221.000         163.000
 107002115.23948  83378259.16048  20361835.1694   20361837.0784   20361835.5194
       247.000         230.000
 138586669.14748  90197420.22748  24469215.1244   24469218.0004   24469214.8054
       218.000         162.000
 133812374.58848  86477171.79548  23560716.1494   23560718.4254   23560716.8264
       226.000         177.000
 08  5 27  0 53 30.0000000  0 11G 6G25G21G29G19G31G 3G24G16G22G18
 100065035.03648  95764950.23448  20944689.2314   20944692.0224   20944689.2554
       247.000         220.000
 139202439.42248  90677218.08748  24586412.0364   24586414.8824   24586412.8744
       220.000         166.000
 101471470.53748  96860880.66848  21212319.7684   21212321.6154   21212320.3264
       250.000         221.000
 129483228.05548 100896009.97548  24639847.2914   24639850.8644   24639847.1284
       216.000         173.000
 127346975.18248  99231403.94948  24233328.2874   24233329.9034   24233329.4524
       215.000         167.000
 123266038.92248  96051451.42748  23456753.3264   23456755.0704   23456753.2044
       228.000         185.000
 114512135.86848  89230227.85548  21790939.0484   21790941.8414   21790939.9494
       238.000         202.000
 127092382.08048  99033008.26548  24184890.1664   24184893.7504   24184891.2774
       219.000         163.000
 106981774.05748  83362408.88948  20357964.5094   20357966.2784   20357964.9924
       247.000         231.000
 138493858.85148  90125100.51348  24451555.9184   24451555.8334   24451556.9834
       223.000         163.000
 133748632.73748  86427502.84948  23548586.3614   23548588.8834   23548587.1244
       226.000         176.000
 08  5 27  0 54  0.0000000  0 11G 6G25G21G29G19G31G 3G24G16G22G18
 100032411.67748  95739529.43548  20938481.3244   20938484.0704   20938481.5624
       246.000         220.000
 139144428.62848  90632014.87248  24575373.3074   24575375.8154   24575373.9174
       215.000         159.000
 101508527.76748  96889756.43348  21219371.6544   21219373.4314   21219372.1824
       249.000         221.000
 129566479.82148 100960881.46748  24655689.7964   24655693.3234   24655688.7504
       219.000         174.000
 127265339.52948  99167791.79548  24217793.1294   24217794.7034   24217794.4264
       216.000         167.000
 123367591.43048  96130583.23048  23476077.7794   23476080.1424   23476077.7224
       227.000         184.000
 114444586.86248  89177592.27948  21778084.7734   21778087.8674   21778084.9804
       238.000         203.000
 127193509.69448  99111809.02248  24204133.5694   24204137.7214   24204134.0664
       214.000         160.000
 106961848.99748  83346882.86648  20354172.8124   20354174.8144   20354173.1974
       246.000         231.000
 138401034.13348  90052769.53848  24433891.1174   24433890.6074   24433892.3094
       217.000         153.000
 133685187.55748  86378065.06148  23536512.9994   23536515.4304   23536513.4954
       224.000         174.000
 08  5 27  0 54 30.0000000  0 11G 6G25G21G29G19G31G 3G24G16G22G18
 100000019.19648  95714288.53648  20932317.0304   20932319.9004   20932317.0874
       246.000         220.000
 139086842.01248  90587142.21748  24564414.8474   24564416.9794   24564413.4854
       209.000         160.000
 101546020.31748  96918971.40748  21226506.1374   21226508.1054   21226506.4794
       250.000         221.000
 129649740.08248 101025759.62748  24671533.7374   24671537.2224   24671533.4184
       220.000         177.000
 127183812.21648  99104264.05548  24202279.2314   24202281.3294   24202279.0034
       217.000         172.000
 123469274.01748  96209816.37548  23495427.3984   23495429.1844   23495426.8134
       227.000         183.000
 114377246.92448  89125119.61048  21765270.3414   21765273.4284   21765270.3204
       236.000         201.000
 127294780.49448  99190721.33048  24223404.2074   24223408.6824   24223404.1814
       215.000         157.000
 106942342.39248  83331682.91448  20350460.8134   20350462.9114   20350461.0594
       246.000         231.000
 138308198.79448  89980430.31848  24416224.7724   24416225.5174   24416225.0254
       206.000         151.000
 133622042.87148  86328861.43248  23524496.7214   23524499.7254   23524497.0394
       224.000         175.000
 08  5 27  0 55  0.0000000  0 11G 6G25G21G29G19G31G 3G24G16G22G18
  99967856.92648  95689227.03248  20926196.9244   20926199.6394   20926197.3834
       246.000         220.000
 139029680.63648  90542600.82748  24553536.9514   24553540.0274   24553535.5444
       213.000         161.000
 101583946.09748  96948523.96248  21233723.2214   21233724.8364   21233723.9274
       250.000         221.000
 129733007.79948 101090643.54448  24687379.8044   24687382.6284   24687379.4114
       221.000         175.000
 127102392.74048  99040820.33348  24186785.6924   24186787.3694   24186785.7394
       218.000         170.000
 123571082.60748  96289147.72448  23514801.2534   23514802.1724   23514800.6904
       225.000         181.000
 114310115.51148  89072809.42848  21752495.6954   21752498.4594   21752496.3174
       238.000         202.000
 127396191.32948  99269742.77048  24242701.9704   24242706.5044   24242704.3864
       213.000         156.000
 106923254.73548  83316809.41548  20346828.5194   20346830.5684   20346828.9824
       247.000         231.000
 138215354.64148  89908084.27548  24398555.9204   24398558.1224   24398555.0114
       212.000         154.000
 133559200.34948  86279893.24948  23512538.6314   23512540.8834   23512538.4924
       226.000         176.000
 08  5 27  0 55 30.0000000  0 11G 6G25G21G29G19G31G 3G24G16G22G18
  99935924.15448  95664344.35248  20920120.2704   20920122.8894   20920120.3784
       247.000         220.000
 138972945.32548  90498391.59948  24542741.5664   24542743.3054   24542742.5454
       219.000         163.000
 101622302.83948  96978412.33448  21241022.4344   21241023.6924   21241023.0404
       250.000         220.000
 129816282.13848 101155532.67548  24703225.9654   24703229.0824   24703225.5444
       220.000         175.000
 127021080.75948  98977460.37448  24171312.8004   24171313.9424   24171315.1224
       217.000         169.000
 123673013.96348  96368574.73648  23534197.6734   23534199.0514   23534197.0404
       227.000         183.000
 114243192.72748  89020661.80848  21739760.8274   21739763.7024   21739761.2234
       238.000         202.000
 127497739.16448  99348870.94348  24262026.5454   24262030.4984   24262026.1634
       211.000         158.000
 106904586.99548  83302263.12448  20343276.2714   20343278.0844   20343276.6484
       246.000         231.000
 138122503.99348  89835733.14448  24380887.5284   24380889.3834   24380887.4464
       215.000         159.000
 133496662.15348  86231162.19748  23500638.4114   23500640.2394   23500639.0874
       226.000         174.000
 08  5 27  0 56  0.0000000  0 11G 6G25G21G29G19G31G 3G24G16G22G18
  99904220.69548  95639640.35948  20914087.2424   20914089.9674   20914087.4684
       246.000         220.000
 138916637.66848  90454515.55948  24532025.6404   24532029.1004   24532028.2864
       214.000         164.000
 101661088.62548  97008635.01948  21248403.0634   21248404.0304   21248404.0284
       250.000         220.000
 129899562.20048 101220426.23048  24719073.2344   24719076.4104   24719072.8904
       221.000         175.000
 126939875.97748  98914183.96048  24155860.1254   24155861.2884   24155861.2724
       218.000         169.000
 123775064.76048  96448094.82248  23553616.8644   23553619.3114   23553617.5204
       224.000         181.000
 114176479.05648  88968677.14848  21727065.4754   21727068.3904   21727066.1354
       238.000         201.000
 127599421.36148  99428103.81848  24281375.6764   24281379.8274   24281377.9364
       213.000         160.000
 106886339.98148  83288044.67048  20339803.9144   20339805.8454   20339804.3244
       246.000         231.000
 138029649.24748  89763378.77748  24363218.8034   24363219.9124   24363218.3704
       220.000         167.000
 133434430.82048  86182670.25648  23488795.9894   23488798.0964   23488796.5164
       225.000         178.000
 08  5 27  0 56 30.0000000  0 11G 6G25G21G29G19G31G 3G24G16G22G18
  99872747.14148  95615115.51348  20908098.0744   20908100.8504   20908098.1884
       249.000         220.000
 138860759.95148  90410974.42848  24521393.0024   24521396.6154   24521391.4804
       218.000         169.000
 101700302.62648  97039191.37748  21255865.1424   21255866.2274   21255865.9764
       249.000         219.000
 129982848.42848 101285324.56448  24734922.7074   24734925.6694   24734922.9344
       220.000         176.000
 126858779.61548  98850992.03048  24140427.4394   24140429.0024   24140428.1744
       216.000         167.000
 123877232.86848  96527706.30848  23573058.8454   23573061.6394   23573058.9904
       222.000         181.000
 114109975.21748  88916855.98448  21714410.3824   21714413.0974   21714410.7154
       239.000         202.000
 127701236.08448  99507439.96548  24300750.7434   24300755.0554   24300750.2694
       214.000         159.000
 106868516.11248  83274155.93648  20336412.0534   20336414.1464   20336412.4144
       245.000         230.000
 137936794.05548  89691024.06648  24345549.2464   24345550.1934   24345549.7374
       217.000         165.000
 133372509.18348  86134419.64748  23477012.3884   23477014.7624   23477012.7524
       227.000         176.000
 08  5 27  0 57  0.0000000  0 11G 6G25G21G29G19G31G 3G24G16G22G18
  99841503.72748  95590770.00248  20902152.6324   20902155.4734   20902153.1684
       248.000         221.000
 138805313.86748  90367769.71948  24510842.4164   24510844.3654   24510842.9704
       219.000         164.000
 101739943.43748  97070080.31448  21263408.5034   21263409.4494   21263409.0684
       249.000         219.000
 130066140.79448 101350227.70348  24750772.6304   24750775.1074   24750772.2314
       217.000         173.000
 126777791.82148  98787884.66448  24125015.7014   24125017.0524   24125016.4714
       216.000         167.000
 123979515.69748  96607407.15048  23592523.6894   23592525.0564   23592522.6924
       227.000         183.000
 114043682.04948  88865198.97548  21701795.4124   21701798.0514   21701795.6714
       239.000         203.000
 127803180.91448  99586877.52448  24320150.1354   24320154.2694   24320149.5514
       216.000         162.000
 106851116.12548  83260597.50648  20333100.9444   20333103.0914   20333101.2474
       246.000         231.000
 137843941.26748  89618671.28848  24327879.1454   24327880.6624   24327880.0564
       214.000         156.000
 133310900.17748  86086412.65048  23465288.8964   23465291.4034   23465289.7104
       225.000         176.000
 08  5 27  0 57 30.0000000  0 11G 6G25G21G29G19G31G 3G24G16G22G18
  99810490.44348  95566603.80648  20896251.0604   20896253.6514   20896250.8944
       248.000         221.000
 138750301.16748  90324902.71248  24500373.3984   24500375.7804   24500375.4444
       217.000         166.000
 101780009.23648  97101300.41548  21271032.6764   21271034.1184   21271033.6314
       248.000         219.000
 130149438.96548 101415135.38848  24766623.2834   24766626.2884   24766622.5054
       219.000         171.000
 126696912.76748  98724862.06248  24109625.6174   24109626.5364   24109627.6664
       216.000         167.000
 124081910.46848  96687195.29948  23612008.8014   23612009.8154   23612009.3594
       224.000         182.000
 113977600.06248  88813706.53248  21689220.3614   21689223.0134   21689221.3344
       239.000         203.000
 127905253.81048  99666414.83448  24339574.1174   24339578.4034   24339574.4104
       214.000         159.000
 106834141.68948  83247370.66648  20329870.9164   20329872.8764   20329871.3044
       246.000         231.000
 137751093.57748  89546322.40048  24310210.4094   24310210.8914   24310210.8604
       209.000         147.000
 133249606.42048  86038651.28748  23453625.1634   23453627.1984   23453625.0884
       226.000         177.000
 08  5 27  0 58  0.0000000  0 11G 6G25G21G29G19G31G 3G24G16G22G18
  99779707.29148  95542616.93948  20890393.1504   20890395.9064   20890393.6374
       248.000         221.000
 138695723.44048  90282374.64248  24489987.7674   24489990.2814   24489986.8694
       219.000         168.000
 101820498.91648  97132850.81948  21278737.7684   21278739.4734   21278738.3764
       250.000         220.000
 130232742.51648 101480047.21748  24782475.4404   24782478.4854   24782475.1784
       220.000         174.000
 126616142.97648  98661924.59248  24094254.2694   24094256.9934   24094254.1314
       216.000         168.000
 124184413.55048  96767067.79648  23631513.3024   23631515.4524   23631513.2034
       224.000         179.000
 113911729.34648  88762378.71048  21676685.1124   21676688.1944   21676685.7044
       237.000         202.000
 128007452.32248  99746050.05748  24359021.5354   24359025.8104   24359021.3734
       215.000         158.000
 106817593.96748  83234476.33748  20326722.0564   20326723.7684   20326722.3514
       246.000         231.000
 137658253.86648  89473979.79648  24292543.5384   24292545.1434   24292543.4024
       218.000         157.000
 133188630.53048  85991137.62548  23442021.5494   23442023.7234   23442022.0894
       227.000         176.000
 08  5 27  0 58 30.0000000  0 11G 6G25G21G29G19G31G 3G24G16G22G18
  99749153.44448  95518808.75348  20884578.9064   20884581.6254   20884579.1814
       249.000         221.000
 138641581.37348  90240186.03148  24479684.4744   24479687.6244   24479683.8054
       219.000         167.000
 101861409.76548  97164729.40548  21286522.8014   21286524.9954   21286523.7854
       250.000         220.000
 130316050.36848 101544962.44248  24798328.7344   24798332.3604   24798328.5284
       217.000         173.000
 126535481.46948  98599071.51248  24078905.3924   24078907.2594   24078906.3474
       219.000         170.000
 124287021.80248  96847022.25548  23651039.3604   23651041.0994   23651039.1354
       225.000         180.000
 113846069.65348  88711215.32248  21664190.3674   21664193.4604   21664190.4654
       239.000         203.000
 128109773.30848  99825780.68248  24378492.7194   24378496.5194   24378493.5134
       215.000         157.000
 106801473.41448  83221914.86648  20323654.4104   20323656.1354   20323654.6784
       246.000         231.000
 137565423.98548  89401644.83048  24274879.5554   24274880.1104   24274879.1154
       220.000         164.000
 133127974.19848  85943872.99148  23430479.0724   23430480.6134   23430479.7834
       226.000         174.000
 08  5 27  0 59  0.0000000  0 11G 6G25G21G29G19G31G 3G24G16G22G18
  99718830.20748  95495180.25848  20878808.7004   20878811.3534   20878808.7734
       249.000         221.000
 138587877.72748  90198339.03648  24469464.9264   24469467.6114   24469466.0554
       221.000         167.000
 101902741.31648  97196935.81348  21294388.0704   21294390.3144   21294388.9124
       250.000         220.000
 130399363.24948 101609881.57748  24814182.3724   24814185.3154   24814181.7454
       219.000         171.000
 126454929.81648  98536304.00248  24063577.1594   24063578.7474   24063579.2144
       220.000         171.000
 124389733.41948  96927057.25048  23670585.6294   23670587.0194   23670585.4004
       225.000         180.000
 113780622.98048  88660217.92748  21651736.6064   21651739.8594   21651737.1864
       239.000         203.000
 128212215.73748  99905605.92848  24397987.3614   24397991.0634   24397987.4584
       214.000         155.000
 106785782.57448  83209688.23448  20320668.5044   20320670.3404   20320668.9034
       247.000         231.000
 137472607.79448  89329320.53148  24257217.3274   24257217.7304   24257217.3294
       218.000         168.000
 133067641.20148  85896860.27848  23418997.8844   23419000.4924   23418998.3874
       226.000         178.000
 08  5 27  0 59 30.0000000  0 11G 6G25G21G29G19G31G 3G24G16G22G18
  99688736.91348  95471730.94448  20873081.9534   20873084.7834   20873081.8744
       248.000         221.000
 138534613.56248  90156834.50948  24459330.0234   24459332.6684   24459330.9884
       218.000         167.000
 101944491.59148  97229468.50048  21302332.7524   21302334.9954   21302333.5184
       249.000         220.000
 130482680.65048 101674804.20448  24830036.9724   24830040.5414   24830036.6724
       221.000         171.000
 126374487.55148  98473621.71648  24048269.9674   24048271.2564   24048271.8494
       218.000         172.000
 124492544.67848  97007169.87248  23690149.5354   23690151.2674   23690148.9584
       226.000         181.000
 113715389.11948  88609386.35348  21639322.8164   21639325.7714   21639322.6664
       239.000         203.000
 128314776.58848  99985523.51248  24417503.9254   24417507.1304   24417505.7514
       215.000         154.000
 106770522.13548  83197796.98548  20317764.6384   20317766.4854   20317764.9234
       247.000         231.000
 137379808.01248  89257009.04948  24239557.0924   24239558.9194   24239557.1884
       210.000         159.000
 133007633.15448  85850100.76548  23407579.0464   23407581.1154   23407579.4754
       227.000         177.000
 08  5 27  1  0  0.0000000  0 11G 6G25G21G29G19G31G 3G24G16G22G18
  99658874.32748  95448461.39848  20867399.3284   20867402.1154   20867399.3174
       248.000         221.000
 138481791.27448  90115674.30348  24449277.4974   24449280.6744   24449277.5654
       215.000         163.000
 101986659.67548  97262326.74948  21310357.1544   21310359.0174   21310357.7034
       249.000         218.000
 130566002.81248 101739730.51548  24845893.9004   24845895.6524   24845893.9354
       221.000         171.000
 126294155.47548  98411025.34148  24032983.4144   24032984.3734   24032983.1124
       217.000         173.000
 124595453.67948  97087358.66748  23709731.9274   23709734.2594   23709731.9924
       222.000         177.000
 113650369.36748  88558721.61248  21626950.1224   21626952.8394   21626950.7774
       240.000         204.000
 128417454.15348 100065532.01148  24437042.6914   24437046.0184   24437043.4174
       210.000         151.000
 106755693.94448  83186242.54548  20314943.0234   20314944.7764   20314943.4984
       246.000         231.000
 137287027.92748  89184712.92248  24221900.9434   24221903.1524   24221900.5074
       211.000         160.000
 132947954.13848  85803597.67348  23396221.7044   23396224.9104   23396222.2034
       225.000         177.000
 08  5 27  1  0 30.0000000  0 11G 6G25G21G29G19G31G 3G24G16G22G18
  99629243.01548  95425372.06848  20861760.6494   20861763.5414   20861760.8304
       249.000         221.000
 138429412.66848  90074859.81648  24439309.8654   24439312.3644   24439311.5824
       218.000         162.000
 102029244.29948  97295509.56748  21318460.6504   21318462.1974   21318461.1994
       248.000         218.000
 130649329.80748 101804660.62248  24861749.3994   24861752.3404   24861749.3484
       219.000         172.000
 126213934.45548  98348515.49448  24017716.9734   24017718.5674   24017716.5254
       217.000         170.000
 124698457.95348  97167621.70848  23729332.5484   23729335.5594   23729332.3134
       223.000         178.000
 113585564.28048  88508224.15448  21614617.9834   21614621.0874   21614618.6974
       239.000         204.000
 128520246.44748 100145629.92548  24456603.4554   24456606.5904   24456604.4934
       213.000         153.000
 106741299.79148  83175026.31748  20312203.8464   20312205.6654   20312204.0964
       246.000         232.000
 137194270.34748  89112434.29448  24204250.6054   24204252.3114   24204250.4044
       219.000         159.000
 132888606.55148  85757352.81948  23384928.4784   23384931.2144   23384929.1714
       225.000         176.000
 08  5 27  1  1  0.0000000  0 11G 6G25G21G29G19G31G 3G24G16G22G18
  99599841.46448  95402461.77348  20856165.7524   20856168.6474   20856166.2014
       249.000         222.000
 138377477.81748  90034391.11548  24429427.1504   24429429.3354   24429428.1934
       217.000         164.000
 102072242.35048  97329014.54548  21326642.9604   21326643.9394   21326643.6114
       249.000         217.000
 130732659.82448 101869593.07148  24877606.8754   24877610.5024   24877605.7584
       221.000         174.000
 126133823.06048  98286091.06048  24002472.7074   24002474.1684   24002475.1274
       217.000         171.000
 124801553.12648  97247955.57848  23748951.9954   23748954.0504   23748951.9524
       224.000         177.000
 113520973.19948  88457893.44348  21602327.0414   21602329.7824   21602327.1554
       240.000         204.000
 128623149.73148 100225814.31748  24476185.3904   24476189.1104   24476187.2384
       212.000         153.000
 106727339.34848  83164148.05148  20309547.2584   20309549.0424   20309547.4474
       246.000         231.000
 137101537.23048  89040174.65348  24186605.2904   24186604.2314   24186605.7394
       221.000         156.000
 132829591.41348  85711366.98748  23373698.2694   23373700.8634   23373699.2914
       227.000         178.000
 08  5 27  1  1 30.0000000  0 11G 6G25G21G29G19G31G 3G24G16G22G18
  99570669.72448  95379730.54848  20850614.7154   20850617.3754   20850614.8234
       249.000         222.000
 138325988.27048  89994269.39048  24419629.1724   24419632.1634   24419628.4384
       216.000         165.000
 102115652.22148  97362840.41648  21334903.3494   21334904.0194   21334904.2624
       248.000         216.000
 130815992.56848 101934527.67948  24893464.6044   24893467.0624   24893464.0974
       221.000         173.000
 126053821.73648  98223752.39048  23987249.4464   23987250.8784   23987251.2094
       217.000         174.000
 124904736.43148  97328358.12048  23768587.6264   23768589.1034   23768587.8194
       224.000         176.000
 113456596.63148  88407729.89748  21590076.2494   21590079.4134   21590077.0124
       239.000         205.000
 128726161.87148 100306083.50548  24495788.3234   24495791.8464   24495791.2364
       211.000         151.000
 106713813.74948  83153608.62448  20306973.4464   20306975.2184   20306973.8994
       246.000         231.000
 137008831.31848  88967936.24648  24168963.6154   24168963.2674   24168964.1964
       220.000         161.000
 132770911.31548  85665642.26748  23362532.0994   23362534.2944   23362532.9884
       226.000         177.000
 08  5 27  1  2  0.0000000  0 11G 6G25G21G29G19G31G 3G24G16G22G18
  99541729.19048  95357179.47948  20845107.5384   20845110.0904   20845107.6304
       250.000         222.000
 138274946.89948  89954496.88548  24409916.0174   24409919.5254   24409916.2994
       216.000         164.000
 102159473.46648  97396986.83648  21343242.3724   21343242.5344   21343242.8164
       248.000         216.000
 130899329.65748 101999465.67848  24909323.4014   24909325.8234   24909323.0774
       222.000         172.000
 125973931.78848  98161500.51148  23972046.1714   23972048.0304   23972046.8474
       218.000         174.000
 125008006.03948  97408827.90448  23788238.3384   23788240.5484   23788238.2554
       223.000         179.000
 113392436.35548  88357734.88648  21577866.9364   21577870.0484   21577866.3094
       238.000         204.000
 128829281.97648 100386436.88248  24515411.6754   24515414.6254   24515413.3124
       212.000         155.000
 106700725.62448  83143410.08648  20304482.7884   20304484.5844   20304483.4134
       246.000         231.000
 136916156.51848  88895722.13748  24151327.7024   24151329.2034   24151327.4984
       218.000         163.000
 132712570.07448  85620181.59348  23351429.8354   23351432.4804   23351430.4464
       226.000         176.000
 08  5 27  1  2 30.0000000  0 11G 6G25G21G29G19G31G 3G24G16G22G18
  99513018.94748  95334807.86348  20839644.0914   20839646.7554   20839644.2814
       249.000         222.000
 138224354.24848  89915074.08848  24400288.3544   24400291.2454   24400289.3794
       219.000         168.000
 102203703.84948  97431452.06748  21351659.2224   21351659.3294   21351660.1404
       248.000         216.000
 130982669.36248 102064405.67548  24925182.4664   24925184.6514   24925182.5264
       221.000         174.000
 125894152.54848  98099334.90048  23956864.7014   23956866.3324   23956865.6554
       222.000         175.000
 125111358.28048  97489362.08048  23807905.2664   23807907.9314   23807904.9144
       221.000         176.000
 113328491.70948  88307907.88548  21565698.8484   21565701.2284   21565699.0944
       241.000         204.000
 128932506.67848 100466871.73648  24535054.7834   24535058.1914   24535054.6514
       211.000         153.000
 106688075.46748  83133552.81848  20302075.4664   20302077.2914   20302075.5944
       246.000         231.000
 136823515.03648  88823534.01248  24133698.6644   24133700.3884   24133698.8874
       212.000         160.000
 132654569.65448  85574986.45348  23340393.1664   23340395.0674   23340393.9204
       225.000         178.000
 08  5 27  1  3  0.0000000  0 11G 6G25G21G29G19G31G 3G24G16G22G18
  99484539.78448  95312616.30248  20834224.6144   20834227.2234   20834224.5664
       249.000         222.000
 138174212.50648  89876002.60548  24390747.9584   24390750.2864   24390747.8884
       216.000         167.000
 102248342.24048  97466235.22148  21360153.6634   21360154.1444   21360154.1114
       249.000         216.000
 131066012.26448 102129348.18548  24941041.6324   24941044.6104   24941041.6244
       221.000         172.000
 125814484.93348  98037256.26248  23941704.7334   23941706.0294   23941705.7004
       220.000         173.000
 125214791.07248  97569959.02548  23827588.0984   23827590.8544   23827586.9854
       224.000         179.000
 113264764.30548  88258250.18148  21553571.7644   21553574.6174   21553572.4304
       239.000         205.000
 129035834.41048 100547386.81948  24554717.1084   24554720.2374   24554716.9624
       205.000         152.000
 106675864.89748  83124038.08948  20299751.9824   20299753.7944   20299752.4324
       246.000         231.000
 136730910.40848  88751374.57948  24116076.1874   24116078.2564   24116076.0384
       217.000         165.000
 132596913.17948  85530059.37848  23329421.0594   23329423.4304   23329421.0584
       226.000         177.000
 08  5 27  1  3 30.0000000  0 11G 6G25G21G29G19G31G 3G24G16G22G18
  99456292.06548  95290605.09748  20828849.3884   20828852.0114   20828849.8544
       249.000         222.000
 138124523.60348  89837283.99448  24381291.5504   24381294.3904   24381290.1194
       216.000         166.000
 102293387.18248  97501335.17848  21368725.4334   21368726.8274   21368726.3454
       248.000         217.000
 131149358.39548 102194293.20648  24956901.9104   24956904.9624   24956901.2144
       220.000         172.000
 125734929.38248  97975264.94348  23926565.0874   23926566.8304   23926565.6864
       222.000         174.000
 125318302.10848  97650616.94448  23847285.9614   23847288.0404   23847286.6734
       224.000         177.000
 113201254.74548  88208762.22748  21541486.2854   21541489.4024   21541485.8584
       239.000         204.000
 129139263.18848 100627980.67548  24574398.2544   24574402.3194   24574396.9824
       208.000         154.000
 106664095.59548  83114867.20748  20297512.3464   20297514.2634   20297512.8004
       246.000         231.000
 136638345.87748  88679246.34448  24098462.8464   24098463.6244   24098462.7044
       218.000         164.000
 132539603.24548  85485402.29548  23318515.7834   23318517.4254   23318516.0804
       228.000         178.000
 08  5 27  1  4  0.0000000  0 11G 6G25G21G29G19G31G 3G24G16G22G18
  99428275.21248  95268773.78748  20823517.8944   20823520.6664   20823518.1734
       250.000         222.000
 138075288.31048  89798918.82548  24371923.1424   24371925.0674   24371922.8794
       219.000         169.000
 102338836.54648  97536750.26748  21377374.0534   21377376.3734   21377374.5084
       247.000         218.000
 131232706.93048 102259240.08848  24972762.8714   24972765.3304   24972763.2364
       219.000         170.000
 125655485.57148  97913360.69148  23911448.1404   23911449.2084   23911449.1024
       224.000         176.000
 125421887.54048  97731332.84448  23866998.0844   23866999.7864   23866999.0394
       226.000         178.000
 113137962.88048  88159443.89648  21529442.3504   21529445.0744   21529442.2704
       239.000         205.000
 129242790.30448 100708651.17048  24594099.6734   24594103.1014   24594099.4414
       212.000         157.000
 106652767.79648  83106040.34748  20295356.6904   20295358.5844   20295356.8164
       246.000         231.000
 136545823.55448  88607151.02448  24080856.1644   24080856.2494   24080856.8644
       218.000         162.000
 132482641.98148  85441016.91148  23307676.2614   23307678.1564   23307676.9814
       228.000         178.000
 08  5 27  1  4 30.0000000  0 11G 6G25G21G29G19G31G 3G24G16G22G18
  99400488.08748  95247121.48348  20818230.2544   20818232.8834   20818230.6874
       249.000         222.000
 138026506.75248  89760907.24148  24362639.9664   24362642.5324   24362640.2754
       220.000         168.000
 102384687.29648  97572478.12248  21386099.2314   21386102.0364   21386100.1454
       247.000         218.000
 131316056.71448 102324187.96748  24988623.5464   24988626.9604   24988623.4894
       223.000         172.000
 125576152.54448  97851542.77448  23896350.8584   23896353.5224   23896352.1914
       222.000         176.000
 125525543.49448  97812103.70148  23886722.7464   23886724.5624   23886721.8344
       223.000         176.000
 113074888.05948  88110294.69548  21517439.7444   21517442.3484   21517439.7574
       240.000         205.000
 129346412.09648 100789395.41848  24613818.3494   24613821.2924   24613819.6994
       209.000         157.000
 106641881.72648  83097557.69548  20293285.1394   20293286.9714   20293285.6624
       246.000         231.000
 136453345.05848  88535089.81648  24063258.2394   24063258.5884   24063258.0924
       221.000         166.000
 132426030.27148  85396903.89348  23296903.6064   23296905.2354   23296904.4064
       229.000         180.000
 08  5 27  1  5  0.0000000  0 11G 6G25G21G29G19G31G 3G24G16G22G18
  99372932.26948  95225649.42448  20812986.3744   20812989.1634   20812986.6194
       249.000         222.000
 137978181.87848  89723251.50748  24353443.6944   24353446.5464   24353444.2544
       219.000         171.000
 102430939.18848  97608518.56648  21394900.6624   21394903.6444   21394901.2584
       246.000         218.000
 131399408.77248 102389137.62148  25004485.2824   25004487.7174   25004485.1564
       220.000         172.000
 125496932.12448  97789812.58848  23881276.3304   23881277.3664   23881276.9494
       224.000         174.000
 125629268.56748  97892928.40848  23906460.2954   23906463.2084   23906459.9654
       223.000         175.000
 113012032.31448  88061316.20748  21505478.7024   21505481.1784   21505479.6284
       241.000         205.000
 129450127.88248 100870212.90148  24633553.9534   24633558.5964   24633552.7024
       209.000         157.000
 106631440.21648  83089421.45548  20291298.2134   20291300.0254   20291298.7554
       246.000         231.000
 136360914.95748  88463066.37248  24045668.5924   24045669.3684   24045669.1464
       220.000         167.000
 132369772.35748  85353066.59448  23286197.4604   23286199.8704   23286198.6334
       229.000         180.000
 08  5 27  1  5 30.0000000  0 11G 6G25G21G29G19G31G 3G24G16G22G18
  99345607.45848  95204357.37148  20807786.6444   20807789.3994   20807786.8284
       250.000         223.000
 137930314.51048  89685952.25348  24344335.5244   24344337.9024   24344334.6444
       220.000         171.000
 102477590.33148  97644870.11348  21403778.0354   21403780.9844   21403778.6004
       247.000         218.000
 131482762.43148 102454088.47648  25020346.7184   25020350.6214   25020346.5724
       218.000         167.000
 125417823.79448  97728169.73648  23866223.1374   23866222.9254   23866224.8234
       223.000         175.000
 125733059.30148  97973804.29348  23926211.2874   23926213.5774   23926210.5924
       224.000         175.000
 112949396.16948  88012508.81748  21493559.4734   21493562.1404   21493559.3204
       241.000         206.000
 129553935.21648 100951101.75148  24653307.8804   24653312.2314   24653309.4484
       211.000         157.000
 106621443.76048  83081632.00248  20289395.9454   20289397.6914   20289396.2034
       245.000         231.000
 136268535.53448  88391082.41248  24028089.0174   24028090.7804   24028089.0764
       219.000         168.000
 132313870.19948  85309506.47748  23275560.1064   23275562.1474   23275560.5834
       229.000         181.000
 08  5 27  1  6  0.0000000  0 11G 6G25G21G29G19G31G 3G24G16G22G18
  99318513.21948  95183244.97748  20802630.9094   20802633.6524   20802631.0134
       249.000         223.000
 137882905.73948  89649010.40848  24335313.7254   24335315.9964   24335313.7084
       216.000         166.000
 102524638.46648  97681530.99348  21412731.0074   21412733.7824   21412731.6834
       247.000         217.000
 131566116.76248 102519039.90648  25036208.7504   25036211.8844   25036208.7144
       221.000         169.000
 125338827.37148  97666614.10548  23851189.1514   23851190.9204   23851190.4214
       217.000         173.000
 125836912.64948  98054728.95548  23945974.6274   23945976.8524   23945974.6624
       224.000         176.000
 112886979.07948  87963872.13548  21481681.8244   21481684.3704   21481682.3224
       240.000         205.000
 129657831.54148 101032059.87948  24673079.3354   24673082.8444   24673080.6104
       211.000         156.000
 106611893.09148  83074189.91648  20287578.5974   20287580.2384   20287578.9764
       246.000         231.000
 136176209.40648  88319139.96948  24010520.5834   24010521.4674   24010520.5514
       226.000         172.000
 132258325.92348  85266225.23548  23264989.9964   23264992.2934   23264991.0864
       227.000         179.000
 08  5 27  1  6 30.0000000  0 11G 6G25G21G29G19G31G 3G24G16G22G18
  99291650.33648  95162312.86448  20797519.0924   20797521.7834   20797519.2294
       249.000         223.000
 137835957.83448  89612427.57648  24326379.3404   24326382.0194   24326377.4794
       219.000         165.000
 102572082.65248  97718500.49448  21421759.5774   21421761.7424   21421760.1754
       246.000         217.000
 131649472.63548 102583992.50048  25052070.0664   25052073.2664   25052069.4934
       216.000         160.000
 125259944.00148  97605146.58648  23836179.0204   23836179.8584   23836179.0444
       223.000         173.000
 125940826.51748  98135700.75048  23965748.6574   23965750.3524   23965748.1174
       226.000         176.000
 112824782.76648  87915407.47948  21469846.2074   21469848.8164   21469846.5064
       240.000         205.000
 129761815.08248 101113086.01448  24692866.5444   24692870.3514   24692867.9824
       207.000         154.000
 106602789.97748  83067096.58448  20285846.3004   20285848.0024   20285846.7074
       246.000         231.000
 136083940.02748  88247241.72548  23992962.7754   23992963.2814   23992963.1294
       229.000         174.000
 132203142.62248  85223225.28548  23254489.2174   23254491.3984   23254490.2344
       228.000         181.000
 08  5 27  1  7  0.0000000  0 11G 6G25G21G29G19G31G 3G24G16G22G18
  99265018.65348  95141560.91048  20792451.1064   20792454.0884   20792451.2494
       249.000         223.000
 137789471.73548  89576204.65748  24317533.5384   24317536.0444   24317533.4164
       217.000         165.000
 102619920.93148  97755777.07248  21430862.4874   21430864.6394   21430863.0624
       246.000         216.000
 131732829.38848 102648945.81648  25067932.8084   25067935.5544   25067932.7724
       216.000         166.000
 125181173.56748  97543767.04748  23821189.4134   23821190.3484   23821190.1304
       222.000         174.000
 126044797.95248  98216717.45548  23985534.1924   23985535.2774   23985534.2094
       222.000         176.000
 112762807.19848  87867114.84848  21458052.5744   21458055.5554   21458052.6754
       240.000         205.000
 129865883.26348 101194178.08648  24712669.8114   24712673.9794   24712669.4624
       209.000         158.000
 106594135.42148  83060352.78248  20284199.2724   20284201.0664   20284199.4974
       246.000         231.000
 135991729.96948  88175389.74248  23975415.4094   23975416.5114   23975415.5084
       227.000         172.000
 132148322.35548  85180508.19448  23244057.5184   23244059.4364   23244058.4854
       228.000         181.000
 08  5 27  1  7 30.0000000  0 11G 6G25G21G29G19G31G 3G24G16G22G18
  99238618.56548  95120989.41748  20787427.4644   20787430.1704   20787427.6314
       249.000         223.000
 137743449.23948  89540343.03348  24308775.8164   24308778.3014   24308774.6954
       218.000         164.000
 102668151.87948  97793359.62448  21440040.7304   21440042.1624   21440040.9594
       246.000         215.000
 131816187.24148 102713899.94148  25083795.4484   25083797.9684   25083794.6874
       216.000         164.000
 125102516.49948  97482475.82348  23806221.2614   23806222.7224   23806222.9874
       221.000         174.000
 126148824.30148  98297776.91948  24005328.9594   24005331.0674   24005328.6184
       227.000         174.000
 112701053.05248  87818994.74348  21446301.1664   21446303.8094   21446301.5794
       241.000         205.000
 129970034.31348 101275334.78448  24732488.8004   24732493.5014   24732489.1974
       210.000         160.000
 106585930.49148  83053959.33148  20282638.0144   20282639.6914   20282638.5794
       245.000         231.000
 135899582.84248  88103586.78648  23957880.5444   23957881.2774   23957880.2214
       225.000         169.000
 132093867.92848  85138076.17948  23233695.1024   23233697.6094   23233695.6994
       228.000         181.000
 08  5 27  1  8  0.0000000  0 11G 6G25G21G29G19G31G 3G24G16G22G18
  99212449.48748  95100597.93448  20782447.6414   20782450.2734   20782447.8364
       250.000         223.000
 137697890.91048  89504842.98848  24300105.9494   24300108.0294   24300106.2084
       221.000         168.000
 102716772.97748  97831246.18648  21449293.0434   21449293.8714   21449293.0464
       245.000         214.000
 131899545.41748 102778854.34248  25099657.6944   25099660.6864   25099656.9794
       219.000         165.000
 125023972.39948  97421272.64248  23791275.1804   23791276.6064   23791275.8344
       220.000         175.000
 126252901.99048  98378876.42248  24025134.6204   24025136.4064   24025135.0464
       222.000         173.000
 112639520.49748  87771047.29948  21434591.9364   21434594.7334   21434592.3614
       240.000         206.000
 130074265.57948 101356553.90848  24752323.3444   24752327.9144   24752324.6744
       212.000         160.000
 106578176.10648  83047916.94848  20281162.3164   20281164.1324   20281162.6814
       245.000         231.000
 135807500.68548  88031834.42748  23940357.7344   23940358.3184   23940357.4444
       223.000         163.000
 132039781.34748  85095930.81048  23223402.4634   23223405.0044   23223403.0624
       228.000         182.000
 08  5 27  1  8 30.0000000  0 11G 6G25G21G29G19G31G 3G24G16G22G18
  99186511.36948  95080386.42348  20777511.5954   20777514.4104   20777511.9644
       249.000         223.000
 137652797.86848  89469705.56848  24291526.5224   24291528.1614   24291527.6634
       222.000         170.000
 102765782.48448  97869435.40848  21458619.3284   21458619.9204   21458619.4604
       246.000         214.000
 131982903.62348 102843808.72248  25115520.7824   25115522.6464   25115520.7614
       219.000         165.000
 124945541.09748  97360157.37148  23776349.5274   23776351.5224   23776351.1394
       219.000         174.000
 126357028.04448  98460013.52548  24044949.7134   24044951.6934   24044949.4024
       224.000         177.000
 112578210.06848  87723272.96048  21422924.5894   21422927.8974   21422924.8674
       240.000         206.000
 130178574.50248 101437833.57048  24772173.0734   24772176.7374   24772175.0734
       209.000         161.000
 106570872.96848  83042226.18948  20279772.5194   20279774.4494   20279772.8344
       245.000         231.000
 135715486.05948  87960134.70448  23922847.9664   23922848.6284   23922848.3324
       223.000         164.000
 131986064.50048  85054073.51948  23213180.5384   23213182.8034   23213181.2884
       228.000         180.000
 08  5 27  1  9  0.0000000  0 11G 6G25G21G29G19G31G 3G24G16G22G18
  99160804.54848  95060355.13948  20772619.9544   20772622.4704   20772620.1034
       249.000         223.000
 137608171.61948  89434931.89148  24283032.8734   24283035.7834   24283034.8724
       220.000         167.000
 102815179.05048  97907926.23448  21468018.9534   21468019.6894   21468020.0244
       246.000         214.000
 132066261.46348 102908762.92148  25131382.7784   25131385.6414   25131382.2014
       216.000         162.000
 124867223.28948  97299130.50048  23761446.4354   23761447.7034   23761447.5024
       219.000         176.000
 126461199.86448  98541186.31548  24064773.2144   24064774.5404   24064772.7974
       222.000         171.000
 112517122.15748  87675671.99548  21411300.2204   21411303.2044   21411300.7014
       240.000         206.000
 130282959.03848 101519172.19648  24792036.0934   24792040.4534   24792035.8394
       210.000         161.000
 106564022.45848  83036888.12748  20278468.9424   20278470.8214   20278469.1984
       246.000         231.000
 135623541.96048  87888489.96848  23905351.5004   23905351.3504   23905352.8274
       219.000         161.000
 131932720.14048  85012506.50448  23203029.5764   23203031.6744   23203030.0654
       227.000         181.000
 08  5 27  1  9 30.0000000  0 11G 6G25G21G29G19G31G 3G24G16G22G18
  99135329.65548  95040504.57848  20767772.1324   20767774.8684   20767772.2404
       249.000         223.000
 137564014.17048  89400523.49348  24274630.2554   24274632.7454   24274631.7654
       218.000         167.000
 102864961.47548  97946717.73648  21477492.2584   21477493.1904   21477492.8224
       247.000         214.000
 132149619.72948 102973717.42048  25147245.7844   25147249.1114   25147245.1564
       220.000         166.000
 124789019.94248  97238192.85048  23746564.8104   23746566.4804   23746565.0864
       219.000         176.000
 126565415.43748  98622393.24248  24084603.7144   24084605.5794   24084603.2584
       219.000         171.000
 112456258.45948  87628245.74748  21399718.1634   21399721.0584   21399718.2984
       240.000         205.000
 130387417.81448 101600568.62248  24811913.6374   24811918.5304   24811912.8564
       210.000         162.000
 106557626.32448  83031904.13048  20277251.8274   20277253.6934   20277252.3184
       246.000         231.000
 135531672.54348  87816903.42648  23887868.8874   23887870.4854   23887868.1724
       218.000         160.000
 131879751.24248  84971232.02748  23192949.5074   23192951.7444   23192950.0404
       229.000         184.000
 08  5 27  1 10  0.0000000  0 11G 6G25G21G29G19G31G 3G24G16G22G18
  99110087.48548  95020835.36348  20762968.8554   20762971.3774   20762969.4234
       248.000         223.000
 137520327.47348  89366481.93448  24266316.6994   24266319.6464   24266317.8044
       217.000         169.000
 102915128.50548  97985808.92548  21487038.8184   21487039.8614   21487039.6834
       247.000         215.000
 132232978.75248 103038672.41848  25163107.6784   25163111.1554   25163108.0164
       216.000         163.000
 124710931.84048  97177345.00448  23731704.9624   23731706.5264   23731705.7314
       220.000         178.000
 126669672.60248  98703632.55248  24104443.3274   24104446.1414   24104443.1004
       223.000         173.000
 112395619.51348  87580994.62748  21388179.0694   21388181.9424   21388179.2514
       241.000         206.000
 130491949.50348 101682021.88348  24831805.7784   24831809.7414   24831804.5064
       211.000         161.000
 106551686.13548  83027275.41248  20276121.4874   20276123.3364   20276121.9244
       246.000         231.000
 135439881.28348  87745377.74648  23870402.6084   23870403.0934   23870402.4704
       218.000         161.000
 131827160.80248  84930252.48748  23182942.0994   23182944.7514   23182942.7284
       231.000         182.000
 08  5 27  1 10 30.0000000  0 11G 6G25G21G29G19G31G 3G24G16G22G18
  99085076.64648  95001346.39948  20758209.2544   20758212.0484   20758208.9634
       249.000         223.000
 137477111.28348  89332806.97448  24258092.7024   24258095.9794   24258092.9884
       219.000         171.000
 102965676.96148  98025197.32848  21496657.7744   21496659.2484   21496659.1344
       247.000         215.000
 132316337.01348 103103626.95948  25178970.5604   25178975.0254   25178970.6044
       217.000         165.000
 124632957.57748  97116585.86648  23716867.1404   23716868.4404   23716868.0204
       222.000         179.000
 126773967.25448  98784901.04848  24124290.6374   24124292.9344   24124290.9274
       221.000         174.000
 112335204.79548  87533918.22948  21376682.5554   21376685.2974   21376682.5894
       241.000         206.000
 130596550.39048 101763529.06648  24851710.6154   24851714.6284   24851711.1864
       214.000         160.000
 106546201.35448  83023001.55548  20275077.7314   20275079.6324   20275078.2084
       245.000         231.000
 135348169.39748  87673913.91748  23852950.0274   23852950.9764   23852950.6654
       215.000         155.000
 131774949.58948  84889568.44448  23173006.7544   23173008.9504   23173007.2814
       227.000         182.000
 08  5 27  1 11  0.0000000  0 11G 6G25G21G29G19G31G 3G24G16G22G18
  99060297.97148  94982038.35248  20753494.0104   20753496.8024   20753494.4024
       248.000         223.000
 137434367.52748  89299500.16048  24249959.4694   24249962.2014   24249958.2994
       219.000         171.000
 103016605.87648  98064882.19748  21506349.4074   21506350.8864   21506349.9094
       246.000         215.000
 132399694.83848 103168581.07248  25194833.5334   25194836.5004   25194833.4744
       219.000         164.000
 124555098.03948  97055916.11648  23702051.1674   23702052.2864   23702052.2784
       221.000         176.000
 126878296.64148  98866196.58548  24144142.9474   24144145.6714   24144142.8904
       213.000         169.000
 112275015.67748  87487017.62748  21365228.8304   21365231.8304   21365229.4284
       241.000         207.000
 130701218.91848 101845088.96348  24871628.8454   24871631.9944   24871629.5624
       216.000         162.000
 106541173.71448  83019083.91348  20274121.0564   20274122.9294   20274121.3424
       246.000         231.000
 135256540.62048  87602514.91348  23835513.1144   23835513.8824   23835514.3554
       214.000         156.000
 131723121.16648  84849182.65448  23163143.8804   23163146.0784   23163144.5444
       228.000         180.000
 08  5 27  1 11 30.0000000  0 11G 6G25G21G29G19G31G 3G24G16G22G18
  99035751.69648  94962911.38248  20748823.0754   20748825.7244   20748823.0774
       249.000         223.000
 137392097.54648  89266562.54148  24241916.3234   24241918.5694   24241916.5084
       223.000         171.000
 103067913.58248  98104862.21748  21516112.7124   21516114.7554   21516112.6264
       245.000         215.000
 132483052.20148 103233534.86348  25210696.0084   25210698.7294   25210696.5504
       217.000         160.000
 124477353.67348  96995336.10448  23687256.5914   23687257.2114   23687257.5834
       220.000         176.000
 126982658.52448  98947517.46548  24164001.8194   24164004.2854   24164000.4744
       220.000         169.000
 112215052.21048  87440292.85548  21353818.1634   21353821.1994   21353818.7224
       241.000         207.000
 130805953.21948 101926700.11048  24891559.2424   24891562.2024   24891559.9894
       215.000         162.000
 106536604.77348  83015523.69548  20273251.7314   20273253.4424   20273252.1544
       246.000         232.000
 135164998.09148  87531183.07948  23818093.6534   23818094.3994   23818092.8744
       216.000         154.000
 131671677.88548  84809096.99148  23153355.0084   23153357.2194   23153355.7204
       229.000         182.000
 08  5 27  1 12  0.0000000  0 11G 6G25G21G29G19G31G 3G24G16G22G18
  99011437.25548  94943965.07248  20744196.1224   20744198.8074   20744196.3674
       249.000         223.000
 137350301.93248  89233994.53648  24233961.9704   24233964.7364   24233962.9394
       221.000         170.000
 103119597.64848  98145135.50648  21525948.0444   21525950.0384   21525948.3614
       245.000         215.000
 132566408.46548 103298487.78848  25226558.1174   25226560.5294   25226559.4014
       213.000         159.000
 124399723.93348  96934845.41548  23672484.4134   23672485.4644   23672484.5974
       221.000         177.000
 127087049.29148  99028860.86448  24183868.2484   24183869.6884   24183868.8084
       218.000         171.000
 112155314.86048  87393744.27648  21342450.3964   21342453.3104   21342450.5184
       242.000         206.000
 130910750.47848 102008360.29448  24911501.2604   24911504.3904   24911502.6354
       213.000         162.000
 106532494.65848  83012321.01048  20272469.4374   20272471.3064   20272469.8434
       245.000         231.000
 135073543.93248  87459920.15448  23800689.3224   23800691.0854   23800690.0084
       209.000         150.000
 131620621.32048  84769312.65248  23143639.1324   23143640.9254   23143639.6214
       232.000         183.000
 08  5 27  1 12 30.0000000  0 11G 6G25G21G29G19G31G 3G24G16G22G18
  98987354.98748  94925199.67348  20739613.5254   20739616.1654   20739613.6254
       249.000         223.000
 137308981.84248  89201797.05948  24226099.7834   24226101.7754   24226098.1064
       221.000         172.000
 103171656.44948  98185700.80848  21535854.4344   21535856.4654   21535855.0624
       246.000         214.000
 132649763.38348 103363439.67448  25242419.5204   25242423.0624   25242419.2514
       217.000         162.000
 124322209.14248  96874444.32348  23657733.9534   23657735.0534   23657734.2784
       221.000         176.000
 127191466.62848  99110224.90148  24203737.7904   24203741.0354   24203737.1554
       212.000         169.000
 112095803.82448  87347372.04648  21331125.6954   21331128.7734   21331125.9984
       240.000         206.000
 131015608.52848 102090067.89748  24931454.6004   24931458.1374   24931454.7094
       212.000         159.000
 106528844.36248  83009476.62448  20271774.8434   20271776.6374   20271775.0794
       245.000         231.000
 134982181.35748  87388728.53948  23783304.5414   23783306.2334   23783304.4074
       207.000         149.000
 131569953.52648  84729831.27148  23133997.4534   23133999.2514   23133997.8464
       230.000         182.000
 08  5 27  1 13  0.0000000  0 11G 6G25G21G29G19G31G 3G24G16G22G18
  98963504.88548  94906615.17848  20735075.0274   20735077.5964   20735075.0664
       248.000         223.000
 137268138.53048  89169971.12248  24218327.0384   24218329.6704   24218326.6364
       221.000         171.000
 103224088.14148  98226556.67148  21545831.6724   21545833.7514   21545832.7504
       246.000         214.000
 132733117.00948 103428390.57848  25258281.2924   25258285.0084   25258281.5214
       215.000         162.000
 124244809.60048  96814132.98748  23643005.1214   23643006.1544   23643007.0484
       223.000         177.000
 127295907.58848  99191607.38448  24223612.4814   24223615.2154   24223611.3644
       215.000         169.000
 112036520.07548  87301176.92748  21319844.6144   21319847.4474   21319844.4584
       242.000         207.000
 131120525.49048 102171821.35848  24951419.7004   24951423.2434   24951419.7974
       216.000         160.000
 106525654.93348  83006991.34748  20271168.0884   20271169.6814   20271168.3874
       245.000         231.000
 134890913.12648  87317610.45548  23765937.1784   23765937.3714   23765937.0904
       205.000         146.000
 131519677.02948  84690654.81048  23124429.9944   23124432.1864   23124430.7394
       229.000         183.000
 08  5 27  1 13 30.0000000  0 11G 6G25G21G29G19G31G 3G24G16G22G18
  98939886.77648  94888211.46848  20730580.5184   20730583.2294   20730580.8154
       249.000         223.000
 137227772.92948  89138517.41648  24210645.4304   24210648.5064   24210647.0484
       221.000         170.000
 103276890.57848  98267701.41848  21555879.8674   21555881.6804   21555880.5264
       246.000         215.000
 132816468.77748 103493340.01748  25274142.5504   25274145.2864   25274142.4094
       218.000         163.000
 124167525.26148  96753911.43048  23628298.5164   23628299.4564   23628299.0824
       224.000         180.000
 127400369.37148  99273006.14848  24243491.1154   24243493.1764   24243491.7434
       217.000         172.000
 111977463.96848  87255159.18248  21308606.7804   21308609.4824   21308606.8364
       241.000         207.000
 131225499.04648 102253618.94148  24971396.0444   24971399.2164   24971397.6014
       216.000         160.000
 106522926.93248  83004865.63248  20270648.8694   20270650.5504   20270649.2904
       245.000         231.000
 134799742.11748  87246568.21448  23748586.2904   23748588.6184   23748587.2144
       208.000         145.000
 131469794.09948  84651784.99148  23114937.6764   23114939.5714   23114938.3344
       229.000         182.000
 08  5 27  1 14  0.0000000  0 11G 6G25G21G29G19G31G 3G24G16G22G18
  98916500.22648  94869988.18748  20726130.3234   20726132.9264   20726130.5244
       249.000         223.000
 137187885.75548  89107436.51948  24203055.4384   24203058.1484   24203055.7224
       222.000         168.000
 103330061.66748  98309133.43848  21565998.0354   21565999.5544   21565998.5414
       245.000         214.000
 132899818.22148 103558287.60448  25290003.8404   25290006.2844   25290003.7944
       214.000         160.000
 124090355.75848  96693779.36248  23613613.3434   23613614.9154   23613613.9534
       223.000         179.000
 127504848.21548  99354418.19148  24263373.2174   24263374.6394   24263372.6374
       217.000         170.000
 111918635.15248  87209318.55248  21297411.8154   21297414.7804   21297411.8444
       241.000         207.000
 131330526.64148 102335458.64648  24991381.5294   24991385.6514   24991384.1024
       213.000         158.000
 106520660.77848  83003099.79748  20270217.6094   20270219.2614   20270217.9894
       246.000         231.000
 134708670.81548  87175603.64348  23731257.1614   23731258.5874   23731257.8214
       210.000         152.000
 131420306.50248  84613223.26548  23105520.5124   23105522.9114   23105521.2804
       228.000         182.000
 08  5 27  1 14 30.0000000  0 11G 6G25G21G29G19G31G 3G24G16G22G18
  98893346.97248  94851946.68948  20721724.3514   20721726.9574   20721724.7364
       249.000         223.000
 137148479.42248  89076730.27348  24195556.8204   24195558.4334   24195557.2904
       224.000         168.000
 103383600.85148  98350852.28248  21576186.1334   21576187.6534   21576186.6454
       247.000         215.000
 132983166.29948 103623234.16248  25305863.8384   25305867.9594   25305864.2724
       218.000         163.000
 124013303.11348  96633738.37548  23598950.5914   23598952.1474   23598952.2414
       223.000         177.000
 127609343.27748  99435842.86448  24283257.7504   24283258.9674   24283257.1864
       216.000         168.000
 111860035.93648  87163656.83248  21286260.7164   21286263.7294   21286260.5384
       241.000         207.000
 131435607.53748 102417339.84048  25011377.8954   25011381.9994   25011379.6204
       212.000         161.000
 106518859.17448  83001695.94948  20269874.7824   20269876.4504   20269875.2744
       246.000         231.000
 134617703.40748  87104720.00448  23713946.2944   23713947.5064   23713946.4114
       208.000         146.000
 131371217.23948  84574971.88448  23096179.1124   23096181.1734   23096179.7714
       228.000         184.000
 08  5 27  1 15  0.0000000  0 11G 6G25G21G29G19G31G 3G24G16G22G18
  98870426.42448  94834086.52648  20717362.5914   20717365.2804   20717362.8654
       248.000         223.000
 137109554.33148  89046399.02248  24188149.3774   24188151.3114   24188149.5854
       222.000         172.000
 103437505.63148  98392856.00148  21586443.7914   21586445.3844   21586444.9424
       246.000         214.000
 133066512.28048 103688179.09448  25321724.9874   25321727.2574   25321725.3784
       218.000         164.000
 123936366.32548  96573787.63348  23584310.0454   23584311.2514   23584311.8764
       219.000         176.000
 127713850.78348  99517277.25548  24303143.6974   24303146.4814   24303143.5764
       217.000         170.000
 111801666.01348  87118173.79348  21275153.1284   21275156.2964   21275153.2144
       241.000         208.000
 131540738.85148 102499260.35348  25031383.7284   25031388.2524   25031383.3974
       212.000         159.000
 106517522.24648  83000654.18148  20269620.3934   20269622.0974   20269620.8094
       246.000         232.000
 134526842.42648  87033919.32348  23696655.3384   23696656.0584   23696656.3454
       212.000         142.000
 131322528.65148  84537032.73848  23086913.5104   23086915.7184   23086914.1554
       230.000         184.000
 08  5 27  1 15 30.0000000  0 11G 6G25G21G29G19G31G 3G24G16G22G18
  98847738.61548  94816407.71848  20713045.2354   20713048.0584   20713045.4364
       248.000         223.000
 137071111.67448  89016443.72648  24180834.0134   24180836.5004   24180833.5964
       221.000         173.000
 103491774.43748  98435143.38448  21596770.9284   21596772.2764   21596771.5294
       247.000         214.000
 133149856.04348 103753122.30348  25337585.0164   25337587.0484   25337584.7354
       213.000         153.000
 123859545.64148  96513927.36748  23569691.3704   23569692.7144   23569691.5254
       220.000         175.000
 127818368.20148  99598719.35748  24323033.3134   24323036.1254   24323033.1444
       219.000         171.000
 111743525.99448  87072869.89548  21264089.6414   21264092.6654   21264090.0644
       242.000         208.000
 131645918.54648 102581218.57148  25051398.5894   25051403.7784   25051398.5114
       211.000         158.000
 106516650.84248  82999975.16348  20269454.6454   20269456.3494   20269454.9854
       245.000         232.000
 134436090.49348  86963203.50148  23679387.6654   23679387.0534   23679387.6234
       208.000         142.000
 131274243.00448  84499407.58648  23077724.9184   23077727.6414   23077725.6484
       231.000         185.000
 08  5 27  1 16  0.0000000  0 11G 6G25G21G29G19G31G 3G24G16G22G18
  98825284.13548  94798910.72648  20708772.3154   20708775.0674   20708772.2244
       249.000         223.000
 137033152.81648  88986865.37148  24173610.9434   24173613.2364   24173610.8484
       227.000         176.000
 103546405.85248  98477713.31548  21607166.9914   21607168.2654   21607167.2144
       246.000         213.000
 133233197.83948 103818064.00648  25353443.1314   25353446.1314   25353443.1364
       204.000         141.000
 123782841.72748  96454158.08848  23555094.3134   23555096.5694   23555094.8144
       220.000         177.000
 127922893.09348  99680167.29948  24342923.6264   24342925.5994   24342923.1164
       216.000         167.000
 111685616.74048  87027745.81548  21253069.6814   21253072.7794   21253069.8514
       243.000         208.000
 131751145.19948 102663213.36148  25071421.9134   25071427.3574   25071422.3584
       210.000         156.000
 106516246.31648  82999659.94448  20269377.5544   20269379.3154   20269377.7974
       246.000         231.000
 134345451.18048  86892575.49248  23662139.3104   23662139.0954   23662138.5224
       207.000         144.000
 131226362.44948  84462098.06148  23068613.7664   23068615.7404   23068614.7854
       229.000         183.000
 08  5 27  1 16 30.0000000  0 11G 6G25G21G29G19G31G 3G24G16G22G18
  98803062.68748  94781595.31548  20704543.7404   20704546.5754   20704543.8764
       248.000         224.000
 136995678.46548  88957664.59048  24166479.9404   24166481.6374   24166480.7274
       221.000         171.000
 103601397.76048  98520564.14848  21617631.7364   21617632.6494   21617631.6784
       246.000         213.000
 133316537.40448 103883003.91848  25369302.4684   25369306.2464   25369301.2214
       200.000         135.000
 123706254.66248  96394479.85648  23540520.9774   23540522.6594   23540521.5644
       219.000         176.000
 128027422.39748  99761618.67748  24362814.6084   24362816.5584   24362814.2484
       217.000         168.000
 111627938.54548  86982801.78148  21242094.2634   21242097.0124   21242094.4884
       242.000         209.000
 131856416.40848 102745242.85148  25091454.9944   25091460.1414   25091456.0424
       212.000         156.000
 106516309.38448  82999709.08448  20269389.5594   20269391.2814   20269390.0394
       246.000         232.000
 134254927.03148  86822037.24048  23644912.6234   23644913.7034   23644912.9894
       209.000         142.000
 131178889.02048  84425105.80048  23059579.9184   23059582.1754   23059580.5544
       229.000         183.000
 08  5 27  1 17  0.0000000  0 11G 6G25G21G29G19G31G 3G24G16G22G18
  98781074.52348  94764461.68648  20700359.5054   20700362.3194   20700359.4934
       248.000         224.000
 136958689.62048  88928842.13548  24159440.6524   24159442.9724   24159439.5994
       221.000         171.000
 103656748.10348  98563694.28048  21628164.2734   21628165.2334   21628164.4664
       246.000         213.000
 143399863.01358  93947930.56158  25385160.1005   25385163.1115   25385159.6535
       191.000         125.000
 123629784.43948  96334892.66948  23525969.3894   23525970.1004   23525969.3954
       220.000         178.000
 128131953.76948  99843071.66748  24382706.7934   24382709.1674   24382706.2324
       220.000         172.000
 111570492.35548  86938038.52048  21231162.2904   21231165.0184   21231162.2254
       242.000         209.000
 131961729.73748 102827305.18548  25111495.4364   25111500.3574   25111497.4274
       210.000         155.000
 106516840.60248  83000123.02048  20269490.6744   20269492.3784   20269491.0144
       246.000         232.000
 134164520.99748  86751590.99148  23627708.5654   23627710.4434   23627707.6234
       205.000         143.000
 131131825.01248  84388432.55848  23050623.8994   23050626.0114   23050624.7534
       229.000         185.000
 08  5 27  1 17 30.0000000  0 10G 6G25G21G19G31G 3G24G16G22G18
  98759320.26648  94747510.32148  20696219.8884   20696222.6014   20696220.1064
       248.000         223.000
 136922187.96948  88900399.29148  24152494.9494   24152497.5584   24152494.5604
       227.000         175.000
 103712455.55048  98607102.67948  21638765.3774   21638765.9844   21638765.9504
       247.000         212.000
 123553432.51748  96275397.68948  23511440.5534   23511441.0624   23511440.1884
       221.000         180.000
 128236484.44148  99924524.16948  24402598.9174   24402600.6104   24402599.0464
       217.000         168.000
 111513279.14448  86893456.81248  21220275.3644   21220277.9904   21220275.7274
       243.000         209.000
 132067084.17148 102909399.51248  25131543.7004   25131548.7704   25131543.7904
       207.000         154.000
 106517841.43648  83000902.89048  20269681.2214   20269682.8234   20269681.5684
       246.000         232.000
 134074236.77848  86681239.65448  23610529.1344   23610529.6904   23610529.0774
       211.000         147.000
 131085173.21448  84352080.51248  23041746.7084   23041748.6434   23041747.5824
       229.000         184.000
 08  5 27  1 18  0.0000000  0 10G 6G25G21G19G31G 3G24G16G22G18
  98737798.00748  94730739.72948  20692124.3304   20692126.8864   20692124.3804
       249.000         223.000
 136886172.22448  88872335.06848  24145641.5154   24145643.9724   24145641.6044
       220.000         173.000
 103768516.35448  98650786.42248  21649433.1554   21649433.9014   21649434.3994
       246.000         212.000
 123477195.96948  96215992.62048  23496932.9854   23496934.4074   23496933.4084
       223.000         181.000
 128341009.41248 100005972.18548  24422488.5574   24422491.6504   24422487.9344
       219.000         171.000
 111456296.72748  86849054.93648  21209431.7254   21209434.7324   21209431.9574
       243.000         210.000
 132172475.16748 102991522.37048  25151598.7684   25151604.1254   25151597.6824
       208.000         154.000
 106519310.68548  83002047.75548  20269960.8114   20269962.3414   20269961.2304
       246.000         232.000
 133984074.95248  86610983.71048  23593371.3604   23593372.3374   23593372.0034
       202.000         146.000
 131038933.43148  84316049.53448  23032947.0994   23032949.6334   23032947.6024
       231.000         185.000
 08  5 27  1 18 30.0000000  0 10G 6G25G21G19G31G 3G24G16G22G18
  98716509.81248  94714151.53448  20688073.3374   20688075.9634   20688073.7314
       249.000         223.000
 136850645.46948  88844651.87548  24138879.9204   24138883.2024   24138879.6144
       221.000         171.000
 103824930.62048  98694745.59448  21660168.3974   21660169.4374   21660168.6674
       245.000         212.000
 123401077.26948  96156679.37348  23482448.2844   23482449.5804   23482449.3924
       223.000         182.000
 128445528.10648 100087415.34548  24442378.9114   24442381.0174   24442378.4964
       222.000         175.000
 111399548.55648  86804835.59248  21198632.8924   21198635.8734   21198633.3694
       243.000         210.000
 132277903.03848 103073673.95248  25171661.1264   25171665.8434   25171661.2534
       212.000         155.000
 106521251.25148  83003559.87948  20270330.0324   20270331.6454   20270330.4254
       246.000         232.000
 133894040.33548  86540826.88148  23576237.6524   23576238.8544   23576237.8054
       207.000         142.000
 130993109.61348  84280342.68948  23024226.9874   23024229.4614   23024227.8214
       231.000         185.000
 08  5 27  1 19  0.0000000  0 10G 6G25G21G19G31G 3G24G16G22G18
  98695455.36648  94697745.47848  20684066.8064   20684069.4274   20684066.9724
       248.000         223.000
 136815608.04248  88817350.00948  24132212.9814   24132215.7584   24132213.8304
       223.000         172.000
 103881696.02148  98738978.37448  21670970.6384   21670971.7374   21670971.1714
       246.000         211.000
 123325076.41848  96097457.96548  23467985.3774   23467986.9224   23467985.7084
       223.000         180.000
 128550037.74048 100168851.48548  24462266.1214   24462267.7654   24462265.9254
       218.000         169.000
 111343034.31548  86760798.52948  21187878.5284   21187881.4484   21187878.8934
       245.000         210.000
 132383365.40748 103155852.43648  25191730.6614   25191734.6674   25191730.9924
       207.000         154.000
 106523663.42048  83005439.48948  20270789.0204   20270790.7914   20270789.3414
       246.000         232.000
 133804136.28548  86470771.76648  23559129.5724   23559130.1734   23559129.5034
       204.000         139.000
 130947704.18148  84244961.83848  23015586.5304   23015588.9874   23015587.7444
       231.000         185.000
 08  5 27  1 19 30.0000000  0 10G 6G25G21G19G31G 3G24G16G22G18
  98674634.64348  94681521.54148  20680104.6644   20680107.4464   20680104.7824
       248.000         223.000
 136781060.87248  88790430.14048  24125638.8444   24125641.8314   24125639.4974
       221.000         173.000
 103938810.52548  98783483.18648  21681839.2854   21681840.2184   21681839.9444
       245.000         211.000
 123249193.44048  96038328.37548  23453545.5584   23453546.4804   23453545.6084
       225.000         180.000
 128654535.55748 100250278.37448  24482150.3124   24482152.4524   24482151.2044
       217.000         164.000
 111286754.44748  86716944.09548  21177169.1334   21177171.9004   21177169.7214
       245.000         211.000
 132488860.04348 103238056.03648  25211805.8014   25211809.7724   25211804.4064
       209.000         153.000
 106526547.73148  83007687.00448  20271337.9894   20271339.6294   20271338.3674
       246.000         232.000
 133714365.22348  86400820.28948  23542047.3704   23542047.4974   23542045.8594
       202.000         142.000
 130902718.78748  84209908.31948  23007026.4294   23007029.0374   23007027.1524
       231.000         186.000
 08  5 27  1 20  0.0000000  0 10G 6G25G21G19G31G 3G24G16G22G18
  98654048.33248  94665480.26548  20676187.2624   20676190.0194   20676187.3154
       248.000         224.000
 136747005.26548  88763893.31848  24119158.5924   24119161.2984   24119157.9714
       222.000         174.000
 103996272.96848  98828259.10548  21692773.8294   21692775.1224   21692774.0794
       245.000         211.000
 123173428.93748  95979291.10548  23439128.0754   23439128.5674   23439128.1654
       223.000         179.000
 128759018.73948 100331693.91348  24502033.5924   24502035.3384   24502033.6234
       220.000         168.000
 111230709.85448  86673272.99348  21166504.1894   21166507.0474   21166504.4584
       246.000         211.000
 132594385.61148 103320283.78348  25231885.7574   25231890.1944   25231885.0514
       208.000         150.000
 106529905.55948  83010303.49348  20271976.9544   20271978.6714   20271977.5174
       247.000         232.000
 133624730.38648  86330974.98548  23524989.8654   23524990.1654   23524987.3514
       205.000         147.000
 130858155.80448  84175183.92848  22998546.7334   22998548.7824   22998547.1844
       231.000         187.000
 08  5 27  1 20 30.0000000  0 10G 6G25G21G19G31G 3G24G16G22G18
  98633695.88648  94649621.22048  20672314.2924   20672317.0534   20672314.4674
       248.000         223.000
 136713441.64548  88737739.86348  24112771.0354   24112774.3894   24112771.6714
       225.000         174.000
 104054080.76448  98873304.14248  21703774.2854   21703775.3354   21703774.5834
       244.000         210.000
 123097782.42848  95920345.80148  23424732.6234   23424733.8854   23424733.6274
       223.000         178.000
 128863484.08648 100413095.56048  24521913.4634   24521914.7004   24521912.5604
       220.000         169.000
 111174901.10148  86629785.65848  21155883.8464   21155886.8424   21155884.1014
       245.000         211.000
 132699939.06548 103402533.18948  25251972.2164   25251976.6434   25251972.9174
       207.000         149.000
 106533737.15048  83013289.14048  20272706.0284   20272707.8034   20272706.3674
       246.000         232.000
 133535234.44248  86261237.94648  23507958.6524   23507960.3194   23507958.2534
       208.000         151.000
 130814016.80148  84140789.92048  22990147.3214   22990149.3834   22990147.6544
       232.000         186.000
 08  5 27  1 21  0.0000000  0 10G 6G25G21G19G31G 3G24G16G22G18
  98613577.33248  94633944.43048  20668485.8004   20668488.4454   20668485.8484
       248.000         223.000
 136680370.69948  88711970.28048  24106478.9864   24106480.8024   24106479.0604
       227.000         174.000
 104112231.70448  98918616.56248  21714839.9544   21714841.1744   21714840.8384
       244.000         210.000
 123022254.44648  95861492.82348  23410359.7054   23410361.1384   23410361.0814
       223.000         177.000
 128967928.92248 100494481.18048  24541787.8584   24541790.1774   24541788.4504
       218.000         170.000
 111119328.05348  86586481.99348  21145308.8254   21145311.6864   21145309.4084
       245.000         211.000
 132805518.48848 103484802.85148  25272064.3154   25272067.4394   25272064.3704
       211.000         151.000
 106538043.25548  83016644.54748  20273525.4924   20273527.1244   20273525.9444
       245.000         232.000
 133445879.82048  86191610.99448  23490955.5134   23490956.9024   23490955.1204
       214.000         154.000
 130770303.61748  84106727.72048  22981828.6554   22981830.7984   22981829.3664
       232.000         187.000
 08  5 27  1 21 30.0000000  0 10G 6G25G21G19G31G 3G24G16G22G18
  98593692.65248  94618449.87848  20664702.0214   20664704.6004   20664702.3614
       248.000         223.000
 136647792.95048  88686585.02348  24100278.7774   24100281.7794   24100280.1614
       226.000         174.000
 104170724.17248  98964195.10448  21725970.7684   21725971.8824   21725971.6284
       244.000         209.000
 122946844.52348  95802731.84648  23396010.4214   23396011.8464   23396011.8514
       225.000         180.000
 129072350.26548 100575848.49448  24561659.3824   24561659.8454   24561659.0134
       221.000         165.000
 111063991.27848  86543362.43348  21134778.2514   21134781.3534   21134778.8844
       244.000         211.000
 132911121.67248 103567091.03348  25292159.2184   25292162.3774   25292159.1944
       206.000         147.000
 106542823.88248  83020369.70948  20274435.1314   20274436.8314   20274435.4504
       246.000         232.000
 133356669.63048  86122096.59848  23473980.3184   23473980.2874   23473980.4504
       215.000         154.000
 130727018.14848  84072998.79248  22973592.2194   22973593.3544   22973592.9984
       233.000         187.000
 08  5 27  1 22  0.0000000  0 10G 6G25G21G19G31G 3G24G16G22G18
  98574041.58248  94603137.36048  20660962.3414   20660965.0834   20660962.4914
       248.000         223.000
 136615708.80848  88661584.37648  24094173.8784   24094176.3824   24094175.1654
       222.000         174.000
 104229555.33948  99010037.57248  21737166.0694   21737167.1434   21737166.4654
       244.000         209.000
 122871552.53848  95744062.75548  23381682.9484   23381683.7474   23381683.8344
       223.000         179.000
 129176745.17548 100657195.27148  24581524.4144   24581523.7894   24581525.4054
       217.000         158.000
 111008890.78448  86500426.99048  21124292.9334   21124296.1254   21124293.3394
       245.000         212.000
 133016746.54848 103649396.15948  25312258.6854   25312261.5394   25312257.6174
       204.000         145.000
 106548080.03448  83024465.41148  20275435.3214   20275437.1044   20275435.6704
       246.000         232.000
 133267606.17448  86052696.54348  23457031.2244   23457031.8384   23457031.9364
       215.000         156.000
 130684162.56048  84039604.84848  22965436.8354   22965438.6354   22965437.4804
       233.000         188.000
 08  5 27  1 22 30.0000000  0 10G 6G25G21G19G31G 3G24G16G22G18
  98554626.26048  94588008.53848  20657267.8884   20657270.6084   20657267.9104
       248.000         224.000
 136584121.10348  88636970.57848  24088163.2084   24088165.1624   24088162.7474
       227.000         176.000
 104288725.52848  99056144.21448  21748425.5994   21748426.8554   21748426.5224
       244.000         208.000
 122796380.68048  95685487.32248  23367377.4534   23367378.8014   23367377.8204
       223.000         182.000
 129281112.76948 100738520.76248  24601383.9054   24601384.4844   24601382.6714
       212.000         158.000
 110954029.01948  86457677.56348  21113853.3784   21113856.2054   21113853.6144
       246.000         211.000
 133122392.81148 103731717.91848  25332361.9234   25332364.7824   25332361.2624
       205.000         143.000
 106553814.05648  83028933.47848  20276526.5524   20276528.3374   20276526.9454
       246.000         232.000
 133178694.66048  85983414.88448  23440111.4914   23440112.7554   23440112.0044
       218.000         158.000
 130641740.49248  84006548.72948  22957364.3404   22957365.9024   22957365.1994
       233.000         187.000
 08  5 27  1 23  0.0000000  0 10G 6G25G21G19G31G 3G24G16G22G18
  98535446.38248  94573063.17948  20653618.0694   20653620.7414   20653618.3014
       248.000         224.000
 136553030.20748  88612743.89148  24082247.2254   24082247.9444   24082246.5194
       225.000         174.000
 104348232.43648  99102513.23748  21759749.3434   21759750.5244   21759749.7364
       243.000         208.000
 122721328.51348  95627005.12248  23353095.9104   23353097.0614   23353096.3734
       224.000         183.000
 129385450.01948 100819822.56148  24621238.6754   24621240.5674   24621237.7024
       211.000         161.000
 110899406.49448  86415114.55748  21103459.0244   21103461.9684   21103459.7584
       245.000         212.000
 133228058.18448 103814054.53048  25352469.9964   25352471.9184   25352469.2984
       206.000         140.000
 106560025.93048  83033773.89548  20277708.6534   20277710.4284   20277709.1354
       246.000         232.000
 133089937.37448  85914253.40748  23423222.2084   23423222.5594   23423223.0364
       219.000         161.000
 130599753.05048  83973831.23848  22949373.9714   22949376.1254   22949374.9054
       232.000         188.000
 08  5 27  1 23 30.0000000  0 10G 6G25G21G19G31G 3G24G16G22G18
  98516501.93748  94558301.27748  20650013.1494   20650015.7204   20650013.4604
       248.000         223.000
 136522436.91248  88588904.96448  24076424.8664   24076426.7364   24076424.5924
       227.000         175.000
 104408074.14348  99149143.13748  21771136.9434   21771138.0614   21771137.2844
       244.000         208.000
 122646396.45448  95568616.53548  23338837.2224   23338837.8854   23338837.7934
       224.000         183.000
 129489754.38848 100901098.73748  24641087.9214   24641090.1214   24641087.9204
       215.000         163.000
 110845023.27248  86372738.03048  21093110.1684   21093113.1394   21093110.4144
       245.000         211.000
 133333740.62948 103896404.48148  25372580.0924   25372582.3374   25372580.5064
       205.000         138.000
 106566716.61048  83038987.40948  20278981.8694   20278983.5194   20278982.2494
       246.000         232.000
 133001337.40448  85845214.46048  23406361.9344   23406362.1014   23406361.1954
       221.000         164.000
 130558202.48348  83941454.19048  22941467.2564   22941469.3744   22941468.1194
       232.000         188.000
 08  5 27  1 24  0.0000000  0 10G 6G25G21G19G31G 3G24G16G22G18
  98497792.40148  94543722.42048  20646452.7884   20646455.3254   20646453.0294
       248.000         224.000
 136492340.95048  88565453.54848  24070698.0704   24070700.3594   24070698.4684
       225.000         175.000
 104468247.91148  99196031.79248  21782587.7434   21782588.7144   21782588.3194
       244.000         208.000
 122571583.98348  95510321.14148  23324600.1714   23324601.3764   23324600.7194
       223.000         180.000
 129594021.54148 100982345.95848  24660928.8794   24660931.8944   24660928.6994
       211.000         163.000
 110790879.51048  86330548.08948  21082806.9694   21082809.9004   21082807.3224
       246.000         212.000
 133439437.62548 103978765.80548  25392694.7884   25392697.1314   25392693.7494
       207.000         141.000
 106573885.76448  83044573.76448  20280345.9824   20280347.7914   20280346.2864
       245.000         232.000
 132912896.78748  85776299.69448  23389532.3644   23389532.9154   23389531.6774
       220.000         166.000
 130517090.13348  83909418.61248  22933643.5264   22933645.9414   22933644.1684
       233.000         189.000
 08  5 27  1 24 30.0000000  0 10G 6G25G21G19G31G 3G24G16G22G18
  98479318.98248  94529327.55448  20642937.2584   20642940.1144   20642937.3834
       248.000         224.000
 136462744.29748  88542391.24048  24065065.5754   24065068.2324   24065065.1384
       224.000         172.000
 104528753.17448  99243178.75948  21794101.2234   21794102.4794   21794101.9054
       244.000         207.000
 122496892.45848  95452119.97048  23310386.8134   23310388.0154   23310387.7204
       226.000         181.000
 129698250.57548 101063563.42848  24680762.1294   24680765.2054   24680761.2104
       213.000         160.000
 110736976.68648  86288545.88948  21072549.5924   21072552.5454   21072550.0794
       245.000         212.000
 133545148.50348 104061137.90848  25412809.7864   25412812.2804   25412810.2884
       207.000         140.000
 106581535.34748  83050534.47548  20281801.6854   20281803.4744   20281801.9844
       246.000         232.000
 132824619.81848  85707512.45748  23372733.6054   23372734.8264   23372734.1674
       221.000         168.000
 130476419.10248  83877726.91548  22925904.3524   22925906.4584   22925904.8824
       233.000         189.000
 08  5 27  1 25  0.0000000  0 10G 6G25G21G19G31G 3G24G16G22G18
  98461081.50648  94515116.53148  20639466.8574   20639469.5324   20639467.0484
       248.000         223.000
 136433647.18948  88519718.16748  24059528.1104   24059530.4804   24059527.9024
       220.000         168.000
 104589587.09448  99290581.82248  21805677.6124   21805678.6334   21805678.6054
       244.000         207.000
 122422321.26648  95394012.55448  23296196.7374   23296197.4794   23296197.6694
       226.000         182.000
 129802438.13748 101144748.62348  24700589.3494   24700590.2184   24700590.2694
       210.000         149.000
 110683314.99048  86246731.59548  21062337.7824   21062341.0664   21062337.9734
       246.000         212.000
 133650870.56748 104143518.69148  25432929.4434   25432932.2514   25432929.8434
       209.000         142.000
 106589665.53248  83056869.68448  20283349.0244   20283350.5804   20283349.5904
       246.000         232.000
 132736508.82848  85638854.55048  23355966.5274   23355967.4154   23355967.6214
       225.000         170.000
 130436190.75348  83846380.17748  22918248.7644   22918251.3774   22918248.8774
       232.000         189.000
 08  5 27  1 25 30.0000000  0 10G 6G25G21G19G31G 3G24G16G22G18
  98443079.32848  94501088.86748  20636041.0984   20636043.9464   20636041.4094
       249.000         224.000
 136405049.50648  88497434.26148  24054086.1034   24054088.4974   24054085.5984
       219.000         169.000
 104650747.55748  99338239.32148  21817316.1534   21817317.3394   21817316.2144
       244.000         207.000
 122347869.93248  95335998.53448  23282029.3114   23282030.0084   23282030.1984
       226.000         182.000
 129906581.32048 101225899.18048  24720406.8224   24720406.4044   24720408.0944
       207.000         145.000
 110629894.82948  86205105.49148  21052172.6244   21052175.4284   21052172.8374
       246.000         213.000
 133756601.36748 104225906.34848  25453048.8604   25453051.6564   25453050.3704
       206.000         141.000
 106598276.16248  83063579.26548  20284987.4884   20284989.1414   20284987.8804
       246.000         232.000
 132648565.97848  85570327.65548  23339231.8844   23339232.0874   23339232.5394
       224.000         172.000
 130396406.26848  83815379.30248  22910678.1644   22910680.6224   22910678.8204
       233.000         189.000
 08  5 27  1 26  0.0000000  0 10G 6G25G21G19G31G 3G24G16G22G18
  98425312.50148  94487244.58448  20632660.3314   20632662.9814   20632660.5464
       248.000         224.000
 136376952.06348  88475540.18148  24048739.5714   24048741.9204   24048740.5464
       224.000         172.000
 104712232.02448  99386149.30148  21829016.5224   21829017.1794   21829017.1754
       244.000         206.000
 122273538.93448  95278078.31048  23267883.9194   23267885.2624   23267884.9274
       220.000         181.000
 130010677.00248 101307012.84548  24740215.9514   24740216.9824   24740215.7074
       212.000         156.000
 110576715.88948  86163667.36748  21042052.8164   21042055.8364   21042052.9894
       246.000         213.000
 133862338.79948 104308299.14248  25473170.1724   25473173.3354   25473169.8584
       204.000         139.000
 106607367.53048  83070663.44448  20286717.3544   20286719.1914   20286717.6134
       246.000         232.000
 132560794.21848  85501934.07548  23322529.3854   23322530.0964   23322529.4514
       227.000         174.000
 130357067.62548  83784725.82648  22903192.4144   22903194.4424   22903193.1744
       233.000         189.000
 08  5 27  1 26 30.0000000  0 10G 6G25G21G19G31G 3G24G16G22G18
  98407780.78248  94473583.51048  20629324.0424   20629326.8004   20629324.2344
       247.000         224.000
 136349354.76648  88454035.78448  24043487.8824   24043491.0784   24043489.4284
       224.000         173.000
 104774038.71348  99434310.36348  21840777.8964   21840778.6974   21840778.6844
       243.000         206.000
 122199327.77248  95220251.46148  23253761.9184   23253763.5144   23253762.1434
       224.000         182.000
 130114721.94948 101388086.88748  24760013.9964   24760017.7774   24760014.6734
       209.000         160.000
 110523778.68448  86122417.60148  21031979.5424   21031982.3054   21031979.9934
       247.000         214.000
 133968080.69348 104390695.44948  25493290.7954   25493295.7504   25493290.2854
       206.000         141.000
 106616940.01248  83078122.51948  20288539.0474   20288540.7244   20288539.4504
       245.000         231.000
 132473196.30248  85433675.97548  23305860.5074   23305860.8064   23305861.0374
       228.000         178.000
 130318176.23148  83754420.86448  22895791.3424   22895793.6134   22895792.0484
       231.000         188.000
 08  5 27  1 27  0.0000000  0 10G 6G25G21G19G31G 3G24G16G22G18
  98390484.96948  94460106.26048  20626032.6664   20626035.4364   20626032.8004
       248.000         224.000
 136322259.11048  88432922.29848  24038332.2204   24038334.1214   24038332.8474
       225.000         172.000
 104836166.56148  99482721.68248  21852600.1644   21852601.3024   21852600.6194
       244.000         206.000
 122125237.05748  95162518.45248  23239663.2244   23239664.2324   23239664.6984
       225.000         185.000
 130218715.14948 101469120.54248  24779803.0574   24779807.1274   24779802.8494
       204.000         154.000
 110471084.15748  86081356.94248  21021951.9134   21021955.0794   21021952.4704
       246.000         213.000
 134073826.00848 104473094.40848  25513414.4074   25513419.0114   25513413.8114
       204.000         142.000
 106626994.85848  83085957.46448  20290452.4384   20290454.1784   20290452.7274
       246.000         232.000
 132385775.75748  85365556.07648  23289224.2204   23289225.4164   23289224.4524
       228.000         181.000
 130279734.50548  83724466.28648  22888476.1544   22888478.4134   22888476.6634
       232.000         187.000
 08  5 27  1 27 30.0000000  0  9G 6G25G21G19G31G 3G16G22G18
  98373425.91348  94446813.49148  20622786.5724   20622789.2544   20622786.6724
       248.000         223.000
 136295666.15248  88412200.53248  24033271.8314   24033273.6414   24033271.8934
       223.000         171.000
 104898613.75648  99531381.84148  21864483.5054   21864484.5104   21864484.2384
       243.000         206.000
 122051268.14248  95104880.34248  23225587.8874   23225589.1734   23225588.4604
       226.000         186.000
 130322653.29748 101550111.29148  24799582.5604   24799584.1154   24799583.0784
       208.000         146.000
 110418633.97048  86040486.67148  21011971.1524   21011973.8094   21011971.2614
       246.000         213.000
 106637533.32848  83094169.25648  20292457.8144   20292459.5634   20292458.2354
       246.000         231.000
 132298536.07748  85297577.10548  23272623.8314   23272624.0084   23272623.8654
       233.000         185.000
 130241745.00248  83694864.10148  22881247.0634   22881249.1844   22881247.5924
       232.000         188.000
 08  5 27  1 28  0.0000000  0  9G 6G25G21G19G31G 3G16G22G18
  98356603.33148  94433704.98548  20619585.2014   20619587.9074   20619585.3844
       248.000         223.000
 136269576.31148  88391870.78448  24028307.0554   24028308.8624   24028306.7774
       226.000         170.000
 104961378.00548  99580289.04948  21876427.2304   21876428.4664   21876427.5344
       242.000         206.000
 121977420.50448  95047336.76748  23211535.4314   23211536.3884   23211536.4784
       226.000         186.000
 130426533.68048 101631057.20348  24819349.3184   24819348.6864   24819347.5124
       201.000         140.000
 110366428.33048  85999806.96548  21002036.4974   21002039.5244   21002036.9824
       246.000         213.000
 106648555.36148  83102757.85448  20294555.1284   20294557.0014   20294555.3424
       246.000         232.000
 132211479.80648  85229741.03548  23256057.2674   23256057.7384   23256057.5944
       228.000         186.000
 130204209.26348  83665615.47348  22874104.3274   22874106.3324   22874104.6484
       233.000         189.000
 08  5 27  1 28 30.0000000  0  9G 6G25G21G19G31G 3G16G22G18
  98340017.68048  94420781.10548  20616429.1184   20616431.7234   20616429.3894
       248.000         223.000
 136243990.02448  88371933.41448  24023437.8684   24023439.6144   24023439.7804
       226.000         172.000
 105024457.53748  99629441.92948  21888430.7524   21888432.2464   21888431.1574
       243.000         205.000
 121903694.60648  94989888.05348  23197505.2744   23197506.1304   23197505.6654
       224.000         184.000
 130530354.21148 101711956.41248  24839106.0954   24839107.1194   24839104.9424
       210.000         147.000
 110314467.82248  85959318.26348  20992148.8724   20992151.5604   20992149.1054
       246.000         213.000
 106660061.43248  83111723.62348  20296744.8154   20296746.5434   20296745.2634
       246.000         232.000
 132124610.39848  85162050.59348  23239526.2214   23239527.0244   23239525.3354
       231.000         186.000
 130167128.86348  83636721.67948  22867048.0544   22867050.0674   22867048.4894
       233.000         189.000
 08  5 27  1 29  0.0000000  0  9G 6G25G21G19G31G 3G16G22G18
  98323669.28248  94408042.09448  20613318.2424   20613320.7494   20613318.4604
       248.000         224.000
 136218908.44448  88352389.32548  24018664.7184   24018667.5784   24018664.5134
       219.000         172.000
 105087851.07748  99678839.50748  21900493.9154   21900495.5334   21900495.0804
       242.000         205.000
 121830090.91948  94932534.55648  23183499.0044   23183499.8504   23183499.4364
       227.000         185.000
 130634112.56948 101792807.18748  24858852.2664   24858854.1564   24858854.0514
       211.000         152.000
 110262753.22448  85919021.18248  20982307.7144   20982310.6734   20982308.2814
       245.000         213.000
 106672052.88948  83121067.61148  20299026.7684   20299028.4024   20299027.2174
       246.000         232.000
 132037930.85048  85094508.10648  23223031.7084   23223032.4594   23223032.1924
       232.000         187.000
 130130506.39148  83608184.68648  22860078.9484   22860081.5624   22860079.1564
       234.000         191.000
 08  5 27  1 29 30.0000000  0  9G 6G25G21G19G31G 3G16G22G18
  98307558.50648  94395488.24648  20610252.4144   20610254.9964   20610252.4244
       248.000         224.000
 136194331.94748  88333238.82748  24013988.3924   24013990.9374   24013987.7804
       224.000         176.000
 105151556.45248  99728480.06948  21912616.7774   21912618.3334   21912616.9394
       242.000         205.000
 121756609.64048  94875276.41848  23169515.9074   23169516.9194   23169516.7714
       226.000         184.000
 130737805.64648 101873607.08248  24878583.2324   24878585.4184   24878585.1104
       201.000         147.000
 110211285.42148  85878916.41748  20972513.5474   20972516.5984   20972513.9514
       245.000         214.000
 106684529.99548  83130790.02948  20301400.9744   20301402.7284   20301401.2634
       245.000         231.000
 131951444.41048  85027116.06948  23206573.8464   23206574.5354   23206574.0754
       233.000         189.000
 130094343.61848  83580005.93148  22853197.6624   22853199.6674   22853198.4874
       235.000         191.000
 08  5 27  1 30  0.0000000  0  9G 6G25G21G19G31G 3G16G22G18
  98291684.26348  94383118.70948  20607231.5874   20607234.2204   20607231.8564
       248.000         224.000
 136170259.78648  88314481.31648  24009408.2184   24009410.1244   24009409.9994
       224.000         175.000
 105215570.70448  99778361.31048  21924798.3494   21924799.8974   21924798.9764
       242.000         205.000
 121683249.90048  94818112.99648  23155555.3584   23155556.6624   23155556.0704
       228.000         184.000
 130841430.13348 101954353.46348  24898300.0204   24898301.9164   24898300.7864
       201.000         133.000
 110160063.27248  85839003.05648  20962766.6174   20962769.4504   20962766.8524
       246.000         214.000
 106697492.29748  83140890.52248  20303867.6154   20303869.4384   20303868.0304
       246.000         231.000
 131865152.31448  84959875.49948  23190152.8014   23190154.0294   23190152.8224
       232.000         189.000
 130058640.91448  83552185.64848  22846403.7354   22846405.7254   22846404.7654
       235.000         190.000
 08  5 27  1 30 30.0000000  0  9G 6G25G21G19G31G 3G16G22G18
  98276047.12048  94370933.92248  20604256.0604   20604258.5844   20604256.2174
       248.000         224.000
 136146692.98048  88296117.56648  24004922.7604   24004925.3214   24004922.6194
       222.000         175.000
 105279892.14448  99828481.91848  21937038.4804   21937039.7464   21937038.7444
       241.000         204.000
 121610012.44348  94761044.84748  23141619.2984   23141620.0064   23141620.8194
       226.000         185.000
 130944983.88148 102035044.77948  24918008.5994   24918007.4484   24918009.7574
       207.000         141.000
 110109088.45348  85799282.43048  20953066.3184   20953069.3164   20953066.5534
       246.000         215.000
 106710940.25148  83151369.45148  20306426.6854   20306428.5514   20306427.1134
       246.000         232.000
 131779058.55948  84892789.47348  23173770.0404   23173770.6204   23173770.2214
       234.000         190.000
 130023400.68148  83524725.74848  22839697.4334   22839699.6034   22839698.5994
       235.000         190.000
 08  5 27  1 31  0.0000000  0  9G 6G25G21G19G31G 3G16G22G18
  98260648.22248  94358934.78548  20601325.6284   20601328.4024   20601325.7494
       248.000         224.000
 136123632.92148  88278148.66648  24000535.2334   24000537.9484   24000534.5564
       224.000         179.000
 105344519.68848  99878841.04548  21949336.7494   21949337.7334   21949336.6574
       243.000         204.000
 121536898.33648  94704072.84948  23127705.9224   23127707.2184   23127706.7814
       228.000         187.000
 131048465.02148 102115679.41048  24937700.3384   24937703.3314   24937700.2844
       202.000         144.000
 110058361.95748  85759755.29848  20943413.6294   20943416.4274   20943414.1264
       246.000         215.000
 106724875.36048  83162227.97848  20309078.4344   20309080.2984   20309078.8294
       246.000         232.000
 131693166.76248  84825860.80248  23157425.3964   23157426.0724   23157425.3494
       232.000         190.000
 129988625.47948  83497628.20048  22833079.8884   22833082.2464   22833081.0214
       235.000         190.000
 08  5 27  1 31 30.0000000  0  9G 6G25G21G19G31G 3G16G22G18
  98245487.19548  94347120.99548  20598440.5874   20598443.2644   20598440.8194
       248.000         224.000
 136101079.20548  88260574.38248  23996243.2734   23996245.9744   23996243.8794
       222.000         176.000
 105409451.18248  99929437.02848  21961692.7094   21961693.8544   21961693.8124
       242.000         204.000
 121463906.97648  94647196.48148  23113816.5384   23113817.3824   23113817.9644
       228.000         188.000
 131151870.22748 102196254.98648  24957375.4444   24957380.2324   24957373.9304
       197.000         136.000
 110007883.93448  85720421.77948  20933807.8824   20933810.8814   20933808.3804
       246.000         215.000
 106739297.36948  83173465.90748  20311822.8914   20311824.6454   20311823.3474
       246.000         231.000
 131607479.05848  84759091.20748  23141119.0874   23141120.3614   23141118.6734
       232.000         191.000
 129954316.28648  83470893.78148  22826551.3874   22826553.0654   22826552.1674
       236.000         190.000
 08  5 27  1 32  0.0000000  0  9G 6G25G21G19G31G 3G16G22G18
  98230564.19248  94335492.68948  20595600.8864   20595603.5754   20595601.0284
       249.000         224.000
 136079032.56648  88243395.17448  23992047.3194   23992050.2204   23992048.2844
       219.000         171.000
 105474684.60448  99980268.26948  21974106.1344   21974107.6194   21974106.0644
       241.000         204.000
 121391038.61548  94590415.94848  23099949.4694   23099950.8794   23099950.5734
       227.000         187.000
 131255197.02948 102276769.51048  24977041.3064   24977038.9944   24977040.0344
       199.000         132.000
 109957655.20248  85681282.51648  20924249.5074   20924252.4654   20924249.7954
       246.000         215.000
 106754206.91848  83185083.73548  20314659.9444   20314661.8334   20314660.3094
       246.000         231.000
 131521998.83248  84692483.26548  23124853.0954   23124854.1214   23124852.5744
       234.000         192.000
 129920474.99148  83444523.95148  22820111.6574   22820113.5084   22820112.5264
       236.000         189.000
 08  5 27  1 32 30.0000000  0  9G 6G25G21G19G31G 3G16G22G18
  98215879.85748  94324050.34848  20592806.5624   20592809.2784   20592806.7684
       248.000         224.000
 136057493.59348  88226611.55548  23987948.3344   23987950.6354   23987947.1334
       222.000         173.000
 105540217.94048 100031333.20548  21986576.6774   21986578.3284   21986576.6824
       243.000         204.000
 121318293.89348  94533731.76248  23086106.9554   23086107.7874   23086107.3944
       227.000         187.000
 131358443.41848 102357221.38748  24996686.7194   24996687.2354   24996689.0994
       194.000         134.000
 109907676.62648  85642338.17548  20914739.0354   20914741.9624   20914739.3834
       246.000         215.000
 106769604.65048  83197081.96248  20317590.1844   20317592.0484   20317590.5114
       245.000         232.000
 131436728.67448  84626039.00048  23108626.6784   23108627.3234   23108626.4904
       232.000         191.000
 129887103.58748  83418520.28448  22813761.1314   22813762.7484   22813761.5994
       234.000         189.000
 08  5 27  1 33  0.0000000  0  9G 6G25G21G19G31G 3G16G22G18
  98201434.61448  94312794.31848  20590057.6034   20590060.4964   20590057.8244
       249.000         224.000
 136036462.96048  88210224.07548  23983947.0394   23983949.5504   23983946.8474
       223.000         176.000
 105606049.81548 100082630.77548  21999104.2334   21999105.8424   21999105.1184
       242.000         204.000
 121245673.63148  94477144.57748  23072287.1174   23072289.0804   23072288.1674
       226.000         186.000
 141461476.09658  92437478.60758  25016314.7285   25016321.9255   25016313.7095
       187.000         133.000
 109857949.12048  85603589.48048  20905276.0334   20905279.1664   20905276.6264
       246.000         215.000
 106785491.35548  83209461.21548  20320613.2604   20320615.1344   20320613.6544
       246.000         231.000
 131351672.91248  84559761.80848  23092441.0764   23092441.5954   23092440.9124
       233.000         190.000
 129854204.15648  83392884.37548  22807500.5074   22807502.0054   22807500.6754
       235.000         190.000
 08  5 27  1 33 30.0000000  0  9G 6G25G21G19G31G 3G16G22G18
  98187227.88248  94301724.14448  20587354.2224   20587356.8934   20587354.3144
       249.000         224.000
 136015940.48748  88194232.52748  23980040.6324   23980043.7774   23980039.9264
       220.000         173.000
 105672177.83548 100134159.11448  22011687.8654   22011689.5864   22011687.8774
       242.000         205.000
 121173176.77948  94420653.54648  23058491.9384   23058493.0554   23058492.5794
       228.000         188.000
 141564553.72448  92517798.94348  25035930.9304   25035934.3444   25035932.2614
       200.000         134.000
 109808472.60548  85565036.36348  20895860.9864   20895863.7494   20895861.0674
       247.000         215.000
 106801866.52748  83222221.08548  20323729.2534   20323731.2234   20323729.6224
       245.000         231.000
 131266833.28548  84493653.02648  23076296.9564   23076297.4244   23076297.0004
       232.000         190.000
 129821777.55848  83367616.90648  22801329.6914   22801331.7474   22801329.8344
       235.000         190.000
 08  5 27  1 34  0.0000000  0  9G 6G25G21G19G31G 3G16G22G18
  98173259.81448  94290839.92948  20584696.1984   20584698.8394   20584696.5084
       248.000         224.000
 135995926.10348  88178636.91648  23976233.3104   23976235.6234   23976233.3124
       227.000         177.000
 105738600.01548 100185916.65348  22024327.4874   22024329.6654   22024327.7254
       242.000         205.000
 121100803.72948  94364258.96748  23044720.5244   23044721.4654   23044721.7204
       232.000         191.000
 141667542.26748  92598049.98248  25055534.1704   25055531.0114   25055534.7384
       195.000         130.000
 109759247.48148  85526679.12848  20886493.7714   20886496.6804   20886494.3764
       246.000         216.000
 106818730.38648  83235361.75948  20326938.3624   20326940.2974   20326938.6004
       246.000         231.000
 131182212.43948  84427714.72548  23060193.7774   23060194.5814   23060193.6554
       232.000         187.000
 129789825.26848  83342719.02548  22795249.6064   22795251.4424   22795249.9754
       236.000         191.000
 08  5 27  1 34 30.0000000  0  8G 6G25G21G19G 3G16G22G18
  98159529.79648  94280141.21848  20582083.3584   20582086.2204   20582083.6534
       248.000         224.000
 135976419.50648  88163436.99148  23972521.6244   23972523.5934   23972522.2844
       226.000         179.000
 105805313.43648 100237901.14248  22037022.7674   22037024.6584   22037023.1584
       242.000         204.000
 121028554.11248  94307960.57148  23030971.5254   23030972.7054   23030972.9014
       227.000         190.000
 109710273.31948  85488517.44848  20877174.5604   20877177.1494   20877174.7204
       247.000         216.000
 106836082.34948  83248882.76548  20330240.2914   20330242.2574   20330240.5874
       245.000         231.000
 131097812.56348  84361948.62148  23044133.0694   23044133.5864   23044133.6144
       231.000         187.000
 129758348.06548  83318191.35248  22789259.5744   22789261.7114   22789260.1044
       236.000         192.000
 08  5 27  1 35  0.0000000  0  9G 6G25G21G19G31G 3G16G22G18
  98146039.05248  94269628.94448  20579516.3454   20579518.9124   20579516.3284
       249.000         224.000
 135957421.90148  88148633.65248  23968905.9534   23968909.2324   23968906.6214
       225.000         179.000
 105872316.99348 100290111.71348  22049772.9574   22049774.8804   22049773.9564
       242.000         204.000
 120956428.81948  94251759.06648  23017246.0674   23017247.1434   23017246.5394
       230.000         190.000
 121873308.35258 112758396.94958  25094673.5085   25094677.5715   25094674.7105
       195.000         134.000
 109661552.05548  85450552.83248  20867903.0594   20867905.9754   20867903.3304
       247.000         216.000
 106853923.83048  83262785.21348  20333635.5714   20333637.3854   20333636.1074
       246.000         231.000
 131013637.68048  84296357.85048  23028115.2304   23028115.8714   23028115.7754
       229.000         186.000
 129727348.66848  83294035.98048  22783360.8194   22783362.9104   22783361.2944
       237.000         192.000
 08  5 27  1 35 30.0000000  0  9G 6G25G21G19G31G 3G16G22G18
  98132787.79148  94259303.28348  20576994.7214   20576997.3304   20576994.9654
       249.000         224.000
 135938933.62148  88134227.17548  23965388.0084   23965390.7044   23965388.0094
       224.000         177.000
 105939608.73348 100342546.83348  22062578.2644   22062580.2254   22062578.9874
       241.000         204.000
 120884427.95748  94195654.50048  23003545.1764   23003545.6104   23003546.3464
       231.000         191.000
 121976014.78948 112838428.11448  25114216.3644   25114220.5954   25114216.8574
       190.000         131.000
 109613084.23348  85412785.70848  20858679.9924   20858682.6514   20858680.5544
       247.000         216.000
 106872255.21248  83277069.40248  20337123.8334   20337125.7104   20337124.0844
       246.000         231.000
 130929690.73148  84230944.67648  23012140.8024   23012140.8424   23012141.0024
       229.000         184.000
 129696828.46648  83270254.00648  22777552.8964   22777554.5334   22777553.4454
       234.000         191.000
 08  5 27  1 36  0.0000000  0  9G 6G25G21G19G31G 3G16G22G18
  98119776.57148  94249164.67448  20574518.7264   20574521.3244   20574519.0214
       249.000         225.000
 135920955.22048  88120218.04248  23961966.7724   23961968.8794   23961966.7764
       224.000         174.000
 106007187.17748 100395205.36548  22075438.0524   22075439.7994   22075438.2024
       241.000         203.000
 120812552.34048  94139647.54548  22989867.3594   22989868.7024   22989868.3814
       230.000         192.000
 122078623.33948 112918383.00048  25133743.1554   25133743.6124   25133739.2524
       191.000         124.000
 109564870.96148  85375216.93248  20849505.2144   20849508.0084   20849505.8794
       246.000         216.000
 106891077.13948  83291735.83648  20340705.5994   20340707.3854   20340705.9144
       246.000         231.000
 130845974.95848  84165711.63448  22996209.9724   22996209.9504   22996210.9074
       229.000         182.000
 129666789.43848  83246846.99148  22771836.8344   22771838.7584   22771837.0974
       236.000         192.000
 08  5 27  1 36 30.0000000  0  9G 6G25G21G19G31G 3G16G22G18
  98107005.26548  94239213.01148  20572088.5574   20572091.1114   20572088.8314
       249.000         224.000
 135903486.57448  88106606.13448  23958642.4394   23958644.9414   23958643.1864
       221.000         174.000
 106075049.89648 100448085.40048  22088352.1014   22088353.5524   22088352.8294
       242.000         203.000
 120740801.66848  94083737.94848  22976213.6514   22976215.2724   22976215.1804
       231.000         192.000
 122181130.46948 112998258.78648  25153251.0744   25153248.1144   25153253.6714
       199.000         127.000
 109516912.40148  85337846.63248  20840378.9684   20840381.6544   20840379.2474
       246.000         216.000
 106910389.25648  83306784.23248  20344380.5834   20344382.3084   20344380.9814
       246.000         231.000
 130762493.11748  84100660.88048  22980323.4034   22980324.3144   22980324.1224
       229.000         184.000
 129637232.80348  83223815.86348  22766212.2834   22766214.0914   22766212.9704
       236.000         192.000
 08  5 27  1 37  0.0000000  0  9G 6G25G21G19G31G 3G16G22G18
  98094474.58148  94229448.84348  20569703.9414   20569706.4704   20569704.1634
       248.000         224.000
 135886528.35448  88093391.94948  23955414.2614   23955417.9974   23955414.5704
       220.000         171.000
 106143195.98548 100501186.25148  22101319.6154   22101321.3214   22101320.6094
       238.000         202.000
 120669176.88248  94027926.44148  22962583.8744   22962585.1184   22962584.5734
       230.000         193.000
 122283534.29448 113078054.26248  25172739.7924   25172737.0234   25172739.4784
       197.000         139.000
 109469209.42148  85300675.49348  20831301.2394   20831304.1414   20831301.7004
       246.000         216.000
 106930192.74548  83322215.52148  20348149.0394   20348150.8084   20348149.4534
       246.000         231.000
 130679248.59548  84035795.04648  22964482.8924   22964483.0334   22964483.9504
       232.000         184.000
 129608160.67448  83201162.27548  22760680.0444   22760681.8604   22760680.7134
       236.000         192.000
 08  5 27  1 37 30.0000000  0  8G 6G25G21G19G 3G16G22G18
  98082185.04948  94219872.58648  20567365.3884   20567367.9854   20567365.5154
       249.000         224.000
 135870081.07548  88080575.86948  23952285.1044   23952287.5804   23952285.3084
       224.000         173.000
 106211623.37648 100554506.29148  22114340.5024   22114342.5394   22114339.6874
       239.000         201.000
 120597678.36448  93972213.30748  22948978.4704   22948979.6824   22948978.5844
       231.000         194.000
 109421763.19148  85263704.40848  20822272.5654   20822275.3754   20822272.9234
       246.000         216.000
 106950487.82848  83338029.86248  20352011.1564   20352012.8574   20352011.5314
       246.000         231.000
 130596244.44648  83971116.50948  22948687.7174   22948688.1714   22948688.0954
       232.000         186.000
 129579574.60648  83178887.42648  22755240.3914   22755242.3214   22755240.7644
       236.000         191.000
 08  5 27  1 38  0.0000000  0  9G 6G25G21G19G31G 3G16G22G18
  98070136.52248  94210484.12348  20565072.6384   20565075.1594   20565072.8884
       249.000         224.000
 135854144.66448  88068157.88548  23949252.9204   23949254.4054   23949252.9584
       225.000         171.000
 106280329.70348 100608043.69348  22127414.8584   22127416.8754   22127415.9474
       240.000         200.000
 120526305.85248  93916598.38448  22935396.7984   22935398.0024   22935398.0114
       232.000         194.000
 142488071.69858  93237447.99258  25211647.4795   25211649.7735   25211648.8065
       193.000         128.000
 109374573.98048  85226933.60048  20813292.8254   20813295.5854   20813293.1664
       247.000         217.000
 106971274.36348  83354227.16148  20355966.5484   20355968.4404   20355966.9864
       246.000         231.000
 130513483.04748  83906627.12948  22932938.6344   22932939.3204   22932938.7604
       234.000         188.000
 129551476.17848  83156992.57048  22749893.3514   22749894.9604   22749893.7524
       236.000         191.000
 08  5 27  1 38 30.0000000  0  9G 6G25G21G19G31G 3G16G22G18
  98058328.23048  94201282.85748  20562825.5394   20562828.0914   20562825.7884
       249.000         225.000
 135838718.07048  88056137.14548  23946317.6214   23946318.4864   23946317.5934
       225.000         174.000
 106349312.17948 100661796.26148  22140541.8514   22140543.8864   22140542.7544
       238.000         200.000
 120455059.11848  93861081.46948  22921838.4814   22921839.9664   22921839.3004
       233.000         193.000
 142590149.74248  93316989.50148  25231074.1304   25231072.7614   25231075.2664
       201.000         134.000
 109327641.29648  85190362.67848  20804362.0594   20804364.6964   20804362.2214
       247.000         217.000
 106992551.68648  83370806.88348  20360015.5804   20360017.3704   20360015.9584
       246.000         231.000
 130430966.95648  83842328.88348  22917236.4304   22917236.9384   22917236.9084
       235.000         188.000
 129523865.39948  83135477.68548  22744639.1054   22744640.9034   22744639.6984
       235.000         191.000
 08  5 27  1 39  0.0000000  0 10G 6G25G21G19G31G 3G16G22G18G 7
  98046759.72948  94192268.44648  20560624.1844   20560626.6114   20560624.3934
       249.000         224.000
 135823800.79848  88044513.27448  23943478.8564   23943480.5374   23943479.4944
       223.000         175.000
 106418568.12448 100715761.92948  22153720.9254   22153722.7214   22153721.1334
       240.000         200.000
 120383937.21948  93805661.81148  22908304.4714   22908305.7984   22908305.2154
       231.000         191.000
 142692112.93148  93396441.59948  25250477.8614   25250476.0464   25250477.3344
       202.000         136.000
 109280965.08648  85153991.61448  20795479.7834   20795482.5144   20795480.0344
       247.000         217.000
 107014319.36348  83387768.71348  20364157.7754   20364159.5984   20364158.1724
       246.000         230.000
 130348698.05948  83778223.25848  22901581.2144   22901581.8594   22901581.4034
       234.000         191.000
 129496743.33148  83114343.61848  22739477.9244   22739479.6214   22739478.4984
       236.000         192.000
 138024380.66858  89759253.29758  24362232.8165   24362233.8715   24362233.5525
       219.000         166.000
 08  5 27  1 39 30.0000000  0 10G 6G25G21G19G31G 3G16G22G18G 7
  98035432.19548  94183441.80048  20558468.5004   20558471.1604   20558468.6584
       248.000         224.000
 135809393.90348  88033287.13448  23940737.5074   23940739.8844   23940737.8824
       226.000         179.000
 106488096.77048 100769940.09148  22166952.0444   22166953.6244   22166952.6694
       240.000         200.000
 120312941.53748  93750340.51148  22894794.0924   22894795.7744   22894794.1914
       232.000         194.000
 142793959.42748  93475802.60348  25269859.9144   25269857.9564   25269859.3914
       197.000         136.000
 109234547.12148  85117821.77748  20786646.6764   20786649.3994   20786646.9394
       247.000         217.000
 107036578.24148  83405113.29148  20368393.5084   20368395.3994   20368393.7494
       246.000         231.000
 130266680.32048  83714313.34548  22885973.7994   22885974.4134   22885973.6184
       235.000         192.000
 129470112.05648  83093591.99248  22734410.3944   22734412.4034   22734411.1454
       235.000         192.000
 117971221.29758 109717830.65358  24352116.8615   24352117.3515   24352117.1335
       217.000         166.000
 08  5 27  1 40  0.0000000  0  9G 6G25G21G19G 3G16G22G18G 7
  98024346.41248  94174803.53348  20556358.7964   20556361.6414   20556358.9574
       249.000         224.000
 135795497.95848  88022459.15148  23938093.3824   23938095.2504   23938093.7394
       223.000         177.000
 106557896.24648 100824329.29748  22180234.4324   22180236.1094   22180235.1614
       241.000         200.000
 120242072.79148  93695118.12348  22881309.0714   22881310.0434   22881309.6214
       234.000         196.000
 109188388.34648  85081853.90348  20777862.9714   20777865.9514   20777863.4864
       247.000         217.000
 107059329.07748  83422841.21148  20372722.9814   20372724.7504   20372723.4694
       245.000         230.000
 130184917.03848  83650601.70948  22870414.6354   22870415.2514   22870415.1634
       233.000         190.000
 129443973.58348  83073224.37248  22729435.9594   22729438.3614   22729436.3994
       236.000         193.000
 117918556.30248 109676792.97748  24342094.4054   24342097.2134   24342093.6424
       215.000         167.000
 08  5 27  1 40 30.0000000  0  9G 6G25G21G19G 3G16G22G18G 7
  98013503.60348  94166354.58948  20554295.6074   20554298.2064   20554295.9854
       249.000         224.000
 135782114.20248  88012030.27848  23935545.8624   23935548.5514   23935546.4004
       222.000         176.000
 106627966.34548 100878929.37048  22193568.4284   22193569.8404   22193568.8784
       240.000         200.000
 120171332.09348  93639995.52848  22867847.3994   22867848.3344   22867847.4404
       233.000         194.000
 109142490.52248  85046089.36648  20769129.0164   20769131.6694   20769129.6114
       247.000         218.000
 107082573.11648  83440953.44348  20377145.9954   20377147.9304   20377146.2654
       246.000         230.000
 130103412.27948  83587091.52848  22854904.7134   22854905.1834   22854905.1244
       233.000         190.000
 129418330.72148  83053242.92448  22724556.2954   22724558.4394   22724556.8824
       237.000         193.000
 117866389.17148 109636143.27148  24332167.4374   24332169.6534   24332166.7444
       216.000         165.000
 08  5 27  1 41  0.0000000  0  9G 6G25G21G19G 3G16G22G18G 7
  98002903.34748  94158094.65948  20552278.5074   20552280.9214   20552278.6884
       249.000         224.000
 135769241.69448  88001999.76048  23933096.2124   23933099.2424   23933096.5284
       222.000         175.000
 106698303.83048 100933737.80148  22206953.1204   22206954.8124   22206953.5014
       240.000         199.000
 120100719.18048  93584972.47948  22854410.3604   22854410.5164   22854410.8014
       235.000         195.000
 109096853.33848  85010527.92948  20760444.3214   20760447.2344   20760444.7224
       247.000         217.000
 107106309.54748  83459449.35848  20381663.1034   20381664.8854   20381663.4724
       246.000         230.000
 130022168.13748  83523784.42048  22839444.5434   22839445.0184   22839444.6884
       232.000         189.000
 129393183.90348  83033648.00948  22719771.3714   22719772.9414   22719772.2344
       237.000         193.000
 117814720.80548 109595882.20348  24322335.3874   24322336.7224   24322336.5484
       217.000         165.000
 08  5 27  1 41 30.0000000  0  9G 6G25G21G19G 3G16G22G18G 7
  97992545.42148  94150023.54848  20550307.5754   20550310.0234   20550307.9704
       249.000         225.000
 135756880.35448  87992367.56448  23930743.9634   23930746.8854   23930744.5024
       222.000         175.000
 106768906.07048 100988752.52948  22220388.3504   22220389.8404   22220388.8694
       240.000         199.000
 120030233.80348  93530048.81548  22840997.4864   22840997.9694   22840999.1364
       235.000         196.000
 109051477.31248  84975169.98748  20751809.7274   20751812.3634   20751810.0134
       247.000         218.000
 107130538.25348  83478328.86548  20386273.5554   20386275.3884   20386273.9234
       246.000         230.000
 129941187.19848  83460682.41248  22824034.4984   22824034.8454   22824035.0884
       231.000         189.000
 129368533.67548  83014440.06348  22715080.3174   22715082.4784   22715081.1954
       235.000         192.000
 117763552.44248 109556010.76848  24312597.7434   24312599.7454   24312598.1304
       218.000         166.000
 08  5 27  1 42  0.0000000  0  9G 6G25G21G19G 3G16G22G18G 7
  97982430.71648  94142141.96148  20548382.6564   20548385.3544   20548382.6274
       249.000         225.000
 135745030.57148  87983133.95948  23928488.8674   23928491.0804   23928487.6794
       220.000         170.000
 106839772.56148 101043973.16448  22233873.8604   22233875.0094   22233874.4164
       241.000         198.000
 119959876.70048  93475225.12148  22827608.4834   22827609.9164   22827610.1864
       234.000         196.000
 109006363.74948  84940016.56348  20743224.6554   20743227.4864   20743224.9564
       247.000         218.000
 107155259.99348  83497592.55348  20390977.9174   20390979.7424   20390978.3014
       246.000         230.000
 129860472.96248  83397788.24748  22808674.5044   22808675.5414   22808674.7084
       231.000         189.000
 129344382.37448  82995620.88548  22710484.3324   22710486.6134   22710484.9674
       235.000         191.000
 117712886.38948 109516530.66848  24302956.5184   24302958.6394   24302955.6614
       222.000         165.000
 08  5 27  1 42 30.0000000  0  9G 6G25G21G19G 3G16G22G18G 7
  97972559.41048  94134450.03948  20546504.1304   20546506.7684   20546504.3994
       249.000         224.000
 135733692.23348  87974298.86248  23926331.5554   23926333.1094   23926331.0484
       224.000         173.000
 106910901.05248 101099397.97248  22247409.2244   22247409.9184   22247410.2184
       240.000         197.000
 119889648.29848  93420501.70448  22814244.5024   22814245.8064   22814246.1414
       235.000         196.000
 108961513.01148  84905067.93748  20734690.0804   20734692.5284   20734690.2374
       248.000         218.000
 107180474.47148  83517240.19348  20395776.0464   20395777.9134   20395776.3474
       246.000         230.000
 129780028.14048  83335103.98348  22793366.6744   22793367.3274   22793366.6284
       233.000         190.000
 129320731.16448  82977191.38548  22705983.5364   22705985.7264   22705984.0244
       235.000         191.000
 117662724.01748 109477443.07148  24293411.6844   24293412.6894   24293411.3504
       222.000         170.000
 08  5 27  1 43  0.0000000  0  9G 6G25G21G19G 3G16G22G18G 7
  97962930.99148  94126947.37548  20544672.0514   20544674.5734   20544672.2154
       249.000         225.000
 135722864.68648  87965861.81148  23924271.3474   23924272.9044   23924272.1164
       222.000         174.000
 106982288.97648 101155024.91948  22260993.6394   22260994.5144   22260994.0154
       239.000         197.000
 119819547.91348  93365878.03048  22800904.9274   22800906.1334   22800906.1654
       234.000         196.000
 108916925.25148  84870324.23148  20726205.1464   20726207.8304   20726205.6224
       247.000         218.000
 107206181.22548  83537271.42348  20400667.9454   20400669.7374   20400668.5044
       246.000         230.000
 129699855.10748  83272631.50948  22778110.5024   22778110.9904   22778110.3904
       236.000         192.000
 129297580.40248  82959151.83748  22701578.3414   22701580.2064   22701578.7374
       235.000         192.000
 117613066.09748 109438748.59848  24283962.2004   24283963.1464   24283962.6314
       221.000         170.000
 08  5 27  1 43 30.0000000  0  9G 6G25G21G19G 3G16G22G18G 7
  97953545.67548  94119634.14748  20542886.1434   20542888.5944   20542886.3654
       249.000         225.000
 135712547.78348  87957822.67048  23922307.6494   23922309.4174   23922308.4454
       225.000         173.000
 107053933.94748 101210852.15648  22274627.3214   22274628.1084   22274627.8524
       240.000         197.000
 119749576.01048  93311354.49048  22787589.4954   22787590.8194   22787590.3114
       234.000         196.000
 108872600.89048  84835785.77348  20717770.5044   20717773.1694   20717770.7874
       247.000         218.000
 107232380.15348  83557686.16948  20405653.5064   20405655.2744   20405653.9014
       246.000         230.000
 129619956.30848  83210372.72048  22762906.1574   22762907.0754   22762906.5334
       236.000         191.000
 129274931.43548  82941503.30448  22697268.3844   22697270.0964   22697268.4854
       234.000         192.000
 117563913.79748 109400448.12448  24274608.2774   24274610.2354   24274609.2944
       219.000         169.000
 08  5 27  1 44  0.0000000  0  9G 6G25G21G19G 3G16G22G18G 7
  97944404.32248  94112511.01548  20541146.4724   20541149.0414   20541146.7674
       249.000         224.000
 135702741.88448  87950181.73448  23920441.6254   23920443.5294   23920442.3154
       223.000         177.000
 107125835.19848 101266879.10448  22288309.6364   22288310.1014   22288310.3684
       239.000         196.000
 119679733.24448  93256931.56448  22774299.2834   22774300.2224   22774299.9224
       235.000         198.000
 108828541.07848  84801453.45348  20709386.2944   20709389.0964   20709386.6334
       247.000         218.000
 107259071.89848  83578484.92448  20410732.7064   20410734.6024   20410733.1814
       246.000         230.000
 129540335.56448  83148330.60348  22747754.8044   22747755.3994   22747754.6494
       236.000         191.000
 129252786.43848  82924247.47548  22693054.2934   22693056.1884   22693054.8034
       234.000         191.000
 117515269.40948 109362543.40948  24265351.6384   24265353.6614   24265351.5984
       218.000         169.000
 08  5 27  1 44 30.0000000  0  9G 6G25G21G19G 3G16G22G18G 7
  97935507.01648  94105578.04948  20539453.3214   20539455.9344   20539453.3944
       248.000         224.000
 135693447.01348  87942938.97448  23918673.2294   23918675.5234   23918673.0484
       220.000         173.000
 107197990.29948 101323103.85648  22302040.3414   22302040.8614   22302041.1364
       240.000         197.000
 119610019.38148  93202609.09248  22761032.7434   22761033.8204   22761034.0834
       235.000         198.000
 108784746.66848  84767327.93648  20701052.2374   20701055.3364   20701052.4864
       247.000         218.000
 107286256.38248  83599667.63448  20415905.7214   20415907.6044   20415906.0324
       245.000         230.000
 129460995.58448  83086507.25248  22732656.7384   22732657.1824   22732656.7934
       235.000         189.000
 129231146.10348  82907384.89548  22688936.0344   22688938.0364   22688936.8954
       234.000         191.000
 117467134.40048 109325035.63148  24256191.5244   24256194.0534   24256191.9714
       217.000         165.000
 08  5 27  1 45  0.0000000  0  9G 6G25G21G19G 3G16G22G18G 7
  97926854.06348  94098835.49748  20537806.6524   20537809.3284   20537806.8364
       249.000         224.000
 135684662.59348  87936093.98248  23917000.3144   23917004.2164   23917000.0244
       221.000         177.000
 107270397.19548 101379524.81348  22315818.9714   22315819.8494   22315819.5894
       238.000         197.000
 119540435.01048  93148387.52348  22747791.5124   22747792.3794   22747792.0634
       236.000         198.000
 108741217.90948  84733409.42748  20692769.0414   20692771.9674   20692769.2584
       247.000         219.000
 107313933.26448  83621234.03148  20421172.4224   20421174.3434   20421172.7024
       246.000         230.000
 129381939.13048  83024904.84148  22717613.0874   22717613.0324   22717613.2414
       234.000         189.000
 129210011.63548  82890916.48348  22684914.6594   22684916.5464   22684915.3344
       234.000         193.000
 117419509.96648 109287925.72148  24247128.4444   24247130.9394   24247131.3224
       216.000         167.000
 08  5 27  1 45 30.0000000  0  9G 6G25G21G19G 3G16G22G18G 7
  97918445.65248  94092283.48548  20536206.6364   20536209.1654   20536206.8634
       248.000         224.000
 135676388.93548  87929646.96648  23915426.6804   23915429.6674   23915425.9264
       220.000         172.000
 107343054.27748 101436140.71548  22329644.9664   22329646.7584   22329645.4514
       238.000         198.000
 119470980.59948  93094267.21348  22734574.9464   22734575.3704   22734576.1794
       236.000         199.000
 108697955.66248  84699698.59148  20684536.5874   20684539.5474   20684537.0124
       248.000         219.000
 107342102.74948  83643184.27548  20426532.9984   20426534.8554   20426533.4024
       246.000         230.000
 129303169.08148  82963525.61248  22702623.4954   22702623.7284   22702624.4464
       232.000         190.000
 129189384.23648  82874843.19448  22680989.3934   22680991.2074   22680990.2094
       235.000         192.000
 117372397.78848 109251214.95448  24238163.1024   24238166.0524   24238163.8484
       215.000         168.000
 08  5 27  1 46  0.0000000  0  9G 6G25G21G19G 3G16G22G18G 7
  97910281.89648  94085922.12248  20534653.0504   20534655.6824   20534653.1464
       249.000         224.000
 135668625.34848  87923597.41948  23913949.2214   23913951.7914   23913949.0834
       221.000         173.000
 107415958.98648 101492949.57048  22343518.3194   22343520.1464   22343518.5214
       239.000         198.000
 119401655.96848  93040248.04048  22721382.7374   22721383.9674   22721383.6814
       233.000         199.000
 108654960.37848  84666195.77648  20676354.8584   20676357.6884   20676355.4364
       247.000         218.000
 107370764.61748  83665518.19448  20431987.1474   20431989.0224   20431987.3874
       247.000         230.000
 129224688.27248  82902371.75848  22687689.1334   22687689.4204   22687689.1444
       232.000         192.000
 129169265.09048  82859165.94548  22677160.6924   22677162.7274   22677161.6254
       234.000         193.000
 117325798.75048 109214904.00848  24229296.1734   24229297.9804   24229292.9574
       218.000         169.000
 08  5 27  1 46 30.0000000  0  9G 6G25G21G19G 3G16G22G18G 7
  97902364.16748  94079752.45648  20533146.5054   20533149.1144   20533146.7724
       249.000         225.000
 135661372.88148  87917946.16548  23912569.1784   23912571.8884   23912569.7384
       221.000         175.000
 107489110.61548 101549950.83048  22357438.6994   22357440.8984   22357438.9744
       237.000         198.000
 119332462.65548  92986331.18548  22708215.7154   22708216.8564   22708216.2674
       234.000         199.000
 108612233.53048  84632902.12748  20668224.2444   20668226.9744   20668224.5284
       248.000         219.000
 107399919.84548  83688236.55048  20437535.2144   20437537.0414   20437535.6484
       246.000         229.000
 129146500.57648  82841446.31848  22672810.2684   22672810.9534   22672810.4724
       233.000         193.000
 129149656.31148  82843886.38048  22673429.0524   22673431.4734   22673429.7884
       234.000         193.000
 117279715.53348 109178995.00048  24220527.0274   24220528.5684   24220525.4394
       218.000         163.000
 08  5 27  1 47  0.0000000  0  9G 6G25G21G19G 3G16G22G18G 7
  97894691.72848  94073773.93248  20531686.5194   20531689.0704   20531686.6564
       248.000         224.000
 135654630.14548  87912692.07748  23911286.2564   23911289.1454   23911285.7354
       223.000         175.000
 107562506.24948 101607142.22548  22371405.4574   22371407.9384   22371405.2814
       239.000         200.000
 119263399.63948  92932515.86048  22695073.2044   22695074.1214   22695074.2004
       234.000         198.000
 108569774.67248  84599817.30648  20660144.6664   20660147.1754   20660145.1914
       247.000         218.000
 107429567.02448  83711338.24648  20443176.8004   20443178.7334   20443177.1894
       246.000         229.000
 129068607.58948  82780750.52148  22657987.6474   22657988.5814   22657988.1714
       234.000         195.000
 129130557.92248  82829004.53148  22669794.9444   22669797.0734   22669795.5574
       232.000         192.000
 117234148.30048 109143488.05448  24211856.3044   24211857.3854   24211856.4004
       220.000         167.000
 08  5 27  1 47 30.0000000  0  9G 6G25G21G19G 3G16G22G18G 7
  97887264.60148  94067986.56548  20530273.0724   20530275.7594   20530273.1684
       248.000         224.000
 135648396.69948  87907834.84548  23910100.5304   23910102.2904   23910100.5044
       224.000         177.000
 107636143.91848 101664522.20848  22385418.1334   22385421.1454   22385418.6424
       236.000         199.000
 119194466.88848  92878802.05248  22681955.9594   22681956.9434   22681957.4294
       236.000         200.000
 108527584.59348  84566941.92448  20652116.1504   20652118.8634   20652116.5664
       248.000         219.000
 107459706.12848  83734823.25648  20448912.1934   20448913.9614   20448912.5884
       246.000         229.000
 128991012.03548  82720286.48348  22643221.8404   22643222.2984   22643221.8854
       234.000         193.000
 129111970.87348  82814521.13348  22666257.9234   22666260.2014   22666258.1604
       232.000         192.000
 117189098.57048 109108384.41548  24203283.7614   24203284.5274   24203284.8174
       221.000         165.000
 08  5 27  1 48  0.0000000  0  9G 6G25G21G19G 3G16G22G18G 7
  97880082.88648  94062390.42948  20528906.3714   20528909.0284   20528906.5324
       249.000         224.000
 135642672.28848  87903374.29248  23909011.2754   23909013.8024   23909011.0514
       225.000         177.000
 107710021.46148 101722089.10848  22399476.5704   22399479.5424   22399476.5194
       238.000         199.000
 119125664.86248  92825190.08848  22668863.6124   22668864.5954   22668864.7724
       236.000         201.000
 108485663.91148  84534276.46448  20644138.8854   20644141.4894   20644139.2914
       248.000         219.000
 107490336.91548  83758691.39748  20454740.9644   20454742.8924   20454741.3724
       246.000         229.000
 128913716.91148  82660056.52348  22628512.9954   22628513.3874   22628512.6914
       234.000         192.000
 129093896.08648  82800436.90648  22662818.2684   22662820.2624   22662818.8124
       233.000         191.000
 117144567.41648 109073684.79948  24194809.4254   24194809.9234   24194810.0494
       221.000         170.000
 08  5 27  1 48 30.0000000  0  9G 6G25G21G19G 3G16G22G18G 7
  97873147.35248  94056986.11648  20527586.7104   20527589.2244   20527586.9444
       248.000         224.000
 135637456.94348  87899310.36848  23908018.8424   23908020.7214   23908018.4644
       226.000         176.000
 107784137.37148 101779841.74048  22413580.4704   22413583.2144   22413581.3204
       237.000         198.000
 119056994.14748  92771680.45248  22655795.9134   22655796.8414   22655796.4854
       236.000         201.000
 108444013.65248  84501821.72248  20636213.0444   20636215.9954   20636213.3814
       248.000         219.000
 107521459.58048  83782942.81648  20460663.3634   20460665.4054   20460663.7174
       246.000         229.000
 128836725.15748  82600062.96448  22613862.2794   22613862.5454   22613862.4854
       234.000         192.000
 129076335.29948  82786753.18948  22659476.5694   22659478.6304   22659476.7714
       232.000         191.000
 117100556.32548 109039390.44148  24186434.3014   24186436.1224   24186433.8874
       219.000         172.000
 08  5 27  1 49  0.0000000  0  9G 6G25G21G19G 3G16G22G18G 7
  97866458.83848  94051774.29148  20526313.9874   20526316.5244   20526314.2074
       248.000         224.000
 135632750.94148  87895643.34348  23907123.3724   23907124.8614   23907123.6104
       224.000         174.000
 107858490.52348 101837779.25548  22427729.5054   22427731.9624   22427730.1274
       237.000         197.000
 118988455.63648  92718273.82248  22642753.2144   22642754.1494   22642753.9074
       235.000         201.000
 108402634.89848  84469578.54248  20628338.9414   20628341.6364   20628339.3744
       247.000         219.000
 107553074.44148  83807577.77248  20466679.3954   20466681.4524   20466679.5994
       246.000         229.000
 128760039.95148  82540308.27048  22599269.2774   22599269.7744   22599268.8384
       233.000         191.000
 129059289.82848  82773471.01948  22656233.0374   22656234.9514   22656233.1304
       232.000         191.000
 117057067.14248 109005502.77848  24178158.3364   24178160.5434   24178157.2104
       215.000         166.000
 08  5 27  1 49 30.0000000  0  9G 6G25G21G19G 3G16G22G18G 7
  97860017.51148  94046755.06948  20525088.3134   20525090.7464   20525088.5064
       248.000         224.000
 135628553.84448  87892372.87048  23906324.3944   23906325.2744   23906325.3244
       224.000         175.000
 107933078.89748 101895900.05348  22441922.8184   22441925.1804   22441923.0404
       237.000         197.000
 118920049.32948  92664970.22248  22629735.9214   22629737.1784   22629737.1674
       233.000         201.000
 108361528.28348  84437547.42048  20620516.5574   20620519.3874   20620516.8574
       248.000         220.000
 107585181.36948  83832596.14548  20472789.1934   20472791.1274   20472789.5764
       246.000         228.000
 128683664.03648  82480794.58048  22584735.6574   22584735.8164   22584735.2824
       233.000         192.000
 129042760.72648  82760591.20748  22653087.4604   22653089.4034   22653088.0194
       234.000         192.000
 117014101.13348 108972022.76448  24169982.2324   24169983.3574   24169980.0314
       216.000         167.000
 08  5 27  1 50  0.0000000  0  9G 6G25G21G19G 3G16G22G18G 7
  97853823.43848  94041928.52448  20523909.3304   20523912.0154   20523909.5344
       248.000         224.000
 135624865.04348  87889498.48748  23905622.8384   23905624.5124   23905622.6314
       227.000         179.000
 108007900.43748 101954202.55348  22456161.0324   22456162.6904   22456161.5074
       238.000         196.000
 118851775.61948  92611769.95448  22616743.6504   22616745.1034   22616743.9644
       234.000         202.000
 108320693.84548  84405728.38748  20612745.8674   20612748.8664   20612746.3004
       248.000         220.000
 107617779.81748  83857997.52748  20478992.4604   20478994.3314   20478992.8054
       246.000         229.000
 128607600.77448  82421524.53948  22570260.6324   22570261.6024   22570260.2484
       233.000         193.000
 129026748.60448  82748114.24248  22650040.6914   22650042.5764   22650041.2874
       234.000         192.000
 116971659.30348 108938951.25048  24161905.8304   24161907.4714   24161905.5744
       214.000         164.000
 08  5 27  1 50 30.0000000  0  9G 6G25G21G19G 3G16G22G18G 7
  97847875.88848  94037294.06748  20522777.5724   20522780.2134   20522777.5764
       248.000         224.000
 135621683.44448  87887019.30848  23905016.8904   23905019.4414   23905017.4354
       223.000         174.000
 108082952.24848 102012684.48248  22470443.1374   22470443.6534   22470443.8834
       237.000         194.000
 118783633.53748  92558672.24648  22603776.6954   22603778.0324   22603778.4954
       233.000         200.000
 108280131.81648  84374121.61248  20605027.3374   20605030.2914   20605027.7884
       248.000         220.000
 107650868.74648  83883781.10548  20485289.2694   20485290.9084   20485289.7104
       247.000         229.000
 128531851.61348  82362499.24548  22555846.1934   22555846.9284   22555845.3764
       235.000         195.000
 129011253.56448  82736040.19048  22647091.8514   22647094.1454   22647092.8684
       233.000         192.000
 116929742.07248 108906288.45948  24153928.6594   24153930.5624   24153927.0924
       213.000         164.000
 08  5 27  1 51  0.0000000  0  9G 6G25G21G19G 3G16G22G18G 7
  97842176.31648  94032852.83848  20521693.1314   20521695.5604   20521693.3254
       248.000         224.000
 135619009.47448  87884935.68748  23904508.0124   23904510.3284   23904508.1224
       225.000         176.000
 108158233.12948 102071344.91848  22484768.5564   22484768.3554   22484769.4164
       238.000         193.000
 118715624.56848  92505678.25648  22590834.6454   22590836.1094   22590835.8464
       235.000         201.000
 108239843.56448  84342728.17648  20597360.7334   20597363.6154   20597361.0304
       248.000         220.000
 107684448.83348  83909947.40148  20491679.2414   20491681.0394   20491679.5924
       246.000         229.000
 128456420.36348  82303721.65548  22541492.1724   22541492.7424   22541492.3054
       235.000         195.000
 128996277.59848  82724370.62148  22644242.3804   22644244.2584   22644242.7814
       234.000         194.000
 116888351.53948 108874036.11148  24146053.2594   24146054.6674   24146053.1964
       218.000         168.000
 08  5 27  1 51 30.0000000  0  9G 6G25G21G19G 3G16G22G18G 7
  97836724.61948  94028604.76048  20520655.8694   20520658.1124   20520656.1894
       248.000         224.000
 135616842.26848  87883246.97248  23904095.9834   23904097.8764   23904096.5074
       226.000         176.000
 108233741.16748 102130182.34048  22499137.2284   22499136.6564   22499137.3064
       238.000         192.000
 118647748.62148  92452787.90348  22577918.8854   22577919.6744   22577919.1484
       234.000         201.000
 108199829.51248  84311548.39648  20589746.4004   20589749.1674   20589746.9084
       248.000         220.000
 107718519.40648  83936495.89148  20498162.6674   20498164.5634   20498163.0174
       247.000         229.000
 128381309.29948  82245193.57548  22527198.8774   22527199.5234   22527198.5914
       235.000         194.000
 128981821.21948  82713105.90948  22641491.0634   22641493.3734   22641491.3394
       234.000         193.000
 116847488.68748 108842194.94048  24138276.7024   24138278.4894   24138277.6664
       219.000         167.000
 08  5 27  1 52  0.0000000  0  9G 6G25G21G19G 3G16G22G18G 7
  97831521.15448  94024550.11148  20519665.5414   20519668.0054   20519665.8084
       247.000         223.000
 135615181.55048  87881952.90448  23903779.4184   23903781.9304   23903779.6624
       224.000         175.000
 108309474.31448 102189195.19148  22513548.8754   22513548.3534   22513549.7884
       238.000         194.000
 118580005.88048  92400001.37448  22565027.5314   22565028.7384   22565027.7694
       235.000         202.000
 108160090.53948  84280582.96848  20582184.2874   20582187.1314   20582184.7554
       248.000         221.000
 107753080.52948  83963426.63448  20504739.4954   20504741.2874   20504739.8794
       247.000         229.000
 128306521.34848  82186917.26448  22512967.5724   22512967.8324   22512967.8514
       234.000         193.000
 128967885.82948  82702247.17248  22638839.3284   22638841.6664   22638839.8934
       234.000         193.000
 116807154.40148 108810765.62048  24130601.9964   24130603.6964   24130602.4014
       219.000         172.000
 08  5 27  1 52 30.0000000  0  9G 6G25G21G19G 3G16G22G18G 7
  97826566.15648  94020689.07448  20518722.4494   20518725.1464   20518722.3404
       248.000         224.000
 135614027.15848  87881053.37848  23903559.6924   23903562.5324   23903559.1944
       223.000         176.000
 108385430.77348 102248382.04448  22528003.0764   22528003.3244   22528003.4524
       238.000         195.000
 118512396.97748  92347319.11148  22552162.5914   22552162.8734   22552163.8914
       236.000         201.000
 108120627.54748  84249832.59548  20574674.7074   20574677.5964   20574674.8554
       248.000         221.000
 107788131.69648  83990739.22848  20511409.4754   20511411.3934   20511409.9404
       247.000         229.000
 128232059.41348  82128894.99648  22498797.6684   22498798.3864   22498797.6944
       235.000         193.000
 128954472.16748  82691794.98348  22636286.6524   22636288.9354   22636287.4094
       234.000         194.000
 116767350.03448 108779749.23548  24123026.9634   24123029.0804   24123026.6214
       215.000         169.000
 08  5 27  1 53  0.0000000  0  9G 6G25G21G19G 3G16G22G18G 7
  97821860.01948  94017021.94848  20517827.1334   20517829.5284   20517827.3924
       248.000         224.000
 135613378.22948  87880547.72148  23903436.4534   23903438.9084   23903436.5034
       226.000         178.000
 108461608.06748 102307740.97748  22542499.0684   22542500.4554   22542499.6544
       238.000         197.000
 118444921.98248  92294741.19848  22539322.2924   22539322.9594   22539323.0754
       236.000         202.000
 108081440.88348  84219297.53148  20567217.6414   20567220.5064   20567217.7064
       248.000         220.000
 107823672.67748  84018433.49348  20518172.6214   20518174.6604   20518172.9904
       246.000         228.000
 128157926.04548  82071128.75548  22484690.9934   22484691.1454   22484691.3134
       235.000         194.000
 128941580.66848  82681749.66648  22633833.8984   22633835.9024   22633834.2724
       234.000         194.000
 116728076.79948 108749146.72148  24115553.6504   24115555.6874   24115554.0984
       222.000         171.000
 08  5 27  1 53 30.0000000  0  9G 6G25G21G19G 3G16G22G18G 7
  97817402.80148  94013548.79048  20516978.9374   20516981.4054   20516979.0874
       248.000         223.000
 135613234.29848  87880435.56548  23903409.1554   23903411.3964   23903409.6964
       226.000         176.000
 108538004.91848 102367270.97248  22557036.9654   22557039.4764   22557037.7224
       238.000         198.000
 118377581.15548  92242267.86648  22526507.0144   22526508.8074   22526508.3574
       235.000         201.000
 108042530.96848  84188978.12748  20559813.4014   20559816.2834   20559813.7684
       249.000         221.000
 107859702.93448  84046509.01748  20525029.0424   20525030.9104   20525029.3764
       246.000         228.000
 128084124.06448  82013620.72448  22470646.8834   22470646.7744   22470646.7034
       237.000         195.000
 128929212.21748  82672111.92748  22631480.2144   22631482.0964   22631480.9694
       234.000         193.000
 116689335.49248 108718958.74948  24108181.7694   24108183.3944   24108183.5524
       220.000         173.000
 08  5 27  1 54  0.0000000  0  9G 6G25G21G19G 3G16G22G18G 7
  97813195.13948  94010270.09048  20516178.2234   20516180.6714   20516178.4334
       248.000         223.000
 135613595.13648  87880716.72748  23903478.0134   23903479.8334   23903478.8674
       227.000         177.000
 108614619.69048 102426970.78748  22571616.2194   22571619.2734   22571616.7454
       238.000         199.000
 118310375.04548  92189899.45748  22513718.6424   22513719.5364   22513719.5024
       234.000         201.000
 108003899.00648  84158875.29748  20552461.9444   20552464.7554   20552462.2934
       248.000         221.000
 107896222.52948  84074965.83448  20531978.4494   20531980.3884   20531978.8254
       247.000         228.000
 128010656.34548  81956373.15948  22456666.2784   22456666.5604   22456666.3654
       237.000         196.000
 128917368.33448  82662882.94648  22629225.9444   22629228.2634   22629226.2824
       234.000         193.000
 116651127.74248 108689186.49848  24100909.9294   24100912.9874   24100909.6414
       215.000         172.000
 08  5 27  1 54 30.0000000  0  9G 6G25G21G19G 3G16G22G18G 7
  97809238.06748  94007186.65648  20515425.2454   20515427.5714   20515425.4664
       248.000         223.000
 135614460.73248  87881391.20548  23903642.7794   23903644.8114   23903642.0634
       226.000         176.000
 108691450.62348 102486839.03448  22586236.6854   22586239.8564   22586236.8064
       237.000         199.000
 118243304.46848  92137636.69048  22500955.4214   22500956.4884   22500956.4354
       235.000         202.000
 107965546.28848  84128990.07148  20545163.6244   20545166.4904   20545163.9754
       249.000         221.000
 107933232.01048  84103804.38648  20539021.1604   20539023.1584   20539021.5044
       247.000         228.000
 127937526.64448  81899388.99348  22442750.0124   22442750.6244   22442750.0274
       235.000         196.000
 128906049.96948  82654063.44848  22627072.4384   22627074.3994   22627072.8634
       234.000         194.000
 116613455.05248 108659831.15248  24093742.2044   24093744.4874   24093741.1914
       219.000         174.000
 08  5 27  1 55  0.0000000  0  9G 6G25G21G19G 3G16G22G18G 7
  97805531.72648  94004298.59848  20514719.8344   20514722.3104   20514720.0264
       248.000         223.000
 135615830.52248  87882458.59648  23903903.2784   23903905.5444   23903904.2274
       225.000         176.000
 108768496.38448 102546874.68248  22600897.8524   22600900.9684   22600898.1834
       238.000         198.000
 118176369.85748  92085479.88348  22488218.3824   22488219.6104   22488219.4204
       236.000         203.000
 107927473.29748  84099322.81148  20537918.5284   20537921.5734   20537918.9344
       249.000         221.000
 107970730.42548  84133023.92548  20546156.8894   20546158.8154   20546157.3104
       247.000         228.000
 127864737.17348  81842669.95248  22428898.4194   22428898.9514   22428898.5224
       237.000         194.000
 128895258.01948  82645654.15248  22625018.7384   22625020.8034   22625019.2904
       233.000         194.000
 116576318.23348 108630893.42848  24086674.9744   24086676.8254   24086673.9404
       221.000         172.000
 08  5 27  1 55 30.0000000  0  9G 6G25G21G19G 3G16G22G18G 7
  97802075.35248  94001605.31348  20514062.1474   20514064.6394   20514062.2044
       248.000         223.000
 135617702.70948  87883917.43148  23904259.7024   23904262.3744   23904259.3294
       225.000         177.000
 108845754.01148 102607075.42048  22615599.3494   22615602.0054   22615600.0564
       238.000         197.000
 118109570.27148  92033428.24648  22475506.9294   22475507.5594   22475507.8204
       235.000         202.000
 107889679.81848  84069873.35148  20530726.8304   20530729.5694   20530727.3284
       249.000         221.000
 108008716.37948  84162623.36348  20553385.3474   20553387.1154   20553385.7324
       247.000         228.000
 127792289.55848  81786217.28848  22415112.3064   22415112.7094   22415112.5734
       235.000         195.000
 128884992.15448  82637654.78848  22623064.9614   22623067.2644   22623065.4934
       233.000         194.000
 116539717.46048 108602373.31648  24079709.9544   24079712.1564   24079710.7314
       220.000         171.000
 08  5 27  1 56  0.0000000  0  9G 6G25G21G19G 3G16G22G18G 7
  97798870.01048  93999107.64048  20513452.3684   20513454.6884   20513452.5774
       248.000         223.000
 135620077.52248  87885767.95248  23904711.2444   23904713.2624   23904711.9644
       226.000         174.000
 108923222.31148 102667440.32048  22630341.1804   22630343.0304   22630342.3444
       236.000         194.000
 118042906.73648  91981482.64548  22462821.1194   22462821.6684   22462822.6104
       235.000         202.000
 107852166.92848  84040642.52848  20523588.3984   20523591.0844   20523588.6644
       249.000         222.000
 108047190.40548  84192603.12048  20560706.7344   20560708.4874   20560707.2114
       247.000         228.000
 127720187.52848  81730033.89848  22401391.5084   22401392.1054   22401391.3394
       237.000         195.000
 128875253.71748  82630066.40848  22621211.8784   22621214.1464   22621212.3144
       233.000         194.000
 116503654.38048 108574272.23348  24072847.6644   24072849.1944   24072847.3174
       221.000         170.000
 08  5 27  1 56 30.0000000  0  9G 6G25G21G19G 3G16G22G18G 7
  97795915.93948  93996805.76448  20512890.1524   20512892.5594   20512890.2864
       247.000         223.000
 135622954.47848  87888009.73648  23905258.7814   23905260.6004   23905258.7194
       223.000         173.000
 109000898.74248 102727967.40648  22645122.4954   22645123.6354   22645123.3044
       234.000         192.000
 117976379.84948  91929643.53048  22450161.6124   22450162.1044   22450162.9854
       237.000         204.000
 107814935.44548  84011630.98748  20516503.5134   20516506.1714   20516503.8034
       250.000         222.000
 108086151.93448  84222962.75248  20568120.8764   20568122.8544   20568121.2354
       247.000         228.000
 127648433.98448  81674122.05148  22387737.5704   22387737.8894   22387738.1684
       236.000         196.000
 128866044.16248  82622890.14248  22619459.4184   22619461.4534   22619459.5364
       235.000         195.000
 116468130.00148 108546590.85848  24066087.5714   24066088.3824   24066085.7024
       219.000         167.000
 08  5 27  1 57  0.0000000  0  9G 6G25G21G19G 3G16G22G18G 7
  97793213.21748  93994699.74948  20512375.7624   20512378.3604   20512375.8814
       248.000         224.000
 135626332.38148  87890641.87948  23905901.3484   23905904.2174   23905901.2444
       224.000         175.000
 109078781.23148 102788655.05848  22659943.1404   22659943.8394   22659943.2784
       234.000         189.000
 117909989.66948  91877910.91748  22437527.7604   22437528.9094   22437528.5914
       233.000         202.000
 107777985.99448  83982839.21248  20509472.2574   20509474.8814   20509472.5664
       249.000         222.000
 108125600.24048  84253701.68348  20575627.6604   20575629.6574   20575628.1724
       247.000         228.000
 127577030.89648  81618483.29448  22374149.9374   22374150.3344   22374150.2194
       236.000         196.000
 128857362.98648  82616125.59848  22617807.4804   22617809.7784   22617808.0584
       234.000         195.000
 116433144.86648 108519329.71848  24059430.1694   24059430.6904   24059431.2434
       219.000         165.000
 08  5 27  1 57 30.0000000  0  9G 6G25G21G19G 3G16G22G18G 7
  97790762.37648  93992790.00348  20511909.3494   20511912.0694   20511909.6564
       248.000         224.000
 135630210.83948  87893664.01248  23906640.1924   23906641.9654   23906639.3154
       224.000         176.000
 109156868.71248 102849502.44448  22674802.8494   22674803.0534   22674803.2124
       236.000         189.000
 117843736.29548  91826284.93248  22424919.6464   22424920.9964   22424920.0034
       234.000         201.000
 107741319.06648  83954267.57948  20502494.8154   20502497.4874   20502494.9104
       250.000         222.000
 108165535.13548  84284819.78148  20583226.9584   20583228.8224   20583227.3704
       247.000         228.000
 127505981.27248  81563119.97748  22360629.5594   22360629.8504   22360629.3164
       237.000         197.000
 128849211.21148  82609773.57148  22616256.2714   22616258.5234   22616256.5314
       234.000         196.000
 116398700.22448 108492489.76748  24052874.4014   24052876.2654   24052875.6814
       213.000         158.000
 08  5 27  1 58  0.0000000  0  9G 6G25G21G19G 3G16G22G18G 7
  97788564.36648  93991077.26748  20511491.1214   20511493.8104   20511491.2974
       247.000         224.000
 135634589.90448  87897076.27748  23907472.9874   23907475.3074   23907473.7444
       226.000         175.000
 109235159.81548 102910508.49448  22689701.0434   22689701.2564   22689701.7334
       233.000         188.000
 117777620.99448  91774766.53148  22412338.8634   22412339.7104   22412339.8184
       237.000         204.000
 107704936.25148  83925917.33748  20495571.2834   20495574.1234   20495571.6754
       250.000         222.000
 108205956.78148  84316317.15948  20590918.9974   20590920.8364   20590919.3584
       247.000         228.000
 127435288.49448  81508034.71048  22347177.4714   22347177.9084   22347177.6014
       237.000         198.000
 128841590.39748  82603835.28948  22614806.0774   22614808.2864   22614806.4804
       235.000         195.000
 116364797.25348 108466071.82548  24046422.8594   24046424.5194   24046420.9614
       214.000         163.000
 08  5 27  1 58 30.0000000  0  9G 6G25G21G19G 3G16G22G18G 7
  97786617.99248  93989560.61348  20511120.6734   20511123.3494   20511120.7524
       247.000         223.000
 135639467.33848  87900876.86148  23908401.2824   23908403.3694   23908401.5814
       224.000         173.000
 109313651.20048 102971670.61348  22704637.4214   22704637.6574   22704638.1784
       234.000         189.000
 117711642.79848  91723354.95748  22399783.7224   22399784.9594   22399784.5214
       234.000         205.000
 107668837.07948  83897788.11448  20488701.8704   20488704.6014   20488702.3374
       249.000         222.000
 108246862.98948  84348192.12548  20598703.1494   20598704.9654   20598703.4774
       247.000         227.000
 127364953.84448  81453228.50648  22333793.0184   22333793.5104   22333792.9044
       239.000         198.000
 128834499.75048  82598310.12148  22613456.7354   22613458.8744   22613457.5824
       235.000         195.000
 116331435.81448 108440075.95148  24040075.0504   24040076.8774   24040074.3674
       217.000         168.000
 08  5 27  1 59  0.0000000  0  9G 6G25G21G19G 3G16G22G18G 7
  97784924.38648  93988240.91248  20510798.4244   20510801.0644   20510798.5474
       247.000         223.000
 135644843.12048  87905065.79748  23909423.9374   23909425.7634   23909423.6514
       224.000         171.000
 109392341.64248 103032987.82648  22719612.0674   22719612.8024   22719612.3574
       233.000         190.000
 117645802.41448  91672050.78448  22387254.4094   22387255.7954   22387255.3394
       238.000         205.000
 107633022.49648  83869880.64948  20481886.3554   20481889.3164   20481886.6774
       249.000         221.000
 108288254.24748  84380445.04948  20606579.6264   20606581.4774   20606580.0534
       247.000         227.000
 127294980.79748  81398704.05948  22320477.8204   22320477.9794   22320478.0364
       238.000         197.000
 128827940.31848  82593198.89248  22612208.6694   22612210.3414   22612209.1024
       234.000         194.000
 116298617.36048 108414503.14348  24033829.6174   24033832.0414   24033830.3674
       217.000         170.000
 08  5 27  1 59 30.0000000  0  9G 6G25G21G19G 3G16G22G18G 7
  97783484.05748  93987118.58548  20510524.3444   20510526.9024   20510524.5984
       248.000         223.000
 135650716.49748  87909642.45148  23910541.5384   23910543.1634   23910542.1154
       225.000         173.000
 109471229.97248 103094459.25248  22734623.9684   22734625.6664   22734625.1434
       234.000         191.000
 117580100.43448  91620854.43448  22374752.1754   22374752.6944   22374753.6924
       238.000         205.000
 107597493.11548  83842195.41848  20475125.4794   20475128.1004   20475125.8404
       249.000         222.000
 108330130.09548  84413075.57348  20614548.3264   20614550.4134   20614548.7484
       247.000         227.000
 127225371.95048  81344463.40648  22307231.5634   22307231.9884   22307231.1424
       237.000         197.000
 128821913.16948  82588502.41848  22611061.3804   22611063.3864   22611062.0184
       232.000         194.000
 116266342.60748 108389354.02848  24027688.6544   24027690.4934   24027687.8214
       222.000         176.000
 08  5 27  2  0  0.0000000  0  9G 6G25G21G19G 3G16G22G18G 7
  97782296.56048  93986193.26248  20510298.3614   20510300.9474   20510298.7204
       247.000         223.000
 135657086.30948  87914605.92348  23911754.1484   23911756.2414   23911753.8944
       222.000         173.000
 109550312.83048 103156082.23648  22749672.9074   22749675.7234   22749672.8484
       234.000         192.000
 117514536.64348  91569765.76348  22362276.0254   22362276.6604   22362276.8714
       235.000         205.000
 107562249.12448  83814732.57148  20468418.7044   20468421.5894   20468418.8534
       250.000         222.000
 108372489.27948  84446082.71748  20622609.0414   20622610.9094   20622609.3544
       247.000         227.000
 127156129.35248  81290508.15948  22294054.6894   22294055.4334   22294054.9654
       238.000         198.000
 128816417.99248  82584220.48348  22610015.8324   22610017.8184   22610016.8394
       233.000         193.000
 116234612.18148 108364629.01648  24021650.5764   24021652.5724   24021649.4914
       220.000         174.000
 08  5 27  2  0 30.0000000  0 10G 6G25G21G27G19G 3G16G22G18G 7
  97781362.24848  93985465.23148  20510120.4324   20510123.1124   20510120.6074
       248.000         223.000
 135663951.61948  87919955.51748  23913060.0414   23913062.4434   23913059.8174
       224.000         173.000
 109629588.46948 103217855.44948  22764758.3344   22764761.6924   22764759.0574
       231.000         191.000
 141102445.98658  92157734.18058  24947978.1275   24947982.4785   24947980.0235
       214.000         165.000
 117449111.15348  91518784.88148  22349825.5164   22349826.9354   22349826.6344
       236.000         204.000
 107527291.44548  83787492.82148  20461766.5564   20461769.2574   20461766.8794
       250.000         222.000
 108415331.26348  84479466.08048  20630761.6174   20630763.4374   20630761.9364
       247.000         227.000
 127087255.69048  81236840.38948  22280948.5914   22280949.2454   22280948.8164
       238.000         198.000
 128811455.39748  82580353.53248  22609071.1574   22609073.4504   22609071.7104
       235.000         194.000
 116203426.69748 108340328.65648  24015715.5344   24015718.2734   24015715.6324
       225.000         174.000
 08  5 27  2  1  0.0000000  0 10G 6G25G21G27G19G 3G16G22G18G 7
  97780681.33248  93984934.63748  20509991.0654   20509993.6094   20509991.2464
       248.000         224.000
 135671311.43048  87925690.44548  23914460.9924   23914462.7334   23914461.9834
       224.000         172.000
 109709055.74948 103279777.98348  22779880.1654   22779883.1574   22779879.3314
       230.000         188.000
 141063495.61648  92127383.30248  24940565.8304   24940569.4374   24940568.4874
       208.000         158.000
 117383824.36248  91467912.06948  22337401.9034   22337402.6464   22337402.9314
       236.000         204.000
 107492620.95248  83760476.85448  20455168.9964   20455171.6734   20455169.2534
       250.000         222.000
 108458655.26948  84513225.03648  20639005.8824   20639007.8444   20639006.1934
       247.000         227.000
 127018753.34448  81183461.94148  22267913.2254   22267913.3204   22267913.3244
       240.000         198.000
 128807025.51948  82576901.68748  22608228.5244   22608230.4814   22608229.3924
       235.000         195.000
 116172786.45548 108316453.10948  24009885.8404   24009886.1164   24009885.6254
       223.000         168.000
 08  5 27  2  1 30.0000000  0 10G 6G25G21G27G19G 3G16G22G18G 7
  97780255.24948  93984602.61948  20509909.8774   20509912.5764   20509910.0144
       248.000         223.000
 135679166.11348  87931810.98148  23915955.3644   23915956.8164   23915954.6214
       222.000         172.000
 109788713.39948 103341848.86748  22795038.6664   22795039.9824   22795039.2754
       232.000         186.000
 141024989.43748  92097378.53948  24933237.4904   24933241.9984   24933238.6734
       212.000         159.000
 117318677.86348  91417148.56548  22325004.9924   22325005.6974   22325005.2534
       237.000         205.000
 107458238.98848  83733685.71648  20448626.4244   20448629.0734   20448626.8024
       250.000         222.000
 108502461.92248  84547360.08748  20647341.9924   20647343.9844   20647342.3704
       247.000         226.000
 126950625.99248  81130375.70848  22254948.9584   22254949.3694   22254949.2654
       238.000         197.000
 128803130.64048  82573866.72848  22607487.4474   22607489.0464   22607487.9474
       236.000         195.000
 116142693.50048 108293004.06448  24004158.8304   24004160.3764   24004157.7544
       220.000         171.000
 08  5 27  2  2  0.0000000  0 10G 6G25G21G27G19G 3G16G22G18G 7
  97780085.44848  93984470.30648  20509877.7044   20509880.1474   20509877.8574
       248.000         223.000
 135687515.83148  87938317.23548  23917543.9074   23917546.7944   23917544.0844
       222.000         171.000
 109868560.63348 103404067.49248  22810233.2064   22810233.3214   22810234.0054
       230.000         185.000
 140986929.57448  92067721.44848  24925996.2604   24926000.1684   24925995.5764
       215.000         165.000
 117253672.90748  91366495.36648  22312634.9684   22312635.7314   22312636.1204
       236.000         204.000
 107424147.26148  83707120.73948  20442138.9834   20442141.6704   20442139.4404
       250.000         222.000
 108546751.61348  84581871.52748  20655770.0684   20655772.1034   20655770.4944
       247.000         227.000
 126882877.53648  81077584.70548  22242056.9444   22242056.9774   22242056.9944
       238.000         197.000
 128799771.43948  82571249.18148  22606848.1214   22606849.9514   22606849.1114
       236.000         195.000
 116113149.84148 108269983.04148  23998537.1014   23998538.9734   23998536.5094
       224.000         175.000
 08  5 27  2  2 30.0000000  0 10G 6G25G21G27G19G 3G16G22G18G 7
  97780170.85448  93984536.85648  20509893.8254   20509896.4484   20509894.1214
       248.000         223.000
 135696358.38348  87945207.51948  23919227.1924   23919229.4854   23919226.6334
       224.000         174.000
 109948594.28248 103466431.37648  22825463.0464   22825463.2224   22825463.5304
       231.000         186.000
 140949315.21448  92038411.58448  24918837.9274   24918841.4924   24918837.2324
       209.000         161.000
 117188808.67548  91315951.82048  22300291.6154   22300292.4354   22300292.6754
       238.000         206.000
 107390344.98248  83680781.30148  20435706.5484   20435709.2294   20435706.7734
       250.000         222.000
 108591522.03348  84616757.56748  20664289.6714   20664291.6344   20664290.1964
       247.000         227.000
 126815508.93248  81025089.71048  22229236.9664   22229237.2344   22229237.0744
       238.000         199.000
 128796947.48248  82569048.70748  22606310.5744   22606312.6364   22606311.2564
       236.000         195.000
 116084154.72548 108247389.43948  23993019.4344   23993020.7104   23993019.5344
       225.000         173.000
 08  5 27  2  3  0.0000000  0 10G 6G25G21G27G19G 3G16G22G18G 7
  97780511.93748  93984802.63048  20509958.7624   20509961.3424   20509958.9094
       248.000         223.000
 135705692.93348  87952481.20848  23921003.6454   23921005.2744   23921004.6614
       224.000         171.000
 110028812.89248 103528939.37448  22840728.5094   22840729.6624   22840728.8064
       231.000         187.000
 140912147.61648  92009449.86248  24911765.4794   24911768.5464   24911765.5254
       208.000         158.000
 117124085.60248  91265518.25348  22287975.3974   22287976.0414   22287976.5774
       235.000         205.000
 107356833.38348  83654668.36848  20429329.5954   20429332.2384   20429330.0134
       250.000         222.000
 108636773.42748  84652018.38248  20672900.6634   20672902.6594   20672901.0344
       247.000         226.000
 126748523.11548  80972892.96848  22216490.1524   22216490.1814   22216489.8394
       239.000         199.000
 128794659.39348  82567265.78348  22605875.5474   22605877.3274   22605876.1044
       237.000         197.000
 116055708.89448 108225223.86148  23987606.4674   23987607.9654   23987606.0964
       223.000         177.000
 08  5 27  2  3 30.0000000  0 10G 6G25G21G27G19G 3G16G22G18G 7
  97781108.87348  93985267.77048  20510072.4374   20510074.8954   20510072.6294
       248.000         224.000
 135715518.40548  87960137.41348  23922873.3754   23922875.0344   23922872.8984
       225.000         175.000
 110109214.18848 103591589.71448  22856028.1124   22856030.7714   22856028.9074
       228.000         187.000
 140875427.40948  91980836.70248  24904777.1394   24904782.1734   24904777.2794
       207.000         157.000
 117059503.55748  91215194.60548  22275685.3164   22275686.9774   22275685.9654
       236.000         206.000
 107323612.47248  83628781.94448  20423007.9254   20423010.4774   20423008.2354
       250.000         223.000
 108682504.39448  84687652.89748  20681603.0454   20681604.9664   20681603.5674
       247.000         226.000
 126681922.42548  80920996.34648  22203816.2824   22203816.9604   22203816.3014
       238.000         199.000
 128792907.34248  82565900.55248  22605541.9474   22605543.9714   22605542.5894
       237.000         196.000
 116027812.79448 108203486.63048  23982298.3294   23982300.2534   23982296.7254
       219.000         176.000
 08  5 27  2  4  0.0000000  0 10G 6G25G21G27G19G 3G16G22G18G 7
  97781962.68948  93985933.07748  20510235.0414   20510237.3874   20510235.2704
       248.000         224.000
 135725834.50048  87968175.93948  23924836.1734   23924838.5924   23924836.4974
       223.000         174.000
 110189797.06648 103654381.52448  22871362.5734   22871365.5884   22871363.0624
       229.000         186.000
 140839156.32148  91952573.51148  24897874.6124   24897878.8564   24897875.6144
       208.000         152.000
 116995063.49848  91164981.57748  22263422.9224   22263423.9474   22263423.8344
       236.000         205.000
 107290684.24648  83603123.59248  20416741.7734   20416744.4734   20416742.1454
       250.000         223.000
 108728715.09048  84723661.22948  20690396.6274   20690398.4174   20690397.0494
       247.000         226.000
 126615709.90248  80869402.18248  22191216.4384   22191216.8574   22191216.6394
       239.000         198.000
 128791692.23748  82564953.72348  22605310.6174   22605312.4844   22605311.4554
       237.000         195.000
 116000467.42648 108182178.57548  23977094.0464   23977096.4394   23977092.1324
       220.000         177.000
 08  5 27  2  4 30.0000000  0 10G 6G25G21G27G19G 3G16G22G18G 7
  97783072.84948  93986798.13448  20510446.2654   20510448.6024   20510446.4894
       249.000         224.000
 135736639.39448  87976595.30248  23926892.8854   23926894.4294   23926892.2084
       223.000         176.000
 110270559.23848 103717313.07248  22886730.9884   22886732.9814   22886731.5594
       226.000         183.000
 140803334.34148  91924660.28948  24891059.1854   24891062.2154   24891059.7944
       213.000         158.000
 116930765.21748  91114879.03448  22251187.2494   22251188.6674   22251188.1834
       235.000         206.000
 107258048.59448  83577693.21648  20410531.2804   20410534.1064   20410531.6254
       249.000         223.000
 108775403.87448  84760042.09948  20699281.0914   20699283.0994   20699281.3614
       247.000         226.000
 126549887.59348  80818112.06448  22178691.0174   22178691.2594   22178690.9904
       239.000         199.000
 128791013.86848  82564425.13448  22605181.3894   22605183.6074   22605181.8794
       236.000         195.000
 115973672.91048 108161299.73248  23971995.3664   23971997.6364   23971994.1754
       222.000         177.000
 08  5 27  2  5  0.0000000  0 10G 6G25G21G27G19G 3G16G22G18G 7
  97784440.07848  93987863.50648  20510706.3434   20510708.8534   20510706.6634
       248.000         223.000
 135747932.45348  87985395.10448  23929041.6514   23929044.0234   23929042.6614
       224.000         174.000
 110351498.29048 103780382.45048  22902133.1014   22902133.9934   22902132.6404
       228.000         182.000
 140767962.63948  91897097.92848  24884328.5364   24884330.2794   24884329.5884
       215.000         157.000
 116866609.50148  91064887.58148  22238978.7994   22238980.3354   22238978.6444
       236.000         207.000
 107225706.18648  83552491.34048  20404376.7054   20404379.6344   20404376.8764
       250.000         222.000
 108822569.95248  84796794.88148  20708256.5564   20708258.7084   20708256.9894
       246.000         226.000
 126484458.20548  80767128.12648  22166240.0204   22166240.4424   22166240.2814
       240.000         200.000
 128790872.36348  82564314.88248  22605154.4774   22605156.5334   22605155.0794
       237.000         195.000
 115947429.93048 108140850.62848  23967001.7164   23967003.1594   23967000.9774
       223.000         177.000
 08  5 27  2  5 30.0000000  0 10G 6G25G21G27G19G 3G16G22G18G 7
  97786064.11048  93989128.97448  20511015.3584   20511017.8704   20511015.5864
       248.000         223.000
 135759712.36548  87994574.26248  23931282.7674   23931285.5244   23931283.1714
       221.000         173.000
 110432612.95448 103843588.67748  22917569.1884   22917568.7164   22917569.7214
       228.000         182.000
 140733041.62148  91869886.72748  24877682.3124   24877685.8384   24877683.8184
       215.000         160.000
 116802596.55348  91015007.36548  22226797.7874   22226798.6624   22226798.3804
       236.000         206.000
 107193657.23848  83527518.13248  20398278.0124   20398280.7874   20398278.2604
       250.000         223.000
 108870212.79048  84833919.16548  20717322.6154   20717324.7924   20717322.8754
       247.000         225.000
 126419423.85548  80716452.02648  22153864.4094   22153865.0224   22153864.9304
       239.000         199.000
 128791268.18048  82564623.30648  22605230.0784   22605231.9014   22605230.5574
       237.000         195.000
 115921739.05248 108120831.79548  23962113.6644   23962114.7974   23962112.3644
       222.000         176.000
 08  5 27  2  6  0.0000000  0 10G 6G25G21G27G19G 3G16G22G18G 7
  97787945.37548  93990594.89348  20511373.4734   20511375.8294   20511373.5144
       248.000         223.000
 135771977.82148  88004131.73948  23933617.1094   23933618.8824   23933616.8404
       224.000         175.000
 110513900.53648 103906929.65248  22933037.3934   22933038.1804   22933038.2074
       227.000         182.000
 140698571.91448  91843027.24848  24871124.6534   24871125.9784   24871126.4904
       221.000         164.000
 116738726.28648  90965238.32448  22214643.7384   22214644.8224   22214644.1364
       238.000         208.000
 107161902.52848  83502774.19948  20392235.4144   20392238.1034   20392235.6824
       250.000         223.000
 108918331.12448  84871413.96048  20726479.4204   20726481.3594   20726479.7484
       247.000         225.000
 126354787.17248  80666085.79248  22141564.3534   22141564.8684   22141564.5604
       239.000         199.000
 128792201.23948  82565350.37648  22605407.6184   22605409.4894   22605408.1154
       237.000         195.000
 115896600.49748 108101243.29948  23957329.2414   23957330.9424   23957329.1774
       221.000         173.000
 08  5 27  2  6 30.0000000  0 10G 6G25G21G27G19G 3G16G22G18G 7
  97790084.81748  93992261.98348  20511780.6014   20511782.9704   20511780.8074
       248.000         224.000
 135784728.29148  88014067.16248  23936043.4514   23936045.9934   23936044.2724
       222.000         174.000
 110595360.66048 103970405.05748  22948538.6334   22948540.6724   22948539.2904
       227.000         182.000
 140664554.92048  91816520.48548  24864650.2744   24864653.1714   24864652.3874
       219.000         164.000
 116675000.11548  90915581.57748  22202517.0394   22202518.2074   22202518.5154
       237.000         207.000
 107130443.08148  83478260.34648  20386249.0934   20386251.5534   20386249.5654
       251.000         223.000
 108966924.99748  84909279.31648  20735726.5504   20735728.4014   20735726.9114
       247.000         225.000
 126290550.85748  80616031.53148  22129340.8924   22129340.9404   22129341.1644
       240.000         200.000
 128793672.67048  82566496.96148  22605687.4864   22605689.2264   22605688.1644
       237.000         195.000
 115872015.20248 108082085.90848  23952650.4664   23952652.0904   23952649.9814
       216.000         170.000
 08  5 27  2  7  0.0000000  0 10G 6G25G21G27G19G 3G16G22G18G 7
  97792482.33348  93994130.17448  20512236.8224   20512239.3444   20512236.9914
       249.000         224.000
 135797962.68348  88024379.67048  23938561.8174   23938564.7924   23938561.7254
       224.000         175.000
 110676990.56048 104034012.74748  22964072.2234   22964074.7124   22964073.4994
       227.000         183.000
 140630991.38248  91790367.08348  24858263.8974   24858266.5704   24858265.9514
       219.000         164.000
 116611417.52648  90866036.71548  22190417.4804   22190419.1494   22190418.3314
       237.000         208.000
 107099279.46548  83453977.01048  20380318.6604   20380321.3634   20380318.7554
       251.000         223.000
 109015993.28848  84947514.34048  20745063.8414   20745065.7644   20745064.2864
       247.000         224.000
 126226717.50948  80566291.26248  22117193.7674   22117193.9624   22117193.7264
       240.000         200.000
 128795682.15648  82568062.79748  22606070.0274   22606071.8434   22606070.5194
       237.000         195.000
 115847983.62848 108063360.06948  23948077.1204   23948079.4534   23948075.7414
       216.000         169.000
 08  5 27  2  7 30.0000000  0 10G 6G25G21G27G19G 3G16G22G18G 7
  97795139.37148  93996200.59648  20512742.3234   20512744.9514   20512742.5414
       248.000         224.000
 135811680.47248  88035068.84648  23941172.7264   23941175.0744   23941173.0164
       222.000         175.000
 110758789.51448 104097752.18248  22979638.0114   22979640.3164   22979638.5954
       226.000         183.000
 140597882.72548  91764568.13048  24851963.5364   24851966.3794   24851965.5154
       219.000         167.000
 116547980.35148  90816605.15348  22178345.4734   22178347.2364   22178346.6034
       236.000         207.000
 107068413.49748  83429925.60848  20374445.1164   20374447.8634   20374445.5634
       251.000         223.000
 109065536.03848  84986119.08048  20754491.4884   20754493.3884   20754491.9034
       246.000         224.000
 126163290.31548  80516867.49948  22105123.8284   22105124.4714   22105123.9554
       238.000         201.000
 128798230.70948  82570048.69348  22606554.5884   22606556.9244   22606554.8964
       238.000         197.000
 115824507.00248 108045066.60048  23943609.3404   23943611.1144   23943608.8344
       215.000         163.000
 08  5 27  2  8  0.0000000  0 10G 6G25G21G27G19G 3G16G22G18G 7
  97798055.49048  93998472.89148  20513297.3404   20513299.9654   20513297.4264
       249.000         224.000
 135825880.23048  88046133.57848  23943874.2874   23943877.0884   23943874.7144
       222.000         171.000
 110840755.33348 104161621.64048  22995235.6724   22995236.8664   22995235.5054
       226.000         181.000
 140565229.48048  91739124.01348  24845749.5924   24845752.8194   24845750.7574
       220.000         164.000
 116484687.83348  90767286.31048  22166301.6434   22166302.9084   22166302.5864
       238.000         208.000
 107037844.70048  83406105.76648  20368628.0134   20368630.6184   20368628.3244
       250.000         223.000
 109115551.96348  85025092.52448  20764009.0764   20764010.9224   20764009.2484
       247.000         224.000
 126100270.69548  80467761.31148  22093131.7164   22093131.9324   22093131.6664
       242.000         201.000
 128801318.26948  82572454.59248  22607142.4574   22607144.5574   22607142.7984
       238.000         197.000
 115801584.80148 108027205.18448  23939246.8554   23939249.6274   23939246.6034
       217.000         168.000
 08  5 27  2  8 30.0000000  0 10G 6G25G21G27G19G 3G16G22G18G 7
  97801231.21748  94000947.48248  20513901.7094   20513904.2054   20513901.7764
       249.000         224.000
 135840560.92048  88057573.08648  23946667.7014   23946670.3694   23946668.1904
       220.000         172.000
 110922886.78548 104225620.15448  23010864.8444   23010865.5534   23010865.4194
       226.000         181.000
 140533032.24948  91714035.24648  24839623.0334   24839625.4604   24839623.5994
       222.000         164.000
 116421540.72148  90718080.79648  22154285.0114   22154286.5084   22154286.2114
       237.000         207.000
 107007574.31948  83382518.45448  20362867.7214   20362870.3494   20362867.9594
       250.000         223.000
 109166040.03548  85064433.87748  20773616.7264   20773618.5374   20773617.1964
       246.000         224.000
 126037661.93748  80418975.26148  22081217.5664   22081217.7004   22081217.6924
       241.000         200.000
 128804945.00948  82575280.61848  22607832.7814   22607834.9504   22607833.1514
       238.000         197.000
 115779217.94848 108009776.44348  23934992.0744   23934993.1404   23934990.8534
       220.000         170.000
 08  5 27  2  9  0.0000000  0 10G 6G25G21G27G19G 3G16G22G18G 7
  97804666.66248  94003624.45448  20514555.3914   20514557.7754   20514555.7014
       249.000         223.000
 135855720.96248  88069386.10148  23949552.6324   23949555.5134   23949552.2874
       220.000         172.000
 111005181.22348 104289745.67848  23026524.8224   23026525.9004   23026524.9674
       226.000         181.000
 140501291.34848  91689302.09748  24833582.7894   24833584.7784   24833583.1504
       214.000         161.000
 116358539.10948  90668988.63148  22142296.1934   22142297.5424   22142297.0544
       237.000         208.000
 106977602.57648  83359163.84348  20357164.3474   20357166.8664   20357164.7144
       251.000         223.000
 109216999.18648  85104142.30048  20783313.8484   20783315.9054   20783314.0794
       247.000         224.000
 125975465.65448  80370510.63148  22069381.9364   22069382.1334   22069382.1194
       239.000         199.000
 128809110.92348  82578526.79548  22608625.3464   22608627.3694   22608625.9154
       237.000         197.000
 115757406.54848 107992780.52648  23930841.2074   23930842.7844   23930840.8634
       220.000         171.000
 08  5 27  2  9 30.0000000  0 10G 6G25G21G27G19G 3G16G22G18G 7
  97808362.92648  94006504.65348  20515258.7564   20515261.2954   20515259.1194
       248.000         223.000
 135871359.98048  88081572.35848  23952528.4014   23952531.2214   23952529.0204
       219.000         169.000
 111087637.94248 104353997.64648  23042215.6054   23042217.7124   23042215.9324
       228.000         182.000
 140470008.39548  91664925.72448  24827629.9314   24827632.6924   24827629.7514
       217.000         162.000
 116295684.21748  90620010.78948  22130335.4284   22130336.5844   22130336.1754
       238.000         208.000
 106947930.99148  83336043.12748  20351517.9764   20351520.5974   20351518.1744
       251.000         223.000
 109268429.33548  85144217.74248  20793100.8004   20793102.7774   20793101.3624
       247.000         223.000
 125913685.25248  80322370.06748  22057625.3304   22057625.9344   22057624.9084
       240.000         201.000
 128813816.58548  82582193.54948  22609520.7394   22609522.7854   22609520.9134
       237.000         197.000
 115736151.33748 107976218.01248  23926796.7354   23926797.8224   23926797.0414
       221.000         170.000
 08  5 27  2 10  0.0000000  0 10G 6G25G21G27G19G 3G16G22G18G 7
  97812319.32848  94009587.56448  20516011.5794   20516014.1244   20516011.6774
       248.000         224.000
 135887475.87948  88094130.15548  23955595.1304   23955597.7144   23955594.9374
       218.000         169.000
 111170253.80748 104418373.62848  23057937.2564   23057939.2574   23057937.8134
       227.000         184.000
 140439183.08648  91640906.02048  24821763.6514   24821766.0454   24821763.9804
       209.000         157.000
 116232975.38248  90571146.76348  22118402.6324   22118403.6964   22118402.9874
       239.000         209.000
 106918559.66548  83313156.38148  20345928.6594   20345931.5094   20345929.0024
       250.000         223.000
 109320328.78448  85184658.86748  20802976.9724   20802978.8864   20802977.3084
       246.000         224.000
 125852321.94348  80274554.49548  22045948.3024   22045948.9084   22045948.4884
       240.000         202.000
 128819061.08248  82586280.17348  22610518.8874   22610520.9814   22610519.1564
       237.000         196.000
 115715451.90848 107960088.60448  23922857.4414   23922858.9734   23922857.6034
       222.000         172.000
 08  5 27  2 10 30.0000000  0 10G 6G25G21G27G19G 3G16G22G18G 7
  97816536.96348  94012874.03148  20516814.2634   20516816.7764   20516814.5074
       248.000         224.000
 135904068.02948  88107059.09948  23958752.6254   23958755.1684   23958753.0514
       222.000         171.000
 111253027.75448 104482872.79448  23073688.7424   23073691.0314   23073689.4834
       226.000         184.000
 140408816.68548  91617243.91948  24815984.7674   24815987.9124   24815985.8314
       218.000         162.000
 116170413.57848  90522397.30948  22106497.4724   22106498.3074   22106498.7994
       238.000         208.000
 106889489.68048  83290504.44248  20340396.9624   20340399.8094   20340397.1994
       252.000         223.000
 109372697.20948  85225465.42648  20812942.4344   20812944.2774   20812942.7514
       246.000         224.000
 125791378.86748  80227066.38648  22034351.4304   22034351.8384   22034351.4804
       240.000         202.000
 128824845.50148  82590787.53148  22611619.4924   22611621.2604   22611619.7804
       237.000         196.000
 115695309.63748 107944393.30748  23919024.7984   23919026.0994   23919023.8564
       221.000         169.000
 08  5 27  2 11  0.0000000  0 10G 6G25G21G27G19G 3G16G22G18G 7
  97821015.61348  94016363.89348  20517666.4144   20517669.0074   20517666.6304
       249.000         224.000
 135921134.76448  88120357.83648  23962001.0104   23962003.2124   23962000.6414
       222.000         172.000
 111335958.18748 104547493.88848  23089469.7594   23089471.9044   23089470.0724
       228.000         183.000
 140378909.39148  91593939.55748  24810292.9694   24810297.3534   24810293.5734
       199.000         155.000
 116107998.99848  90473762.57748  22094620.1004   22094621.3044   22094620.9504
       238.000         208.000
 106860720.80648  83268087.13748  20334922.4564   20334925.2334   20334922.8684
       252.000         224.000
 109425533.10048  85266636.23848  20822996.8144   20822998.6284   20822997.1154
       247.000         223.000
 125730858.43048  80179907.60248  22022834.6644   22022835.3804   22022834.5474
       241.000         201.000
 128831169.05248  82595714.97048  22612822.9144   22612824.6864   22612823.0544
       238.000         196.000
 115675723.91048 107929131.68048  23915297.7244   23915298.6174   23915298.0614
       221.000         166.000
 08  5 27  2 11 30.0000000  0 10G 6G25G21G27G19G 3G16G22G18G 7
  97825755.94648  94020057.65748  20518568.4094   20518570.9824   20518568.5604
       248.000         224.000
 135938675.08548  88134025.60148  23965338.5964   23965341.0194   23965339.7344
       222.000         173.000
 111419042.76148 104612235.11048  23105280.2974   23105282.0944   23105281.6044
       227.000         182.000
 140349462.31148  91570993.82248  24804688.6314   24804693.1034   24804686.5314
       198.000         153.000
 116045732.41748  90425243.17548  22082771.2344   22082772.5864   22082772.1594
       237.000         208.000
 106832254.60848  83245905.68448  20329505.6224   20329508.2154   20329506.0104
       252.000         224.000
 109478835.83048  85308170.83048  20833139.8584   20833141.7264   20833140.2044
       247.000         223.000
 125670763.07148  80133080.05448  22011398.8594   22011399.2774   22011398.8684
       242.000         203.000
 128838032.36148  82601063.00548  22614129.0594   22614130.6284   22614129.6694
       239.000         195.000
 115656695.29748 107914304.23648  23911676.1214   23911677.9144   23911676.7714
       221.000         172.000
 08  5 27  2 12  0.0000000  0 10G 6G25G21G27G19G 3G16G22G18G 7
  97830758.78248  94023955.96448  20519520.4844   20519522.9254   20519520.6584
       248.000         224.000
 135956688.23948  88148061.83748  23968766.4614   23968768.9214   23968765.9654
       223.000         174.000
 111502280.57648 104677095.74548  23121120.0564   23121121.4944   23121120.6464
       230.000         183.000
 140320476.29548  91548407.35948  24799172.4954   24799178.1604   24799170.6664
       205.000         156.000
 115983614.58948  90376839.67848  22070950.3634   22070951.8554   22070951.0864
       238.000         208.000
 106804092.14248  83223960.90048  20324146.3504   20324149.1194   20324146.6544
       252.000         224.000
 109532604.77048  85350068.69948  20843371.8254   20843373.5844   20843372.2324
       247.000         223.000
 125611095.26848  80086585.66548  22000044.4624   22000045.0794   22000044.7884
       240.000         203.000
 128845435.89548  82606831.99548  22615537.7214   22615539.3964   22615538.4104
       236.000         195.000
 115638224.26848 107899911.24148  23908161.0214   23908163.4124   23908160.5114
       217.000         170.000
 08  5 27  2 12 30.0000000  0 10G 6G25G21G27G19G 3G16G22G18G 7
  97836023.89148  94028058.64248  20520522.3974   20520524.8204   20520522.4964
       248.000         224.000
 135975172.17648  88162464.87048  23972283.4854   23972286.4594   23972284.1014
       218.000         169.000
 111585669.71348 104742074.28248  23136988.1024   23136989.6584   23136988.6104
       227.000         180.000
 140291951.18848  91526179.98248  24793745.1414   24793749.9324   24793743.9194
       210.000         162.000
 115921645.34648  90328551.96148  22059158.3824   22059159.2394   22059159.4984
       239.000         209.000
 106776233.70648  83202253.02548  20318844.9284   20318847.8654   20318845.1844
       251.000         223.000
 109586838.20648  85392328.52448  20853691.9914   20853694.0114   20853692.4774
       246.000         223.000
 125551856.92948  80040425.92148  21988771.8454   21988772.2034   21988771.8584
       241.000         202.000
 128853378.98548  82613021.42948  22617048.9774   22617050.9294   22617049.1334
       237.000         195.000
 115620310.59048 107885952.52048  23904752.4604   23904754.2034   23904751.8454
       221.000         171.000
 08  5 27  2 13  0.0000000  0 10G 6G25G21G27G19G 3G16G22G18G 7
  97841551.99148  94032366.25648  20521574.3914   20521576.9034   20521574.5234
       248.000         223.000
 135994126.05348  88177234.11748  23975890.0934   23975893.1374   23975890.1504
       218.000         169.000
 111669208.12448 104807169.15548  23152884.8494   23152886.7804   23152884.8414
       227.000         181.000
 140263888.24048  91504312.79748  24788405.9624   24788409.1564   24788406.2184
       215.000         162.000
 115859825.27648  90280380.49448  22047394.2564   22047395.3764   22047395.1734
       239.000         209.000
 106748679.85648  83180782.49448  20313601.6494   20313604.5194   20313602.0034
       252.000         223.000
 109641535.75748  85434949.98548  20864100.5204   20864102.7344   20864100.7184
       247.000         222.000
 125493050.68248  79994602.86248  21977581.1834   21977581.8504   21977581.2574
       240.000         201.000
 128861862.07748  82619631.63648  22618663.4394   22618665.3124   22618663.7924
       238.000         195.000
 115602955.26548 107872428.89348  23901450.2474   23901451.3884   23901450.1864
       219.000         171.000
 08  5 27  2 13 30.0000000  0 10G 6G25G21G27G19G 3G16G22G18G 7
  97847342.81448  94036878.58448  20522676.3364   20522678.9184   20522676.4564
       248.000         224.000
 136013548.08648  88192368.15648  23979586.5384   23979589.0814   23979586.1354
       219.000         169.000
 111752893.71848 104872378.70648  23168809.7664   23168811.6814   23168809.7674
       228.000         182.000
 140236287.31948  91482805.59748  24783153.8184   24783156.0604   24783155.7704
       217.000         167.000
 115798154.40148  90232325.27148  22035658.9954   22035659.1814   22035659.9984
       239.000         209.000
 106721431.16648  83159549.74548  20308416.4794   20308419.1694   20308416.8334
       251.000         223.000
 109696695.63548  85477931.70248  20874597.0084   20874599.1864   20874597.3454
       246.000         222.000
 125434678.20248  79949117.82748  21966473.3244   21966473.7194   21966473.4574
       239.000         203.000
 128870884.67048  82626662.22648  22620380.6244   22620382.4564   22620381.2194
       238.000         196.000
 115586157.39948 107859339.67048  23898253.8054   23898255.4004   23898254.5444
       222.000         173.000
