     2.10           OBSERVATION DATA    G (GPS)             RINEX VERSION / TYPE
teqc  2006Dec12     Administrateur RGP  20080604 11:22:26UTCPGM / RUN BY / DATE
Linux 2.4.20-8|Pentium IV|gcc|Linux|486/DX+                 COMMENT
teqc  2006Dec12     IGN-RGP             20080604 11:22:23UTCCOMMENT
teqc  2006Dec12     Administrateur RGP  20080604 11:22:18UTCCOMMENT
teqc  2005Dec16     SGN                 20080527 01:05:55UTCCOMMENT
MSXP|IAx86-PII|bcc32 5.0|MSWin95->XP|486/DX+                COMMENT
teqc  2005Dec16     SGN                 20080527 01:05:53UTCCOMMENT
BIT 2 OF LLI FLAGS DATA COLLECTED UNDER A/S CONDITION       COMMENT
SCOA                                                        MARKER NAME
10088M002                                                   MARKER NUMBER
Automatic           IGN                                     OBSERVER / AGENCY
UC2200303012        ASHTECH UZ-12       1A01                REC # / TYPE / VERS
655                 LEIAT504                                ANT # / TYPE
  4639940.9200  -136225.4900  4359552.0320                  APPROX POSITION XYZ
        0.0000        0.0000        0.0000                  ANTENNA: DELTA H/E/N
     1     1                                                WAVELENGTH FACT L1/2
     9    L1    L2    C1    P1    P2    D1    D2    S1    S2# / TYPES OF OBSERV
    30.0000                                                 INTERVAL
Forced Modulo Decimation to 1 seconds                       COMMENT
Version: Version:                                           COMMENT
Project: A__________________________                        COMMENT
 SNR is mapped to RINEX snr flag value [0-9]                COMMENT
  L1 & L2: min(max(int(snr_dBHz/6), 0), 9)                  COMMENT
teqc edited: all GLONASS satellites excluded                COMMENT
pseudorange smoothing corrections not applied               COMMENT
Forced Modulo Decimation to 30 seconds                      COMMENT
  2008     5    27     0     0    0.0000000     GPS         TIME OF FIRST OBS
                                                            END OF HEADER
 08  5 27  0  0  0.0000000  0  9G31G24G21G10G 6G16G30G 3G29
 -16796609.58948 -13018516.67647  21921431.8854   21921432.7674   21921432.8324
     -2548.6494                         51.0004         46.0004
 -15703040.36548 -12186924.01247  22094302.4194   22094302.4774   22094305.1194
     -2201.4904                         50.0004         44.0004
 -21172353.57048 -16441663.31647  20973151.4054   20973150.8064   20973152.1024
       775.1274                         53.0004         47.0004
   -838301.15946   -303967.73045  25027445.6224   25027444.0224   25027448.0644
     -1132.2944                         39.0004         33.0004
 -14743017.09248 -11430700.16547  22032773.6254   22032773.7384   22032775.2184
      2137.0224                         49.0004         44.0004
 -20247387.79948 -15735614.28647  21126485.8054   21126485.7594   21126486.5734
      1888.5564                         53.0004         47.0004
  -5833553.16547  -4482572.45446  24260718.0364   24260718.3954   24260720.6464
     -3433.9704                         42.0004         36.0004
  -6229347.81647  -4800812.56246  23610965.9734   23610965.5824   23610967.7964
      3075.7974                         43.0004         37.0004
 -12283699.67148  -9519580.71047  22676317.8704   22676318.3604   22676319.4034
     -2610.6764                         49.0004         44.0004
 08  5 27  0  0 30.0000000  0  9G31G24G21G10G 6G16G30G 3G29
 -16719940.63848 -12958774.64047  21936021.1684   21936021.6244   21936022.4734
     -2562.3964                         50.0004         45.0004
 -15636761.69748 -12135278.29847  22106914.8654   22106914.3494   22106917.7744
     -2217.0164                         50.0004         44.0004
 -21195345.72348 -16459579.26547  20968776.2074   20968775.2564   20968776.5164
       757.7864                         52.0004         47.0004
   -804052.531 6   -277280.45845  25033963.214                    25033965.8084
     -1150.871                          40.000          33.0004
 -14807001.03748 -11480557.76547  22020597.7824   22020597.6634   22020599.3114
      2128.8524                         49.0004         44.0004
 -20303893.12048 -15779644.39847  21115733.0264   21115732.5614   21115734.1564
      1878.4094                         53.0004         47.0004
  -5730458.89146  -4402239.25946  24280335.5464   24280335.4414   24280338.7784
     -3438.8334                         41.0004         36.0004
  -6321539.96747  -4872650.55646  23593421.5424   23593421.0924   23593424.6674
      3070.5744                         42.0004         37.0004
 -12205310.23648  -9458498.05647  22691234.2674   22691234.7094   22691236.3084
     -2615.3844                         48.0004         43.0004
 08  5 27  0  1  0.0000000  0  9G31G24G21G10G 6G16G30G 3G29
 -16642878.05648 -12898725.88347  21950685.6904   21950686.5224   21950687.1424
     -2575.0324                         50.0004         45.0004
 -15570045.78748 -12083291.87947  22119611.0044   22119610.2174   22119614.0314
     -2231.1684                         50.0004         44.0004
 -21217832.41048 -16477101.34147  20964497.0334   20964496.4724   20964497.4424
       741.1564                         53.0004         47.0004
   -769264.33246   -250172.72645  25040583.3844   25040581.1014   25040582.3024
     -1168.5504                         40.0004         33.0004
 -14870763.76748 -11530242.98847  22008463.5864   22008463.5454   22008466.1154
      2121.9134                         49.0004         44.0004
 -20360112.28948 -15823451.53247  21105034.9204   21105035.0934   21105035.9844
      1869.3604                         53.0004         47.0004
  -5627237.18347  -4321806.79046  24299978.5514   24299979.4624   24299980.4564
     -3442.6434                         42.0004         36.0004
  -6413594.47146  -4944381.30046  23575903.8594   23575903.5704   23575907.1494
      3066.3114                         41.0004         37.0004
 -12126808.90748  -9397328.22447  22706172.4174   22706171.9284   22706174.6684
     -2618.4024                         48.0004         43.0004
 08  5 27  0  1 30.0000000  0  9G31G24G21G10G 6G16G30G 3G29
 -16565424.50948 -12838372.47547  21965424.5404   21965424.7184   21965425.5244
     -2588.3624                         51.0004         45.0004
 -15502894.82548 -12030966.44747  22132388.8744   22132387.9934   22132392.1414
     -2245.6674                         50.0004         44.0004
 -21239813.31648 -16494229.30348  20960314.1934   20960313.9224   20960314.9134
       724.2494                         53.0004         48.0004
   -733937.47946   -222645.29745  25047304.7454   25047303.1354   25047306.7104
     -1186.5394                         40.0004         33.0004
 -14934304.98448 -11579755.60947  21996372.4274   21996371.7484   21996374.7844
      2114.2794                         49.0004         44.0004
 -20416043.84248 -15867034.55647  21094391.4694   21094391.4754   21094392.3794
      1859.5494                         53.0004         47.0004
  -5523889.28747  -4241275.90246  24319644.4434   24319645.2364   24319645.6794
     -3447.1274                         42.0004         36.0004
  -6505510.90247  -5016004.45246  23558412.8764   23558413.9574   23558416.1024
      3061.7044                         42.0004         37.0004
 -12048197.04548  -9336072.25547  22721132.9014   22721133.2064   22721134.2774
     -2622.1554                         49.0004         43.0004
 08  5 27  0  2  0.0000000  0  9G31G24G21G10G 6G16G30G 3G29
 -16487584.23248 -12777717.71347  21980237.3154   21980236.9744   21980238.3954
     -2600.9524                         50.0004         45.0004
 -15435313.12248 -11978305.38947  22145248.7614   22145249.2684   22145252.1374
     -2259.7554                         49.0004         44.0004
 -21261290.33848 -16510964.63148  20956227.3774   20956226.6474   20956227.4204
       707.4834                         53.0004         48.0004
   -698075.40146   -194700.82745  25054130.4194   25054130.4924   25054133.0684
     -1204.6134                         41.0004         34.0004
 -14997626.40348 -11629096.95747  21984322.9374   21984321.8664   21984325.3544
      2107.2154                         49.0004         44.0004
 -20471687.93648 -15910393.58147  21083802.8034   21083802.6354   21083803.7044
      1850.1204                         53.0004         47.0004
  -5420418.14246  -4160649.05146  24339334.2304   24339333.2834   24339337.2564
     -3450.9764                         41.0004         36.0004
  -6597290.09847  -5087520.66946  23540947.2344   23540948.0054   23540950.5844
      3056.9244                         42.0004         37.0004
 -11969477.98348  -9274732.74047  22736111.6084   22736112.3134   22736113.4224
     -2625.8564                         48.0004         43.0004
 08  5 27  0  2 30.0000000  0  9G31G24G21G10G 6G16G30G 3G29
 -16409357.53048 -12716761.83947  21995123.3834   21995123.2264   21995125.0934
     -2613.6684                         51.0004         45.0004
 -15367301.10048 -11925309.01847  22158191.6644   22158191.2774   22158195.1264
     -2274.1324                         50.0004         44.0004
 -21282260.88548 -16527305.30247  20952236.6884   20952236.6544   20952237.1584
       690.9384                         53.0004         47.0004
   -661676.07146   -166337.70045  25061056.1154   25061057.6484   25061058.7304
     -1221.6794                         39.0004         34.0004
 -15060725.29148 -11678264.89847  21972315.4314   21972315.5424   21972318.0234
      2099.8674                         49.0004         44.0004
 -20527040.65348 -15953525.56147  21073269.4984   21073269.3364   21073269.9944
      1840.4414                         53.0004         47.0004
  -5316822.56847  -4079925.28046  24359048.5904   24359047.9184   24359050.2284
     -3455.1414                         42.0004         36.0004
  -6688929.42147  -5158927.89146  23523509.2894   23523508.8464   23523512.4404
      3052.4194                         42.0004         37.0004
 -11890649.58648  -9213308.05147  22751112.0894   22751112.5424   22751114.8634
     -2629.0754                         48.0004         43.0004
 08  5 27  0  3  0.0000000  0  9G31G24G21G10G 6G16G30G 3G29
 -16330751.31048 -12655510.24147  22010081.5794   22010082.3064   22010083.0254
     -2626.7694                         50.0004         45.0004
 -15298865.39548 -11871982.49747  22171214.6914   22171213.9534   22171218.5054
     -2288.3254                         50.0004         44.0004
 -21302729.13348 -16543254.57448  20948341.6844   20948341.4104   20948342.2764
       673.6564                         52.0004         48.0004
   -624745.51246   -137560.68445  25068083.5444   25068084.6904   25068086.7984
     -1239.7354                         38.0004         34.0004
 -15123606.00748 -11727262.83447  21960349.4184   21960349.2504   21960351.8734
      2092.2394                         49.0004         44.0004
 -20582104.90848 -15996432.76947  21062791.1964   21062791.0834   21062792.1504
      1830.4924                         53.0004         47.0004
  -5213108.49546  -3999109.10946  24378784.1214   24378784.1774   24378787.3304
     -3459.2654                         41.0004         36.0004
  -6780432.48047  -5230228.93646  23506096.8834   23506096.7694   23506100.3634
      3047.5064                         43.0004         37.0004
 -11811717.67548  -9151802.70147  22766133.0034   22766132.9434   22766134.3854
     -2632.8034                         48.0004         43.0004
 08  5 27  0  3 30.0000000  0  9G31G24G21G10G 6G16G30G 3G29
 -16251763.69848 -12593961.46347  22025112.3864   22025113.0264   22025113.6564
     -2639.2434                         50.0004         45.0004
 -15230004.24948 -11818324.46547  22184318.1964   22184317.7444   22184321.3294
     -2302.4904                         49.0004         44.0004
 -21322689.73048 -16558808.27348  20944543.2934   20944543.1204   20944543.6944
       656.8484                         53.0004         48.0004
   -587280.67346   -108367.38145  25075213.6184   25075213.2474   25075214.2894
     -1257.9554                         38.0004         34.0004
 -15186264.12948 -11776087.33247  21948426.3474   21948425.8034   21948427.9024
      2084.8424                         49.0004         44.0004
 -20636874.86448 -16039110.64947  21052368.8314   21052368.4744   21052370.1144
      1820.6554                         53.0004         47.0004
  -5109272.62146  -3918197.98845  24398542.5454   24398544.7214   24398547.9134
     -3463.1924                         40.0004         35.0004
  -6871794.26947  -5301419.91246  23488711.2274   23488711.0504   23488714.4544
      3042.8694                         42.0004         37.0004
 -11732679.12448  -9090214.22247  22781173.5074   22781172.2774   22781175.1524
     -2636.5084                         48.0004         43.0004
 08  5 27  0  4  0.0000000  0  9G31G24G21G10G 6G16G30G 3G29
 -16172396.95848 -12532117.25347  22040215.3444   22040215.0124   22040216.0324
     -2651.4774                         50.0004         45.0004
 -15160719.87548 -11764336.65047  22197502.3484   22197501.3064   22197506.0824
     -2316.2114                         49.0004         44.0004
 -21342142.65848 -16573966.38448  20940841.6044   20940841.1314   20940841.9124
       640.4164                         53.0004         48.0004
   -549281.99646    -78758.05045  25082444.8874   25082442.3734   25082447.9354
     -1275.4224                         38.0004         34.0004
 -15248699.17348 -11824737.99247  21936545.0054   21936545.3174   21936547.7834
      2077.7484                         49.0004         44.0004
 -20691348.35648 -16081557.52347  21042002.8544   21042002.6204   21042003.8804
      1811.2344                         53.0004         47.0004
  -5005316.10747  -3837192.95946  24418326.0144   24418325.8904   24418328.6024
     -3466.7334                         42.0004         36.0004
  -6963013.79347  -5372500.03046  23471352.8534   23471351.8504   23471356.3644
      3038.7894                         43.0004         37.0004
 -11653534.74648  -9028543.28147  22796233.3714   22796233.2374   22796237.1324
     -2639.4804                         48.0004         43.0004
 08  5 27  0  4 30.0000000  0  9G31G24G21G 6G16G30G18G 3G29
 -16092656.19548 -12469981.59647  22055389.5384   22055390.0564   22055389.9024
     -2664.3894                         50.0004         45.0004
 -15091016.74748 -11710022.53847  22210766.7204   22210767.3944   22210769.5524
     -2330.6034                         50.0004         43.0004
 -21361089.81148 -16588730.38448  20937235.9504   20937235.4424   20937236.2614
       622.8794                         53.0004         48.0004
 -15310912.93748 -11873216.23247  21924706.0114   21924705.9794   21924708.7484
      2069.9364                         49.0004         44.0004
 -20745526.38248 -16123774.16247  21031693.2744   21031693.2834   21031694.0304
      1800.7214                         53.0004         47.0004
  -4901242.26147  -3756096.46746  24438130.9684   24438129.1084   24438134.6744
     -3471.3394                         42.0004         36.0004
   -235714.90646   -132835.55345  24978104.4654   24978105.6574   24978105.3554
      2816.4584                         38.0004         34.0004
  -7054093.14247  -5443470.89746  23454021.5244   23454020.9844   23454023.2794
      3033.4194                         43.0004         37.0004
 -11574287.66348  -8966792.29947  22811314.3644   22811314.6584   22811316.6644
     -2643.5564                         48.0004         43.0004
 08  5 27  0  5  0.0000000  0  9G31G24G21G 6G16G30G18G 3G29
 -16012542.56448 -12407555.39247  22070634.6364   22070635.1384   22070635.7494
     -2676.9894                         50.0004         45.0004
 -15020896.04748 -11655383.02047  22224110.5914   22224110.0574   22224113.5274
     -2344.8484                         50.0004         44.0004
 -21379529.79548 -16603099.19148  20933727.0264   20933726.4834   20933727.4194
       605.8564                         53.0004         48.0004
 -15372903.84348 -11921520.82047  21912909.5844   21912909.8684   21912912.4744
      2062.1784                         49.0004         44.0004
 -20799405.78048 -16165758.10547  21021440.3444   21021440.3284   21021441.1634
      1790.5524                         53.0004         47.0004
  -4797051.12646  -3674908.56645  24457957.2524   24457955.4254   24457960.2044
     -3475.3934                         41.0004         35.0004
   -320210.57346   -198676.36445  24962026.7734   24962025.0844   24962029.2074
      2816.3504                         41.0004         34.0004
  -7145029.55847  -5514330.40846  23436716.3444   23436715.1344   23436720.9034
      3028.6684                         43.0004         37.0004
 -11494937.64648  -8904961.11647  22826414.3054   22826414.2784   22826416.3854
     -2647.1364                         48.0004         43.0004
 08  5 27  0  5 30.0000000  0  9G31G24G21G 6G16G30G18G 3G29
 -15932058.91848 -12344840.86147  22085950.2634   22085950.6984   22085951.6434
     -2688.8304                         50.0004         45.0004
 -14950360.83948 -11600420.51747  22237532.7854   22237532.8224   22237536.7094
     -2358.0334                         50.0004         44.0004
 -21397463.37348 -16617073.39448  20930314.3674   20930314.2594   20930314.4304
       589.4614                         53.0004         48.0004
 -15434672.23848 -11969652.02247  21901155.5174   21901154.9424   21901157.5384
      2055.3304                         49.0004         44.0004
 -20852985.70148 -16207508.68547  21011244.3534   21011244.3084   21011244.9794
      1781.1844                         53.0004         47.0004
  -4692744.40047  -3593630.59346  24477805.7834   24477806.9044   24477806.8254
     -3478.5624                         42.0004         36.0004
   -404688.33646   -264503.23345  24945950.0554   24945950.1094   24945952.8294
      2815.1574                         40.0004         35.0004
  -7235823.54247  -5585078.93946  23419439.1954   23419438.4034   23419441.6804
      3024.1354                         44.0004         37.0004
 -11415486.24248  -8843050.93747  22841532.6244   22841533.4274   22841534.6284
     -2649.8394                         48.0004         43.0004
 08  5 27  0  6  0.0000000  0  9G31G24G21G 6G16G30G18G 3G29
 -15851207.88448 -12281840.05747  22101335.5324   22101335.6564   22101336.6534
     -2700.9194                         50.0004         45.0004
 -14879413.05948 -11545136.53947  22251033.6064   22251033.0004   22251036.7384
     -2371.4694                         50.0004         44.0004
 -21414888.68248 -16630651.54448  20926998.4374   20926998.0464   20926998.9424
       572.4684                         53.0004         48.0004
 -15496217.66548 -12017609.48047  21889443.7584   21889443.2774   21889445.6224
      2047.9924                         49.0004         44.0004
 -20906263.98248 -16249024.22547  21001105.6884   21001105.2124   21001107.0934
      1771.0274                         53.0004         47.0004
  -4588322.50046  -3512262.86746  24497677.4824   24497675.6304   24497680.9934
     -3482.4564                         41.0004         36.0004
   -489145.64446   -330314.06245  24929877.3184   24929877.4724   24929880.0314
      2815.9814                         40.0004         34.0004
  -7326474.23247  -5655715.79846  23402188.2264   23402187.2914   23402191.4444
      3019.8394                         42.0004         38.0004
 -11335934.03747  -8781062.20447  22856671.2074   22856671.0204   22856672.6944
     -2653.2554                         47.0004         43.0004
 08  5 27  0  6 30.0000000  0  9G31G24G21G 6G16G30G18G 3G29
 -15769997.76948 -12218559.46047  22116789.4354   22116789.9134   22116790.6234
     -2713.4844                         50.0004         45.0004
 -14808061.44548 -11489537.87947  22264611.4844   22264611.6004   22264615.3264
     -2385.5844                         49.0004         43.0004
 -21431812.02048 -16643838.55048  20923778.0544   20923777.5654   20923778.2754
       555.2724                         53.0004         48.0004
 -15557545.95848 -12065397.74947  21877773.3634   21877773.1324   21877775.8484
      2040.2464                         49.0004         44.0004
 -20959244.69248 -16290307.89047  20991023.9104   20991023.5734   20991024.9554
      1760.4854                         53.0004         47.0004
  -4483793.12247  -3430811.44546  24517568.9624   24517568.3274   24517573.9664
     -3487.2114                         42.0004         36.0004
   -573585.53846   -396111.39445  24913810.7874   24913811.5474   24913811.5904
      2814.2524                         40.0004         35.0004
  -7416986.78447  -5726245.04346  23384964.5724   23384963.8874   23384967.1284
      3014.0774                         43.0004         38.0004
 -11256288.20548  -8719000.51947  22871828.1044   22871827.3374   22871828.9324
     -2657.0364                         48.0004         43.0004
 08  5 27  0  7  0.0000000  0  9G31G24G21G 6G16G30G18G 3G29
 -15688418.02348 -12154990.83747  22132313.2754   22132314.0434   22132313.9704
     -2725.1704                         49.0004         45.0004
 -14736294.98348 -11433615.96747  22278268.6794   22278268.1634   22278270.8424
     -2398.9844                         50.0004         43.0004
 -21448220.39848 -16656624.28448  20920655.7294   20920654.8784   20920656.0844
       538.5304                         53.0004         48.0004
 -15618643.49448 -12113006.20947  21866146.8174   21866146.4594   21866149.2884
      2032.9444                         49.0004         44.0004
 -21011913.20648 -16331348.28648  20981001.4064   20981001.1014   20981002.1864
      1750.5974                         53.0004         48.0004
  -4379144.33947  -3349266.91545  24537481.8244   24537483.7554   24537485.0334
     -3490.1374                         42.0004         35.0004
   -657991.83746   -461882.55445  24897748.6534   24897746.9684   24897748.2914
      2813.4224                         40.0004         34.0004
  -7507347.15147  -5796655.67546  23367769.7924   23367768.4904   23367772.1824
      3009.9024                         43.0004         38.0004
 -11176536.32948  -8656856.21247  22887003.7454   22887003.5774   22887005.8704
     -2659.8464                         48.0004         43.0004
 08  5 27  0  7 30.0000000  0  9G31G24G21G 6G16G30G18G 3G29
 -15606480.22248 -12091143.20247  22147905.8754   22147905.4764   22147907.0424
     -2737.4604                         50.0004         45.0004
 -14664124.91648 -11377379.53547  22292001.7864   22292002.4944   22292004.9154
     -2412.6414                         49.0004         43.0004
 -21464122.25848 -16669015.33148  20917629.5114   20917628.6294   20917630.0384
       521.3514                         53.0004         48.0004
 -15679518.95548 -12160441.61247  21854562.5804   21854562.7864   21854564.4354
      2025.3394                         49.0004         44.0004
 -21064276.78148 -16372151.06648  20971036.9304   20971036.9164   20971038.0854
      1740.1664                         53.0004         48.0004
  -4274386.00646  -3267637.00246  24557415.8874   24557416.2544   24557419.6344
     -3494.2014                         40.0004         36.0004
   -742370.90146   -527632.46845  24881690.5264   24881690.9174   24881695.8694
      2811.7794                         39.0004         34.0004
  -7597563.12147  -5866953.81546  23350601.8984   23350601.5774   23350604.2064
      3004.7494                         43.0004         38.0004
 -11096688.41248  -8594637.05547  22902198.1904   22902198.2514   22902200.6034
     -2663.4904                         48.0004         43.0004
 08  5 27  0  8  0.0000000  0  9G31G24G21G 6G16G30G18G 3G29
 -15524183.19648 -12027015.65047  22163566.7204   22163565.5044   22163567.0764
     -2749.1694                         50.0004         44.0004
 -14591550.11448 -11320827.75147  22305812.0364   22305811.8904   22305814.3154
     -2425.9434                         49.0004         43.0004
 -21479513.96548 -16681008.86048  20914700.6644   20914699.7744   20914701.0494
       504.5714                         53.0004         48.0004
 -15740168.37448 -12207700.87847  21843021.4014   21843021.6764   21843024.3574
      2017.9284                         50.0004         44.0004
 -21116330.21248 -16412712.17248  20961131.6524   20961131.1244   20961132.8514
      1729.9354                         53.0004         48.0004
  -4169516.10546  -3185920.28746  24577372.2544   24577374.1274   24577375.7614
     -3497.0694                         41.0004         36.0004
   -826716.17947   -593355.91945  24865641.7474   24865640.8384   24865643.3964
      2811.2654                         42.0004         35.0004
  -7687630.79247  -5937136.36446  23333463.0574   23333462.2724   23333466.2474
      2999.7714                         43.0004         38.0004
 -11016741.59548  -8532340.83347  22917412.4314   22917412.3334   22917414.0364
     -2666.3914                         48.0004         43.0004
 08  5 27  0  8 30.0000000  0  9G31G24G21G 6G16G30G18G 3G29
 -15441533.04048 -11962612.93747  22179294.3244   22179293.9444   22179295.0524
     -2761.0284                         50.0004         45.0004
 -14518576.92248 -11263965.52747  22319698.7934   22319699.1194   22319699.9864
     -2439.2504                         49.0004         43.0004
 -21494398.98148 -16692607.56048  20911868.1184   20911867.6984   20911868.5614
       487.5254                         53.0004         48.0004
 -15800595.31748 -12254786.78747  21831522.7994   21831522.9804   21831524.9164
      2010.2964                         49.0004         44.0004
 -21168075.30148 -16453033.01548  20951284.7614   20951284.6554   20951285.6444
      1719.4264                         53.0004         48.0004
  -4064539.34647  -3104120.19845  24597350.8014   24597348.8264   24597353.6304
     -3501.4104                         42.0004         35.0004
   -911028.80646   -659054.03345  24849596.5714   24849595.9424   24849597.3954
      2809.1704                         41.0004         35.0004
  -7777553.50447  -6007205.98546  23316351.3074   23316351.5474   23316353.4494
      2994.7064                         43.0004         38.0004
 -10936700.40647  -8469971.07347  22932643.3194   22932643.8274   22932644.7284
     -2669.7564                         47.0004         43.0004
 08  5 27  0  9  0.0000000  0  9G31G24G21G 6G16G30G18G 3G29
 -15358529.07448 -11897934.52347  22195089.6324   22195089.5144   22195090.6814
     -2773.0924                         50.0004         45.0004
 -14445204.00348 -11206791.82447  22333661.2984   22333660.8804   22333663.9374
     -2452.9424                         49.0004         43.0004
 -21508773.17548 -16703808.22148  20909132.7384   20909132.2214   20909133.4804
       470.1314                         53.0004         48.0004
 -15860795.86548 -12301696.29847  21820066.9994   21820067.0264   21820069.1884
      2002.4654                         50.0004         44.0004
 -21219506.67948 -16493109.40848  20941497.6524   20941497.6044   20941499.0594
      1708.5974                         53.0004         48.0004
  -3959453.43246  -3022235.09045  24617346.1804   24617349.9374   24617349.9354
     -3505.5744                         39.0004         34.0004
   -995302.14646   -724721.59745  24833560.1254   24833559.7484   24833558.2554
      2807.9204                         40.0004         34.0004
  -7867326.49747  -6077158.93946  23299267.9904   23299268.7674   23299271.5604
      2989.5054                         44.0004         38.0004
 -10856562.26247  -8407525.75147  22947892.4344   22947893.0154   22947895.9044
     -2673.3414                         47.0004         43.0004
 08  5 27  0  9 30.0000000  0  9G31G24G21G 6G16G30G18G 3G29
 -15275176.75548 -11832984.67647  22210950.6784   22210951.5054   22210951.4734
     -2784.5264                         50.0004         45.0004
 -14371436.97548 -11149311.01647  22347698.1144   22347696.5074   22347700.9514
     -2465.7364                         49.0004         43.0004
 -21522639.81448 -16714613.38648  20906493.9774   20906493.5524   20906494.6904
       453.4364                         53.0004         48.0004
 -15920772.85348 -12348431.59647  21808653.7014   21808653.6224   21808656.0004
      1995.1574                         49.0004         44.0004
 -21270626.09148 -16532942.71148  20931770.0304   20931769.5024   20931770.7834
      1698.4834                         53.0004         48.0004
  -3854262.46346  -2940268.12845  24637363.9744   24637365.4144   24637365.8144
     -3508.8414                         41.0004         35.0004
  -1079536.71446   -790358.93145  24817532.2874   24817533.0204   24817531.8704
      2806.5534                         41.0004         35.0004
  -7956952.19247  -6146997.11846  23282212.3984   23282214.1184   23282216.1914
      2984.7614                         44.0004         38.0004
 -10776331.42148  -8345008.23247  22963160.4644   22963160.7714   22963161.9144
     -2676.2354                         48.0004         43.0004
 08  5 27  0 10  0.0000000  0  9G31G24G21G 6G16G30G18G 3G29
 -15191477.53548 -11767764.51047  22226877.9934   22226878.6184   22226879.6504
     -2795.7194                         50.0004         44.0004
 -14297276.86448 -11091523.91447  22361810.0844   22361809.7024   22361813.7634
     -2478.4934                         49.0004         43.0004
 -21535997.34348 -16725021.83948  20903952.2854   20903951.8384   20903952.6694
       436.7224                         53.0004         48.0004
 -15980524.58748 -12394991.37447  21797283.1584   21797283.0324   21797284.6684
      1987.9684                         49.0004         44.0004
 -21321430.30348 -16572530.40348  20922102.3494   20922101.9394   20922103.5534
      1688.2174                         53.0004         48.0004
  -3748966.35846  -2858219.24846  24657402.2414   24657399.6404   24657404.1804
     -3511.8384                         41.0004         36.0004
  -1163727.99946   -855962.47945  24801509.9794   24801509.4344   24801511.4764
      2805.6074                         40.0004         35.0004
  -8046428.92747  -6216719.22246  23265185.7374   23265185.4084   23265187.8464
      2979.9104                         44.0004         38.0004
 -10696006.97648  -8282417.75847  22978445.8694   22978446.3094   22978447.6044
     -2679.1164                         48.0004         42.0004
 08  5 27  0 10 30.0000000  0  9G31G24G21G 6G16G30G18G 3G29
 -15107432.53048 -11702274.89347  22242871.4514   22242871.7494   22242872.6454
     -2807.1674                         50.0004         44.0004
 -14222725.01948 -11033431.56747  22375997.4204   22375997.3894   22375999.4804
     -2491.6054                         49.0004         43.0004
 -21548844.28548 -16735032.42848  20901507.4134   20901507.1864   20901507.7294
       419.8304                         53.0004         48.0004
 -16040049.80548 -12441374.64347  21785955.8634   21785955.3364   21785958.3654
      1980.5144                         49.0004         44.0004
 -21371916.64148 -16611870.39748  20912495.0764   20912494.6854   20912496.2484
      1677.6424                         53.0004         48.0004
  -3643565.31446  -2776088.60645  24677457.4014   24677459.3974   24677460.4534
     -3515.3374                         40.0004         34.0004
  -1247872.17346   -921529.28645  24785497.7004   24785495.3594   24785499.5214
      2804.3764                         40.0004         34.0004
  -8135754.77047  -6286323.74946  23248187.2764   23248187.6594   23248189.7404
      2974.7584                         44.0004         38.0004
 -10615588.92347  -8219754.33447  22993748.3614   22993748.1294   22993750.3754
     -2681.9654                         47.0004         42.0004
 08  5 27  0 11  0.0000000  0  9G31G24G21G 6G16G30G18G 3G29
 -15023048.53448 -11636521.13847  22258929.1084   22258929.1274   22258930.1914
     -2818.7284                         50.0004         44.0004
 -14147787.76548 -10975038.90447  22390257.4654   22390256.9764   22390260.4414
     -2504.5534                         49.0004         43.0004
 -21561185.22548 -16744648.72948  20899159.0704   20899158.6104   20899159.0204
       402.6184                         53.0004         48.0004
 -16099351.81748 -12487583.98447  21774671.0664   21774670.8314   21774672.7484
      1972.6594                         49.0004         44.0004
 -21422086.97048 -16650964.15448  20902947.8654   20902947.3914   20902948.8224
      1666.7844                         53.0004         48.0004
  -3538063.64346  -2693879.53145  24697534.4994   24697535.1834   24697538.8634
     -3518.5724                         41.0004         35.0004
  -1331970.33746   -987060.29545  24769494.4114   24769493.2944   24769495.7494
      2802.5434                         40.0004         34.0004
  -8224932.51247  -6355812.85646  23231217.9434   23231216.6884   23231220.4314
      2969.8614                         44.0004         38.0004
 -10535081.89847  -8157021.59847  23009068.1714   23009069.1304   23009070.0744
     -2685.1704                         47.0004         42.0004
 08  5 27  0 11 30.0000000  0  9G31G24G21G 6G16G30G18G 3G29
 -14938323.16648 -11570501.37347  22275052.3354   22275052.5674   22275052.4954
     -2829.6744                         50.0004         44.0004
 -14072462.62848 -10916343.98847  22404591.2564   22404591.0504   22404593.5584
     -2517.0624                         49.0004         43.0004
 -21573014.23648 -16753866.12948  20896908.0004   20896907.7294   20896908.4934
       385.9804                         53.0004         48.0004
 -16158425.54348 -12533615.44147  21763429.5244   21763430.4254   21763432.0664
      1965.4874                         49.0004         44.0004
 -21471934.67748 -16689806.51748  20893462.1604   20893462.2814   20893462.9184
      1656.2974                         53.0004         48.0004
  -3432458.57746  -2611589.86446  24717631.4364   24717631.5924   24717633.7834
     -3521.7834                         40.0004         36.0004
  -1416014.63946  -1052549.30145  24753500.8814   24753500.4884   24753502.0384
      2800.5584                         39.0004         35.0004
  -8313956.72947  -6425182.34246  23214276.9094   23214276.9804   23214279.0584
      2965.1064                         44.0004         38.0004
 -10454481.87847  -8094216.38547  23024406.7844   23024405.9764   23024408.6594
     -2688.1274                         47.0004         42.0004
 08  5 27  0 12  0.0000000  0  9G31G24G21G 6G16G30G18G 3G29
 -14853263.54348 -11504221.15047  22291238.3224   22291238.3654   22291239.6614
     -2840.7944                         49.0004         44.0004
 -13996756.36848 -10857352.09247  22418997.3514   22418997.6144   22419000.0134
     -2529.9394                         49.0004         43.0004
 -21584336.29148 -16762688.49748  20894753.4984   20894753.5064   20894753.7534
       368.9964                         53.0004         48.0004
 -16217275.30248 -12579472.37547  21752230.9994   21752231.2284   21752232.9734
      1957.9044                         49.0004         44.0004
 -21521462.80148 -16728399.85548  20884037.2664   20884036.8914   20884038.2604
      1645.6934                         53.0004         48.0004
  -3326755.37846  -2529223.81645  24737745.1024   24737745.4674   24737749.7884
     -3525.0514                         39.0004         35.0004
  -1500007.16946  -1117997.94745  24737517.0124   24737517.4584   24737518.2794
      2799.0694                         40.0004         35.0004
  -8402830.84047  -6494434.87746  23197365.1034   23197364.1314   23197366.5074
      2960.0324                         44.0004         38.0004
 -10373794.20147  -8031342.87947  23039759.9974   23039760.1894   23039761.9664
     -2691.3014                         47.0004         42.0004
 08  5 27  0 12 30.0000000  0  9G31G24G21G 6G16G30G18G 3G29
 -14767868.45348 -11437679.52447  22307488.2654   22307488.7224   22307489.4734
     -2851.7874                         49.0004         44.0004
 -13920667.49348 -10798062.04947  22433477.2724   22433477.1964   22433479.7094
     -2542.3554                         49.0004         43.0004
 -21595147.02448 -16771112.43448  20892696.1724   20892696.0434   20892696.6794
       352.2144                         53.0004         48.0004
 -16275896.58648 -12625151.27847  21741075.5904   21741075.9564   21741078.7744
      1950.2794                         50.0004         44.0004
 -21570665.57648 -16766739.67148  20874674.2154   20874673.8314   20874675.1194
      1634.8434                         53.0004         48.0004
  -3220951.04446  -2446778.85645  24757879.4014   24757880.6464   24757882.8234
     -3528.0834                         41.0004         35.0004
  -1583940.53146  -1183400.44445  24721546.1814   24721547.8454   24721546.3514
      2796.7744                         41.0004         35.0004
  -8491550.55347  -6563567.09646  23180481.7084   23180481.3504   23180483.6194
      2955.0554                         44.0004         38.0004
 -10293015.75047  -7968398.62747  23055131.4434   23055131.5224   23055134.1014
     -2693.8944                         46.0004         42.0004
 08  5 27  0 13  0.0000000  0  9G31G24G21G 6G16G30G18G 3G29
 -14682135.60648 -11370874.71847  22323802.8334   22323802.4424   22323804.2284
     -2863.1224                         49.0004         44.0004
 -13844193.75348 -10738472.11447  22448029.4994   22448028.9844   22448033.4074
     -2555.3384                         50.0004         43.0004
 -21605442.52448 -16779134.89148  20890737.1684   20890736.4774   20890737.6124
       334.7154                         53.0004         48.0004
 -16334284.55948 -12670648.38647  21729964.8994   21729965.5244   21729967.5814
      1942.5744                         50.0004         44.0004
 -21619536.73948 -16804821.09148  20865374.4754   20865374.4464   20865375.5234
      1623.6714                         53.0004         48.0004
  -3115042.28946  -2364252.53645  24778033.8264   24778031.2754   24778035.1994
     -3531.7324                         40.0004         35.0004
  -1667807.23246  -1248751.12945  24705586.4994   24705586.6314   24705586.1484
      2795.0714                         41.0004         35.0004
  -8580110.34247  -6632574.69146  23163629.5914   23163629.1944   23163631.2634
      2949.6954                         44.0004         38.0004
 -10212142.85247  -7905380.78147  23070522.1504   23070523.0494   23070523.7024
     -2696.9864                         47.0004         42.0004
 08  5 27  0 13 30.0000000  0  9G31G24G21G 6G16G30G18G 3G29
 -14596085.17048 -11303822.42547  22340177.4314   22340177.2754   22340179.2454
     -2874.1114                         49.0004         44.0004
 -13767355.20648 -10678597.92547  22462650.9974   22462650.7654   22462653.2214
     -2567.8724                         49.0004         43.0004
 -21615238.90548 -16786768.42148  20888872.9314   20888872.3004   20888873.1564
       317.6604                         53.0004         48.0004
 -16392456.46148 -12715977.13447  21718895.1044   21718894.4534   21718897.1864
      1934.8964                         50.0004         45.0004
 -21668091.50548 -16842655.96948  20856134.6894   20856134.3784   20856136.0384
      1612.7004                         53.0004         48.0004
  -3009047.76846  -2281659.50545  24798202.2004   24798204.0414   24798207.6804
     -3534.8734                         40.0004         35.0004
  -1751622.03346  -1314061.39945  24689637.0924   24689636.1394   24689636.8684
      2792.2484                         40.0004         35.0004
  -8668527.00547  -6701470.76546  23146804.4854   23146804.1314   23146807.1934
      2944.1304                         45.0004         39.0004
 -10131193.39547  -7842303.28047  23085925.5094   23085925.9284   23085927.4394
     -2700.0654                         46.0004         42.0004
 08  5 27  0 14  0.0000000  0  9G31G24G21G 6G16G30G18G 3G29
 -14509704.45748 -11236512.79447  22356615.4954   22356616.4064   22356617.2554
     -2884.9394                         49.0004         44.0004
 -13690139.27548 -10618429.66547  22477345.1394   22477344.3624   22477347.4834
     -2580.2704                         49.0004         43.0004
 -21624521.89148 -16794001.90748  20887106.4194   20887106.0324   20887106.7494
       300.4704                         52.0004         48.0004
 -16450396.89848 -12761125.50247  21707869.4624   21707868.9634   21707872.0874
      1927.2234                         50.0004         45.0004
 -21716313.68448 -16880231.68248  20846958.3834   20846957.8554   20846959.3384
      1601.5944                         53.0004         48.0004
  -2902953.73146  -2198988.90445  24818392.8014   24818390.3444   24818395.2474
     -3538.5924                         41.0004         35.0004
  -1835367.08346  -1379317.20146  24673701.4104   24673701.6274   24673702.2974
      2790.1754                         41.0004         36.0004
  -8756784.60647  -6770242.88646  23130009.7954   23130010.0014   23130012.2484
      2938.8624                         45.0004         39.0004
 -10050153.51847  -7779155.33047  23101346.7204   23101346.5694   23101348.8144
     -2702.7314                         46.0004         42.0004
 08  5 27  0 14 30.0000000  0  9G31G24G21G 6G16G30G18G 3G29
 -14423002.61248 -11168952.91447  22373114.1414   22373115.1544   22373116.5614
     -2895.3994                         49.0004         44.0004
 -13612554.39948 -10557973.91447  22492109.2734   22492108.5454   22492111.1794
     -2592.3444                         49.0004         43.0004
 -21633297.81448 -16800840.27748  20885436.3724   20885435.7994   20885436.7064
       284.0104                         52.0004         48.0004
 -16508111.74348 -12806098.09647  21696886.7144   21696886.2984   21696888.7804
      1920.0494                         50.0004         45.0004
 -21764207.50248 -16917551.53148  20837844.3114   20837844.1804   20837845.7534
      1590.8304                         53.0004         48.0004
  -2796767.49446  -2116246.35545  24838598.3494   24838598.3654   24838602.9414
     -3541.3664                         39.0004         35.0004
  -1919046.02046  -1444521.53945  24657776.9254   24657774.4084   24657779.6584
      2788.2954                         40.0004         35.0004
  -8844888.84547  -6838895.51146  23113244.1664   23113244.1224   23113246.0844
      2933.9904                         45.0004         39.0004
  -9969030.12247  -7715942.30147  23116784.2694   23116784.1634   23116786.2464
     -2705.3914                         47.0004         42.0004
 08  5 27  0 15  0.0000000  0  9G31G24G21G 6G16G30G18G 3G29
 -14335980.89048 -11101143.79647  22389673.8354   22389673.6424   22389675.3944
     -2906.1904                         49.0004         44.0004
 -13534601.68748 -10497231.52947  22506942.7044   22506942.7614   22506944.3634
     -2604.6184                         49.0004         43.0004
 -21641564.72348 -16807282.01648  20883863.1664   20883862.4904   20883863.9784
       267.0784                         53.0004         48.0004
 -16565599.25148 -12850893.53847  21685947.0434   21685947.1604   21685948.1214
      1912.3724                         50.0004         45.0004
 -21811769.91448 -16954613.14348  20828793.5354   20828793.3444   20828794.8334
      1579.7214                         53.0004         48.0004
  -2690488.89846  -2033431.98045  24858823.8054   24858825.0354   24858826.9944
     -3544.1494                         40.0004         35.0004
  -2002654.11546  -1509670.67545  24641867.2084   24641864.5054   24641871.1964
      2785.6104                         40.0004         35.0004
  -8932837.59247  -6907426.97546  23096507.6754   23096508.3994   23096509.7284
      2928.8944                         45.0004         39.0004
  -9887822.51547  -7652663.66847  23132237.9764   23132237.8344   23132240.3274
     -2708.5664                         46.0004         42.0004
 08  5 27  0 15 30.0000000  0  9G31G24G21G 6G16G30G18G 3G29
 -14248639.78148 -11033085.79847  22406294.2184   22406294.4334   22406296.3134
     -2916.5784                         49.0004         44.0004
 -13456281.71448 -10436202.98347  22521846.3774   22521845.9704   22521850.3424
     -2616.6704                         49.0004         43.0004
 -21649320.77148 -16813325.68348  20882387.1534   20882386.8194   20882387.6664
       250.2094                         52.0004         48.0004
 -16622857.11548 -12895510.04647  21675051.0814   21675051.3064   21675052.9134
      1904.8514                         50.0004         45.0004
 -21858996.94048 -16991413.41348  20819806.6104   20819806.2554   20819807.6394
      1568.7664                         53.0004         48.0004
  -2584116.90046  -1950544.79346  24879064.6114   24879064.7454   24879067.3774
     -3547.2194                         41.0004         36.0004
  -2086186.52246  -1574760.89345  24625972.7074   24625972.0274   24625970.8694
      2783.3544                         41.0004         35.0004
  -9020627.96547  -6975835.02846  23079801.9574   23079801.8824   23079804.7484
      2923.7414                         45.0004         39.0004
  -9806529.41147  -7589318.41447  23147706.6064   23147708.3744   23147710.0784
     -2711.0584                         47.0004         42.0004
 08  5 27  0 16  0.0000000  0  9G31G24G21G 6G16G30G18G 3G29
 -14160984.92548 -10964783.31147  22422974.1944   22422974.6004   22422975.3454
     -2927.3904                         49.0004         44.0004
 -13377600.05648 -10374892.58947  22536819.3284   22536818.3884   22536823.0144
     -2628.7634                         49.0004         43.0004
 -21656569.01248 -16818973.65148  20881007.9854   20881007.3574   20881008.3324
       233.0734                         53.0004         48.0004
 -16679888.10048 -12939949.75247  21664198.5784   21664198.1984   21664201.0164
      1897.1784                         50.0004         45.0004
 -21905889.81648 -17027953.30848  20810883.2014   20810883.0474   20810884.1474
      1557.4284                         53.0004         48.0004
  -2477655.98946  -1867588.18345  24899325.0104   24899324.8624   24899328.0014
     -3550.1604                         39.0004         34.0004
  -2169643.31746  -1639792.13146  24610091.0284   24610090.5024   24610091.1834
      2780.5844                         40.0004         36.0004
  -9108262.32047  -7044121.51546  23063125.4524   23063125.1724   23063127.3494
      2918.3254                         44.0004         39.0004
  -9725154.64647  -7525909.52747  23163192.5614   23163192.7394   23163194.0914
     -2714.0884                         46.0004         42.0004
 08  5 27  0 16 30.0000000  0  9G31G24G21G 6G16G30G18G 3G29
 -14073017.32548 -10896237.13247  22439714.3444   22439715.8484   22439716.1094
     -2937.7574                         49.0004         44.0004
 -13298557.33348 -10313300.84647  22551860.8454   22551860.4204   22551862.0714
     -2641.1154                         49.0004         43.0004
 -21663307.94548 -16824224.75648  20879725.7004   20879725.1304   20879726.1804
       215.7754                         53.0004         48.0004
 -16736690.19448 -12984211.10947  21653389.6784   21653388.6164   21653391.2794
      1889.2584                         50.0004         45.0004
 -21952445.61248 -17064230.54648  20802023.8564   20802023.6674   20802024.8474
      1545.9284                         53.0004         48.0004
  -2371105.70646  -1784562.00745  24919600.1854   24919601.1284   24919602.8934
     -3553.1714                         41.0004         34.0004
  -2253020.10746  -1704760.99945  24594224.1324   24594223.2194   24594225.7454
      2777.4094                         40.0004         35.0004
  -9195738.32947  -7112284.61146  23046479.5694   23046478.0574   23046480.5534
      2912.9724                         45.0004         39.0004
  -9643697.33447  -7462436.29847  23178693.4344   23178693.9874   23178694.6904
     -2716.7824                         47.0004         42.0004
 08  5 27  0 17  0.0000000  0  9G31G24G21G 6G16G30G18G 3G29
 -13984740.40148 -10827449.91847  22456512.9514   22456513.5334   22456514.1244
     -2947.6274                         49.0004         44.0004
 -13219156.34448 -10251429.94247  22566969.8404   22566968.5474   22566972.1134
     -2652.5634                         48.0004         42.0004
 -21669538.33148 -16829079.59348  20878539.9174   20878539.8424   20878540.4904
       199.4514                         53.0004         48.0004
 -16793263.71248 -13028294.35247  21642624.0934   21642624.8184   21642626.4794
      1882.2514                         50.0004         45.0004
 -21998662.91548 -17100244.02348  20793228.7894   20793229.1124   20793229.7824
      1535.0374                         53.0004         48.0004
  -2264467.85147  -1701467.70746  24939893.3584   24939892.5894   24939897.3404
     -3555.8664                         42.0004         36.0004
  -2336314.62347  -1769665.83945  24578373.8274   24578373.0724   24578375.3974
      2775.1674                         42.0004         35.0004
  -9283055.27647  -7180323.75846  23029863.5514   23029862.9464   23029863.9014
      2908.0564                         45.0004         39.0004
  -9562158.61147  -7398899.63646  23194208.8294   23194209.4744   23194211.2734
     -2719.3424                         46.0004         41.0004
 08  5 27  0 17 30.0000000  0  9G31G24G21G 6G16G30G18G 3G29
 -13896157.97148 -10758424.65947  22473369.3774   22473369.9144   22473370.8674
     -2958.0864                         49.0004         44.0004
 -13139401.31148 -10189283.16947  22582146.8274   22582146.8384   22582149.8124
     -2664.7104                         48.0004         42.0004
 -21675261.91848 -16833539.51848  20877450.7234   20877450.4904   20877451.3344
       182.1084                         53.0004         48.0004
 -16849609.58148 -13072200.20547  21631901.7594   21631901.8034   21631904.1714
      1874.0844                         50.0004         45.0004
 -22044541.34048 -17135993.44048  20784498.6244   20784498.4314   20784499.5954
      1523.2964                         53.0004         48.0004
  -2157744.64146  -1618306.85745  24960200.6734   24960202.4944   24960202.8314
     -3559.3274                         38.0004         34.0004
  -2419524.88446  -1834505.05545  24562539.3634   24562539.8334   24562540.9404
      2772.1924                         41.0004         35.0004
  -9370213.90747  -7248239.54246  23013277.6374   23013276.7474   23013279.7914
      2902.3104                         45.0004         39.0004
  -9480540.77447  -7335301.35647  23209741.1274   23209741.3434   23209743.2804
     -2722.2364                         46.0004         42.0004
 08  5 27  0 18  0.0000000  0  9G31G24G21G 6G16G30G18G 3G29
 -13807271.40848 -10689162.40947  22490284.1304   22490283.1344   22490284.7864
     -2968.1194                         49.0004         44.0004
 -13059293.11648 -10126861.19847  22597391.2144   22597391.0824   22597393.9634
     -2676.1104                         48.0004         43.0004
 -21680476.95648 -16837603.17048  20876458.2114   20876457.9014   20876458.9784
       165.2734                         53.0004         48.0004
 -16905726.34348 -13115927.53747  21621222.9564   21621223.6604   21621225.1834
      1866.8004                         50.0004         45.0004
 -22090077.94048 -17171476.49648  20775833.2714   20775832.9494   20775834.4764
      1512.0494                         53.0004         48.0004
  -2050935.98846  -1535079.41945  24980526.9234   24980529.8064   24980527.6044
     -3562.2284                         41.0004         33.0004
  -2502647.05046  -1899275.58445  24546721.3434   24546722.0244   24546724.3064
      2769.3914                         39.0004         35.0004
  -9457212.20647  -7316030.38946  22996721.9834   22996722.5774   22996725.0534
      2897.0474                         45.0004         39.0004
  -9398843.27747  -7271640.98547  23225288.3374   23225288.5464   23225289.7234
     -2724.6234                         47.0004         42.0004
 08  5 27  0 18 30.0000000  0  9G31G24G21G 6G16G30G18G 3G29
 -13718082.50748 -10619664.57147  22507255.9624   22507256.3194   22507257.5184
     -2977.9934                         49.0004         43.0004
 -12978833.16448 -10064165.11947  22612701.8724   22612701.2624   22612704.3854
     -2688.1184                         48.0004         42.0004
 -21685182.52448 -16841269.83848  20875562.9044   20875562.4674   20875563.3764
       148.1734                         53.0004         48.0004
 -16961612.65348 -13159475.29947  21610588.0204   21610588.0044   21610590.6714
      1858.7814                         51.0004         45.0004
 -22135269.83848 -17206690.95848  20767233.4654   20767233.3084   20767234.6774
      1500.5554                         53.0004         48.0004
  -1944042.38746  -1451785.70046  25000867.4314   25000867.3194   25000870.7714
     -3564.4174                         40.0004         36.0004
  -2585676.89746  -1963974.18045  24530920.9724   24530922.8544   24530921.8014
      2765.8444                         41.0004         35.0004
  -9544048.83747  -7383695.25946  22980197.4944   22980198.1504   22980199.9264
      2891.5614                         45.0004         39.0004
  -9317065.87347  -7207918.34846  23240849.3754   23240849.3574   23240851.6574
     -2727.4884                         47.0004         41.0004
 08  5 27  0 19  0.0000000  0  9G31G24G21G 6G16G30G18G 3G29
 -13628595.61148 -10549934.53747  22524284.8584   22524285.3664   22524285.8694
     -2987.9244                         49.0004         44.0004
 -12898025.68448 -10001198.24747  22628078.6314   22628079.7304   22628082.9484
     -2699.3174                         48.0004         42.0004
 -21689380.84548 -16844541.24548  20874764.0104   20874763.7064   20874764.7694
       131.3064                         53.0004         48.0004
 -17017269.82948 -13202844.51847  21599996.9404   21599996.4234   21599999.1944
      1851.3554                         51.0004         45.0004
 -22180116.96148 -17241636.76048  20758699.3924   20758698.9744   20758700.5534
      1489.0434                         53.0004         48.0004
  -1837066.12746  -1368427.68245  25021224.3284   25021221.2614   25021231.8034
     -3567.7354                         39.0004         34.0004
  -2668613.31046  -2028600.02245  24515139.0864   24515137.8864   24515139.6404
      2763.0984                         41.0004         35.0004
  -9630724.50647  -7451234.70946  22963703.5254   22963703.3574   22963706.5754
      2886.4324                         45.0004         39.0004
  -9235210.92647  -7144135.29246  23256424.8914   23256425.5274   23256427.8364
     -2729.7344                         45.0004         41.0004
 08  5 27  0 19 30.0000000  0  9G31G24G21G 6G16G30G18G 3G29
 -13538813.79348 -10479974.68047  22541370.0134   22541370.5054   22541370.3084
     -2997.7984                         48.0004         43.0004
 -12816873.85348  -9937963.05647  22643522.0604   22643521.6654   22643524.1214
     -2711.0204                         48.0004         42.0004
 -21693072.37548 -16847417.74948  20874061.6194   20874061.1724   20874062.0794
       114.3984                         53.0004         48.0004
 -17072698.19948 -13246035.43847  21589449.3944   21589448.7214   21589450.6974
      1843.5504                         51.0004         45.0004
 -22224618.33448 -17276313.14748  20750230.9874   20750230.8634   20750231.8244
      1477.4954                         53.0004         48.0004
  -1730009.71246  -1285007.22345  25041596.3624   25041599.4834   25041597.2144
     -3570.3284                         40.0004         34.0004
  -2751453.93846  -2093151.11345  24499374.3314   24499372.9434   24499376.1294
      2759.4314                         40.0004         35.0004
  -9717238.67147  -7518648.31046  22947240.7574   22947240.4854   22947242.9734
      2881.0934                         45.0004         39.0004
  -9153279.99747  -7080293.02747  23272017.1514   23272017.8924   23272019.0554
     -2732.2944                         46.0004         42.0004
 08  5 27  0 20  0.0000000  0  9G31G24G21G 6G16G30G18G 3G29
 -13448739.64948 -10409787.04447  22558510.1684   22558509.3614   22558510.7564
     -3007.6954                         48.0004         43.0004
 -12735379.61348  -9874461.05047  22659029.9894   22659030.0294   22659032.3634
     -2722.2194                         48.0004         42.0004
 -21696257.14148 -16849899.37248  20873455.4474   20873455.1054   20873455.5414
        97.6824                         53.0004         48.0004
 -17127897.15748 -13289047.60147  21578945.5404   21578945.6284   21578947.8164
      1836.1014                         51.0004         45.0004
 -22268771.66848 -17310718.33848  20741829.1174   20741828.8404   20741829.8304
      1465.9854                         53.0004         48.0004
  -1622873.66446  -1201524.53645  25061984.1104   25061982.1274   25061987.0984
     -3572.7214                         39.0004         34.0004
  -2834195.60946  -2157625.11646  24483630.1634   24483629.9634   24483630.4514
      2756.1664                         41.0004         36.0004
  -9803590.85747  -7585935.70046  22930808.8554   22930808.6054   22930811.0284
      2875.5904                         45.0004         39.0004
  -9071273.13847  -7016391.60546  23287622.2634   23287621.9954   23287624.3294
     -2734.8764                         46.0004         41.0004
 08  5 27  0 20 30.0000000  0  9G31G24G21G 6G16G30G18G 3G29
 -13358373.61748 -10339371.96147  22575705.9554   22575707.0744   22575708.1734
     -3016.8114                         48.0004         43.0004
 -12653543.69748  -9810692.80347  22674602.1514   22674602.6404   22674604.0674
     -2733.4274                         48.0004         42.0004
 -21698933.86848 -16851985.12448  20872946.0724   20872945.8584   20872946.6954
        80.8324                         53.0004         48.0004
 -17182864.31948 -13331879.14147  21568485.2264   21568485.5404   21568487.6824
      1828.3614                         50.0004         45.0004
 -22312573.50048 -17344849.62748  20733493.8444   20733493.3614   20733494.5324
      1454.1734                         53.0004         48.0004
  -1515656.85246  -1117979.08045  25082387.6404   25082386.8904   25082392.5244
     -3575.9514                         38.0004         35.0004
  -2916833.85446  -2222018.58445  24467904.0834   24467903.5384   24467904.8844
      2752.7224                         41.0004         35.0004
  -9889777.97347  -7653094.45646  22914407.0184   22914406.8144   22914410.7234
      2870.1284                         44.0004         40.0004
  -8989189.11247  -6952430.06146  23303241.3554   23303242.3324   23303244.7014
     -2737.2574                         46.0004         41.0004
 08  5 27  0 21  0.0000000  0  9G31G24G21G 6G16G30G18G 3G29
 -13267720.71748 -10268733.35047  22592957.0874   22592958.2234   22592958.1794
     -3026.4244                         49.0004         43.0004
 -12571370.47948  -9746661.71847  22690239.7744   22690239.5694   22690242.1044
     -2744.7184                         48.0004         42.0004
 -21701103.80948 -16853675.98148  20872533.1244   20872532.5854   20872533.7684
        63.9524                         52.0004         48.0004
 -17237601.40248 -13374531.39547  21558069.1714   21558069.2714   21558071.4634
      1820.8214                         51.0004         45.0004
 -22356023.88648 -17378707.06748  20725225.4684   20725225.0184   20725226.5574
      1442.5494                         53.0004         48.0004
  -1408362.82546  -1034373.48845  25102804.2634   25102805.1514   25102805.6204
     -3577.4704                         40.0004         35.0004
  -2999367.44746  -2286330.51445  24452197.7504   24452196.3904   24452200.1984
      2749.2644                         40.0004         35.0004
  -9975801.28347  -7720125.58246  22898038.5434   22898038.5954   22898040.2964
      2864.7974                         45.0004         40.0004
  -8907030.61847  -6888410.47146  23318876.7404   23318877.5684   23318878.6014
     -2739.8134                         46.0004         41.0004
 08  5 27  0 21 30.0000000  0  9G31G24G21G 6G16G30G18G 3G29
 -13176783.66048 -10197873.31647  22610261.9534   22610262.2714   22610263.4284
     -3035.7594                         48.0004         43.0004
 -12488862.56748  -9682369.83647  22705940.3624   22705939.7224   22705942.6334
     -2755.7434                         48.0004         42.0004
 -21702767.59548 -16854972.42648  20872216.3924   20872216.0994   20872216.8274
        47.2494                         53.0004         48.0004
 -17292108.22048 -13417004.22647  21547696.9494   21547696.4264   21547699.0704
      1813.2704                         51.0004         45.0004
 -22399121.42048 -17412289.55548  20717024.3264   20717024.1884   20717025.1434
      1431.0174                         53.0004         48.0004
  -1300992.87146   -950708.56445  25123236.7784   25123237.3064   25123238.3184
     -3580.2284                         39.0004         33.0004
  -3081793.10446  -2350558.29446  24436513.1354   24436514.7154   24436515.7124
      2745.8324                         41.0004         36.0004
 -10061660.35447  -7787028.72146  22881699.4914   22881699.2164   22881702.5504
      2859.3624                         45.0004         40.0004
  -8824798.53447  -6824333.53446  23334525.0574   23334523.6914   23334528.1134
     -2742.0234                         46.0004         41.0004
 08  5 27  0 22  0.0000000  0  9G31G24G21G 6G16G30G18G 3G29
 -13085565.84548 -10126794.50447  22627620.1334   22627620.1744   22627621.5014
     -3045.4914                         48.0004         43.0004
 -12406023.10648  -9617819.60647  22721703.8604   22721703.2274   22721706.1564
     -2766.9534                         48.0004         42.0004
 -21703926.55548 -16855875.50148  20871995.9674   20871995.6104   20871996.3354
        29.9354                         53.0004         48.0004
 -17346385.44048 -13459298.15447  21537368.2024   21537368.1104   21537370.2534
      1805.1584                         51.0004         45.0004
 -22441865.31648 -17445596.47948  20708890.4384   20708889.8904   20708891.7194
      1418.7154                         53.0004         48.0004
  -1193549.24846   -866986.21345  25143681.2074   25143681.8484   25143686.9664
     -3583.2284                         39.0004         34.0004
  -3164109.06346  -2414700.58446  24420849.1024   24420849.0984   24420850.5544
      2741.7794                         41.0004         36.0004
 -10147355.37147  -7853804.02546  22865392.6834   22865391.3914   22865394.6504
      2853.3134                         45.0004         40.0004
  -8742494.45147  -6760200.52246  23350186.0624   23350186.2784   23350188.2834
     -2744.8034                         45.0004         41.0004
 08  5 27  0 22 30.0000000  0  9G31G24G21G 6G16G30G18G 3G29
 -12994065.94748 -10055495.89947  22645032.0024   22645031.4824   22645033.3994
     -3054.4524                         48.0004         43.0004
 -12322850.56248  -9553009.83647  22737531.3454   22737530.1984   22737533.4714
     -2777.8984                         48.0004         42.0004
 -21704576.56248 -16856381.99648  20871872.4284   20871871.8094   20871872.8924
        13.1774                         53.0004         48.0004
 -17400428.44648 -13501409.58347  21527084.1514   21527084.5704   21527086.3634
      1797.7234                         51.0004         45.0004
 -22484249.43648 -17478623.06048  20700825.0404   20700824.5054   20700825.8204
      1406.9174                         53.0004         48.0004
  -1086028.80846   -783204.09346  25164142.5734   25164143.0054   25164146.5544
     -3585.3624                         41.0004         36.0004
  -3246308.50147  -2478752.08646  24405206.8734   24405206.6854   24405209.3164
      2737.6374                         42.0004         36.0004
 -10232881.30947  -7920447.58446  22849116.4664   22849117.1394   22849119.2634
      2848.1254                         45.0004         40.0004
  -8660114.98147  -6696008.77946  23365863.3564   23365863.5774   23365864.7624
     -2747.0554                         45.0004         41.0004
 08  5 27  0 23  0.0000000  0  9G31G24G21G 6G16G30G18G 3G29
 -12902292.32248  -9983983.98847  22662495.7704   22662497.2354   22662497.4584
     -3064.0434                         48.0004         43.0004
 -12239352.72548  -9487946.59147  22753420.3714   22753420.0374   22753423.7414
     -2788.8634                         48.0004         42.0004
 -21704723.65948 -16856496.60648  20871844.3424   20871843.6614   20871845.0994
        -3.8074                         53.0004         48.0004
 -17454242.60048 -13543342.67047  21516843.7564   21516843.4464   21516846.0654
      1789.6634                         51.0004         45.0004
 -22526277.56648 -17511372.24748  20692827.3174   20692826.9934   20692828.3384
      1394.7494                         53.0004         48.0004
   -978438.26346   -699367.31545  25184616.3334   25184614.3684   25184621.2954
     -3587.6284                         39.0004         34.0004
  -3328393.78847  -2542714.69946  24389586.9844   24389585.7054   24389588.3074
      2733.9474                         42.0004         36.0004
 -10318242.26847  -7986962.57646  22832873.8694   22832873.7854   22832875.3164
      2842.2224                         45.0004         39.0004
  -8577666.05747  -6631762.88646  23381553.0144   23381553.2984   23381553.9944
     -2749.6714                         46.0004         41.0004
 08  5 27  0 23 30.0000000  0  9G31G24G21G 6G16G30G18G 3G29
 -12810244.32948  -9912258.28147  22680011.8684   22680012.4564   22680013.3264
     -3073.1494                         49.0004         43.0004
 -12155529.15647  -9422629.51447  22769370.9014   22769370.9514   22769373.7534
     -2799.6444                         47.0004         42.0004
 -21704364.93248 -16856217.07148  20871912.5594   20871912.1304   20871913.0984
       -20.5494                         53.0004         48.0004
 -17507824.38748 -13585094.70047  21506647.6494   21506647.4924   21506649.1734
      1782.0214                         51.0004         45.0004
 -22567945.07648 -17543840.42948  20684898.2924   20684898.2144   20684899.1134
      1382.7724                         53.0004         48.0004
   -870775.53446   -615474.22045  25205103.3564   25205107.9954   25205104.5374
     -3590.1094                         40.0004         33.0004
  -3410358.77447  -2606583.52446  24373990.3634   24373991.3634   24373992.8494
      2729.9174                         42.0004         36.0004
 -10403435.18147  -8053346.65146  22816662.0934   22816661.9554   22816664.5894
      2837.0004                         45.0004         39.0004
  -8495145.54847  -6567461.22946  23397254.9274   23397256.0684   23397257.5274
     -2752.0154                         45.0004         41.0004
 08  5 27  0 24  0.0000000  0  9G31G24G21G 6G16G30G18G 3G29
 -12717925.84448  -9840321.81247  22697579.3654   22697580.1884   22697580.5804
     -3081.9204                         48.0004         43.0004
 -12071383.22047  -9357061.26047  22785383.8564   22785383.1874   22785386.3744
     -2810.3194                         47.0004         42.0004
 -21703501.35948 -16855544.14648  20872076.8674   20872076.4994   20872077.4764
       -37.3074                         53.0004         48.0004
 -17561174.36748 -13626666.09947  21496495.3064   21496494.8284   21496497.1464
      1774.2744                         50.0004         45.0004
 -22609251.17548 -17576026.99548  20677037.9504   20677037.4084   20677038.9194
      1370.6594                         53.0004         48.0004
   -763043.10447   -531526.83345  25225605.2654   25225605.6754   25225607.7354
     -3592.3054                         42.0004         35.0004
  -3492201.79247  -2670357.28146  24358415.8224   24358416.1524   24358418.7344
      2726.1634                         42.0004         36.0004
 -10488459.96847  -8119599.70046  22800482.3774   22800482.1764   22800483.9414
      2830.9904                         45.0004         40.0004
  -8412554.72847  -6503104.79246  23412971.6364   23412971.5124   23412973.9484
     -2754.2134                         45.0004         41.0004
 08  5 27  0 24 30.0000000  0  9G31G24G21G 6G16G30G18G 3G29
 -12625339.65448  -9768176.73247  22715198.4964   22715198.5054   22715199.0874
     -3090.4114                         48.0004         43.0004
 -11986917.53447  -9291243.85047  22801456.8084   22801457.0264   22801460.9644
     -2820.7944                         47.0004         42.0004
 -21702133.64048 -16854478.38748  20872337.1184   20872336.9044   20872337.8974
       -53.7834                         52.0004         48.0004
 -17614292.52848 -13668056.85847  21486387.1474   21486386.9874   21486389.5554
      1766.8884                         50.0004         45.0004
 -22650194.19348 -17607930.63948  20669246.8394   20669246.3374   20669247.7034
      1358.9224                         53.0004         48.0004
   -655242.22646   -447526.25045  25246117.7594   25246118.1244   25246123.7404
     -3594.2044                         38.0004         34.0004
  -3573919.77147  -2734033.62746  24342865.6804   24342864.2574   24342867.0224
      2722.0224                         42.0004         36.0004
 -10573316.21847  -8185721.42446  22784334.6744   22784335.2594   22784337.4024
      2825.8854                         45.0004         40.0004
  -8329894.48247  -6438694.24246  23428702.8094   23428702.2954   23428703.8474
     -2756.5504                         46.0004         41.0004
 08  5 27  0 25  0.0000000  0  9G31G24G21G 6G16G30G18G 3G29
 -12532488.06548  -9695824.85547  22732867.2284   22732867.4144   22732868.5454
     -3099.7694                         48.0004         43.0004
 -11902134.28448  -9225178.97046  22817591.1224   22817590.1374   22817594.7384
     -2831.5934                         48.0004         41.0004
 -21700261.74548 -16853019.75648  20872693.3804   20872692.6744   20872693.5904
       -71.0354                         53.0004         48.0004
 -17667178.08948 -13709266.37447  21476323.4874   21476323.5684   21476324.8224
      1758.5584                         51.0004         45.0004
 -22690772.12448 -17639549.79948  20661525.0874   20661524.8194   20661526.2374
      1346.2734                         53.0004         48.0004
   -547373.84346   -363472.95245  25266644.7664   25266644.6464   25266645.9964
     -3596.5624                         39.0004         33.0004
  -3655509.34046  -2797609.94646  24327339.3724   24327340.2144   24327341.1854
      2717.2724                         41.0004         36.0004
 -10658002.36447  -8251710.60446  22768218.7604   22768218.4534   22768221.6644
      2819.6054                         45.0004         40.0004
  -8247165.21247  -6374229.88946  23444444.1844   23444445.6104   23444446.2244
     -2759.0594                         46.0004         41.0004
 08  5 27  0 25 30.0000000  0  9G31G24G21G 6G16G30G18G 3G29
 -12439375.12648  -9623269.32547  22750586.0714   22750586.0344   22750587.9304
     -3107.9504                         48.0004         43.0004
 -11817037.00847  -9158869.39646  22833783.6014   22833783.6544   22833787.3944
     -2841.6564                         47.0004         41.0004
 -21697887.65048 -16851169.80348  20873145.2354   20873144.7874   20873145.4484
       -87.5534                         53.0004         48.0004
 -17719832.10948 -13750295.45847  21466303.6624   21466303.8774   21466305.6804
      1751.2654                         50.0004         45.0004
 -22730984.49948 -17670884.11248  20653872.7994   20653872.5234   20653873.8114
      1334.2504                         53.0004         48.0004
   -439440.02746   -279368.39345  25287184.3824   25287182.9804   25287186.1424
     -3598.9084                         39.0004         34.0004
  -3736969.00746  -2861085.00546  24311837.7864   24311838.5074   24311839.7444
      2713.0034                         41.0004         36.0004
 -10742519.58447  -8317568.15546  22752136.5364   22752134.6044   22752138.5514
      2814.4864                         45.0004         40.0004
  -8164368.62847  -6309713.11746  23460200.1654   23460200.9374   23460202.9894
     -2760.8924                         45.0004         40.0004
 08  5 27  0 26  0.0000000  0  9G31G24G21G 6G16G30G18G 3G29
 -12346002.30248  -9550511.28547  22768354.2754   22768355.3214   22768354.7694
     -3116.6014                         48.0004         42.0004
 -11731626.96047  -9092316.11946  22850036.9414   22850037.1834   22850041.0494
     -2852.2724                         47.0004         41.0004
 -21695010.05548 -16848927.51448  20873692.7334   20873692.4114   20873693.2544
      -104.3354                         53.0004         48.0004
 -17772252.78948 -13791142.73447  21456328.4124   21456327.8634   21456330.3064
      1743.4484                         51.0004         45.0004
 -22770828.18948 -17701931.13448  20646290.8394   20646290.3764   20646291.7644
      1322.0264                         53.0004         48.0004
   -331440.80846   -195213.02345  25307733.5634   25307733.8794   25307742.3974
     -3601.0024                         37.0004         34.0004
  -3818294.41247  -2924455.45246  24296362.9144   24296362.6564   24296362.3394
      2708.7464                         43.0004         36.0004
 -10826865.07647  -8383291.88146  22736085.5714   22736085.4184   22736087.2924
      2808.6964                         45.0004         40.0004
  -8081504.14647  -6245143.41446  23475969.8904   23475969.8714   23475971.8594
     -2763.2024                         46.0004         41.0004
 08  5 27  0 26 30.0000000  0  9G31G24G21G 6G16G30G18G 3G29
 -12252372.98348  -9477553.38947  22786171.3204   22786171.5884   22786172.6584
     -3125.2614                         48.0004         42.0004
 -11645907.17648  -9025521.47246  22866349.8364   22866349.0824   22866351.3034
     -2862.4454                         48.0004         41.0004
 -21691629.88648 -16846293.60948  20874335.9004   20874335.5304   20874336.0014
      -121.1824                         53.0004         48.0004
 -17824440.55248 -13831808.50747  21446397.4414   21446397.2614   21446399.5554
      1735.6614                         51.0004         45.0004
 -22810302.41348 -17732690.26948  20638779.0454   20638778.7334   20638780.0544
      1309.5824                         53.0004         48.0004
   -223378.46346   -111008.61745  25328299.6304   25328298.1454   25328303.7834
     -3603.3194                         40.0004         35.0004
  -3899483.07447  -2987719.38246  24280912.6574   24280912.5784   24280912.4924
      2703.4354                         42.0004         36.0004
 -10911039.21647  -8448882.08746  22720067.5474   22720067.4094   22720069.5504
      2802.8284                         45.0004         40.0004
  -7998573.50647  -6180522.15746  23491750.3944   23491750.5664   23491752.1754
     -2765.6464                         45.0004         41.0004
 08  5 27  0 27  0.0000000  0  8G31G24G21G 6G16G18G 3G29
 -12158489.15948  -9404397.16447  22804036.6824   22804037.1304   22804036.9254
     -3133.4714                         48.0004         43.0004
 -11559879.49547  -8958486.90646  22882718.4154   22882719.6684   22882722.0834
     -2872.7314                         46.0004         41.0004
 -21687747.41548 -16843268.30248  20875074.6494   20875074.0434   20875075.1174
      -137.7084                         53.0004         48.0004
 -17876394.41248 -13872292.01847  21436510.9544   21436510.8264   21436513.4034
      1727.9434                         51.0004         45.0004
 -22849404.62548 -17763159.52348  20631338.2094   20631337.7994   20631339.2134
      1297.2454                         53.0004         48.0004
  -3980531.75846  -3050874.23146  24265488.8344   24265488.5714   24265490.9784
      2699.4144                         41.0004         36.0004
 -10995040.16647  -8514337.34246  22704082.8544   22704082.1414   22704085.3214
      2797.1294                         45.0004         40.0004
  -7915576.09447  -6115848.88446  23507543.8884   23507543.5614   23507546.3834
     -2767.4144                         45.0004         40.0004
 08  5 27  0 27 30.0000000  0  8G31G24G21G 6G16G18G 3G29
 -12064355.34947  -9331046.15847  22821950.3264   22821949.3004   22821950.8084
     -3141.7694                         47.0004         42.0004
 -11473548.63547  -8891216.10546  22899148.5984   22899147.8304   22899149.5724
     -2882.6794                         47.0004         41.0004
 -21683364.51148 -16839853.05048  20875908.8304   20875908.2434   20875909.6684
      -154.4274                         53.0004         48.0004
 -17928115.97948 -13912594.52447  21426668.4374   21426668.5354   21426670.3764
      1720.2174                         51.0004         45.0004
 -22888134.96748 -17793339.00448  20623968.1124   20623967.7864   20623968.9714
      1284.8464                         53.0004         48.0004
  -4061439.20547  -3113918.98146  24250092.4274   24250093.3694   24250095.3194
      2694.5124                         42.0004         36.0004
 -11078869.35147  -8579658.74746  22688130.5884   22688131.1964   22688133.3344
      2791.4404                         45.0004         40.0004
  -7832514.43847  -6051125.53046  23523350.5414   23523351.4734   23523353.2944
     -2769.6924                         46.0004         41.0004
 08  5 27  0 28  0.0000000  0  8G31G24G21G 6G16G18G 3G29
 -11969974.10648  -9257502.34447  22839910.3234   22839910.7024   22839910.4674
     -3150.6634                         48.0004         42.0004
 -11386916.28147  -8823710.34146  22915633.0744   22915632.9034   22915636.7404
     -2893.3764                         47.0004         41.0004
 -21678481.09648 -16836047.78848  20876838.0434   20876837.5664   20876838.5204
      -171.5304                         53.0004         48.0004
 -17979604.40348 -13952715.36247  21416870.5504   21416870.2784   21416872.3774
      1711.8564                         50.0004         45.0004
 -22926491.20748 -17823226.98148  20616669.1254   20616668.9634   20616669.8184
      1271.8634                         53.0004         48.0004
  -4142202.27547  -3176851.24446  24234724.2144   24234722.7214   24234726.2154
      2689.1904                         42.0004         36.0004
 -11162525.48447  -8644845.31246  22672211.7044   22672210.6154   22672214.4074
      2785.0554                         46.0004         40.0004
  -7749388.83547  -5986352.35746  23539168.7754   23539169.5754   23539171.6114
     -2772.5474                         45.0004         41.0004
 08  5 27  0 28 30.0000000  0  8G31G24G21G 6G16G18G 3G29
 -11875345.88548  -9183766.07447  22857916.9304   22857917.4694   22857917.9974
     -3158.4014                         48.0004         43.0004
 -11299982.61547  -8755969.80146  22932176.5694   22932175.8644   22932179.8954
     -2902.7524                         47.0004         41.0004
 -21673095.44348 -16831851.17048  20877862.9764   20877862.5614   20877863.1314
      -187.8694                         53.0004         48.0004
 -18030857.21048 -13992652.59747  21407117.3704   21407117.4984   21407119.4444
      1704.4084                         51.0004         45.0004
 -22964469.38848 -17852820.36848  20609442.1644   20609441.5874   20609442.9284
      1259.5894                         53.0004         48.0004
  -4222815.17647  -3239666.50146  24219384.2314   24219383.5964   24219388.4604
      2684.5054                         42.0004         36.0004
 -11246005.51547  -8709894.65946  22656326.1234   22656325.4324   22656327.8474
      2779.4834                         45.0004         40.0004
  -7666197.56847  -5921528.04046  23554999.0284   23554999.5574   23555001.9934
     -2774.5314                         44.0004         40.0004
 08  5 27  0 29  0.0000000  0  8G31G24G21G 6G16G18G 3G29
 -11780477.00147  -9109842.28347  22875970.3304   22875970.6154   22875970.6184
     -3166.4954                         47.0004         42.0004
 -11212753.48347  -8687999.04046  22948775.6364   22948776.4734   22948778.6094
     -2912.9594                         47.0004         41.0004
 -21667211.55948 -16827266.32148  20878982.6304   20878982.1084   20878982.9594
      -204.8564                         53.0004         48.0004
 -18081877.65448 -14032408.77747  21397408.4234   21397408.5354   21397410.8414
      1696.5434                         51.0004         45.0004
 -23002071.60148 -17882120.79148  20602286.7104   20602286.2984   20602287.5334
      1246.7944                         53.0004         48.0004
  -4303278.83147  -3302365.44246  24204073.6564   24204073.2304   24204075.1644
      2679.1864                         43.0004         37.0004
 -11329311.99247  -8774808.76646  22640472.8384   22640472.4584   22640475.5404
      2773.7394                         46.0004         40.0004
  -7582944.78647  -5856655.78046  23570841.7934   23570842.1184   23570843.1534
     -2776.3534                         45.0004         40.0004
 08  5 27  0 29 30.0000000  0  8G31G24G21G 6G16G18G 3G29
 -11685368.69948  -9035731.93147  22894068.7304   22894069.8144   22894069.3864
     -3174.5214                         48.0004         42.0004
 -11125230.32747  -8619799.15846  22965431.5084   22965430.3154   22965432.6044
     -2922.2654                         47.0004         41.0004
 -21660828.71448 -16822292.67148  20880197.2514   20880196.8694   20880197.5844
      -221.2174                         53.0004         48.0004
 -18132664.10948 -14071982.63147  21387744.0574   21387744.3444   21387746.2994
      1688.8204                         51.0004         45.0004
 -23039295.22048 -17911126.20748  20595203.1324   20595202.7804   20595204.1054
      1234.2954                         53.0004         48.0004
  -4383589.15047  -3364944.90046  24188790.4464   24188790.7864   24188790.5094
      2673.8154                         42.0004         36.0004
 -11412443.13547  -8839586.25946  22624653.3134   22624653.0114   22624656.7874
      2768.4644                         45.0004         40.0004
  -7499629.82947  -5791735.05046  23586697.1464   23586696.5884   23586698.0434
     -2778.3274                         45.0004         40.0004
 08  5 27  0 30  0.0000000  0  8G31G24G21G 6G16G18G 3G29
 -11590022.56847  -8961436.23447  22912212.2994   22912212.5464   22912213.3854
     -3182.2054                         47.0004         42.0004
 -11037414.30747  -8551371.09446  22982140.6004   22982142.4364   22982143.6344
     -2931.9104                         47.0004         41.0004
 -21653946.53448 -16816929.92448  20881506.7084   20881506.2784   20881507.4404
      -237.7004                         53.0004         48.0004
 -18183215.00248 -14111372.93247  21378124.5394   21378124.6724   21378126.8054
      1681.2434                         51.0004         45.0004
 -23076136.80548 -17939833.93548  20588192.5024   20588191.9204   20588193.2254
      1221.7084                         53.0004         48.0004
  -4463741.95347  -3427401.59146  24173537.5244   24173537.8134   24173539.4374
      2669.0244                         42.0004         37.0004
 -11495396.65547  -8904225.33846  22608868.0674   22608867.1834   22608869.5654
      2762.2334                         45.0004         40.0004
  -7416252.11847  -5726765.45446  23602561.6654   23602562.0284   23602564.8854
     -2780.2774                         45.0004         40.0004
 08  5 27  0 30 30.0000000  0  8G31G24G21G 6G16G18G 3G29
 -11494441.99147  -8886957.87647  22930400.5274   22930402.0864   22930401.8354
     -3189.8704                         47.0004         42.0004
 -10949308.37747  -8482717.11546  22998907.1474   22998906.7054   22998911.1594
     -2941.7054                         46.0004         41.0004
 -21646565.65148 -16811178.58248  20882911.2694   20882910.8094   20882911.8394
      -254.2584                         53.0004         48.0004
 -18233530.54948 -14150579.84447  21368549.9614   21368549.8174   21368552.1874
      1673.4084                         51.0004         46.0004
 -23112595.20148 -17968243.07348  20581254.5904   20581254.4284   20581255.2734
      1208.9414                         53.0004         48.0004
  -4543734.57247  -3489733.48646  24158315.5094   24158314.5144   24158315.9124
      2664.0094                         43.0004         37.0004
 -11578172.66447  -8968726.10046  22593116.6074   22593116.7274   22593119.1494
      2756.0534                         46.0004         40.0004
  -7332812.65047  -5661747.73146  23618440.6554   23618440.3434   23618442.9494
     -2782.1394                         45.0004         40.0004
 08  5 27  0 31  0.0000000  0  8G31G24G21G 6G16G18G 3G29
 -11398633.44347  -8812301.88147  22948632.5264   22948632.8114   22948633.0634
     -3197.4904                         47.0004         42.0004
 -10860918.81347  -8413842.11546  23015728.1594   23015727.2734   23015729.6704
     -2951.1004                         47.0004         41.0004
 -21638690.36448 -16805041.98848  20884409.9374   20884409.5524   20884410.4484
      -270.8244                         53.0004         48.0004
 -18283614.18048 -14189606.04447  21359019.2994   21359019.2584   21359021.5994
      1665.5024                         51.0004         46.0004
 -23148672.68448 -17996355.39348  20574389.3134   20574389.0734   20574390.0934
      1196.1134                         53.0004         48.0004
  -4623567.94046  -3551941.31646  24143123.3564   24143123.3274   24143127.0794
      2658.3144                         41.0004         37.0004
 -11660773.99047  -9033090.74246  22577398.3514   22577398.6734   22577400.1194
      2750.0584                         46.0004         40.0004
  -7249316.00547  -5596685.43946  23634329.8794   23634329.6144   23634331.5454
     -2784.3234                         46.0004         40.0004
 08  5 27  0 31 30.0000000  0  8G31G24G21G 6G16G18G 3G29
 -11302594.87047  -8737466.63347  22966907.7294   22966908.5364   22966909.0664
     -3205.1704                         46.0004         42.0004
 -10772243.25847  -8344744.26746  23032601.3474   23032601.7914   23032605.7454
     -2960.8164                         47.0004         40.0004
 -21630316.01748 -16798516.52048  20886003.4854   20886003.0554   20886003.6984
      -287.6684                         53.0004         48.0004
 -18333460.50548 -14228447.32847  21349534.1144   21349533.7484   21349536.1174
      1657.4254                         51.0004         46.0004
 -23184362.31548 -18024165.49448  20567597.7824   20567597.3344   20567598.7594
      1183.0194                         53.0004         48.0004
  -4703233.75947  -3614018.55346  24127963.7234   24127962.4004   24127964.6714
      2652.4224                         42.0004         37.0004
 -11743194.89247  -9097314.81046  22561713.8844   22561712.9654   22561716.3804
      2744.4214                         46.0004         40.0004
  -7165757.40047  -5531574.86146  23650229.7384   23650230.4984   23650232.7474
     -2786.3284                         44.0004         40.0004
 08  5 27  0 32  0.0000000  0  8G31G24G21G 6G16G18G 3G29
 -11206331.54647  -8662456.27447  22985226.5704   22985227.0874   22985227.9794
     -3212.7784                         47.0004         42.0004
 -10683286.52147  -8275427.32846  23049529.8174   23049529.7464   23049532.4034
     -2970.0754                         46.0004         40.0004
 -21621446.13248 -16791604.91748  20887691.4174   20887690.7524   20887691.9704
      -304.1244                         53.0004         48.0004
 -18383071.95148 -14267105.58947  21340093.2324   21340094.0844   21340095.3234
      1649.5344                         51.0004         46.0004
 -23219665.08148 -18051674.14448  20560879.8714   20560879.4574   20560880.4964
      1169.9474                         53.0004         48.0004
  -4782732.08447  -3675965.25546  24112836.3174   24112835.6764   24112836.1284
      2646.8354                         43.0004         37.0004
 -11825437.21247  -9161399.72046  22546063.6864   22546063.4284   22546066.3934
      2738.3004                         47.0004         41.0004
  -7082140.17647  -5466418.60046  23666142.4664   23666142.7514   23666143.8754
     -2788.4954                         45.0004         40.0004
 08  5 27  0 32 30.0000000  0  8G31G24G21G 6G16G18G 3G29
 -11109846.39147  -8587273.05447  23003586.5214   23003587.3674   23003587.7004
     -3219.9204                         47.0004         42.0004
 -10594051.16647  -8205893.28446  23066511.3604   23066511.0394   23066513.8104
     -2979.4164                         47.0004         41.0004
 -21612081.63448 -16784307.90248  20889473.4414   20889472.7364   20889473.8444
      -320.5614                         53.0004         48.0004
 -18432448.41848 -14305580.74747  21330697.1484   21330696.6144   21330698.8814
      1641.8724                         51.0004         46.0004
 -23254579.84648 -18078880.45348  20554235.8794   20554235.6534   20554236.7444
      1157.2084                         53.0004         48.0004
  -4862060.35347  -3737779.50946  24097739.7284   24097739.6744   24097740.4184
      2641.4824                         43.0004         37.0004
 -11907500.28747  -9225344.95546  22530447.6244   22530447.1604   22530449.6034
      2732.1644                         46.0004         41.0004
  -6998465.03147  -5401217.20946  23682065.7184   23682066.3954   23682067.4014
     -2790.2594                         45.0004         40.0004
 08  5 27  0 33  0.0000000  0  8G31G24G21G 6G16G18G 3G29
 -11013140.19747  -8511917.59047  23021989.7684   23021991.2414   23021990.7554
     -3227.7804                         47.0004         42.0004
 -10504538.14647  -8136142.86146  23083544.5914   23083543.6984   23083547.7604
     -2988.8504                         46.0004         41.0004
 -21602221.06248 -16776624.33448  20891349.6314   20891349.5034   20891350.0464
      -337.2974                         53.0004         48.0004
 -18481587.70548 -14343871.09947  21321346.3104   21321346.0374   21321348.5224
      1633.6474                         51.0004         46.0004
 -23289103.00548 -18105781.61948  20547666.4074   20547666.0224   20547667.2544
      1143.9904                         53.0004         48.0004
  -4941213.57347  -3799457.32346  24082678.2364   24082677.1084   24082678.6694
      2634.8964                         42.0004         37.0004
 -11989382.12847  -9289148.97446  22514865.6194   22514866.0984   22514867.9284
      2726.0034                         46.0004         41.0004
  -6914730.63347  -5335969.65946  23697998.5684   23697999.0834   23698001.9414
     -2792.6764                         44.0004         40.0004
 08  5 27  0 33 30.0000000  0  8G31G24G21G 6G16G18G 3G29
 -10916218.24547  -8436393.99847  23040433.0834   23040433.3804   23040434.2544
     -3234.5224                         46.0004         42.0004
 -10414752.09747  -8066179.72546  23100629.8324   23100630.1214   23100633.7284
     -2997.7014                         46.0004         40.0004
 -21591867.16648 -16768556.35848  20893319.9844   20893319.6424   20893320.6274
      -353.5274                         53.0004         48.0004
 -18530491.87748 -14381978.24047  21312040.0544   21312039.9764   21312041.9544
      1626.1664                         51.0004         46.0004
 -23323234.97048 -18132377.95548  20541171.2204   20541170.9414   20541172.2154
      1131.0044                         53.0004         48.0004
  -5020191.04647  -3860998.16746  24067649.3174   24067649.7244   24067650.9294
      2629.5124                         43.0004         37.0004
 -12071083.46647  -9352812.33446  22499318.6304   22499318.6214   22499320.6214
      2720.0654                         47.0004         41.0004
  -6830939.93347  -5270678.22746  23713944.2544   23713944.7344   23713945.8534
     -2794.1124                         45.0004         40.0004
 08  5 27  0 34  0.0000000  0  8G31G24G21G 6G16G18G 3G29
 -10819081.79447  -8360703.28147  23058917.6174   23058917.5334   23058919.0014
     -3241.7094                         47.0004         42.0004
 -10324693.98247  -7996004.56046  23117768.2904   23117768.3934   23117770.3934
     -3006.7464                         47.0004         41.0004
 -21581019.50248 -16760103.63148  20895384.2934   20895383.5714   20895384.7864
      -370.3054                         53.0004         48.0004
 -18579159.13748 -14419900.77047  21302779.0484   21302778.7104   21302781.2744
      1617.9184                         51.0004         46.0004
 -23356972.95848 -18158667.29748  20534751.0594   20534750.4634   20534752.3304
      1117.5574                         53.0004         48.0004
  -5098988.40847  -3922398.67946  24052654.2174   24052654.0094   24052656.5844
      2623.2154                         43.0004         37.0004
 -12152602.21547  -9416333.42646  22483806.0964   22483805.9044   22483807.5044
      2713.6554                         47.0004         41.0004
  -6747092.06547  -5205342.23246  23729899.7674   23729900.5654   23729901.7984
     -2796.1124                         45.0004         40.0004
 08  5 27  0 34 30.0000000  0  8G31G24G21G 6G16G18G 3G29
 -10721734.34047  -8284848.12547  23077442.5424   23077442.6854   23077443.6364
     -3248.8834                         46.0004         42.0004
 -10234366.76747  -7925619.71746  23134956.5844   23134956.5984   23134959.5064
     -3016.0474                         47.0004         41.0004
 -21569679.10748 -16751266.95548  20897542.2284   20897541.6144   20897542.9374
      -386.5654                         53.0004         48.0004
 -18627589.64048 -14457638.82347  21293563.0024   21293563.1964   21293564.9144
      1610.0554                         51.0004         46.0004
 -23390315.81448 -18184648.74348  20528406.3004   20528405.6434   20528407.0564
      1104.4624                         53.0004         48.0004
  -5177603.30947  -3983657.03046  24037693.6994   24037693.6394   24037695.7734
      2616.8864                         43.0004         37.0004
 -12233938.26247  -9479712.15146  22468328.1234   22468327.8834   22468330.3314
      2707.6954                         47.0004         41.0004
  -6663188.11847  -5139962.54946  23745866.0534   23745865.8704   23745868.7494
     -2797.9954                         45.0004         40.0004
 08  5 27  0 35  0.0000000  0  8G31G24G21G 6G16G18G 3G29
 -10624179.31847  -8208831.24547  23096006.3454   23096006.5334   23096008.3934
     -3255.4554                         46.0004         42.0004
 -10143773.62547  -7855027.67946  23152195.0934   23152195.5104   23152198.8354
     -3024.5094                         46.0004         40.0004
 -21557847.64848 -16742047.63448  20899793.7014   20899792.9774   20899794.3134
      -402.8124                         53.0004         48.0004
 -18675783.81848 -14495192.71647  21284391.9284   21284391.4364   21284393.7914
      1602.3694                         51.0004         46.0004
 -23423262.82348 -18210321.73648  20522136.5584   20522136.0354   20522137.6684
      1091.4454                         53.0004         48.0004
  -5256033.51247  -4044771.45346  24022769.6444   24022768.6854   24022770.5894
      2611.0484                         43.0004         37.0004
 -12315091.73947  -9542948.61346  22452885.2564   22452885.8274   22452888.3014
      2702.0554                         47.0004         41.0004
  -6579229.24547  -5074540.09346  23761842.9684   23761842.3974   23761845.0034
     -2799.5844                         45.0004         40.0004
 08  5 27  0 35 30.0000000  0  8G31G24G21G 6G16G18G 3G29
 -10526419.54547  -8132654.82547  23114609.8694   23114610.0704   23114610.8324
     -3262.2114                         47.0004         42.0004
 -10052917.33047  -7784230.56846  23169485.3154   23169485.9864   23169488.1264
     -3033.1944                         47.0004         40.0004
 -21545525.33848 -16732445.83048  20902138.5194   20902138.0254   20902139.2694
      -419.2474                         53.0004         48.0004
 -18723741.54348 -14532562.35947  21275265.9524   21275266.0564   21275268.1644
      1594.3574                         51.0004         46.0004
 -23455812.17448 -18235684.86248  20515942.7034   20515942.3354   20515943.5694
      1078.0214                         53.0004         48.0004
  -5334276.17847  -4105739.76446  24007880.3284   24007879.0004   24007881.4624
      2604.6294                         43.0004         37.0004
 -12396062.19547  -9606042.45446  22437477.1654   22437476.3454   22437480.2404
      2695.5434                         47.0004         41.0004
  -6495216.18247  -5009075.37446  23777830.5914   23777830.4004   23777832.1034
     -2801.8674                         45.0004         40.0004
 08  5 27  0 36  0.0000000  0  8G31G24G21G 6G16G18G 3G29
 -10428456.63847  -8056320.09746  23133251.4924   23133251.3034   23133252.3504
     -3268.8194                         46.0004         41.0004
  -9961798.99247  -7713229.25246  23186823.9504   23186824.1254   23186827.9344
     -3041.6904                         46.0004         40.0004
 -21532712.13948 -16722461.51448  20904576.9544   20904576.6554   20904577.4734
      -435.2254                         53.0004         48.0004
 -18771461.52648 -14569746.75147  21266185.2284   21266184.8584   21266187.1224
      1586.6234                         51.0004         46.0004
 -23487961.21148 -18260736.05648  20509824.9354   20509824.5684   20509825.7784
      1065.0864                         53.0004         49.0004
  -5412327.32847  -4166558.80846  23993027.6884   23993026.5574   23993029.4864
      2598.6844                         43.0004         37.0004
 -12476847.05647  -9668991.67946  22422104.2794   22422103.9874   22422106.5054
      2689.6334                         47.0004         41.0004
  -6411148.51547  -4943568.12046  23793827.6004   23793828.3204   23793830.3784
     -2803.1484                         45.0004         40.0004
 08  5 27  0 36 30.0000000  0  8G31G24G21G 6G16G18G 3G29
 -10330293.41647  -7979829.29546  23151931.2084   23151931.6854   23151933.1824
     -3275.2894                         47.0004         41.0004
  -9870420.52047  -7642025.25546  23204212.6634   23204211.9724   23204215.5354
     -3050.2354                         46.0004         40.0004
 -21519408.10048 -16712094.72448  20907108.5664   20907108.2004   20907109.6444
      -451.6134                         53.0004         48.0004
 -18818942.61748 -14606744.99947  21257149.7994   21257150.0624   21257151.7244
      1578.5754                         51.0004         46.0004
 -23519707.80948 -18285473.65948  20503783.7044   20503783.2534   20503784.5724
      1051.4454                         53.0004         49.0004
  -5490183.56047  -4227225.98746  23978211.5024   23978212.3564   23978214.0824
      2591.8174                         43.0004         37.0004
 -12557445.41347  -9731795.57846  22406767.1964   22406766.9324   22406769.2974
      2683.3274                         47.0004         41.0004
  -6327026.06947  -4878018.20846  23809835.3894   23809835.8864   23809839.3584
     -2805.0354                         44.0004         40.0004
 08  5 27  0 37  0.0000000  0  8G31G24G21G 6G16G18G 3G29
 -10231935.42247  -7903186.71146  23170648.2874   23170647.8474   23170648.9374
     -3281.4304                         46.0004         41.0004
  -9778787.93647  -7570623.24646  23221650.4164   23221650.2754   23221652.8434
     -3058.2094                         46.0004         40.0004
 -21505617.51448 -16701348.81348  20909732.7774   20909732.2114   20909732.9934
      -467.5774                         53.0004         48.0004
 -18866188.08348 -14643559.63847  21248159.1794   21248159.6784   21248161.1194
      1571.3264                         52.0004         46.0004
 -23551053.64448 -18309898.98148  20497818.8724   20497818.6044   20497819.4244
      1038.5134                         53.0004         49.0004
  -5567844.97247  -4287741.39146  23963434.2504   23963434.3314   23963435.9994
      2585.8994                         44.0004         37.0004
 -12637859.62847  -9794455.97646  22391464.9204   22391464.8644   22391465.6854
      2677.6284                         47.0004         41.0004
  -6242852.57347  -4812428.48146  23825853.9814   23825854.2574   23825854.8224
     -2806.0514                         45.0004         40.0004
 08  5 27  0 37 30.0000000  0  8G31G24G21G 6G16G18G 3G29
 -10133383.61947  -7826393.12246  23189402.0554   23189401.5814   23189401.8874
     -3288.6114                         46.0004         41.0004
  -9686901.90047  -7499023.73146  23239135.1614   23239135.0104   23239138.4504
     -3067.2794                         46.0004         40.0004
 -21491339.57048 -16690223.13948  20912449.7584   20912449.5954   20912450.6184
      -484.1104                         53.0004         48.0004
 -18913195.76048 -14680188.98947  21239214.0334   21239213.4924   21239215.9894
      1562.7874                         52.0004         46.0004
 -23581995.47248 -18334009.49248  20491930.8464   20491930.6754   20491931.4454
      1024.5034                         53.0004         49.0004
  -5645307.16147  -4348101.50846  23948693.2374   23948690.9864   23948693.0774
      2577.9994                         43.0004         37.0004
 -12718087.40647  -9856971.11246  22376197.5294   22376197.0114   22376199.9564
      2671.0344                         47.0004         41.0004
  -6158626.87047  -4746798.07746  23841880.4034   23841881.3984   23841883.4224
     -2808.2334                         44.0004         39.0004
 08  5 27  0 38  0.0000000  0  8G31G24G21G 6G16G18G 3G29
 -10034640.29247  -7749450.27146  23208192.4984   23208192.3974   23208193.5934
     -3294.7344                         46.0004         41.0004
  -9594763.90447  -7427227.90546  23256668.6634   23256669.2724   23256672.0014
     -3075.9164                         46.0004         40.0004
 -21476573.63648 -16678717.21448  20915259.7574   20915259.2924   20915260.1794
      -500.6044                         53.0004         48.0004
 -18959964.57048 -14716632.21547  21230314.2574   21230314.0834   21230315.9654
      1554.7964                         51.0004         46.0004
 -23612530.96048 -18357803.37448  20486120.3094   20486119.5914   20486121.0074
      1010.8764                         53.0004         49.0004
  -5722566.81247  -4408303.79246  23933990.8574   23933991.4564   23933993.0754
      2571.6874                         44.0004         37.0004
 -12798126.99647  -9919339.61846  22360966.6364   22360966.4874   22360968.3574
      2664.5984                         47.0004         41.0004
  -6074348.65047  -4681126.76546  23857918.4604   23857918.8714   23857921.5834
     -2810.3004                         44.0004         39.0004
 08  5 27  0 38 30.0000000  0  8G31G24G21G 6G16G18G 3G29
  -9935710.22947  -7672361.93246  23227017.9474   23227018.5314   23227018.2144
     -3300.9054                         46.0004         41.0004
  -9502378.05847  -7355238.92846  23274249.1164   23274249.0384   23274252.2814
     -3083.6394                         46.0004         40.0004
 -21461322.66748 -16666833.33848  20918161.8854   20918161.2874   20918162.1144
      -516.5884                         53.0004         48.0004
 -19006496.10248 -14752890.55047  21221459.4774   21221458.7884   21221461.2984
      1547.1594                         51.0004         46.0004
 -23642660.22648 -18381280.72048  20480386.7164   20480386.4094   20480387.4294
       997.4474                         53.0004         49.0004
  -5799621.77247  -4468346.63446  23919328.5504   23919328.2674   23919329.1324
      2565.2374                         44.0004         37.0004
 -12877979.40147  -9981562.24446  22345771.2304   22345771.2054   22345772.8114
      2658.4884                         47.0004         41.0004
  -5990020.41647  -4615416.48546  23873966.6594   23873966.9674   23873968.4834
     -2811.8914                         45.0004         40.0004
 08  5 27  0 39  0.0000000  0  8G31G24G21G 6G16G18G 3G29
  -9836594.69347  -7595129.07346  23245878.9804   23245879.3524   23245880.3704
     -3307.0264                         46.0004         41.0004
  -9409745.91847  -7283058.05046  23291876.3734   23291877.2094   23291878.2634
     -3091.8644                         46.0004         40.0004
 -21445586.13048 -16654571.10348  20921156.3644   20921156.2134   20921156.6584
      -532.7514                         53.0004         48.0004
 -19052788.72448 -14788962.72247  21212650.3904   21212650.3534   21212652.1584
      1538.8884                         52.0004         46.0004
 -23672380.31448 -18404439.22848  20474731.0474   20474731.0734   20474732.0274
       983.7364                         53.0004         49.0004
  -5876468.52547  -4528227.19546  23904703.9214   23904703.8104   23904703.5824
      2557.8704                         43.0004         37.0004
 -12957642.98247 -10043637.75646  22330611.7264   22330611.6404   22330613.9294
      2652.1334                         47.0004         41.0004
  -5905641.32947  -4549666.57246  23890022.6204   23890023.2004   23890025.2954
     -2813.6134                         44.0004         39.0004
 08  5 27  0 39 30.0000000  0  9G31G25G24G21G 6G16G18G 3G29
  -9737299.79747  -7517756.43646  23264773.8454   23264775.3534   23264775.2704
     -3312.7534                         46.0004         41.0004
   -929131.26747   -681993.71646  24798928.5744   24798928.8274   24798930.0114
      2145.0694                         42.0004         36.0004
  -9316872.97947  -7210689.54646  23309549.8254   23309549.0504   23309550.6764
     -3099.8574                         46.0004         40.0004
 -21429368.29848 -16641933.83048  20924242.5424   20924241.8614   20924242.7854
      -548.5514                         53.0004         48.0004
 -19098845.45748 -14824851.07947  21203886.0384   21203885.8134   21203887.5394
      1531.3674                         52.0004         46.0004
 -23701693.26148 -18427280.48048  20469153.1664   20469153.0074   20469154.2124
       970.3814                         53.0004         49.0004
  -5953107.30447  -4587945.69946  23890120.6894   23890119.7344   23890122.7614
      2551.3684                         44.0004         38.0004
 -13037120.08147 -10105567.93946  22315487.5664   22315487.3904   22315489.8964
      2646.3124                         47.0004         41.0004
  -5821215.17647  -4483879.98246  23906087.6754   23906088.7294   23906091.1654
     -2815.3584                         44.0004         39.0004
 08  5 27  0 40  0.0000000  0  9G31G25G24G21G 6G16G18G 3G29
  -9637825.00047  -7440243.62646  23283703.1364   23283704.3994   23283705.3474
     -3318.8074                         46.0004         41.0004
   -993274.11746   -731975.17646  24786721.4804   24786721.4834   24786723.6984
      2131.9434                         40.0004         36.0004
  -9223758.23947  -7138132.60246  23327269.4314   23327269.0574   23327272.7014
     -3108.0564                         46.0004         40.0004
 -21412666.50248 -16628919.43948  20927420.9034   20927420.0034   20927421.4844
      -564.8114                         53.0004         48.0004
 -19144662.43648 -14860552.61947  21195167.4484   21195166.5814   21195169.2724
      1523.1654                         52.0004         46.0004
 -23730594.08148 -18449800.59848  20463653.3764   20463652.8664   20463654.2064
       956.4924                         53.0004         49.0004
  -6029531.61847  -4647497.10146  23875577.5974   23875576.9274   23875578.8844
      2543.6684                         44.0004         38.0004
 -13116406.26347 -10167349.35946  22300400.1784   22300399.4334   22300401.6394
      2639.5364                         47.0004         41.0004
  -5736738.90247  -4418054.33246  23922163.8334   23922164.3744   23922166.3954
     -2816.5084                         44.0004         39.0004
 08  5 27  0 40 30.0000000  0  9G31G25G24G21G 6G16G18G 3G29
  -9538171.85047  -7362591.84646  23302666.7834   23302666.2774   23302668.2684
     -3325.1434                         46.0004         41.0004
  -1057015.26146   -781643.50045  24774589.9004   24774591.1454   24774593.3844
      2117.4564                         36.0004         35.0004
  -9130403.03447  -7065388.27346  23345033.4604   23345033.5524   23345036.4034
     -3116.3834                         45.0004         40.0004
 -21395480.12748 -16615527.45548  20930691.2834   20930690.8844   20930691.8774
      -581.3324                         53.0004         48.0004
 -19190238.38948 -14896066.34147  21186494.5314   21186494.4484   21186496.3854
      1514.7104                         52.0004         46.0004
 -23759079.81648 -18471997.27148  20458232.6904   20458232.4724   20458233.5934
       942.1094                         53.0004         49.0004
  -6105737.59947  -4706878.37946  23861076.0644   23861074.3254   23861077.1424
      2535.5354                         44.0004         38.0004
 -13195499.84547 -10228980.69546  22285348.8814   22285348.5664   22285350.8024
      2632.6914                         47.0004         41.0004
  -5652211.92647  -4352189.18746  23938248.2474   23938249.3164   23938251.6684
     -2818.9094                         44.0004         39.0004
 08  5 27  0 41  0.0000000  0  9G31G25G24G21G 6G16G18G 3G29
  -9438345.07847  -7284804.75346  23321663.5624   23321663.8294   23321663.8484
     -3330.1524                         45.0004         41.0004
  -1120354.27047   -830998.48546  24762540.1804   24762539.0924   24762542.0794
      2104.9244                         42.0004         37.0004
  -9036811.65747  -6992459.92746  23362843.6784   23362843.6184   23362845.4004
     -3123.3154                         45.0004         40.0004
 -21377811.79748 -16601759.91548  20934053.3994   20934053.3464   20934053.7394
      -596.8344                         53.0004         48.0004
 -19235574.63748 -14931393.28347  21177867.4304   21177867.6924   21177869.9464
      1507.3834                         52.0004         46.0004
 -23787150.92848 -18493870.86748  20452891.0084   20452890.5474   20452892.0804
       928.9254                         53.0004         49.0004
  -6181724.21047  -4766088.69746  23846615.8584   23846615.2184   23846617.4514
      2529.4404                         43.0004         38.0004
 -13274401.76847 -10290462.68946  22270334.5034   22270333.1414   22270336.6134
      2627.0524                         47.0004         41.0004
  -5567636.38947  -4286286.20446  23954342.5944   23954342.6184   23954345.5054
     -2820.1794                         44.0004         39.0004
 08  5 27  0 41 30.0000000  0 10G31G25G24G21G19G 6G16G18G 3G29
  -9338348.47447  -7206885.35046  23340692.6194   23340692.4374   23340693.4924
     -3336.1154                         46.0004         41.0004
  -1183290.16747   -880039.48446  24750563.5514   24750563.7314   24750563.4734
      2091.1594                         42.0004         36.0004
  -8942987.83447  -6919350.45046  23380697.6304   23380696.7804   23380700.5274
     -3131.5164                         46.0004         40.0004
 -21359663.70048 -16587618.53848  20937506.9574   20937506.4264   20937507.3774
      -612.9384                         53.0004         48.0004
  -1011870.82646   -739236.76846  24864937.9784   24864937.3674   24864938.7434
      2958.7864                         40.0004         36.0004
 -19280671.97748 -14966534.06247  21169285.5734   21169285.5144   21169287.3754
      1499.4044                         52.0004         46.0004
 -23814806.85648 -18515420.94148  20447628.2694   20447628.2884   20447629.3104
       914.9964                         53.0004         49.0004
  -6257489.51347  -4825126.57946  23832199.8824   23832199.0634   23832199.5814
      2521.7094                         45.0004         38.0004
 -13353112.35847 -10351795.59146  22255356.1404   22255354.7904   22255357.9894
      2620.4904                         47.0004         41.0004
  -5483014.30947  -4220346.93546  23970446.3054   23970446.6984   23970448.3354
     -2821.4284                         45.0004         39.0004
 08  5 27  0 42  0.0000000  0 10G31G25G24G21G19G 6G16G18G 3G29
  -9238182.53547  -7128833.97946  23359753.3624   23359753.9594   23359754.2474
     -3341.6774                         46.0004         41.0004
  -1245818.64046   -928763.00446  24738663.7564   24738663.4754   24738665.8254
      2077.7544                         40.0004         36.0004
  -8848931.38447  -6846059.71046  23398595.6804   23398595.5924   23398599.3314
     -3138.9074                         45.0004         40.0004
 -21341034.17648 -16573102.02148  20941052.0114   20941051.5984   20941052.1724
      -628.9084                         53.0004         48.0004
  -1100589.63746   -808368.23646  24848055.5714   24848054.4664   24848055.7074
      2956.0094                         41.0004         36.0004
 -19325527.72048 -15001486.58347  21160749.8304   21160749.1524   21160751.2524
      1491.0644                         52.0004         46.0004
 -23842043.47948 -18536644.28548  20442445.3204   20442444.8444   20442446.0994
       900.8554                         53.0004         49.0004
  -6333028.39047  -4883988.03446  23817823.4914   23817821.9604   23817824.8864
      2514.3734                         43.0004         38.0004
 -13431628.44947 -10412976.94046  22240415.1774   22240414.3544   22240417.8054
      2613.9044                         47.0004         41.0004
  -5398343.22847  -4154369.48046  23986558.2084   23986558.5064   23986560.3244
     -2823.0124                         44.0004         39.0004
 08  5 27  0 42 30.0000000  0 10G31G25G24G21G19G 6G16G18G 3G29
  -9137850.58447  -7050653.24946  23378845.6794   23378844.5234   23378846.3474
     -3347.0674                         45.0004         40.0004
  -1307938.58846   -977168.06545  24726842.8224   24726842.1024   24726845.6654
      2064.0424                         40.0004         35.0004
  -8754645.50347  -6772590.19646  23416537.7284   23416538.4884   23416541.9774
     -3146.4884                         46.0004         40.0004
 -21321925.32248 -16558211.99848  20944688.3244   20944687.7424   20944688.8714
      -644.7784                         53.0004         48.0004
  -1189227.01246   -877436.28546  24831187.7454   24831186.1964   24831188.3434
      2953.2164                         40.0004         36.0004
 -19370142.45448 -15036251.30747  21152259.9734   21152259.4894   21152261.9034
      1483.4524                         52.0004         46.0004
 -23868860.33448 -18557540.53548  20437342.3684   20437341.9754   20437343.3204
       887.2184                         53.0004         49.0004
  -6408338.51447  -4942671.20446  23803492.8194   23803492.6274   23803494.5974
      2506.6374                         43.0004         38.0004
 -13509949.92547 -10474006.64046  22225510.8474   22225510.6054   22225513.4654
      2607.7404                         47.0004         41.0004
  -5313624.19747  -4088354.69246  24002679.8104   24002679.4764   24002682.4234
     -2824.4414                         44.0004         39.0004
 08  5 27  0 43  0.0000000  0 10G31G25G24G21G19G 6G16G18G 3G29
  -9037359.91947  -6972348.85746  23397968.1224   23397968.5774   23397969.1324
     -3352.5894                         45.0004         41.0004
  -1369652.06347  -1025256.42946  24715100.9564   24715101.2334   24715102.2124
      2050.1464                         42.0004         37.0004
  -8660136.36447  -6698946.69946  23434522.5304   23434523.1814   23434525.3204
     -3153.9664                         45.0004         40.0004
 -21302341.95448 -16542952.22548  20948414.8974   20948414.2774   20948414.9004
      -660.6994                         53.0004         48.0004
  -1277786.53746   -946443.65945  24814335.5984   24814332.7464   24814335.9794
      2950.8424                         40.0004         35.0004
 -19414519.83048 -15070831.07347  21143815.2074   21143814.5784   21143816.9044
      1475.2214                         52.0004         46.0004
 -23895259.81848 -18578111.56448  20432318.6104   20432318.2374   20432319.4644
       872.8834                         53.0004         49.0004
  -6483421.17747  -5001177.17646  23789205.3434   23789204.2994   23789205.3454
      2499.0244                         44.0004         38.0004
 -13588080.40547 -10534887.52146  22210643.2844   22210643.4154   22210645.4454
      2601.1654                         47.0004         41.0004
  -5228862.23547  -4022306.44746  24018809.4604   24018809.5034   24018811.2924
     -2826.0284                         43.0004         39.0004
 08  5 27  0 43 30.0000000  0 10G31G25G24G21G19G 6G16G18G 3G29
  -8936708.01247  -6893918.82146  23417121.3264   23417122.4264   23417124.4894
     -3357.7714                         45.0004         40.0004
  -1430951.76047  -1073022.43046  24703435.2884   24703434.3554   24703437.0404
      2036.2714                         42.0004         37.0004
  -8565401.42247  -6625127.28446  23452549.7904   23452550.5174   23452552.5134
     -3161.3754                         45.0004         40.0004
 -21282279.57748 -16527319.19348  20952232.4634   20952231.8464   20952233.0374
      -676.6374                         53.0004         48.0004
  -1366262.10446  -1015385.63846  24797499.0494   24797498.9994   24797500.6194
      2948.2224                         40.0004         36.0004
 -19458654.34948 -15105221.60647  21135416.6744   21135416.3844   21135418.9824
      1467.2104                         52.0004         46.0004
 -23921235.46848 -18598352.33148  20427375.6954   20427375.1974   20427376.5304
       858.9074                         53.0004         49.0004
  -6558268.12347  -5059499.46146  23774962.2624   23774963.0614   23774964.8204
      2490.8654                         44.0004         38.0004
 -13666013.64147 -10595614.70247  22195813.2204   22195814.0394   22195816.2664
      2594.7604                         47.0004         42.0004
  -5144052.89447  -3956221.25446  24034948.7934   24034948.8144   24034950.3374
     -2827.7424                         44.0004         39.0004
 08  5 27  0 44  0.0000000  0 10G31G25G24G21G19G 6G16G18G 3G29
  -8835901.55547  -6815368.35546  23436303.6754   23436304.9844   23436304.5324
     -3362.7574                         45.0004         40.0004
  -1491839.93746  -1120467.75746  24691847.1024   24691847.3314   24691850.6794
      2022.6794                         39.0004         36.0004
  -8470447.02247  -6551136.86946  23470619.2864   23470620.1134   23470622.0034
     -3168.7884                         45.0004         40.0004
 -21261743.02248 -16511316.68448  20956140.4314   20956140.2434   20956141.0394
      -692.5264                         53.0004         48.0004
  -1454657.37146  -1084265.02146  24780678.0524   24780678.5574   24780678.5294
      2945.1914                         41.0004         36.0004
 -19502549.66848 -15139425.74447  21127063.5114   21127063.5114   21127065.7934
      1459.0084                         52.0004         46.0004
 -23946789.30148 -18618264.41248  20422512.9094   20422512.5664   20422513.6594
       844.5624                         53.0004         49.0004
  -6632880.45047  -5117638.89646  23760763.9844   23760762.8924   23760765.1324
      2483.5614                         44.0004         38.0004
 -13743752.72047 -10656190.58646  22181019.9854   22181019.8514   22181022.2224
      2588.0024                         47.0004         41.0004
  -5059199.99047  -3890102.11746  24051095.7034   24051094.9354   24051098.0364
     -2829.0984                         44.0004         39.0004
 08  5 27  0 44 30.0000000  0 10G31G25G24G21G19G 6G16G18G 3G29
  -8734940.04047  -6736697.05046  23455517.2784   23455517.8914   23455519.0314
     -3368.1404                         46.0004         40.0004
  -1552311.25446  -1167588.22146  24680340.8094   24680342.5914   24680341.2554
      2008.7374                         40.0004         36.0004
  -8375272.37347  -6476974.79646  23488730.4054   23488729.3584   23488732.0574
     -3176.0254                         45.0004         39.0004
 -21240730.28948 -16494943.12347  20960139.1574   20960138.7564   20960139.8124
      -708.5734                         53.0004         47.0004
  -1542968.69646  -1153078.99646  24763872.8984   24763872.5304   24763873.9244
      2942.2834                         41.0004         37.0004
 -19546202.16448 -15173440.68047  21118756.8494   21118756.6454   21118758.6164
      1450.9944                         52.0004         46.0004
 -23971917.09048 -18637844.50548  20417731.2634   20417730.6474   20417732.2574
       830.2974                         53.0004         49.0004
  -6707252.02647  -5175590.74946  23746611.9994   23746611.0944   23746613.5144
      2474.8254                         44.0004         38.0004
 -13821293.68647 -10716612.11347  22166264.6714   22166264.9564   22166267.0204
      2581.3444                         47.0004         42.0004
  -4974300.84947  -3823946.99346  24067250.9474   24067251.6614   24067253.6384
     -2830.8864                         43.0004         39.0004
 08  5 27  0 45  0.0000000  0 10G31G25G24G21G19G 6G16G18G 3G29
  -8633830.54447  -6657910.45846  23474757.5854   23474757.1434   23474758.5324
     -3373.0104                         45.0004         40.0004
  -1612367.97247  -1214385.64846  24668912.9334   24668912.7274   24668915.4724
      1994.7394                         43.0004         37.0004
  -8279883.92447  -6402646.14346  23506881.8794   23506881.9554   23506885.9884
     -3183.3844                         45.0004         39.0004
 -21219246.37048 -16478202.40447  20964227.3904   20964227.1524   20964227.5704
      -724.1704                         53.0004         47.0004
  -1631199.74746  -1221830.40946  24747083.4224   24747083.7214   24747082.9694
      2939.4774                         40.0004         36.0004
 -19589615.80948 -15207269.48147  21110495.4654   21110494.8104   21110497.8594
      1442.8244                         52.0004         46.0004
 -23996621.39048 -18657094.61148  20413030.1694   20413030.0204   20413030.6484
       816.1004                         53.0004         49.0004
  -6781384.25347  -5233356.13246  23732504.9154   23732504.4264   23732505.9854
      2466.7124                         44.0004         38.0004
 -13898640.18248 -10776882.08746  22151545.9374   22151546.0174   22151547.7904
      2574.8604                         48.0004         41.0004
  -4889360.45147  -3757759.69146  24083414.9604   24083415.0974   24083415.0564
     -2832.2624                         44.0004         39.0004
 08  5 27  0 45 30.0000000  0 10G31G25G24G21G19G 6G16G18G 3G29
  -8532572.07347  -6579007.76846  23494026.4734   23494026.4764   23494027.3244
     -3378.1054                         45.0004         40.0004
  -1672004.64347  -1260855.78246  24657564.2964   24657563.1954   24657564.9744
      1980.8174                         42.0004         37.0004
  -8184280.36647  -6328149.86646  23525075.2104   23525074.9714   23525077.4194
     -3190.6444                         46.0004         40.0004
 -21197288.57348 -16461092.42748  20968405.8724   20968405.4734   20968406.3914
      -740.0094                         53.0004         48.0004
  -1719346.50246  -1290516.14546  24730310.0364   24730310.4484   24730309.5394
      2937.0634                         41.0004         36.0004
 -19632786.54848 -15240909.00447  21102280.5384   21102279.9324   21102282.0994
      1434.7514                         52.0004         46.0004
 -24020896.71148 -18676010.44548  20408410.6724   20408410.1264   20408411.4304
       801.8654                         53.0004         49.0004
  -6855270.45947  -5290929.76846  23718444.2004   23718444.3224   23718446.0804
      2458.5704                         43.0004         38.0004
 -13975787.23447 -10836996.66347  22136865.3334   22136864.9124   22136866.2004
      2567.8634                         47.0004         42.0004
  -4804375.15247  -3691537.38646  24099586.6354   24099586.7804   24099589.0404
     -2833.7754                         43.0004         39.0004
 08  5 27  0 46  0.0000000  0 11G31G25G24G21G19G 6G16G18G22G 3G29
  -8431168.17147  -6499991.75846  23513322.7454   23513322.1694   23513324.3454
     -3382.4554                         45.0004         40.0004
  -1731219.85846  -1306997.51246  24646294.1844   24646294.3524   24646297.6514
      1966.7024                         40.0004         36.0004
  -8088464.90947  -6253488.47946  23543307.6354   23543308.2524   23543311.2134
     -3197.4144                         45.0004         39.0004
 -21174858.64448 -16443614.55748  20972674.0864   20972673.3964   20972674.3744
      -755.5724                         53.0004         48.0004
  -1807408.90046  -1359136.16946  24713552.0214   24713551.7774   24713552.2844
      2934.4814                         41.0004         37.0004
 -19675714.77948 -15274359.56747  21094111.3074   21094111.6874   21094113.4174
      1426.8194                         52.0004         46.0004
 -24044742.45348 -18694591.54848  20403872.9944   20403872.4174   20403873.7264
       787.6664                         53.0004         49.0004
  -6928908.85947  -5348310.31446  23704432.4914   23704432.2294   23704432.6814
      2450.0114                         45.0004         38.0004
   -737666.34146   -523696.51345  24921098.7024   24921097.7434   24921098.2284
      3207.4074                         41.0004         34.0004
 -14052735.36848 -10896956.23147  22122222.4044   22122222.4614   22122225.0174
      2561.6154                         48.0004         42.0004
  -4719345.95447  -3625280.89746  24115767.6644   24115767.3514   24115769.6714
     -2835.2174                         43.0004         39.0004
 08  5 27  0 46 30.0000000  0 11G31G25G24G21G19G 6G16G18G22G 3G29
  -8329623.87947  -6420866.37846  23532645.7444   23532648.0114   23532648.0364
     -3387.1874                         44.0004         40.0004
  -1790013.91047  -1352811.02546  24635107.3714   24635107.6394   24635110.4214
      1952.6704                         42.0004         37.0004
  -7992441.78147  -6178665.27246  23561580.2484   23561579.9454   23561583.7964
     -3204.1514                         44.0004         39.0004
 -21151959.61048 -16425771.14748  20977031.6064   20977030.8624   20977032.3014
      -771.1694                         53.0004         48.0004
  -1895388.51246  -1427691.64746  24696810.0854   24696809.2274   24696810.0764
      2931.1504                         41.0004         37.0004
 -19718401.97348 -15307622.30447  21085988.4204   21085988.6264   21085989.9304
      1418.9544                         52.0004         46.0004
 -24068159.12848 -18712838.30848  20399416.9764   20399416.9864   20399417.8434
       773.3804                         53.0004         49.0004
  -7002298.33947  -5405496.89946  23690465.8784   23690466.2444   23690467.6034
      2442.1444                         44.0004         38.0004
   -833926.42446   -598704.35345  24902781.1844   24902778.8884   24902782.8324
      3209.4614                         40.0004         35.0004
 -14129485.36047 -10956761.40847  22107617.2664   22107617.0334   22107618.6794
      2555.0624                         47.0004         42.0004
  -4634275.59547  -3558992.33246  24131955.8094   24131955.6304   24131958.7924
     -2836.6494                         43.0004         39.0004
 08  5 27  0 47  0.0000000  0 11G31G25G24G21G19G 6G16G18G22G 3G29
  -8227940.69847  -6341632.75446  23551995.9364   23551996.1244   23551997.0794
     -3392.5074                         45.0004         40.0004
  -1848383.78047  -1398294.01846  24624000.3584   24624000.1634   24624002.6654
      1938.2944                         42.0004         38.0004
  -7896212.45547  -6103681.37546  23579893.0204   23579891.6074   23579894.2464
     -3211.9304                         45.0004         39.0004
 -21128591.36148 -16407562.11848  20981478.4414   20981478.0444   20981478.9184
      -787.1224                         53.0004         48.0004
  -1983284.11446  -1496181.68446  24680083.4834   24680082.7944   24680082.5944
      2927.7854                         40.0004         36.0004
 -19760847.00648 -15340696.34347  21077911.1914   21077911.3134   21077912.9464
      1410.2244                         52.0004         46.0004
 -24091144.37148 -18730748.89048  20395043.1264   20395042.8674   20395043.9694
       758.5744                         53.0004         49.0004
  -7075434.68547  -5462486.23246  23676548.1184   23676547.4574   23676548.4824
      2433.2304                         44.0004         38.0004
   -930251.40046   -673762.66945  24884452.0264   24884449.9924   24884451.4074
      3211.4874                         41.0004         35.0004
 -14206035.62447 -11016410.94647  22093050.0404   22093049.7524   22093052.2594
      2547.9514                         47.0004         42.0004
  -4549163.35247  -3492671.13246  24148152.5784   24148152.0664   24148154.0034
     -2838.4144                         43.0004         38.0004
 08  5 27  0 47 30.0000000  0 11G31G25G24G21G19G 6G16G18G22G 3G29
  -8126119.94847  -6262291.93046  23571371.9834   23571372.6744   23571372.4844
     -3396.2454                         45.0004         40.0004
  -1906326.14846  -1443443.86046  24612973.3984   24612973.5674   24612976.3604
      1924.1664                         41.0004         37.0004
  -7799777.74447  -6028537.44546  23598242.8684   23598242.3324   23598246.8914
     -3217.8824                         45.0004         39.0004
 -21104753.29648 -16388987.00148  20986014.6794   20986014.4684   20986015.1694
      -802.4624                         53.0004         48.0004
  -2071093.56346  -1564604.61046  24663373.9694   24663372.6344   24663374.1674
      2925.4334                         40.0004         36.0004
 -19803047.91648 -15373580.15547  21069880.7484   21069880.6144   21069882.8704
      1402.6834                         52.0004         46.0004
 -24113695.12148 -18748320.90848  20390751.8424   20390751.5164   20390752.6354
       744.4744                         53.0004         49.0004
  -7148313.49547  -5519274.86746  23662680.0534   23662679.5534   23662681.5374
      2425.0154                         44.0004         38.0004
  -1026636.90146   -748868.30445  24866108.5794   24866110.5874   24866105.2004
      3214.1114                         41.0004         34.0004
 -14282383.34247 -11075902.66847  22078521.6174   22078521.9914   22078524.0304
      2541.5994                         47.0004         42.0004
  -4464008.18247  -3426316.45846  24164356.4634   24164356.8984   24164358.5724
     -2839.3544                         43.0004         38.0004
 08  5 27  0 48  0.0000000  0 11G31G25G24G21G19G 6G16G18G22G 3G29
  -8024167.54047  -6182848.51446  23590773.0524   23590772.4334   23590773.6414
     -3400.8784                         45.0004         40.0004
  -1963842.51246  -1488261.79446  24602028.3004   24602028.6624   24602029.5394
      1909.7794                         41.0004         36.0004
  -7703143.30247  -5953237.90346  23616631.9464   23616632.3544   23616635.2324
     -3224.7334                         44.0004         39.0004
 -21080449.99248 -16370049.35248  20990639.4434   20990639.1054   20990639.7834
      -818.0394                         53.0004         48.0004
  -2158819.41946  -1632962.38146  24646680.1544   24646679.8644   24646680.3474
      2922.6164                         41.0004         36.0004
 -19845008.01148 -15406276.32247  21061896.0284   21061895.7144   21061898.4564
      1394.5314                         52.0004         46.0004
 -24135813.49848 -18765556.00848  20386542.7024   20386542.4654   20386543.5184
       729.9014                         53.0004         49.0004
  -7220935.59247  -5575863.49646  23648861.0074   23648860.7324   23648862.4554
      2416.5094                         45.0004         39.0004
  -1123083.45246   -824021.52645  24847754.4224   24847753.7004   24847754.9734
      3215.1644                         40.0004         35.0004
 -14358531.42848 -11135238.82947  22064031.1774   22064030.3754   22064032.3994
      2534.8784                         48.0004         42.0004
  -4378813.83347  -3359931.28846  24180568.7384   24180569.4514   24180571.9534
     -2840.2644                         43.0004         38.0004
 08  5 27  0 48 30.0000000  0 11G31G25G24G21G19G 6G16G18G22G 3G29
  -7922085.48247  -6103304.08246  23610198.1794   23610198.0154   23610199.6054
     -3405.2004                         44.0004         40.0004
  -2020929.87646  -1532745.48546  24591164.6274   24591165.0004   24591167.1094
      1895.2724                         40.0004         37.0004
  -7606310.21847  -5877783.54146  23635059.1904   23635059.4254   23635062.0814
     -3231.3094                         45.0004         39.0004
 -21055681.31348 -16350749.08047  20995352.7494   20995352.1384   20995353.3174
      -833.5794                         53.0004         47.0004
  -2246460.07446  -1701253.77046  24630002.7954   24630002.3314   24630003.1654
      2919.6384                         41.0004         36.0004
 -19886725.49248 -15438783.44647  21053957.4504   21053957.3894   21053958.8774
      1386.4354                         52.0004         46.0004
 -24157496.76748 -18782452.06748  20382416.6814   20382416.3304   20382417.3854
       715.3154                         53.0004         49.0004
  -7293296.86247  -5632248.88946  23635090.0144   23635090.0954   23635090.7444
      2407.2424                         44.0004         38.0004
  -1219587.30446   -899219.19946  24829391.8454   24829391.3174   24829391.7964
      3217.5664                         41.0004         36.0004
 -14434478.07348 -11194418.02047  22049578.8754   22049579.8064   22049581.3784
      2528.1004                         48.0004         42.0004
  -4293579.45547  -3293514.92546  24196787.8174   24196787.5634   24196790.4104
     -2842.0504                         42.0004         38.0004
 08  5 27  0 49  0.0000000  0 11G31G25G24G21G19G 6G16G18G22G 3G29
  -7819875.76947  -6023660.17146  23629648.0614   23629649.5634   23629649.2824
     -3409.3334                         45.0004         40.0004
  -2077585.69947  -1576892.83246  24580383.7964   24580383.8634   24580385.3104
      1881.1704                         42.0004         37.0004
  -7509280.47447  -5802175.93446  23653522.3964   23653522.5654   23653525.1074
     -3238.2214                         44.0004         39.0004
 -21030447.59648 -16331086.44147  21000154.6434   21000154.4244   21000154.6744
      -849.2364                         53.0004         47.0004
  -2334014.94547  -1769478.31946  24613342.0684   24613341.8664   24613340.4534
      2916.7174                         42.0004         37.0004
 -19928199.46348 -15471100.81947  21046065.0684   21046064.6404   21046067.1684
      1378.1264                         52.0004         46.0004
 -24178742.66348 -18799007.31248  20378373.5944   20378373.6014   20378374.4214
       700.6774                         52.0004         49.0004
  -7365393.59547  -5688428.12046  23621371.1584   23621370.4204   23621371.7824
      2398.5834                         45.0004         38.0004
  -1316145.06946   -974459.03345  24811017.0594   24811017.8264   24811017.1734
      3219.3394                         41.0004         35.0004
 -14510221.90447 -11253439.17647  22035165.2104   22035164.7254   22035167.6084
      2521.1364                         47.0004         42.0004
  -4208304.88447  -3227067.23446  24213015.0754   24213014.9474   24213016.9964
     -2843.0784                         43.0004         38.0004
 08  5 27  0 49 30.0000000  0 11G31G25G24G21G19G 6G16G18G22G 3G29
  -7717548.06747  -5943924.31146  23649120.5684   23649120.4394   23649121.5754
     -3412.8984                         44.0004         40.0004
  -2133815.01447  -1620707.83646  24569684.1494   24569684.4394   24569688.2384
      1867.1824                         43.0004         38.0004
  -7412063.05947  -5726422.13146  23672023.1714   23672023.2574   23672026.0494
     -3243.7944                         44.0004         39.0004
 -21004756.80048 -16311067.63748  21005043.5884   21005043.4544   21005043.7644
      -864.1044                         53.0004         48.0004
  -2421489.71146  -1837640.44446  24596696.0564   24596695.9784   24596696.5524
      2914.2214                         41.0004         37.0004
 -19969436.46148 -15503233.54047  21038218.1004   21038217.3834   21038219.9184
      1370.6304                         52.0004         47.0004
 -24199556.64448 -18815226.00148  20374412.8524   20374412.5504   20374413.8544
       686.6074                         53.0004         49.0004
  -7437229.87947  -5744404.43246  23607701.3994   23607700.7874   23607702.4104
      2389.6154                         44.0004         39.0004
  -1412760.52446  -1049743.88845  24792631.9394   24792629.7254   24792630.9434
      3221.5354                         40.0004         34.0004
 -14585768.88548 -11312306.94547  22020789.5284   22020790.1344   22020791.4684
      2514.8674                         48.0004         42.0004
  -4122997.14347  -3160593.68046  24229249.2434   24229250.2164   24229251.5784
     -2844.1664                         44.0004         38.0004
 08  5 27  0 50  0.0000000  0 11G31G25G24G21G19G 6G16G18G22G 3G29
  -7615092.90247  -5864089.16446  23668616.9384   23668616.7874   23668618.7424
     -3417.4804                         44.0004         40.0004
  -2189603.80347  -1664179.59146  24559068.0854   24559067.9124   24559070.5424
      1852.1784                         42.0004         38.0004
  -7314648.10347  -5650514.37046  23690560.3194   23690561.4464   23690563.5244
     -3250.7974                         45.0004         39.0004
 -20978597.81648 -16290684.01148  21010021.3034   21010021.1684   21010021.6554
      -879.9494                         53.0004         48.0004
  -2508872.03046  -1905730.54146  24580067.4134   24580066.4334   24580067.8624
      2910.8934                         40.0004         37.0004
 -20010423.97948 -15535171.86347  21030418.2734   21030418.0724   21030419.9224
      1362.0634                         52.0004         47.0004
 -24219925.14948 -18831097.56548  20370536.8974   20370536.6614   20370537.6424
       671.3144                         53.0004         49.0004
  -7508790.98847  -5800166.30646  23594083.2144   23594082.1204   23594085.2264
      2380.2984                         44.0004         39.0004
  -1509419.08346  -1125062.26146  24774238.4744   24774240.1214   24774239.6614
      3222.0014                         41.0004         36.0004
 -14661105.51548 -11371010.79847  22006453.2434   22006452.9084   22006455.3414
      2507.5664                         48.0004         42.0004
  -4037644.67447  -3094085.26946  24245491.3874   24245491.6964   24245493.7684
     -2846.1154                         43.0004         38.0004
 08  5 27  0 50 30.0000000  0 11G31G25G24G21G19G 6G16G18G22G 3G29
  -7512517.55147  -5784160.33446  23688136.6754   23688137.0744   23688137.6894
     -3421.1194                         44.0004         39.0004
  -2244954.83146  -1707310.27946  24548534.1924   24548533.7214   24548534.4144
      1838.1934                         41.0004         36.0004
  -7217042.56247  -5574458.08946  23709133.4194   23709133.4344   23709136.4984
     -3256.6204                         44.0004         38.0004
 -20951976.13148 -16269939.83947  21015087.3014   21015086.6914   21015087.2404
      -894.9284                         53.0004         47.0004
  -2596166.07246  -1973751.85246  24563456.3874   24563453.8854   24563457.5184
      2908.4564                         41.0004         37.0004
 -20051166.02148 -15566918.90647  21022665.2974   21022665.3694   21022667.0674
      1354.0534                         52.0004         47.0004
 -24239851.14148 -18846624.31648  20366745.2384   20366744.8144   20366746.0934
       656.8784                         52.0004         49.0004
  -7580078.10547  -5855714.67646  23580517.5504   23580518.2174   23580518.3644
      2371.6914                         45.0004         39.0004
  -1606122.31446  -1200415.37346  24755837.4154   24755838.1454   24755838.1854
      3224.3714                         41.0004         36.0004
 -14736235.85248 -11429553.90447  21992156.7284   21992156.5234   21992158.0494
      2500.8924                         48.0004         42.0004
  -3952252.13047  -3027545.64446  24261740.5364   24261742.1984   24261743.7244
     -2847.0824                         43.0004         38.0004
 08  5 27  0 51  0.0000000  0 11G31G25G24G21G19G 6G16G18G22G 3G29
  -7409827.07947  -5704141.79346  23707677.5484   23707677.7154   23707679.5224
     -3424.3984                         44.0004         40.0004
  -2299868.45447  -1750100.11046  24538084.7994   24538084.7134   24538088.7134
      1824.0994                         42.0004         37.0004
  -7119250.83947  -5498256.75446  23727742.7714   23727743.4274   23727746.5194
     -3262.3374                         44.0004         38.0004
 -20924895.20848 -16248837.82047  21020240.6184   21020240.1344   21020240.6684
      -909.8394                         53.0004         47.0004
  -2683373.24447  -2041705.48946  24546861.1664   24546861.3904   24546861.4504
      2905.9314                         42.0004         37.0004
 -20091664.51148 -15598476.16747  21014958.7714   21014958.7834   21014960.7424
      1346.2154                         52.0004         47.0004
 -24259335.80448 -18861807.17348  20363037.3824   20363037.2184   20363038.2134
       642.4744                         53.0004         49.0004
  -7651090.59647  -5911049.07046  23567004.9604   23567005.1974   23567006.3854
      2362.9424                         45.0004         39.0004
  -1702869.63246  -1275802.89045  24737425.5954   24737426.5584   24737425.2704
      3225.9034                         41.0004         35.0004
 -14811160.92748 -11487937.06247  21977898.5284   21977898.7664   21977901.4464
      2494.4684                         48.0004         42.0004
  -3866822.16547  -2960976.85946  24277997.3284   24277997.2824   24277999.2474
     -2847.7864                         43.0004         38.0004
 08  5 27  0 51 30.0000000  0 11G31G25G24G21G19G 6G16G18G22G 3G29
  -7307024.37447  -5624035.83946  23727241.0324   23727241.9774   23727242.1544
     -3429.5064                         45.0004         40.0004
  -2354343.06647  -1792547.81646  24527719.3924   24527718.6914   24527721.8454
      1807.7644                         43.0004         39.0004
  -7021275.70647  -5421912.49446  23746387.4814   23746386.3064   23746390.9164
     -3269.6304                         44.0004         39.0004
 -20897356.43848 -16227379.03747  21025481.0784   21025480.4484   21025481.3604
      -926.3444                         53.0004         47.0004
  -2770493.11147  -2109591.08646  24530282.5204   24530281.4194   24530283.3144
      2901.5084                         42.0004         37.0004
 -20131919.37348 -15629843.58947  21007298.3524   21007298.3654   21007300.7024
      1336.9614                         52.0004         47.0004
 -24278377.72548 -18876645.03548  20359413.8484   20359413.5434   20359414.5264
       626.4934                         53.0004         49.0004
  -7721826.06747  -5966167.57846  23553544.5944   23553543.7464   23553546.4704
      2352.3474                         44.0004         39.0004
  -1799658.48447  -1351222.80346  24719006.8374   24719007.2984   24719006.2924
      3226.0274                         42.0004         36.0004
 -14885880.38548 -11546160.00747  21963680.2884   21963681.2174   21963682.5654
      2486.3344                         48.0004         42.0004
  -3781355.37147  -2894379.35146  24294261.8814   24294262.7104   24294263.3974
     -2850.4174                         43.0004         38.0004
 08  5 27  0 52  0.0000000  0 11G31G25G24G21G19G 6G16G18G22G 3G29
  -7204112.42647  -5543844.72246  23746823.8244   23746824.1424   23746824.7734
     -3432.0694                         44.0004         39.0004
  -2408377.37347  -1834652.43446  24517436.0394   24517436.5214   24517439.8094
      1793.6944                         42.0004         38.0004
  -6923119.70947  -5345427.31446  23765065.0184   23765065.2454   23765067.1904
     -3275.0574                         43.0004         38.0004
 -20869360.90948 -16205564.33447  21030808.2894   21030808.1594   21030808.7914
      -940.9574                         53.0004         47.0004
  -2857525.77446  -2177408.74246  24513720.6824   24513720.0664   24513720.7894
      2899.0734                         41.0004         37.0004
 -20171930.42148 -15661021.02647  20999684.6534   20999684.4864   20999686.1544
      1329.4774                         52.0004         47.0004
 -24296975.66948 -18891136.93448  20355874.7724   20355874.3244   20355875.5814
       612.2554                         53.0004         49.0004
  -7792282.04547  -6021068.30446  23540137.0224   23540136.4384   23540138.1534
      2343.7914                         45.0004         39.0004
  -1896486.39146  -1426673.05646  24700581.2234   24700580.2444   24700583.5184
      3228.3014                         41.0004         36.0004
 -14960393.84948 -11604222.42447  21949500.5424   21949500.6164   21949502.7994
      2480.0664                         49.0004         43.0004
  -3695852.49647  -2827753.76146  24310531.5684   24310530.9594   24310535.1664
     -2851.0754                         43.0004         38.0004
 08  5 27  0 52 30.0000000  0 11G31G25G24G21G19G 6G16G18G22G 3G29
  -7101091.06347  -5463568.34146  23766427.7164   23766429.3384   23766431.1164
     -3435.7464                         44.0004         39.0004
  -2461966.36847  -1876410.04846  24507238.5894   24507238.7524   24507239.7804
      1778.9874                         42.0004         37.0004
  -6824781.80947  -5268800.37746  23783778.6314   23783778.7174   23783782.1394
     -3280.9554                         44.0004         38.0004
 -20840907.09948 -16183392.53047  21036222.9874   21036222.2704   21036222.8414
      -956.0874                         53.0004         47.0004
  -2944467.46747  -2245155.46946  24497176.5924   24497175.6874   24497177.0024
      2896.3914                         42.0004         37.0004
 -20211694.32648 -15692005.87047  20992117.6824   20992117.2654   20992119.7054
      1321.3784                         52.0004         47.0004
 -24315125.41948 -18905279.59948  20352420.8894   20352420.5134   20352421.5354
       597.5074                         52.0004         49.0004
  -7862452.50647  -6075746.56646  23526784.2794   23526784.0654   23526784.0604
      2334.0414                         45.0004         39.0004
  -1993347.15947  -1502148.92845  24682149.9964   24682151.2924   24682151.3224
      3229.0594                         42.0004         35.0004
 -15034697.66448 -11662121.49247  21935361.2354   21935361.4724   21935362.6954
      2473.1934                         48.0004         43.0004
  -3610310.85547  -2761097.97146  24326809.6024   24326809.8624   24326812.7024
     -2852.4224                         42.0004         38.0004
 08  5 27  0 53  0.0000000  0 11G31G25G24G21G19G 6G16G18G22G 3G29
  -6997967.10847  -5383212.04246  23786052.0804   23786051.9884   23786052.8334
     -3439.0944                         43.0004         39.0004
  -2515112.73447  -1917822.80446  24497125.4974   24497125.7084   24497126.8944
      1764.5394                         43.0004         37.0004
  -6726268.32647  -5192036.62546  23802525.4884   23802525.3634   23802529.0684
     -3286.5444                         44.0004         38.0004
 -20812000.00448 -16160867.51747  21041723.8414   21041723.5104   21041723.8694
      -971.0344                         53.0004         47.0004
  -3031322.30247  -2312834.53446  24480648.9284   24480647.8034   24480649.2474
      2893.2564                         42.0004         37.0004
 -20251214.97248 -15722801.17447  20984597.2584   20984597.2624   20984598.8764
      1313.4234                         52.0004         47.0004
 -24332829.57548 -18919075.04648  20349051.9024   20349051.7554   20349052.8224
       582.8314                         52.0004         49.0004
  -7932338.67847  -6130203.30446  23513485.3184   23513484.8484   23513486.2384
      2325.2814                         45.0004         39.0004
  -2090242.24147  -1577651.64345  24663711.9704   24663710.6574   24663711.0714
      3230.1894                         42.0004         35.0004
 -15108794.58548 -11719859.34447  21921260.9894   21921260.8834   21921264.3314
      2466.3444                         49.0004         43.0004
  -3524734.87546  -2694415.41646  24343094.4204   24343094.0504   24343096.6884
     -2853.2364                         41.0004         37.0004
 08  5 27  0 53 30.0000000  0 11G31G25G24G21G19G 6G16G18G22G 3G29
  -6894741.08347  -5302776.21046  23805694.9644   23805696.7404   23805696.8784
     -3442.3714                         44.0004         39.0004
  -2567812.29347  -1958887.39346  24487097.5554   24487097.5574   24487099.1354
      1749.2854                         44.0004         38.0004
  -6627579.60447  -5115136.34046  23821304.7824   23821305.0474   23821307.5874
     -3292.3974                         43.0004         38.0004
 -20782638.62148 -16137988.51547  21047311.1824   21047310.5614   21047311.3924
      -986.2074                         53.0004         47.0004
  -3118087.31346  -2380443.63246  24464137.3574   24464135.6944   24464137.3664
      2890.7624                         41.0004         36.0004
 -20290489.59148 -15753404.77147  20977123.5954   20977123.5254   20977125.8504
      1305.0484                         52.0004         47.0004
 -24350084.76148 -18932520.64848  20345768.4884   20345768.0624   20345769.0704
       567.7974                         52.0004         49.0004
  -8001935.38747  -6184434.49346  23500241.3954   23500240.5904   23500242.9154
      2315.0344                         45.0004         39.0004
  -2187167.03146  -1653177.38145  24645267.1544   24645268.8684   24645270.0194
      3231.5784                         40.0004         35.0004
 -15182681.71648 -11777433.71547  21907200.6414   21907200.5484   21907202.3144
      2459.4104                         49.0004         43.0004
  -3439122.37047  -2627704.36946  24359385.7664   24359386.7404   24359388.6204
     -2854.3714                         42.0004         37.0004
 08  5 27  0 54  0.0000000  0 11G31G25G24G21G19G 6G16G18G22G 3G29
  -6791416.58547  -5222263.62646  23825357.2404   23825357.3764   23825358.9794
     -3445.9684                         44.0004         39.0004
  -2620064.14047  -1999603.08546  24477153.6934   24477153.1704   24477156.5284
      1734.3754                         43.0004         38.0004
  -6528718.67847  -5038101.82846  23840118.7474   23840118.4734   23840120.5974
     -3298.2244                         44.0004         38.0004
 -20752825.08448 -16114757.18547  21052984.4254   21052984.1384   21052984.4104
     -1001.4074                         53.0004         47.0004
  -3204762.46646  -2447982.68146  24447643.5984   24447643.0644   24447643.5864
      2887.7554                         41.0004         37.0004
 -20329518.83048 -15783817.15747  20969696.4864   20969696.2294   20969697.9564
      1296.7464                         52.0004         47.0004
 -24366890.34648 -18945615.90848  20342570.3434   20342570.4934   20342571.0354
       552.6074                         52.0004         49.0004
  -8071240.88247  -6238438.74146  23487052.6514   23487052.0014   23487054.3684
      2305.0984                         45.0004         39.0004
  -2284119.05046  -1728724.37446  24626817.9764   24626819.9734   24626820.5804
      3231.7544                         41.0004         36.0004
 -15256359.43948 -11834844.91247  21893180.0514   21893179.1654   21893182.0184
      2452.3684                         49.0004         43.0004
  -3353474.81247  -2560966.01546  24375684.3984   24375684.8364   24375686.4534
     -2855.5574                         42.0004         38.0004
 08  5 27  0 54 30.0000000  0 11G31G25G24G21G19G 6G16G18G22G 3G29
  -6688000.20147  -5141679.44646  23845036.6374   23845037.1954   23845038.5594
     -3448.5014                         43.0004         39.0004
  -2671870.59147  -2039971.69446  24467295.1424   24467294.4244   24467296.5884
      1719.2444                         43.0004         38.0004
  -6429691.75647  -4960937.98446  23858961.4444   23858961.7174   23858963.7264
     -3303.1664                         43.0004         38.0004
 -20722564.35648 -16091177.39747  21058742.7914   21058742.1874   21058742.9094
     -1016.3194                         53.0004         47.0004
  -3291351.48347  -2515454.61246  24431166.3654   24431166.2444   24431165.9334
      2884.7284                         42.0004         37.0004
 -20368306.15448 -15814041.03947  20962315.3874   20962315.4644   20962317.2654
      1288.8864                         52.0004         47.0004
 -24383248.91748 -18958362.84748  20339457.5594   20339457.2624   20339458.0094
       537.7624                         52.0004         49.0004
  -8140256.10547  -6292216.82946  23473919.9284   23473919.0744   23473921.5334
      2295.5314                         46.0004         39.0004
  -2381099.46446  -1804293.57345  24608362.5724   24608362.9114   24608362.5794
      3232.7024                         40.0004         35.0004
 -15329830.47348 -11892095.05747  21879199.2544   21879198.3794   21879200.0204
      2445.5174                         49.0004         43.0004
  -3267796.35447  -2494203.61046  24391987.6974   24391988.6624   24391992.2024
     -2856.4214                         42.0004         38.0004
 08  5 27  0 55  0.0000000  0 11G31G25G24G21G19G 6G16G18G22G 3G29
  -6584485.38047  -5061018.59346  23864735.0244   23864735.8464   23864737.1114
     -3451.9084                         44.0004         39.0004
  -2723220.39247  -2079984.51346  24457523.5424   24457522.4744   24457525.6414
      1704.5004                         42.0004         38.0004
  -6330491.46847  -4883639.10046  23877839.9274   23877839.3174   23877842.4324
     -3309.4624                         44.0004         38.0004
 -20691847.88948 -16067242.48547  21064588.1514   21064587.4844   21064588.3924
     -1031.3064                         53.0004         47.0004
  -3377844.36547  -2582851.64646  24414707.5464   24414706.3124   24414706.3244
      2881.6044                         42.0004         37.0004
 -20406841.56048 -15844068.61747  20954982.3594   20954982.5624   20954984.1064
      1280.5004                         52.0004         47.0004
 -24399149.67548 -18970753.04548  20336431.7364   20336431.4204   20336432.2434
       522.5174                         52.0004         49.0004
  -8208968.90947  -6345759.25446  23460843.9744   23460843.9824   23460845.4884
      2285.5224                         45.0004         39.0004
  -2478095.93846  -1879875.23046  24589905.9774   24589903.7334   24589905.2544
      3233.7964                         41.0004         36.0004
 -15403084.68548 -11949176.25047  21865259.5344   21865259.6594   21865261.0374
      2438.4284                         49.0004         43.0004
  -3182077.80747  -2427409.96146  24408300.2744   24408299.0824   24408303.4504
     -2857.6684                         42.0004         37.0004
 08  5 27  0 55 30.0000000  0 11G31G25G24G21G19G 6G16G18G22G 3G29
  -6480884.13747  -4980290.35246  23884450.1074   23884449.6164   23884450.1194
     -3454.8904                         43.0004         39.0004
  -2774121.31847  -2119647.54546  24447837.5964   24447837.7474   24447840.1874
      1688.9004                         43.0004         38.0004
  -6231129.54847  -4806214.23146  23896747.5044   23896747.1814   23896748.9194
     -3314.8894                         44.0004         38.0004
 -20660686.44248 -16042960.83747  21070517.8764   21070517.6194   21070517.7944
     -1046.3334                         53.0004         47.0004
  -3464249.91747  -2650180.60946  24398265.2794   24398263.7894   24398264.8814
      2878.3534                         42.0004         37.0004
 -20445134.24948 -15873907.06947  20947695.5424   20947695.1484   20947697.3684
      1272.0784                         52.0004         47.0004
 -24414600.47748 -18982792.62648  20333491.5964   20333491.3364   20333492.0174
       507.1874                         52.0004         49.0004
  -8277385.69547  -6399071.01546  23447823.9174   23447823.3004   23447825.3834
      2275.4894                         45.0004         39.0004
  -2575114.98346  -1955474.44946  24571443.9664   24571441.7604   24571441.4514
      3233.8924                         41.0004         36.0004
 -15476130.44848 -12006095.01847  21851359.3914   21851358.8264   21851361.0064
      2431.0984                         49.0004         43.0004
  -3096328.73347  -2360592.50646  24424617.2044   24424618.9584   24424620.5334
     -2859.2074                         42.0004         37.0004
 08  5 27  0 56  0.0000000  0 11G31G25G24G21G19G 6G16G18G22G 3G29
  -6377194.38447  -4899493.16446  23904181.1304   23904182.1634   23904183.8644
     -3458.2304                         44.0004         39.0004
  -2824566.75547  -2158955.64846  24438238.4274   24438237.8774   24438240.5984
      1673.6014                         43.0004         38.0004
  -6131603.25247  -4728661.27246  23915685.9834   23915685.7614   23915689.2114
     -3321.2074                         43.0004         38.0004
 -20629076.42248 -16018329.64747  21076533.0504   21076532.7114   21076533.3334
     -1061.5714                         53.0004         47.0004
  -3550562.94347  -2717437.49546  24381840.5864   24381840.5134   24381839.9284
      2874.8964                         42.0004         37.0004
 -20483178.86448 -15903552.21847  20940455.9264   20940455.9654   20940458.3794
      1263.5804                         52.0004         47.0004
 -24429595.35348 -18994476.94448  20330638.0064   20330637.6914   20330638.7464
       491.9044                         52.0004         49.0004
  -8345498.63047  -6452146.00146  23434863.5474   23434863.7644   23434864.0824
      2264.7184                         46.0004         39.0004
  -2672149.03646  -2031085.39245  24552978.1614   24552978.2904   24552979.0554
      3234.1394                         41.0004         35.0004
 -15548961.70348 -12062846.62947  21837499.9004   21837499.7064   21837501.7244
      2423.6124                         49.0004         43.0004
  -3010544.82146  -2293747.89446  24440943.5214   24440942.1634   24440944.7564
     -2860.4464                         41.0004         37.0004
 08  5 27  0 56 30.0000000  0 11G31G25G24G21G19G 6G16G18G22G 3G29
  -6273420.28947  -4818630.28146  23923929.0594   23923929.8224   23923929.8624
     -3460.3534                         43.0004         39.0004
  -2874556.72147  -2197908.89146  24428725.8234   24428725.9194   24428726.3944
      1658.8574                         43.0004         38.0004
  -6031916.53747  -4650983.31846  23934656.4724   23934655.8964   23934659.6234
     -3324.9994                         44.0004         38.0004
 -20597020.48948 -15993350.99147  21082633.1574   21082632.2624   21082633.5314
     -1075.7064                         53.0004         47.0004
  -3636784.20547  -2784622.86346  24365433.5914   24365432.6384   24365433.6294
      2872.9144                         42.0004         37.0004
 -20520976.62948 -15933005.01847  20933263.0374   20933262.8434   20933265.4384
      1256.0894                         52.0004         47.0004
 -24444134.04348 -19005805.79248  20327871.4134   20327870.9794   20327872.3334
       477.3534                         52.0004         49.0004
  -8413306.84647  -6504983.56646  23421960.2724   23421960.3244   23421960.3474
      2255.6164                         46.0004         40.0004
  -2769196.41747  -2106706.75446  24534510.7884   24534510.5164   24534509.9384
      3235.3834                         42.0004         36.0004
 -15621579.58848 -12119431.97847  21823681.1874   21823680.7924   21823683.6824
      2417.2214                         49.0004         43.0004
  -2924727.86847  -2226877.56946  24457271.1174   24457273.0764   24457275.8874
     -2860.8144                         42.0004         38.0004
 08  5 27  0 57  0.0000000  0 11G31G25G24G21G19G 6G16G18G22G 3G29
  -6169564.12247  -4737703.39346  23943691.3384   23943692.8134   23943693.7704
     -3463.2254                         43.0004         38.0004
  -2924089.21246  -2236505.63846  24419298.0864   24419298.3414   24419301.3994
      1643.8954                         41.0004         37.0004
  -5932071.44847  -4573181.95146  23953655.8034   23953655.6234   23953659.2524
     -3330.5444                         43.0004         38.0004
 -20564519.54248 -15968025.57947  21088817.9314   21088817.1474   21088817.6354
     -1090.5114                         53.0004         47.0004
  -3722913.04046  -2851736.24046  24349042.8484   24349041.3674   24349043.7964
      2869.4294                         41.0004         37.0004
 -20558526.76248 -15962264.85547  20926117.5584   20926117.7804   20926119.4944
      1247.8704                         52.0004         47.0004
 -24458215.62548 -19016778.45248  20325191.8314   20325191.3994   20325192.0634
       461.9954                         52.0004         49.0004
  -8480806.98147  -6557581.03646  23409114.4754   23409114.0484   23409116.3644
      2245.3244                         45.0004         39.0004
  -2866253.89246  -2182335.94246  24516041.4344   24516040.6094   24516042.4584
      3235.7494                         40.0004         36.0004
 -15693982.69048 -12175849.96747  21809903.1894   21809903.2744   21809905.1034
      2410.0954                         49.0004         43.0004
  -2838877.70747  -2159981.35346  24473609.7804   24473609.7274   24473610.7054
     -2862.2304                         42.0004         37.0004
 08  5 27  0 57 30.0000000  0 11G31G25G24G21G19G 6G16G18G22G 3G29
  -6065628.83947  -4656714.90146  23963469.9354   23963471.2244   23963473.0384
     -3465.5654                         44.0004         39.0004
  -2973162.96447  -2274744.83246  24409961.4184   24409961.4634   24409964.2644
      1628.4424                         43.0004         39.0004
  -5832070.38347  -4495259.05746  23972685.7024   23972685.6854   23972687.8894
     -3335.8454                         43.0004         37.0004
 -20531575.52048 -15942354.91047  21095086.9534   21095086.7954   21095086.5674
     -1105.3054                         53.0004         47.0004
  -3808949.35147  -2918777.49946  24332670.6294   24332669.1774   24332671.5024
      2865.9314                         42.0004         37.0004
 -20595829.36948 -15991331.81647  20919019.3024   20919019.3294   20919021.8044
      1239.3634                         52.0004         47.0004
 -24471838.90548 -19027393.99248  20322599.4164   20322599.1674   20322600.0244
       446.5094                         52.0004         49.0004
  -8547996.82547  -6609936.74346  23396329.5734   23396328.1264   23396329.3544
      2234.3504                         46.0004         39.0004
  -2963319.24546  -2257971.21146  24497569.3574   24497569.5024   24497571.2424
      3235.2004                         41.0004         36.0004
 -15766170.57348 -12232100.26147  21796166.6394   21796166.0774   21796169.0944
      2402.7424                         49.0004         43.0004
  -2752995.10046  -2093059.83546  24489950.9204   24489951.7284   24489953.0094
     -2863.3664                         41.0004         37.0004
 08  5 27  0 58  0.0000000  0 11G31G25G24G21G19G 6G16G18G22G 3G29
  -5961619.94647  -4575669.05646  23983262.7004   23983262.9294   23983264.3944
     -3468.0804                         44.0004         39.0004
  -3021778.30147  -2312626.90346  24400710.6024   24400710.6194   24400712.2694
      1613.0714                         44.0004         39.0004
  -5731917.52847  -4417217.86546  23991744.8514   23991744.8064   23991747.3474
     -3340.7164                         44.0004         38.0004
 -20498191.09648 -15916341.06947  21101439.7064   21101439.3274   21101440.0654
     -1119.9154                         53.0004         47.0004
  -3894894.35946  -2985747.60546  24316315.3204   24316315.6944   24316317.1444
      2863.2374                         41.0004         37.0004
 -20632885.99548 -16020207.09947  20911967.5294   20911967.2684   20911969.2044
      1231.3564                         52.0004         47.0004
 -24485004.63248 -19037652.99848  20320093.8914   20320094.1204   20320094.7764
       431.3844                         52.0004         49.0004
  -8614875.33847  -6662049.87146  23383602.5954   23383602.4754   23383604.6374
      2224.4504                         45.0004         40.0004
  -3060391.39647  -2333611.88446  24479098.7954   24479098.1054   24479099.2094
      3236.3044                         43.0004         36.0004
 -15838144.72448 -12288184.00647  21782470.1214   21782470.0734   21782472.4514
      2395.9094                         49.0004         43.0004
  -2667082.41547  -2026114.91546  24506300.0874   24506301.0174   24506304.6744
     -2863.8674                         42.0004         37.0004
 08  5 27  0 58 30.0000000  0 11G31G25G24G21G19G 6G16G18G22G 3G29
  -5857536.24247  -4494564.88446  24003068.9614   24003068.3374   24003069.6874
     -3470.6094                         42.0004         38.0004
  -3069930.50947  -2350148.11346  24391546.5564   24391546.4934   24391548.5754
      1597.3964                         43.0004         38.0004
  -5631611.82247  -4339057.57846  24010830.9394   24010831.5184   24010835.2304
     -3346.1424                         43.0004         37.0004
 -20464364.56548 -15889982.73147  21107876.5844   21107876.2734   21107877.2764
     -1135.0404                         53.0004         47.0004
  -3980744.65446  -3052643.91846  24299979.0834   24299978.7564   24299978.9594
      2860.0664                         41.0004         37.0004
 -20669692.99948 -16048887.87247  20904963.3424   20904963.2594   20904965.7624
      1222.5744                         52.0004         47.0004
 -24497708.26148 -19047551.93048  20317676.5604   20317676.0484   20317677.4234
       415.5144                         52.0004         49.0004
  -8681436.62547  -6713915.78946  23370936.3284   23370935.6524   23370938.3474
      2213.1594                         46.0004         40.0004
  -3157464.35746  -2409253.16646  24460624.3594   24460625.5374   24460627.5144
      3236.0294                         40.0004         36.0004
 -15909900.89948 -12344097.90447  21768815.3314   21768815.2394   21768817.7544
      2388.3034                         49.0004         43.0004
  -2581136.56546  -1959144.18046  24522656.0174   24522654.2274   24522656.1434
     -2865.5754                         41.0004         37.0004
 08  5 27  0 59  0.0000000  0 11G31G25G24G21G19G 6G16G18G22G 3G29
  -5753383.58147  -4413406.98546  24022889.2714   24022889.4654   24022890.0534
     -3472.8014                         43.0004         38.0004
  -3117621.08047  -2387309.57646  24382471.5734   24382471.4754   24382472.5294
      1582.3054                         42.0004         38.0004
  -5531158.42047  -4260782.23746  24029947.4114   24029947.2844   24029950.5724
     -3350.3944                         43.0004         37.0004
 -20430100.29648 -15863283.29747  21114396.9014   21114396.5844   21114397.3964
     -1149.1804                         53.0004         47.0004
  -4066502.53747  -3119468.23546  24283660.9594   24283660.8484   24283660.9944
      2857.2684                         43.0004         38.0004
 -20706252.99448 -16077376.17647  20898006.2854   20898005.8494   20898008.1324
      1214.8514                         52.0004         47.0004
 -24509951.50548 -19057092.12448  20315346.7164   20315346.5634   20315347.5004
       400.7184                         52.0004         49.0004
  -8747680.87347  -6765534.67846  23358330.6394   23358330.7774   23358332.2284
      2203.2624                         45.0004         40.0004
  -3254538.50046  -2484895.29846  24442154.2744   24442154.0764   24442155.1764
      3236.1544                         41.0004         36.0004
 -15981440.97848 -12399843.40547  21755201.3144   21755201.6064   21755203.2634
      2381.2574                         49.0004         43.0004
  -2495160.97446  -1892150.25346  24539015.1154   24539016.0744   24539019.2094
     -2866.0034                         41.0004         37.0004
 08  5 27  0 59 30.0000000  0 11G31G25G24G21G19G 6G16G18G22G 3G29
  -5649163.42547  -4332196.53046  24042721.5524   24042721.5434   24042721.4244
     -3474.8264                         43.0004         38.0004
  -3164846.85747  -2424108.86946  24373484.5434   24373484.0854   24373486.5784
      1566.4984                         43.0004         38.0004
  -5430558.06747  -4182392.33146  24049091.6204   24049091.5774   24049092.0954
     -3355.8474                         43.0004         37.0004
 -20395397.87248 -15836242.44947  21121000.5724   21120999.9754   21121001.0094
     -1164.0194                         53.0004         47.0004
  -4152166.14647  -3186219.07146  24267358.9844   24267358.3824   24267358.8134
      2853.9504                         42.0004         38.0004
 -20742564.18448 -16105670.59747  20891096.3674   20891096.3284   20891098.3414
      1206.2974                         52.0004         47.0004
 -24521731.61948 -19066271.43048  20313104.8984   20313104.4494   20313105.7394
       385.0314                         52.0004         49.0004
  -8813604.19947  -6816903.48746  23345785.5154   23345785.3344   23345786.2194
      2192.2384                         46.0004         40.0004
  -3351608.59847  -2560534.37546  24423681.1624   24423680.8834   24423682.5164
      3235.6794                         42.0004         36.0004
 -16052762.74348 -12455418.79847  21741629.5264   21741629.5514   21741632.4194
      2374.0064                         49.0004         43.0004
  -2409154.16547  -1825131.95146  24555383.5384   24555383.8684   24555384.5704
     -2867.2994                         42.0004         37.0004
 08  5 27  1  0  0.0000000  0 11G31G25G24G21G19G 6G16G18G22G 3G29
  -5544879.69647  -4250936.52146  24062566.0424   24062566.5314   24062566.8124
     -3476.9304                         43.0004         38.0004
  -3211607.66447  -2460545.81646  24364586.5974   24364585.3844   24364588.6774
      1551.6384                         43.0004         38.0004
  -5329814.61547  -4103890.95146  24068260.6524   24068259.7134   24068264.0344
     -3360.1234                         42.0004         37.0004
 -20360260.03148 -15808862.31047  21127686.9914   21127687.2874   21127687.7834
     -1177.9854                         53.0004         47.0004
  -4237736.48147  -3252897.21246  24251075.3954   24251075.0314   24251074.3164
      2851.1474                         42.0004         38.0004
 -20778627.63848 -16133771.98747  20884233.8404   20884233.6164   20884235.9854
      1198.2554                         52.0004         47.0004
 -24533048.92548 -19075090.11148  20310951.5264   20310951.3344   20310952.3834
       369.9384                         52.0004         49.0004
  -8879204.49747  -6868020.57846  23333302.2914   23333302.0784   23333303.1834
      2181.7594                         45.0004         40.0004
  -3448673.67646  -2636169.52646  24405209.2824   24405208.4124   24405209.5554
      3235.4934                         40.0004         36.0004
 -16123866.67448 -12510824.44947  21728098.9044   21728098.5504   21728101.3434
      2366.9774                         49.0004         43.0004
  -2323118.04746  -1758090.85146  24571753.6744   24571753.7844   24571756.3424
     -2868.0944                         40.0004         37.0004
 08  5 27  1  0 30.0000000  0 12G31G25G24G21G19G 6G16G 7G18G22G 3G29
  -5440533.12847  -4169627.50546  24082421.9824   24082423.9254   24082424.4034
     -3478.9114                         43.0004         38.0004
  -3257900.12147  -2496617.84246  24355778.2084   24355778.5934   24355779.6914
      1535.8634                         44.0004         39.0004
  -5228928.17847  -4025278.19046  24087460.1674   24087460.5274   24087463.3854
     -3364.8524                         43.0004         37.0004
 -20324686.15848 -15781142.40947  21134456.5144   21134456.0974   21134456.9434
     -1192.8284                         53.0004         47.0004
  -4323210.82346  -3319500.57246  24234810.1794   24234808.4164   24234811.6514
      2847.7724                         41.0004         37.0004
 -20814440.85648 -16161678.38947  20877418.6724   20877418.6304   20877420.6874
      1189.7804                         52.0004         47.0004
 -24543900.07848 -19083545.55748  20308886.5374   20308886.0024   20308886.9214
       354.0634                         52.0004         49.0004
  -1264748.81146   -934707.91745  25220904.2534   25220904.9364   25220904.1584
      2716.7464                         41.0004         34.0004
  -8944477.64447  -6918882.74746  23320881.0824   23320879.1674   23320882.3824
      2170.4994                         45.0004         40.0004
  -3545729.20347  -2711797.21246  24386741.5014   24386741.9214   24386740.6324
      3235.5134                         42.0004         37.0004
 -16194750.27448 -12566058.41147  21714610.1934   21714610.0894   21714612.3704
      2359.7044                         49.0004         43.0004
  -2237050.90546  -1691025.60046  24588131.6744   24588133.4554   24588136.8084
     -2868.8634                         40.0004         37.0004
 08  5 27  1  1  0.0000000  0 12G31G25G24G21G19G 6G16G 7G18G22G 3G29
  -5336129.92847  -4088274.44146  24102289.1394   24102289.4844   24102291.4544
     -3481.0474                         42.0004         38.0004
  -3303726.23947  -2532326.51246  24347057.3564   24347058.5044   24347058.6594
      1519.9204                         44.0004         39.0004
  -5127904.53747  -3946558.42446  24106684.4154   24106682.6404   24106686.1444
     -3369.6294                         43.0004         37.0004
 -20288681.07448 -15753086.49947  21141308.0634   21141307.9234   21141308.6684
     -1207.3324                         53.0004         47.0004
  -4408592.34246  -3386031.59146  24218562.3464   24218561.8464   24218561.8344
      2843.9574                         41.0004         37.0004
 -20850007.04048 -16189392.30147  20870650.8814   20870650.8464   20870653.1284
      1181.3494                         52.0004         47.0004
 -24554287.48948 -19091639.64048  20306909.9034   20306909.5864   20306910.3744
       338.5524                         52.0004         49.0004
  -1346051.76147   -998060.84945  25205432.1964   25205433.1814   25205433.2914
      2704.0604                         42.0004         35.0004
  -9009424.47347  -6969490.64146  23308522.1924   23308522.5124   23308523.7384
      2159.3054                         46.0004         40.0004
  -3642775.19747  -2787417.49346  24368273.7254   24368273.7644   24368274.2444
      3235.0714                         42.0004         36.0004
 -16265415.89948 -12621122.53047  21701163.0464   21701162.9044   21701165.9224
      2351.8104                         49.0004         43.0004
  -2150956.64946  -1623939.18946  24604516.6714   24604517.6104   24604518.1354
     -2869.9804                         41.0004         36.0004
 08  5 27  1  1 30.0000000  0 12G31G25G24G21G19G 6G16G 7G18G22G 3G29
  -5231668.41147  -4006875.85346  24122168.1624   24122169.7624   24122168.8754
     -3482.9184                         42.0004         38.0004
  -3349080.23047  -2567667.25546  24338425.8254   24338424.7614   24338430.1814
      1504.1464                         43.0004         38.0004
  -5026741.32047  -3867729.96746  24125934.5184   24125933.9404   24125937.6784
     -3374.3644                         42.0004         37.0004
 -20252241.76448 -15724692.22947  21148242.1084   21148241.7904   21148242.4064
     -1221.8094                         53.0004         47.0004
  -4493876.04547  -3452486.38146  24202334.0014   24202333.1594   24202333.6214
      2841.2644                         42.0004         37.0004
 -20885321.48748 -16216910.04947  20863930.6534   20863930.4654   20863932.2244
      1173.0814                         52.0004         47.0004
 -24564205.72048 -19099368.13148  20305022.5944   20305022.2034   20305023.1144
       322.8524                         52.0004         49.0004
  -1426990.05446  -1061129.64446  25190029.7524   25190029.2514   25190031.4034
      2692.1424                         41.0004         36.0004
  -9074037.83647  -7019838.71746  23296227.1594   23296226.4484   23296227.8154
      2148.1064                         46.0004         40.0004
  -3739804.52047  -2863024.77946  24349810.2374   24349811.2474   24349810.5364
      3234.3214                         43.0004         36.0004
 -16335858.34048 -12676012.72947  21687758.5174   21687757.9424   21687760.3294
      2344.4784                         49.0004         43.0004
  -2064831.31846  -1556828.52546  24620904.7744   24620904.0704   24620906.4484
     -2871.2944                         41.0004         36.0004
 08  5 27  1  2  0.0000000  0 12G31G25G24G21G19G 6G16G 7G18G22G 3G29
  -5127153.90847  -3925435.99146  24142056.6014   24142057.2884   24142058.3564
     -3484.5384                         42.0004         38.0004
  -3393963.01547  -2602640.82146  24329885.2904   24329885.3364   24329888.1664
      1488.5324                         43.0004         38.0004
  -4925443.04547  -3788796.26846  24145211.5774   24145211.3054   24145214.6704
     -3378.0964                         43.0004         37.0004
 -20215372.05148 -15695962.57847  21155258.3974   21155257.6504   21155258.3894
     -1236.0684                         53.0004         47.0004
  -4579063.98946  -3518866.57246  24186122.8734   24186120.5804   24186121.6104
      2838.0994                         41.0004         37.0004
 -20920386.15748 -16244233.17047  20857258.1774   20857257.5184   20857260.1754
      1164.8964                         52.0004         47.0004
 -24573655.90048 -19106731.90448  20303224.3584   20303223.6274   20303225.0004
       307.4034                         52.0004         49.0004
  -1507563.47946  -1123914.10745  25174696.8674   25174698.1664   25174699.4134
      2679.8044                         41.0004         35.0004
  -9138317.50747  -7069926.76946  23283994.6514   23283994.6904   23283996.1144
      2137.4264                         46.0004         40.0004
  -3836816.81747  -2938618.78646  24331350.7494   24331350.6844   24331351.1384
      3233.3444                         43.0004         37.0004
 -16406079.21048 -12730730.27347  21674395.5284   21674395.3674   21674398.2394
      2336.9464                         49.0004         43.0004
  -1978676.93846  -1489695.29846  24637300.0064   24637300.0874   24637302.0764
     -2872.0144                         41.0004         37.0004
 08  5 27  1  2 30.0000000  0 12G31G25G24G21G19G 6G16G 7G18G22G 3G29
  -5022590.58547  -3843958.14746  24161954.0774   24161954.1654   24161956.4894
     -3486.8904                         43.0004         38.0004
  -3438374.55747  -2637247.24246  24321434.6004   24321434.2534   24321436.0624
      1472.1114                         43.0004         38.0004
  -4824013.57047  -3709760.30746  24164512.2864   24164512.5274   24164514.6314
     -3383.7694                         43.0004         37.0004
 -20178074.52448 -15666899.57047  21162355.7314   21162355.3054   21162356.1904
     -1250.8714                         53.0004         47.0004
  -4664157.24646  -3585172.98846  24169929.2664   24169928.1154   24169928.6544
      2834.3174                         41.0004         37.0004
 -20955202.25648 -16271362.60047  20850632.9374   20850632.8714   20850634.4074
      1155.8614                         52.0004         47.0004
 -24582638.21348 -19113731.10848  20301514.9074   20301514.6004   20301515.7044
       291.1514                         52.0004         49.0004
  -1587771.10046  -1186413.56945  25159434.6534   25159436.1964   25159433.2494
      2666.7764                         40.0004         35.0004
  -9202261.91547  -7119753.55746  23271826.4514   23271826.0244   23271825.9074
      2125.4064                         46.0004         40.0004
  -3933810.49747  -3014198.25946  24312890.9494   24312890.8364   24312890.5694
      3232.5124                         42.0004         36.0004
 -16476079.46348 -12785275.91947  21661074.9034   21661074.0244   21661076.4864
      2329.2284                         49.0004         43.0004
  -1892495.85846  -1422541.26446  24653700.6194   24653699.2424   24653701.8504
     -2873.5854                         41.0004         37.0004
 08  5 27  1  3  0.0000000  0 12G31G25G24G21G19G 6G16G 7G18G22G 3G29
  -4917979.96747  -3762443.40646  24181861.2334   24181861.1504   24181862.6284
     -3488.0574                         42.0004         37.0004
  -3482312.39747  -2671484.51546  24313073.2314   24313072.7184   24313075.6064
      1456.7104                         43.0004         39.0004
  -4722453.88047  -3630622.90146  24183838.2214   24183838.7204   24183840.5544
     -3387.4874                         42.0004         37.0004
 -20140349.52948 -15637503.47147  21169534.5964   21169534.0514   21169534.8654
     -1264.7964                         53.0004         47.0004
  -4749154.09646  -3651404.25446  24153755.3334   24153753.9534   24153756.7274
      2831.2934                         41.0004         37.0004
 -20989768.20348 -16298297.10347  20844055.1294   20844055.1014   20844057.1974
      1147.8064                         52.0004         47.0004
 -24591150.60748 -19120364.14148  20299895.1974   20299895.0334   20299896.0164
       275.7874                         52.0004         49.0004
  -1667609.00546  -1248624.91945  25144241.7504   25144240.2194   25144241.9814
      2654.9514                         40.0004         35.0004
  -9265867.26147  -7169316.15146  23259723.5054   23259722.7544   23259724.0584
      2114.4844                         47.0004         40.0004
  -4030781.39047  -3089759.99646  24294438.7424   24294440.9494   24294440.1634
      3231.7054                         42.0004         36.0004
 -16545856.63348 -12839647.72947  21647796.7174   21647796.3104   21647798.6484
      2322.0484                         49.0004         43.0004
  -1806287.08746  -1355365.59346  24670103.4604   24670103.3924   24670105.3284
     -2874.2424                         41.0004         36.0004
 08  5 27  1  3 30.0000000  0 12G31G25G24G21G19G 6G16G 7G18G22G 3G29
  -4813324.30047  -3680893.55946  24201776.1874   24201775.4064   24201778.1734
     -3489.8304                         42.0004         37.0004
  -3525774.85747  -2705351.34646  24304802.8334   24304802.5004   24304804.4684
      1440.6994                         43.0004         39.0004
  -4620766.07347  -3551385.66146  24203190.4864   24203189.5414   24203192.9774
     -3391.6794                         44.0004         38.0004
 -20102198.45248 -15607775.36247  21176794.4564   21176793.7594   21176795.0154
     -1278.8614                         53.0004         47.0004
  -4834054.08447  -3717560.05946  24137599.0744   24137597.3144   24137598.4034
      2828.5284                         42.0004         37.0004
 -21024083.53448 -16325036.32247  20837525.1574   20837525.0924   20837527.2154
      1139.4324                         52.0004         47.0004
 -24599191.70148 -19126629.93048  20298364.9944   20298364.5384   20298365.7154
       260.0674                         52.0004         49.0004
  -1747074.50847  -1310546.10045  25129120.4324   25129119.8754   25129121.9244
      2642.3984                         42.0004         35.0004
  -9329130.99547  -7218612.55546  23247683.6274   23247684.4444   23247685.4274
      2102.9084                         46.0004         40.0004
  -4127726.54047  -3165301.70046  24275991.7924   24275990.8204   24275991.6564
      3231.2084                         42.0004         37.0004
 -16615410.01348 -12893845.17147  21634561.3594   21634561.6524   21634563.4414
      2314.5604                         49.0004         43.0004
  -1720050.75446  -1288168.41546  24686514.7824   24686514.6864   24686518.8074
     -2874.7414                         41.0004         36.0004
 08  5 27  1  4  0.0000000  0 12G31G25G24G21G19G 6G16G 7G18G22G 3G29
  -4708627.24947  -3599311.47746  24221699.9564   24221700.0824   24221700.4544
     -3490.7514                         43.0004         38.0004
  -3568761.12147  -2738847.12446  24296622.5744   24296621.7594   24296624.7754
      1424.8774                         43.0004         39.0004
  -4518952.69947  -3472050.58146  24222563.7404   24222565.3994   24222567.3854
     -3395.4844                         42.0004         37.0004
 -20063623.02848 -15577716.58647  21184135.2374   21184134.6754   21184135.4884
     -1292.7734                         53.0004         47.0004
  -4918857.17747  -3783640.35946  24121461.7994   24121460.8204   24121461.5264
      2825.7704                         42.0004         37.0004
 -21058148.40548 -16351580.37847  20831042.8494   20831042.7284   20831044.3594
      1131.3694                         52.0004         47.0004
 -24606761.19748 -19132528.23748  20296924.5974   20296924.5004   20296925.4284
       244.6244                         52.0004         49.0004
  -1826165.57846  -1372175.48345  25114069.2494   25114068.6554   25114070.6294
      2630.3544                         41.0004         35.0004
  -9392050.83647  -7267641.00346  23235710.6624   23235711.0734   23235711.1984
      2091.8454                         46.0004         40.0004
  -4224643.52747  -3240821.35446  24257547.5844   24257546.6864   24257548.2424
      3229.7694                         42.0004         37.0004
 -16684739.29148 -12947867.96847  21621368.2874   21621367.7264   21621370.6394
      2307.5414                         49.0004         43.0004
  -1633787.65547  -1220950.45146  24702930.9974   24702930.2104   24702933.5994
     -2875.5124                         42.0004         37.0004
 08  5 27  1  4 30.0000000  0 12G31G25G24G21G19G 6G16G 7G18G22G 3G29
  -4603890.39847  -3517698.38946  24241629.4814   24241629.2944   24241631.5334
     -3492.1994                         42.0004         37.0004
  -3611269.01247  -2771970.13546  24288533.1614   24288532.9614   24288535.1424
      1408.8394                         42.0004         38.0004
  -4417015.09647  -3392618.69246  24241961.9984   24241960.8354   24241963.1754
     -3400.3064                         44.0004         36.0004
 -20024623.92148 -15547327.66847  21191556.5594   21191555.9214   21191556.9934
     -1307.2484                         53.0004         47.0004
  -5003561.88947  -3849644.01846  24105343.1304   24105343.6494   24105342.4094
      2821.4674                         42.0004         37.0004
 -21091961.57148 -16377928.29647  20824608.3784   20824608.1584   20824610.6984
      1122.7334                         52.0004         47.0004
 -24613856.86348 -19138057.32548  20295574.2664   20295574.0124   20295574.7424
       228.3544                         52.0004         49.0004
  -1904879.02946  -1433510.60345  25099089.9184   25099089.7164   25099092.2854
      2617.1404                         41.0004         35.0004
  -9454623.49347  -7316398.88746  23223803.5354   23223803.8994   23223804.0734
      2079.8364                         46.0004         40.0004
  -4321528.69147  -3316316.27846  24239111.7944   24239113.0794   24239111.3354
      3229.0234                         43.0004         37.0004
 -16753842.69248 -13001714.76147  21608218.4254   21608218.7504   21608221.2754
      2299.4294                         49.0004         44.0004
  -1547497.03247  -1153711.04746  24719350.5114   24719351.0464   24719354.5674
     -2876.6494                         42.0004         37.0004
 08  5 27  1  5  0.0000000  0 12G31G25G24G21G19G 6G16G 7G18G22G 3G29
  -4499117.79847  -3436057.42746  24261568.1664   24261568.2004   24261568.8084
     -3492.8054                         42.0004         37.0004
  -3653298.44747  -2804720.33546  24280535.9154   24280534.7954   24280538.4224
      1393.2504                         43.0004         38.0004
  -4314956.75447  -3313092.69646  24261382.7624   24261383.3784   24261385.2824
     -3404.1624                         43.0004         37.0004
 -19985203.82248 -15516610.70747  21199057.8244   21199057.3974   21199058.0694
     -1320.8814                         53.0004         47.0004
  -5088168.96046  -3915571.56846  24089242.6514   24089241.9484   24089243.6654
      2818.8074                         41.0004         38.0004
 -21125523.81648 -16404080.69247  20818221.7544   20818221.9344   20818223.9904
      1114.6374                         52.0004         47.0004
 -24620478.66148 -19143217.16148  20294314.2434   20294313.7964   20294314.8704
       212.8924                         52.0004         49.0004
  -1983213.33346  -1494550.30146  25084183.5364   25084183.9444   25084186.0784
      2604.9974                         41.0004         36.0004
  -9516847.29847  -7364884.95146  23211963.1994   23211962.8384   23211964.3634
      2068.3954                         47.0004         40.0004
  -4418380.09947  -3391784.92446  24220681.7354   24220680.8904   24220681.0604
      3227.8754                         42.0004         36.0004
 -16822720.59948 -13055385.84947  21595111.4614   21595111.3494   21595113.8344
      2292.3144                         49.0004         44.0004
  -1461180.43346  -1086451.38646  24735775.6184   24735776.7874   24735777.6534
     -2877.6994                         40.0004         36.0004
 08  5 27  1  5 30.0000000  0 12G31G25G24G21G19G 6G16G 7G18G22G 3G29
  -4394311.96247  -3354390.57346  24281512.1604   24281512.5564   24281513.9644
     -3494.1584                         42.0004         38.0004
  -3694847.84147  -2837096.48846  24272629.4884   24272630.4294   24272630.2704
      1377.1244                         43.0004         38.0004
  -4212779.17446  -3233473.83846  24280825.8754   24280824.9234   24280830.3864
     -3407.9514                         41.0004         37.0004
 -19945363.54648 -15485566.33147  21206639.2154   21206639.0234   21206639.1574
     -1334.9594                         53.0004         47.0004
  -5172677.77247  -3981422.56446  24073161.8314   24073161.0694   24073160.9154
      2815.6184                         42.0004         38.0004
 -21158834.37448 -16430036.96947  20811882.9304   20811882.8894   20811884.6284
      1106.1824                         52.0004         47.0004
 -24626625.39848 -19148006.82448  20293144.4344   20293144.0944   20293144.7234
       196.9164                         52.0004         49.0004
  -2061165.43846  -1555292.16946  25069350.7464   25069349.9734   25069351.9054
      2592.0304                         41.0004         36.0004
  -9578719.42147  -7413096.98646  23200188.6974   23200187.8914   23200190.0774
      2056.5714                         46.0004         40.0004
  -4515194.67447  -3467224.83246  24202258.7504   24202259.4674   24202259.1504
      3226.4984                         44.0004         37.0004
 -16891371.39948 -13108879.95947  21582047.4914   21582047.5184   21582049.4324
      2284.7204                         49.0004         44.0004
  -1374837.80746  -1019171.41246  24752206.0524   24752206.2144   24752208.4064
     -2878.2304                         40.0004         36.0004
 08  5 27  1  6  0.0000000  0 12G31G25G24G21G19G 6G16G 7G18G22G 3G29
  -4289476.08547  -3272700.36446  24301462.2614   24301460.7104   24301461.4544
     -3494.9794                         42.0004         37.0004
  -3735916.60047  -2869098.12146  24264814.2494   24264814.3474   24264815.0794
      1360.9094                         43.0004         38.0004
  -4110485.17247  -3153764.25646  24300293.3764   24300291.9954   24300293.3624
     -3411.8464                         43.0004         37.0004
 -19905105.49948 -15454196.42547  21214300.0264   21214299.3034   21214300.4704
     -1348.7024                         53.0004         47.0004
  -5257088.66047  -4047197.27246  24057098.5904   24057096.6704   24057098.3244
      2812.3864                         42.0004         38.0004
 -21191893.77248 -16455797.53747  20805592.0404   20805592.0134   20805593.9774
      1097.7764                         52.0004         47.0004
 -24632296.82548 -19152426.11748  20292065.1744   20292065.2014   20292065.8154
       181.2534                         52.0004         49.0004
  -2138733.82946  -1615735.05846  25054589.0354   25054590.1644   25054591.2964
      2579.8444                         40.0004         36.0004
  -9640237.98147  -7461033.52146  23188482.0214   23188481.1874   23188483.9494
      2044.8344                         46.0004         40.0004
  -4611970.00447  -3542634.18546  24183842.2564   24183843.7874   24183843.6684
      3225.1474                         43.0004         37.0004
 -16959795.63948 -13162197.53547  21569026.8984   21569026.8434   21569028.8824
      2277.0974                         49.0004         44.0004
  -1288470.57746   -951872.26446  24768641.8634   24768641.8654   24768645.1904
     -2879.2004                         41.0004         37.0004
 08  5 27  1  6 30.0000000  0 12G31G25G24G21G19G 6G16G 7G18G22G 3G29
  -4184608.25147  -3190985.15246  24321417.8704   24321418.2534   24321419.0484
     -3495.4984                         42.0004         37.0004
  -3776498.57347  -2900720.44346  24257091.8694   24257091.9924   24257093.5544
      1345.2294                         42.0004         39.0004
  -4008072.54547  -3073962.15046  24319780.7654   24319780.9554   24319785.2504
     -3415.4674                         43.0004         37.0004
 -19864426.32248 -15422498.35947  21222041.0844   21222040.1294   21222041.8544
     -1362.4694                         53.0004         47.0004
  -5341396.15247  -4112891.37846  24041056.0234   24041055.0784   24041054.7334
      2809.0784                         42.0004         38.0004
 -21224696.93348 -16481358.44247  20799349.4914   20799349.8134   20799351.5584
      1089.6444                         52.0004         47.0004
 -24637487.22848 -19156470.58848  20291077.6354   20291077.1114   20291078.1864
       165.5854                         52.0004         49.0004
  -2215911.48746  -1675873.45745  25039902.8124   25039901.5594   25039902.7684
      2566.2994                         40.0004         35.0004
  -9701395.58847  -7508688.79246  23176844.8584   23176843.5764   23176845.2084
      2033.1454                         46.0004         40.0004
  -4708698.69547  -3618007.18946  24165435.1624   24165435.0474   24165436.8584
      3223.6844                         43.0004         37.0004
 -17027987.32548 -13215333.90047  21556050.6014   21556050.6884   21556052.4124
      2269.6874                         49.0004         44.0004
  -1202073.91946   -884550.26846  24785082.1284   24785083.2944   24785085.3164
     -2879.8124                         40.0004         36.0004
 08  5 27  1  7  0.0000000  0 12G31G25G24G21G19G 6G16G 7G18G22G 3G29
  -4079719.15746  -3109253.42446  24341376.2644   24341377.6844   24341378.3944
     -3497.3664                         41.0004         37.0004
  -3816600.81247  -2931968.91546  24249459.3764   24249460.7814   24249461.5984
      1328.0494                         42.0004         38.0004
  -3905551.65147  -2994075.76246  24339289.4624   24339290.1994   24339292.8014
     -3419.7454                         42.0004         37.0004
 -19823335.69548 -15390479.69047  21229860.3424   21229859.6104   21229860.5464
     -1376.9784                         53.0004         47.0004
  -5425608.20047  -4178511.13146  24025030.9004   24025029.3924   24025030.7254
      2805.3094                         42.0004         38.0004
 -21257251.65448 -16506725.75447  20793154.5344   20793154.8034   20793156.8554
      1080.4964                         52.0004         47.0004
 -24642203.68148 -19160145.74048  20290179.9844   20290179.8684   20290180.6374
       148.7564                         52.0004         49.0004
  -2292703.80046  -1735711.62145  25025289.9834   25025292.4394   25025291.8264
      2552.5764                         40.0004         35.0004
  -9762198.04747  -7556067.32546  23165274.7474   23165274.1174   23165275.4014
      2020.1594                         47.0004         40.0004
  -4805385.97847  -3693347.92446  24147037.7724   24147036.1894   24147037.2214
      3221.4154                         44.0004         37.0004
 -17095954.12848 -13268295.02347  21543116.5844   21543116.8994   21543118.8704
      2261.3264                         49.0004         44.0004
  -1115656.39646   -817211.93346  24801527.5194   24801527.3644   24801530.1024
     -2881.5484                         41.0004         36.0004
 08  5 27  1  7 30.0000000  0 12G31G25G24G21G19G 6G16G 7G18G22G 3G29
  -3974807.98847  -3027504.53946  24361340.5044   24361340.6234   24361343.3074
     -3497.2734                         42.0004         38.0004
  -3856218.35447  -2962839.72046  24241920.9244   24241920.4404   24241922.4204
      1312.8034                         42.0004         38.0004
  -3802920.91447  -2914103.78546  24358820.6104   24358820.8394   24358823.5524
     -3423.1044                         44.0004         37.0004
 -19781831.42648 -15358138.69647  21237758.2154   21237757.3234   21237758.7594
     -1390.2584                         53.0004         47.0004
  -5509720.68847  -4244053.32746  24009024.1504   24009023.6554   24009024.4644
      2802.1644                         42.0004         38.0004
 -21289553.91548 -16531896.34347  20787007.8854   20787007.5744   20787009.8944
      1072.6984                         52.0004         47.0004
 -24646441.88048 -19163448.23348  20289373.3324   20289373.0734   20289373.9544
       133.3904                         52.0004         49.0004
  -2369104.62746  -1795244.72146  25010751.8364   25010752.0404   25010752.0984
      2539.9504                         41.0004         36.0004
  -9822639.06947  -7603164.20546  23153772.1334   23153770.4274   23153772.8284
      2008.6264                         47.0004         40.0004
  -4902024.97847  -3768651.01546  24128647.9264   24128646.7354   24128648.1474
      3220.5444                         42.0004         37.0004
 -17163691.67648 -13321077.50947  21530226.7974   21530226.6024   21530228.5314
      2254.1294                         50.0004         44.0004
  -1029214.69046   -749854.71546  24817976.5794   24817977.7424   24817978.1404
     -2880.6594                         41.0004         36.0004
 08  5 27  1  8  0.0000000  0 12G31G25G24G21G19G 6G16G 7G18G22G 3G29
  -3869875.51346  -2945738.97446  24381308.9024   24381308.2134   24381308.6074
     -3498.1834                         41.0004         37.0004
  -3895348.02647  -2993330.35746  24234474.3424   24234474.0694   24234476.9644
      1296.4724                         42.0004         38.0004
  -3700180.23747  -2834046.08946  24378370.9204   24378371.1514   24378372.6194
     -3426.3064                         42.0004         36.0004
 -19739913.12348 -15325475.08547  21245735.1314   21245735.0314   21245735.2954
     -1404.2704                         53.0004         47.0004
  -5593731.06747  -4309515.92446  23993037.4134   23993035.3134   23993037.2674
      2798.4924                         42.0004         38.0004
 -21321601.34548 -16556868.36347  20780909.3554   20780909.6504   20780911.3964
      1063.8864                         52.0004         47.0004
 -24650198.34348 -19166375.34848  20288658.7244   20288658.3484   20288659.3234
       117.1264                         52.0004         49.0004
  -2445109.92446  -1854469.59746  24996287.9594   24996286.3654   24996289.8394
      2527.1944                         40.0004         36.0004
  -9882713.82447  -7649975.67646  23142340.6274   23142341.1004   23142343.8434
      1996.0634                         46.0004         40.0004
  -4998610.85847  -3843912.67746  24110266.6094   24110267.5064   24110267.3244
      3218.5324                         43.0004         37.0004
 -17231196.86248 -13373678.93447  21517381.0924   21517381.2044   21517383.3874
      2245.9464                         50.0004         44.0004
   -942746.76946   -682477.13446  24834430.4324   24834431.2614   24834433.2784
     -2882.7544                         39.0004         36.0004
 08  5 27  1  8 30.0000000  0 12G31G25G24G21G19G 6G16G 7G18G22G 3G29
  -3764928.06947  -2863961.77746  24401280.3574   24401280.2394   24401283.0464
     -3498.0284                         42.0004         37.0004
  -3933992.26047  -3023442.72046  24227120.8654   24227120.2154   24227122.8304
      1279.9714                         42.0004         38.0004
  -3597335.46647  -2753907.31846  24397941.2944   24397942.2394   24397943.9494
     -3429.7204                         43.0004         37.0004
 -19697585.73248 -15292492.70247  21253789.5744   21253789.0744   21253790.1064
     -1417.6984                         53.0004         47.0004
  -5677642.80347  -4374901.68246  23977069.6004   23977068.5924   23977069.2024
      2795.5704                         42.0004         37.0004
 -21353397.17648 -16581644.33847  20774858.8004   20774858.8584   20774860.7264
      1055.7084                         53.0004         47.0004
 -24653475.93748 -19168929.31948  20288034.9254   20288034.9794   20288035.7984
       101.3254                         52.0004         49.0004
  -2520720.52746  -1913386.91946  24981899.1954   24981900.1474   24981902.0214
      2513.9624                         40.0004         36.0004
  -9942423.77047  -7696502.90546  23130978.4534   23130977.4854   23130979.1024
      1984.4444                         47.0004         40.0004
  -5095144.51547  -3919133.73046  24091897.1014   24091898.2704   24091897.3364
      3216.8374                         44.0004         37.0004
 -17298472.28848 -13426101.32747  21504578.8564   21504578.6284   21504580.4814
      2238.8104                         50.0004         44.0004
   -856256.62746   -615082.28646  24850889.0694   24850890.8384   24850893.1594
     -2882.7644                         40.0004         36.0004
 08  5 27  1  9  0.0000000  0 12G31G25G24G21G19G 6G16G 7G18G22G 3G29
  -3659965.97047  -2782173.17946  24421253.5124   24421253.0104   24421254.6784
     -3499.0914                         42.0004         37.0004
  -3972147.56046  -3053174.14346  24219860.7644   24219860.8464   24219862.7424
      1263.6024                         41.0004         38.0004
  -3494386.60947  -2673687.45246  24417532.2414   24417532.1024   24417535.5674
     -3433.4404                         43.0004         37.0004
 -19654848.22948 -15259190.75047  21261922.3634   21261921.9914   21261922.6924
     -1431.5334                         53.0004         47.0004
  -5761452.78447  -4440208.13846  23961121.5884   23961119.0254   23961120.1484
      2792.0204                         43.0004         38.0004
 -21384938.67848 -16606222.13247  20768856.7214   20768856.4864   20768858.7594
      1047.0544                         52.0004         47.0004
 -24656271.27448 -19171107.50848  20287502.8894   20287502.6384   20287503.9384
        85.1504                         52.0004         49.0004
  -2595931.72946  -1971993.00246  24967587.1714   24967585.6554   24967589.8754
      2500.5764                         39.0004         36.0004
 -10001763.84347  -7742741.91546  23119686.3984   23119685.5854   23119688.5314
      1971.6514                         47.0004         40.0004
  -5191620.79947  -3994310.00046  24073537.8024   24073539.1564   24073538.8774
      3215.0634                         42.0004         37.0004
 -17365515.16648 -13478342.51947  21491820.6464   21491820.9204   21491823.6914
      2230.7854                         50.0004         44.0004
   -769742.47246   -547668.64046  24867353.0204   24867355.8354   24867354.2144
     -2883.8554                         41.0004         36.0004
 08  5 27  1  9 30.0000000  0 12G31G25G24G21G19G 6G16G 7G18G22G 3G29
  -3554993.06547  -2700376.11146  24441229.9384   24441230.8964   24441230.7174
     -3499.2574                         42.0004         36.0004
  -4009814.06147  -3082524.65046  24212692.6034   24212692.7214   24212695.2534
      1247.7954                         42.0004         38.0004
  -3391336.92947  -2593389.00346  24437141.6394   24437141.0324   24437144.4464
     -3437.3104                         43.0004         36.0004
 -19611703.59348 -15225571.55647  21270132.6154   21270131.5804   21270133.1664
     -1444.6244                         53.0004         47.0004
  -5845161.80047  -4505435.93746  23945192.4174   23945192.2954   23945192.0034
      2789.1484                         42.0004         38.0004
 -21416226.94248 -16630602.59547  20762902.8144   20762902.6724   20762904.4914
      1038.9564                         52.0004         47.0004
 -24658584.73148 -19172910.20648  20287062.7254   20287062.3724   20287063.6954
        69.2834                         52.0004         49.0004
  -2670742.37446  -2030286.93946  24953351.1274   24953352.3014   24953354.8404
      2487.2154                         40.0004         36.0004
 -10060732.96547  -7788691.87046  23108464.5444   23108464.3494   23108466.0204
      1959.3824                         46.0004         40.0004
  -5288037.51047  -4069439.84446  24055192.5194   24055192.6674   24055192.1124
      3212.9224                         44.0004         37.0004
 -17432325.45748 -13530402.47947  21479107.5624   21479107.3044   21479109.3564
      2223.3044                         50.0004         44.0004
   -683205.66146   -480237.30545  24883820.3674   24883821.9794   24883823.9774
     -2884.6454                         40.0004         35.0004
 08  5 27  1 10  0.0000000  0 12G31G25G24G21G19G 6G16G 7G18G22G 3G29
  -3450010.62247  -2618571.61446  24461207.0154   24461207.2024   24461208.5324
     -3499.7674                         43.0004         37.0004
  -4046989.01146  -3111492.12046  24205618.6114   24205618.0294   24205620.4854
      1230.3074                         41.0004         38.0004
  -3288186.88547  -2513012.32446  24456771.1934   24456771.0254   24456775.1014
     -3440.1324                         42.0004         36.0004
 -19568151.97848 -15191635.22847  21278419.9664   21278420.0474   21278420.4054
     -1458.9374                         53.0004         47.0004
  -5928767.99847  -4570583.59946  23929282.0974   23929281.7164   23929283.2634
      2784.5874                         42.0004         38.0004
 -21447260.03248 -16654784.22247  20756997.4984   20756997.3824   20756999.5004
      1029.8394                         53.0004         47.0004
 -24660414.01148 -19174335.62248  20286714.6304   20286714.2034   20286715.5014
        52.4474                         52.0004         49.0004
  -2745148.60946  -2088265.83046  24939192.7144   24939192.7154   24939193.9924
      2473.3714                         41.0004         36.0004
 -10119327.08547  -7834349.61946  23097314.5714   23097313.9154   23097316.4664
      1946.6064                         46.0004         40.0004
  -5384390.27447  -4144519.92246  24036856.6964   24036856.1044   24036854.2024
      3210.2674                         43.0004         37.0004
 -17498901.50948 -13582279.90747  21466438.1004   21466437.7144   21466440.5494
      2214.9914                         50.0004         44.0004
   -596645.03346   -412787.52546  24900291.7444   24900294.2694   24900295.7404
     -2886.0644                         41.0004         37.0004
 08  5 27  1 10 30.0000000  0 12G31G25G24G21G19G 6G16G 7G18G22G 3G29
  -3345023.94846  -2536763.87646  24481186.1114   24481186.4744   24481185.8834
     -3499.3914                         41.0004         37.0004
  -4083674.26446  -3140078.03846  24198637.2404   24198637.8914   24198639.5934
      1214.6854                         41.0004         38.0004
  -3184941.40947  -2432561.29846  24476417.6434   24476418.5514   24476420.7804
     -3443.4444                         42.0004         37.0004
 -19524197.69948 -15157385.13947  21286784.4954   21286783.7614   21286785.0174
     -1472.1044                         53.0004         47.0004
  -6012273.89247  -4635653.13246  23913392.2134   23913390.9834   23913392.9644
      2781.7094                         42.0004         38.0004
 -21478040.46148 -16678768.96847  20751140.0184   20751140.0094   20751141.8664
      1021.4804                         52.0004         47.0004
 -24661761.14148 -19175385.34048  20286458.2154   20286457.7514   20286459.0914
        36.5634                         52.0004         49.0004
  -2819150.48946  -2145929.65846  24925109.9714   24925111.6614   24925111.5424
      2460.3094                         40.0004         36.0004
 -10177546.65247  -7879715.48746  23086235.7344   23086235.6604   23086235.9044
      1934.1884                         47.0004         41.0004
  -5480679.31247  -4219550.29046  24018533.3304   24018532.8594   24018533.3004
      3207.9764                         43.0004         37.0004
 -17565244.89348 -13633976.05047  21453813.5674   21453813.4894   21453816.1004
      2207.3124                         50.0004         44.0004
   -510063.59746   -345321.47746  24916768.6984   24916767.7104   24916771.3674
     -2886.7984                         41.0004         37.0004
 08  5 27  1 11  0.0000000  0 12G31G25G24G21G19G 6G16G 7G18G22G 3G29
  -3240033.26647  -2454952.99946  24501164.7424   24501163.7534   24501164.9504
     -3499.8864                         42.0004         36.0004
  -4119865.52447  -3168279.00146  24191750.9284   24191750.9504   24191752.2014
      1198.1044                         42.0004         38.0004
  -3081599.66147  -2352035.29646  24496083.6254   24496084.2314   24496085.4024
     -3446.4794                         42.0004         36.0004
 -19479839.10948 -15122820.00247  21295225.5854   21295224.7684   21295226.4514
     -1485.3494                         53.0004         47.0004
  -6095675.92146  -4700641.68746  23897520.7744   23897518.7594   23897519.4404
      2778.1314                         41.0004         38.0004
 -21508564.71148 -16702554.09847  20745331.4754   20745331.2664   20745333.4774
      1013.1874                         52.0004         47.0004
 -24662622.14648 -19176056.25148  20286294.5264   20286293.9984   20286295.4344
        20.4254                         52.0004         49.0004
  -2892742.89046  -2203274.35745  24911105.9984   24911105.9954   24911107.5414
      2446.1784                         39.0004         35.0004
 -10235385.64647  -7924784.82146  23075229.6214   23075229.1234   23075230.3914
      1921.5664                         47.0004         41.0004
  -5576898.35347  -4294526.11046  24000222.7684   24000223.9914   24000222.2514
      3206.0624                         44.0004         38.0004
 -17631351.56248 -13685487.73847  21441233.6924   21441234.1974   21441236.2924
      2199.5564                         50.0004         44.0004
   -423458.70546   -277837.11645  24933248.5314   24933248.7754   24933250.6714
     -2887.1254                         40.0004         35.0004
 08  5 27  1 11 30.0000000  0 12G31G25G24G21G19G 6G16G 7G18G22G 3G29
  -3135046.26246  -2373144.91246  24521142.8224   24521142.2714   24521144.9024
     -3499.3114                         41.0004         37.0004
  -4155567.02646  -3196098.34046  24184956.7964   24184955.8774   24184959.1444
      1181.5024                         41.0004         38.0004
  -2978168.92047  -2271439.88246  24515765.6664   24515764.7444   24515767.0224
     -3449.3054                         43.0004         36.0004
 -19435083.06848 -15087945.16647  21303742.5044   21303742.0784   21303742.5944
     -1498.5284                         53.0004         47.0004
  -6178978.88247  -4765553.05846  23881668.4894   23881668.3654   23881668.1034
      2775.3084                         42.0004         38.0004
 -21538837.71948 -16726143.45247  20739570.7734   20739570.5654   20739572.7774
      1004.6374                         53.0004         47.0004
 -24663001.02748 -19176351.48348  20286222.1534   20286221.7454   20286223.5284
         4.5114                         52.0004         49.0004
  -2965928.67846  -2260302.22046  24897179.0214   24897178.8334   24897178.8464
      2432.3564                         40.0004         36.0004
 -10292847.00747  -7969559.89246  23064294.7354   23064294.6884   23064295.8044
      1909.0194                         47.0004         40.0004
  -5673049.70947  -4369449.22846  23981924.9684   23981925.3214   23981924.2104
      3203.7554                         43.0004         37.0004
 -17697226.57948 -13736818.91747  21428698.0434   21428698.0694   21428700.5684
      2191.7964                         50.0004         44.0004
   -336835.68947   -210338.60846  24949733.2454   24949733.4774   24949734.5524
     -2887.9984                         42.0004         36.0004
 08  5 27  1 12  0.0000000  0 12G31G25G24G21G19G 6G16G 7G18G22G 3G29
  -3030055.96746  -2291334.37546  24541120.6204   24541119.7114   24541121.9534
     -3499.6664                         41.0004         37.0004
  -4190768.20746  -3223527.82346  24178258.7654   24178258.5284   24178261.1744
      1166.0584                         41.0004         38.0004
  -2874641.68947  -2190769.29246  24535465.7914   24535466.4404   24535469.3924
     -3451.9194                         42.0004         36.0004
 -19389921.59248 -15052754.40147  21312336.4344   21312335.6114   21312336.6064
     -1511.7844                         53.0004         47.0004
  -6262172.83747  -4830379.49646  23865837.3034   23865835.5264   23865836.8294
      2771.5414                         43.0004         38.0004
 -21568849.61148 -16749529.33247  20733859.6244   20733859.3864   20733861.9854
       996.3134                         52.0004         47.0004
 -24662887.60048 -19176263.10448  20286243.9484   20286243.5824   20286244.7134
       -11.7634                         52.0004         49.0004
  -3038695.88846  -2317003.89446  24883332.7514   24883333.1394   24883335.6494
      2418.9924                         40.0004         36.0004
 -10349918.72547  -8014031.33746  23053434.5954   23053433.7994   23053434.5964
      1896.3644                         47.0004         41.0004
  -5769121.06047  -4444309.99646  23963643.4154   23963644.8554   23963644.3294
      3201.5584                         44.0004         38.0004
 -17762859.00048 -13787961.07047  21416208.8424   21416209.2874   21416211.1264
      2183.9924                         50.0004         44.0004
   -250185.35346   -142818.84846  24966220.7384   24966220.9144   24966223.6654
     -2888.5024                         40.0004         37.0004
 08  5 27  1 12 30.0000000  0 12G31G25G24G21G19G 6G16G 7G18G22G 3G29
  -2925073.14247  -2209529.59346  24561099.8924   24561098.6244   24561099.5674
     -3499.2604                         42.0004         36.0004
  -4225476.18347  -3250572.99546  24171653.7784   24171653.0694   24171655.3674
      1148.1424                         42.0004         38.0004
  -2771028.48646  -2110031.77746  24555182.6214   24555182.2044   24555186.0164
     -3455.1774                         41.0004         36.0004
 -19344364.34648 -15017255.24947  21321005.5704   21321004.9714   21321005.6024
     -1525.1894                         53.0004         46.0004
  -6345265.52947  -4895127.02546  23850025.0354   23850023.9494   23850025.8654
      2767.9044                         42.0004         38.0004
 -21598608.05448 -16772717.72147  20728196.7584   20728196.7074   20728198.8764
       987.4754                         53.0004         47.0004
 -24662289.27048 -19175796.87448  20286357.7244   20286357.3914   20286358.8684
       -28.1504                         52.0004         49.0004
  -3111050.46146  -2373384.03846  24869563.2484   24869563.5624   24869564.5754
      2404.7594                         40.0004         36.0004
 -10406606.94347  -8058203.96146  23042647.1124   23042645.2834   23042647.3974
      1882.8084                         47.0004         41.0004
  -5865117.50647  -4519112.40346  23945376.2104   23945375.4054   23945376.5704
      3198.6294                         43.0004         38.0004
 -17828256.60848 -13838920.24047  21403763.9464   21403763.7564   21403765.8884
      2175.8244                         50.0004         44.0004
   -163516.21746    -75284.46546  24982713.1634   24982715.4334   24982718.6014
     -2889.4764                         39.0004         36.0004
 08  5 27  1 13  0.0000000  0 12G31G25G24G21G19G 6G16G 7G18G22G 3G29
  -2820100.83846  -2127732.98846  24581074.2834   24581075.7434   24581077.0774
     -3499.2984                         40.0004         36.0004
  -4259690.36446  -3277233.38746  24165142.6954   24165141.8244   24165144.9324
      1132.1004                         41.0004         38.0004
  -2667331.42346  -2029228.84446  24574915.4704   24574914.3734   24574918.5214
     -3458.0974                         41.0004         36.0004
 -19298413.36848 -14981449.28847  21329749.8484   21329749.5124   21329750.2454
     -1538.5144                         53.0004         46.0004
  -6428256.83847  -4959795.57646  23834232.9854   23834232.9464   23834231.8404
      2764.3864                         43.0004         38.0004
 -21628113.20748 -16795708.74547  20722582.0484   20722582.2934   20722584.0804
       979.0064                         52.0004         47.0004
 -24661205.56848 -19174952.43448  20286563.8984   20286563.5414   20286564.6734
       -44.5614                         52.0004         49.0004
  -3182990.19246  -2429440.93446  24855873.8594   24855874.5334   24855876.5874
      2390.7644                         40.0004         36.0004
 -10462909.40947  -8102076.00246  23031933.2124   23031932.2474   23031934.7014
      1869.9154                         47.0004         41.0004
  -5961036.60947  -4593854.55146  23927122.1484   23927122.4644   23927124.1854
      3195.6764                         43.0004         37.0004
 -17893418.55348 -13889695.78247  21391364.3654   21391363.8864   21391365.5774
      2167.8414                         50.0004         44.0004
    -76828.60446     -7735.65645  24999210.0064   24999210.7404   24999211.8974
     -2890.5244                         40.0004         35.0004
 08  5 27  1 13 30.0000000  0 12G31G25G24G21G19G 6G16G 7G18G22G 3G29
  -2715135.83546  -2045942.14146  24601048.8244   24601048.5104   24601050.6104
     -3497.9774                         41.0004         37.0004
  -4293403.86247  -3303503.65146  24158726.9824   24158726.0674   24158729.4574
      1115.6024                         42.0004         38.0004
  -2563546.85047  -1948357.71346  24594664.5124   24594665.2554   24594668.0674
     -3460.6984                         42.0004         36.0004
 -19252064.60748 -14945333.37047  21338569.7604   21338569.0284   21338570.4814
     -1551.2644                         53.0004         46.0004
  -6511140.56947  -5024380.27946  23818460.9264   23818459.2194   23818459.9624
      2761.5154                         43.0004         39.0004
 -21657359.00248 -16818497.67147  20717016.7384   20717016.8774   20717019.3074
       970.8584                         52.0004         47.0004
 -24659630.08248 -19173724.78348  20286863.6074   20286863.3364   20286864.9624
       -60.4294                         52.0004         49.0004
  -3254506.87146  -2485168.20546  24842264.2004   24842263.6314   24842265.8414
      2376.9594                         39.0004         36.0004
 -10518817.72547  -8145640.90246  23021293.8704   23021293.0574   23021295.8084
      1857.3184                         47.0004         41.0004
  -6056869.36647  -4668529.43646  23908888.0094   23908887.8934   23908887.1304
      3193.2524                         44.0004         38.0004
 -17958338.20648 -13940282.51447  21379010.2834   21379010.0744   21379011.5104
      2160.2994                         51.0004         44.0004
      9882.61746     59831.64546  25015710.8534   25015709.7914   25015714.5964
     -2890.3254                         41.0004         36.0004
 08  5 27  1 14  0.0000000  0 12G31G25G24G21G19G 6G16G 7G18G22G 3G29
  -2610186.29646  -1964163.30746  24621018.9994   24621019.5744   24621021.0854
     -3497.8164                         41.0004         36.0004
  -4326620.71746  -3329386.90246  24152406.0224   24152405.1784   24152408.4984
      1098.6034                         41.0004         38.0004
  -2459681.83747  -1867423.97946  24614429.8514   24614430.6524   24614433.3504
     -3463.9844                         42.0004         36.0004
 -19205324.44148 -14908912.45947  21347463.8694   21347463.2164   21347464.2454
     -1564.5874                         53.0004         46.0004
  -6593921.35447  -5088884.76046  23802707.7504   23802707.1334   23802707.7134
      2757.3004                         44.0004         39.0004
 -21686350.13848 -16841088.16847  20711499.8994   20711500.0494   20711502.0044
       962.0664                         53.0004         47.0004
 -24657567.07548 -19172117.24948  20287256.2164   20287255.8684   20287257.6324
       -76.9934                         52.0004         49.0004
  -3325603.68346  -2540568.26346  24828734.7394   24828735.2074   24828738.9624
      2362.6634                         39.0004         36.0004
 -10574334.50447  -8188900.72646  23010729.2864   23010728.7964   23010730.7714
      1843.7134                         47.0004         41.0004
  -6152617.92847  -4743138.68546  23890666.9104   23890664.6334   23890667.0054
      3190.3054                         43.0004         38.0004
 -18023020.13948 -13990684.01147  21366701.7694   21366701.3144   21366703.8694
      2151.9634                         51.0004         44.0004
     96612.51046    127413.37346  25032213.5514   25032216.5714   25032218.8184
     -2891.0844                         38.0004         36.0004
 08  5 27  1 14 30.0000000  0 12G31G25G24G21G19G 6G16G 7G18G22G 3G29
  -2505252.46947  -1882396.70846  24640988.2334   24640989.5194   24640989.0724
     -3497.4844                         42.0004         36.0004
  -4359338.19246  -3354881.03046  24146179.6984   24146178.5694   24146182.0604
      1082.5874                         41.0004         37.0004
  -2355736.54946  -1786427.65845  24634209.7964   24634207.0654   24634211.1804
     -3466.1654                         41.0004         35.0004
 -19158192.75748 -14872186.47447  21356432.8934   21356432.6314   21356433.4574
     -1577.4364                         52.0004         46.0004
  -6676596.49647  -5153306.93746  23786975.2834   23786973.8644   23786975.0354
      2753.9444                         43.0004         39.0004
 -21715084.16148 -16863478.31747  20706032.0974   20706032.1834   20706034.0044
       953.6164                         52.0004         47.0004
 -24655013.51348 -19170127.46148  20287742.0444   20287741.7904   20287743.3404
       -93.2654                         52.0004         49.0004
  -3396276.15046  -2595637.71846  24815286.5844   24815286.8924   24815286.5934
      2348.4384                         38.0004         36.0004
 -10629456.14147  -8231852.62646  23000240.5064   23000239.7644   23000240.8574
      1830.9384                         47.0004         41.0004
  -6248277.55547  -4817678.62446  23872464.2524   23872463.8974   23872462.6624
      3187.2324                         44.0004         38.0004
 -18087461.31648 -14040897.90947  21354438.9524   21354438.5694   21354441.2044
      2143.9744                         51.0004         45.0004
    183362.43846    195010.64446  25048724.2164   25048722.5084   25048722.9164
     -2892.0564                         41.0004         36.0004
 08  5 27  1 15  0.0000000  0 12G31G25G24G21G19G 6G16G 7G18G22G 3G29
  -2400336.88946  -1800644.35046  24660953.1254   24660954.0604   24660955.5484
     -3496.8284                         40.0004         37.0004
  -4391554.88247  -3379984.94046  24140049.5094   24140049.6224   24140051.5454
      1065.1954                         42.0004         38.0004
  -2251712.76646  -1705370.11745  24654005.0364   24654003.5654   24654006.3644
     -3468.7804                         41.0004         35.0004
 -19110670.74548 -14835156.33447  21365476.0414   21365475.7274   21365476.7754
     -1590.7004                         53.0004         46.0004
  -6759165.68147  -5217646.53546  23771261.8714   23771261.7284   23771263.2864
      2750.4694                         43.0004         39.0004
 -21743560.30748 -16885667.52047  20700613.2504   20700613.1164   20700615.2324
       944.7144                         53.0004         47.0004
 -24651968.35548 -19167754.61348  20288321.7084   20288321.3444   20288322.3824
      -109.9674                         52.0004         49.0004
  -3466521.66146  -2650374.47145  24801918.9314   24801918.2424   24801920.4654
      2334.3494                         38.0004         35.0004
 -10684179.04147  -8274493.84546  22989826.6434   22989826.8224   22989827.8224
      1817.1884                         47.0004         41.0004
  -6343844.56547  -4892146.46246  23854277.9804   23854277.6574   23854277.2184
      3184.1274                         44.0004         38.0004
 -18151660.65548 -14090923.36047  21342222.5164   21342222.2964   21342223.7544
      2135.8464                         51.0004         45.0004
    270132.39446    262623.67145  25065234.5644   25065235.1924   25065234.2744
     -2892.6484                         41.0004         35.0004
 08  5 27  1 15 30.0000000  0 12G31G25G24G21G19G 6G16G 7G18G22G 3G29
  -2295444.42746  -1718910.05446  24680912.7244   24680913.2794   24680914.9514
     -3496.6274                         40.0004         36.0004
  -4423272.31247  -3404699.81146  24134013.7134   24134014.2594   24134015.5504
      1048.7344                         42.0004         38.0004
  -2147615.02346  -1624255.03146  24673813.7174   24673814.5064   24673819.3004
     -3471.1074                         41.0004         36.0004
 -19062762.31048 -14797825.08947  21374592.7454   21374592.5794   21374592.7574
     -1603.5414                         53.0004         46.0004
  -6841630.87247  -5281905.11846  23755570.3884   23755569.2064   23755571.1054
      2746.9134                         43.0004         39.0004
 -21771780.85648 -16907657.55947  20695243.0704   20695243.3914   20695244.6644
       936.0604                         53.0004         47.0004
 -24648433.43648 -19165000.13248  20288994.2224   20288994.0034   20288995.2354
      -126.2964                         52.0004         49.0004
  -3536340.43846  -2704778.68045  24788632.9214   24788633.0864   24788635.4034
      2320.0494                         39.0004         35.0004
 -10738503.35447  -8316824.46146  22979489.1084   22979489.0224   22979489.4334
      1803.8514                         47.0004         41.0004
  -6439318.90347  -4966542.03846  23836108.9694   23836108.5474   23836109.9014
      3180.6784                         43.0004         38.0004
 -18215619.81248 -14140761.65547  21330051.3424   21330051.4644   21330053.4684
      2127.7144                         51.0004         45.0004
    356919.96546    330250.46145  25081747.7184   25081749.6074   25081754.3034
     -2893.5634                         39.0004         35.0004
 08  5 27  1 16  0.0000000  0 12G31G25G24G21G19G 6G16G 7G18G22G 3G29
  -2190572.34846  -1637191.49945  24700870.2884   24700867.9074   24700869.9054
     -3495.4124                         41.0004         35.0004
  -4454484.01347  -3429020.62046  24128075.2214   24128075.0184   24128076.3434
      1032.0074                         42.0004         38.0004
  -2043439.40746  -1543079.26346  24693638.1604   24693639.1964   24693641.5344
     -3473.7664                         41.0004         36.0004
 -19014463.41248 -14760189.58247  21383783.7774   21383783.6174   21383783.9724
     -1616.4564                         52.0004         46.0004
  -6923985.97447  -5346077.88846  23739898.1384   23739897.4174   23739897.4104
      2743.1964                         44.0004         39.0004
 -21799739.67848 -16929443.65247  20689922.7874   20689922.5664   20689924.7814
       927.6214                         52.0004         47.0004
 -24644402.32048 -19161859.00148  20289761.2474   20289761.2894   20289762.4114
      -142.6324                         52.0004         49.0004
  -3605724.46046  -2758844.10745  24775429.8934   24775429.2184   24775431.3054
      2305.1214                         39.0004         35.0004
 -10792421.55347  -8358838.63946  22969228.4854   22969228.3694   22969229.9254
      1790.5714                         47.0004         41.0004
  -6534691.59947  -5040858.38546  23817961.5564   23817960.7574   23817960.4894
      3177.3544                         45.0004         38.0004
 -18279332.35148 -14190407.78547  21317927.4554   21317926.7534   21317929.2024
      2119.6764                         51.0004         45.0004
    443730.51046    397894.98346  25098270.4174   25098269.8824   25098271.1544
     -2894.1744                         41.0004         36.0004
 08  5 27  1 16 30.0000000  0 12G31G25G24G21G19G 6G16G 7G18G22G 3G29
  -2085729.88146  -1555496.10146  24720819.9294   24720819.8854   24720823.1054
     -3493.7624                         39.0004         36.0004
  -4485195.81747  -3452951.87246  24122230.0614   24122230.8214   24122233.4214
      1015.4394                         42.0004         38.0004
  -1939194.81546  -1461849.70145  24713475.2144   24713474.9074   24713478.9944
     -3475.9874                         41.0004         35.0004
 -18965782.34348 -14722256.28447  21393047.2844   21393047.0784   21393047.7284
     -1629.0214                         52.0004         46.0004
  -7006237.12447  -5410169.68446  23724247.0234   23724246.3924   23724248.0854
      2739.8294                         44.0004         39.0004
 -21827443.26248 -16951030.85647  20684650.8694   20684650.7004   20684652.7224
       919.1124                         53.0004         47.0004
 -24639880.84548 -19158335.77648  20290621.8134   20290621.7344   20290622.6344
      -158.9644                         52.0004         49.0004
  -3674678.28446  -2812574.29746  24762308.2514   24762309.8594   24762308.5864
      2291.2194                         39.0004         36.0004
 -10845937.79747  -8400539.59846  22959044.9584   22959043.5064   22959045.1924
      1777.0654                         47.0004         41.0004
  -6629966.50347  -5115098.53846  23799830.3144   23799830.0884   23799829.3584
      3173.6794                         43.0004         38.0004
 -18342804.13348 -14239866.30247  21305849.1124   21305848.8704   21305850.7284
      2111.6174                         51.0004         45.0004
    530557.00747    465551.99746  25114791.3204   25114793.0964   25114794.2464
     -2894.9434                         42.0004         36.0004
 08  5 27  1 17  0.0000000  0 12G31G25G24G21G19G 6G16G 7G18G22G 3G29
  -1980916.19646  -1473823.21846  24740766.7274   24740766.8004   24740767.9624
     -3493.6314                         41.0004         36.0004
  -4515403.83947  -3476490.59546  24116482.4414   24116482.2524   24116485.1684
       998.5304                         42.0004         38.0004
  -1834880.48646  -1380565.76245  24733325.8954   24733324.3654   24733330.8774
     -3478.2304                         41.0004         35.0004
 -18916717.92148 -14684024.26847  21402383.7774   21402383.3874   21402384.8564
     -1642.0294                         52.0004         46.0004
  -7088380.95547  -5474177.84646  23708614.9014   23708613.9264   23708614.8994
      2736.0754                         43.0004         39.0004
 -21854888.04348 -16972416.39847  20679428.3914   20679428.0134   20679430.1524
       910.3874                         53.0004         47.0004
 -24634865.58748 -19154427.78948  20291576.2874   20291575.8794   20291577.4074
      -175.5124                         52.0004         49.0004
  -3743196.50446  -2865965.10046  24749270.0834   24749271.9994   24749270.6224
      2276.4704                         40.0004         37.0004
 -10899046.67947  -8441923.13346  22948938.8324   22948938.7664   22948939.3614
      1763.4124                         47.0004         41.0004
  -6725137.77147  -5189257.92846  23781719.3754   23781718.2134   23781719.1334
      3170.4484                         43.0004         38.0004
 -18406030.83948 -14289133.84947  21293817.5204   21293817.0044   21293819.1104
      2103.3164                         51.0004         45.0004
    617401.98446    533223.51345  25131316.5774   25131316.1984   25131320.0354
     -2895.4414                         40.0004         34.0004
 08  5 27  1 17 30.0000000  0 12G31G25G24G21G19G 6G16G 7G18G22G 3G29
  -1876135.80046  -1392176.10945  24760705.8714   24760705.3824   24760707.2484
     -3492.1334                         40.0004         35.0004
  -4545108.34447  -3499636.94946  24110829.1154   24110829.3394   24110831.9314
       981.8684                         42.0004         38.0004
  -1730499.23546  -1299229.79245  24753188.8514   24753188.9494   24753193.2544
     -3480.3574                         41.0004         35.0004
 -18867273.08248 -14645495.82547  21411793.0644   21411792.6754   21411793.6624
     -1654.4424                         52.0004         46.0004
  -7170417.64047  -5538102.51046  23693004.3804   23693003.5934   23693003.1884
      2733.0904                         43.0004         39.0004
 -21882074.96948 -16993601.01247  20674254.9194   20674255.0814   20674256.9724
       902.1064                         53.0004         47.0004
 -24629357.06348 -19150135.43748  20292624.4534   20292623.9984   20292625.5994
      -191.7114                         52.0004         49.0004
  -3811278.18646  -2919015.78046  24736313.6704   24736312.8504   24736317.4564
      2262.3374                         39.0004         36.0004
 -10951747.07147  -8482988.36446  22938909.7634   22938909.6814   22938911.6294
      1749.8984                         47.0004         41.0004
  -6820203.35547  -5263334.95946  23763629.9354   23763630.5224   23763629.5144
      3167.0824                         44.0004         38.0004
 -18469013.05748 -14338210.89347  21281832.2724   21281832.1584   21281834.1984
      2095.3364                         51.0004         45.0004
    704264.32446    600908.48745  25147846.5204   25147844.7704   25147847.2664
     -2895.6534                         40.0004         35.0004
 08  5 27  1 18  0.0000000  0 12G31G25G24G21G19G 6G16G 7G18G22G 3G29
  -1771389.87446  -1310555.95646  24780637.8444   24780637.3964   24780641.6474
     -3491.4124                         40.0004         36.0004
  -4574307.10947  -3522389.21746  24105273.0834   24105272.2204   24105275.7354
       964.6964                         42.0004         38.0004
  -1626051.87346  -1217842.22245  24773064.5974   24773064.5804   24773067.5574
     -3483.5054                         41.0004         35.0004
 -18817447.65748 -14606670.81747  21421274.3714   21421273.7314   21421274.7604
     -1667.8574                         52.0004         46.0004
  -7252346.11647  -5601942.85846  23677413.6054   23677413.1444   23677412.5554
      2728.1214                         43.0004         39.0004
 -21909002.02448 -17014583.12647  20669130.9244   20669130.9434   20669132.6984
       892.5914                         53.0004         47.0004
 -24623352.91648 -19145456.88948  20293766.9944   20293766.5334   20293767.9004
      -209.0254                         52.0004         49.0004
  -3878919.47946  -2971723.21545  24723442.2104   24723443.8544   24723446.0674
      2247.2324                         37.0004         35.0004
 -11004035.30847  -8523732.42946  22928959.5794   22928959.4094   22928961.7664
      1735.4674                         47.0004         41.0004
  -6915159.00847  -5337326.34046  23745559.4664   23745560.1994   23745560.8944
      3162.7074                         43.0004         38.0004
 -18531748.99248 -14387096.02247  21269894.1424   21269893.9814   21269896.0344
      2086.4084                         51.0004         45.0004
    791145.06446    668607.75646  25164378.0294   25164379.1994   25164382.6334
     -2896.8124                         41.0004         37.0004
 08  5 27  1 18 30.0000000  0 12G31G25G24G21G19G 6G16G 7G18G22G 3G29
  -1666681.64546  -1228965.19746  24800563.1104   24800564.2224   24800565.1634
     -3490.4834                         41.0004         37.0004
  -4603000.07046  -3544747.38846  24099812.5744   24099812.7054   24099814.3144
       947.7584                         41.0004         38.0004
  -1521540.99146  -1136405.14645  24792951.8124   24792952.3644   24792955.1414
     -3484.9604                         41.0004         35.0004
 -18767244.28348 -14567551.31047  21430827.6274   21430827.2944   21430828.4814
     -1680.2004                         52.0004         46.0004
  -7334166.69047  -5665699.12946  23661843.4714   23661841.7094   23661843.3734
      2725.1164                         44.0004         39.0004
 -21935669.79248 -17035363.19647  20664056.0684   20664056.0854   20664058.1504
       884.1054                         53.0004         47.0004
 -24616853.36348 -19140392.31148  20295003.6614   20295003.1824   20295004.7654
      -225.3594                         52.0004         49.0004
  -3946119.07946  -3024086.52745  24710654.9974   24710655.4554   24710657.0494
      2232.3084                         39.0004         35.0004
 -11055910.20947  -8564154.41146  22919088.7474   22919087.2484   22919089.6164
      1721.6524                         47.0004         41.0004
  -7010002.76747  -5411230.51846  23727512.3204   23727511.7474   23727512.5044
      3159.0034                         44.0004         38.0004
 -18594237.82048 -14435788.61347  21258002.6284   21258002.7744   21258004.7684
      2078.3554                         51.0004         45.0004
    878043.31046    736320.68146  25180915.4914   25180916.9454   25180918.2274
     -2897.6194                         40.0004         36.0004
 08  5 27  1 19  0.0000000  0 12G31G25G24G21G19G 6G16G 7G18G22G 3G29
  -1562015.33546  -1147407.00245  24820478.5664   24820479.7274   24820483.2424
     -3488.2474                         39.0004         35.0004
  -4631188.52947  -3566712.40546  24094449.2844   24094448.6834   24094451.6794
       931.0584                         42.0004         38.0004
  -1416970.37346  -1054921.60645  24812851.2374   24812851.9424   24812855.1614
     -3486.9384                         41.0004         35.0004
 -18716666.53948 -14528140.08247  21440452.3224   21440452.2024   21440452.8194
     -1692.2744                         52.0004         46.0004
  -7415880.45247  -5729372.16946  23646293.9934   23646293.1554   23646294.1694
      2721.8804                         44.0004         39.0004
 -21962079.82748 -17055942.43447  20659030.3604   20659030.0264   20659032.3564
       875.9364                         53.0004         47.0004
 -24609859.72048 -19134942.72948  20296334.5444   20296334.0484   20296335.9594
      -241.3924                         52.0004         49.0004
  -4012876.63846  -3076105.42346  24697952.4114   24697949.5184   24697952.3064
      2217.9554                         40.0004         36.0004
 -11107370.66947  -8604253.47446  22909295.8324   22909295.8124   22909296.7424
      1708.3354                         47.0004         41.0004
  -7104732.75947  -5485046.08046  23709485.4004   23709484.5604   23709484.4024
      3155.6444                         44.0004         39.0004
 -18656481.04148 -14484289.81747  21246158.2614   21246157.6834   21246159.8494
      2070.6774                         51.0004         45.0004
    964956.96946    804045.61345  25197454.5574   25197454.7474   25197456.9384
     -2897.6184                         39.0004         33.0004
 08  5 27  1 19 30.0000000  0 12G31G25G24G21G19G 6G16G 7G18G22G 3G29
  -1457394.01646  -1065883.87146  24840389.7154   24840389.8854   24840390.2994
     -3486.7424                         40.0004         36.0004
  -4658872.22847  -3588284.11646  24089181.0734   24089181.5104   24089182.7634
       914.9324                         42.0004         38.0004
  -1312342.69446   -973393.54545  24832761.1634   24832760.3844   24832764.9494
     -3488.1354                         40.0004         35.0004
 -18665716.68648 -14488438.90547  21450148.0004   21450147.2294   21450148.0074
     -1704.2214                         52.0004         46.0004
  -7497487.63547  -5792962.16746  23630764.5644   23630763.2574   23630764.2444
      2718.3834                         44.0004         39.0004
 -21988232.34948 -17076321.01847  20654053.7444   20654053.9824   20654055.0394
       867.7274                         53.0004         47.0004
 -24602372.09548 -19129108.22448  20297759.7114   20297759.2624   20297760.3284
      -257.5914                         52.0004         49.0004
  -4079190.57846  -3127778.59646  24685332.9404   24685333.1704   24685334.9674
      2203.4824                         40.0004         36.0004
 -11158415.36547  -8644028.55446  22899582.9734   22899581.9204   22899582.3014
      1694.7724                         47.0004         41.0004
  -7199347.01847  -5558771.44146  23691480.4024   23691480.1724   23691480.7384
      3151.9584                         44.0004         38.0004
 -18718478.37048 -14532599.41447  21234360.5224   21234360.0584   21234362.4674
      2062.5854                         51.0004         45.0004
   1051885.13347    871781.90546  25213997.6074   25213998.3244   25213999.5644
     -2897.7704                         42.0004         36.0004
 08  5 27  1 20  0.0000000  0 12G31G25G24G21G19G 6G16G 7G18G22G 3G29
  -1352815.75146   -984394.34946  24860290.8244   24860291.1674   24860293.0734
     -3485.2884                         40.0004         36.0004
  -4686045.17547  -3609457.84146  24084009.8934   24084010.3454   24084011.9804
       897.5704                         42.0004         38.0004
  -1207654.40346   -891818.22145  24852682.5094   24852682.5554   24852687.3084
     -3490.5964                         41.0004         35.0004
 -18614390.93348 -14448444.81047  21459914.7184   21459913.6254   21459915.4104
     -1716.9164                         52.0004         46.0004
  -7578982.60947  -5856464.71646  23615257.0864   23615256.0504   23615256.1674
      2714.6034                         45.0004         39.0004
 -22014121.67948 -17096494.51947  20649127.0294   20649127.1684   20649128.8294
       858.7374                         52.0004         47.0004
 -24594384.48948 -19122884.11948  20299279.6064   20299279.4124   20299280.4514
      -274.3584                         52.0004         49.0004
  -4145053.51846  -3179100.30146  24672798.2194   24672797.6594   24672800.3554
      2188.0974                         38.0004         36.0004
 -11209036.98147  -8683473.95846  22889949.1844   22889948.3064   22889950.2394
      1680.5034                         47.0004         41.0004
  -7293837.48347  -5632400.37546  23673500.6524   23673500.2464   23673499.9984
      3147.9374                         45.0004         39.0004
 -18780223.85348 -14580712.76847  21222610.9254   21222610.2774   21222612.2864
      2054.0294                         51.0004         45.0004
   1138832.97446    939533.49946  25230542.5464   25230541.7324   25230543.6294
     -2898.2934                         40.0004         37.0004
 08  5 27  1 20 30.0000000  0 12G31G25G24G21G19G 6G16G 7G18G22G 3G29
  -1248280.68946   -902938.48245  24880181.8424   24880180.9134   24880181.8344
     -3484.0314                         39.0004         34.0004
  -4712704.38247  -3630231.23446  24078937.2304   24078936.4894   24078938.2454
       880.3864                         43.0004         38.0004
  -1102905.92546   -810196.02845  24872615.2974   24872615.7334   24872620.3614
     -3492.4294                         41.0004         35.0004
 -18562688.93148 -14408157.54447  21469753.2504   21469752.8734   21469753.6784
     -1729.5674                         52.0004         46.0004
  -7660362.87347  -5919877.88846  23599770.7464   23599770.0764   23599769.7894
      2710.7654                         45.0004         39.0004
 -22039745.38148 -17116461.04147  20644251.1014   20644250.9854   20644252.8584
       849.7564                         53.0004         47.0004
 -24585894.10548 -19116268.24248  20300895.3554   20300894.8754   20300896.4194
      -291.2014                         52.0004         49.0004
  -4210460.97746  -3230067.09346  24660352.4794   24660351.8824   24660354.0884
      2172.6344                         38.0004         36.0004
 -11259231.06947  -8722586.22246  22880397.8024   22880397.7844   22880397.8164
      1666.0354                         47.0004         41.0004
  -7388198.74647  -5705928.64646  23655542.9754   23655542.6454   23655543.4304
      3143.1004                         43.0004         38.0004
 -18841713.92448 -14628627.10147  21210909.4394   21210909.3664   21210911.1244
      2045.4264                         51.0004         45.0004
   1225801.99746   1007301.43145  25247092.1264   25247095.5964   25247096.4754
     -2898.7354                         36.0004         34.0004
 08  5 27  1 21  0.0000000  0 12G31G25G24G21G19G 6G16G 7G18G22G 3G29
  -1143801.98746   -821526.45245  24900064.3474   24900063.6914   24900065.9614
     -3482.4234                         40.0004         35.0004
  -4738859.84647  -3650612.12046  24073959.9884   24073960.4044   24073961.3034
       862.7854                         42.0004         38.0004
   -998109.52846   -728536.55145  24892557.3994   24892558.9364   24892558.5064
     -3495.2064                         40.0004         35.0004
 -18510623.19648 -14367586.84347  21479661.2414   21479661.2164   21479661.8054
     -1742.3664                         52.0004         46.0004
  -7741638.21447  -5983209.29946  23584303.7784   23584302.9364   23584303.0104
      2706.9154                         44.0004         40.0004
 -22065113.68548 -17136228.54547  20639423.6944   20639423.4374   20639425.6404
       840.5194                         53.0004         47.0004
 -24576910.88048 -19109268.32648  20302604.6834   20302604.5794   20302605.7424
      -308.4284                         52.0004         49.0004
  -4275421.44146  -3280685.59745  24647990.4844   24647988.7744   24647993.4954
      2157.0564                         38.0004         35.0004
 -11309006.15947  -8761371.99046  22870925.6974   22870925.2344   22870926.5244
      1651.4234                         47.0004         41.0004
  -7482438.81947  -5779362.43346  23637609.8324   23637609.3764   23637609.6374
      3138.5954                         45.0004         38.0004
 -18902958.91548 -14676350.46347  21199254.9234   21199254.8114   21199256.5564
      2036.6024                         51.0004         45.0004
   1312781.63847   1075077.74245  25263644.8354   25263642.2904   25263644.9944
     -2900.1114                         42.0004         34.0004
 08  5 27  1 21 30.0000000  0 12G31G25G24G21G19G 6G16G 7G18G22G 3G29
  -1039376.50546   -740156.00045  24919934.0524   24919935.5634   24919938.3114
     -3480.0734                         39.0004         35.0004
  -4764505.34747  -3670595.62846  24069079.8134   24069080.9994   24069082.4054
       846.3734                         43.0004         38.0004
   -893261.54046   -646836.79445  24912509.8984   24912508.2054   24912512.7654
     -3495.8794                         41.0004         35.0004
 -18458189.31448 -14326729.27047  21489639.2544   21489638.5994   21489639.4654
     -1753.6084                         52.0004         46.0004
  -7822802.93047  -6046454.51746  23568859.1914   23568858.5044   23568858.7224
      2703.7494                         44.0004         40.0004
 -22090220.53448 -17155792.31747  20634645.9834   20634646.1264   20634648.2194
       832.6764                         52.0004         47.0004
 -24567429.14648 -19101879.96648  20304409.1764   20304409.1654   20304409.8614
      -324.2514                         52.0004         49.0004
  -4339927.89046  -3330950.33345  24635714.9844   24635714.8624   24635718.4194
      2142.6774                         37.0004         35.0004
 -11358354.39547  -8799825.16246  22861534.8934   22861533.7584   22861536.6444
      1638.1094                         47.0004         41.0004
  -7576548.70647  -5852694.83146  23619702.1594   23619701.5984   23619701.8824
      3134.8494                         45.0004         38.0004
 -18963952.14148 -14723877.64447  21187648.2334   21187647.9704   21187650.0384
      2029.0564                         51.0004         45.0004
   1399777.14946   1142866.63745  25280198.7114   25280198.4604   25280201.3294
     -2899.9854                         39.0004         35.0004
 08  5 27  1 22  0.0000000  0 12G31G25G24G21G19G 6G16G 7G18G22G 3G29
   -935006.36246   -658828.69645  24939796.3494   24939797.5514   24939798.4484
     -3478.5164                         40.0004         35.0004
  -4789639.77747  -3690180.89546  24064296.9184   24064297.6614   24064299.1824
       828.7484                         43.0004         38.0004
   -788363.33946   -565097.88045  24932471.2314   24932471.0154   24932474.2764
     -3497.7264                         39.0004         35.0004
 -18405389.05448 -14285586.21647  21499686.3394   21499686.2914   21499686.3944
     -1766.3674                         52.0004         46.0004
  -7903856.12647  -6109612.82446  23553435.1554   23553434.4564   23553435.3304
      2699.7624                         45.0004         40.0004
 -22115065.11448 -17175151.72647  20629918.2244   20629918.1004   20629920.1334
       823.5834                         53.0004         47.0004
 -24557447.21248 -19094101.83848  20306308.5654   20306308.2634   20306309.8424
      -341.3254                         52.0004         49.0004
  -4403977.07946  -3380858.77946  24623528.2204   24623528.4494   24623527.6074
      2126.7584                         40.0004         36.0004
 -11407272.54447  -8837943.19846  22852225.9524   22852225.4234   22852227.5974
      1623.0074                         47.0004         41.0004
  -7670525.24447  -5925923.29746  23601817.1364   23601817.6424   23601818.6944
      3130.1444                         43.0004         38.0004
 -19024692.46448 -14771207.76247  21176089.9664   21176089.9084   21176091.4164
      2020.2014                         51.0004         45.0004
   1486788.98546   1210667.95645  25296753.4854   25296756.0714   25296760.1404
     -2900.8134                         37.0004         35.0004
 08  5 27  1 22 30.0000000  0 11G31G25G24G21G19G 6G16G 7G18G22G 3
   -830695.73246   -577547.61345  24959645.9374   24959646.2184   24959647.7954
     -3476.2044                         39.0004         35.0004
  -4814263.95247  -3709368.55146  24059610.8414   24059611.6154   24059612.8194
       812.3724                         43.0004         38.0004
   -683418.34946   -483322.64645  24952441.5624   24952442.2724   24952445.3784
     -3499.1654                         40.0004         35.0004
 -18352225.30048 -14244159.91747  21509803.1084   21509802.5234   21509804.1494
     -1778.3044                         52.0004         46.0004
  -7984798.69647  -6172684.93746  23538031.8634   23538031.4174   23538032.5674
      2696.0624                         44.0004         40.0004
 -22139648.44648 -17194307.57147  20625240.2264   20625239.8794   20625242.1944
       814.9334                         53.0004         47.0004
 -24546966.33248 -19085934.92048  20308303.1154   20308303.0964   20308303.8194
      -357.6714                         52.0004         49.0004
  -4467568.47946  -3430410.53746  24611426.0544   24611427.1484   24611426.8544
      2112.0064                         40.0004         37.0004
 -11455760.24348  -8875725.80446  22842999.2804   22842999.5204   22843000.3634
      1608.7864                         48.0004         41.0004
  -7764366.53947  -5999046.35546  23583961.1644   23583961.0194   23583961.3114
      3125.6464                         45.0004         39.0004
 -19085180.56048 -14818341.33047  21164579.3194   21164579.3554   21164581.6834
      2011.9194                         51.0004         45.0004
 08  5 27  1 23  0.0000000  0 11G31G25G24G21G19G 6G16G 7G18G22G 3
   -726446.67046   -496314.68346  24979485.1444   24979486.3894   24979487.7284
     -3474.2734                         41.0004         36.0004
  -4838376.79147  -3728157.79246  24055022.4684   24055021.5044   24055025.0424
       794.9014                         43.0004         38.0004
   -578428.29546   -401512.20845  24972420.8384   24972420.4994   24972421.4214
     -3500.7074                         41.0004         35.0004
 -18298699.45848 -14202451.46847  21519989.1414   21519988.6704   21519989.8144
     -1790.3674                         52.0004         46.0004
  -8065630.15147  -6235670.46046  23522650.6054   23522650.0364   23522651.3124
      2692.5154                         44.0004         40.0004
 -22163969.86548 -17213259.32647  20620611.9554   20620612.1594   20620613.9994
       806.1094                         53.0004         47.0004
 -24535985.95048 -19077378.77848  20310392.7044   20310392.3204   20310393.2204
      -374.5634                         52.0004         49.0004
  -4530699.73246  -3479603.70645  24599411.3314   24599411.1554   24599413.6514
      2096.6224                         38.0004         35.0004
 -11503815.54548  -8913171.49146  22833854.8694   22833853.9384   22833857.0804
      1594.4174                         48.0004         41.0004
  -7858069.59547  -6072061.70846  23566129.8744   23566129.8344   23566129.6954
      3120.8844                         44.0004         38.0004
 -19145414.90748 -14865277.17847  21153117.1054   21153116.7054   21153119.1484
      2003.3634                         51.0004         45.0004
 08  5 27  1 23 30.0000000  0 11G31G25G24G21G19G 6G16G 7G18G22G 3
   -622259.85347   -415130.22946  24999310.6594   24999311.6644   24999311.5464
     -3471.9374                         42.0004         36.0004
  -4861975.96547  -3746546.74746  24050531.1994   24050530.0674   24050533.7194
       778.4504                         43.0004         38.0004
   -473393.17646   -319666.59245  24992407.7564   24992405.3794   24992412.9264
     -3502.0574                         40.0004         34.0004
 -18244811.43948 -14160460.80747  21530243.4734   21530243.2734   21530243.8144
     -1801.9714                         52.0004         46.0004
  -8146347.99247  -6298567.45346  23507290.8224   23507290.1824   23507289.2274
      2688.9134                         45.0004         40.0004
 -22188027.35948 -17232005.42147  20616033.9734   20616033.7244   20616035.9794
       797.6584                         53.0004         47.0004
 -24524503.52648 -19068431.43648  20312577.7714   20312577.4104   20312578.3494
      -390.9034                         52.0004         49.0004
  -4593366.44446  -3528434.85446  24587486.8924   24587487.0904   24587487.4374
      2081.0754                         39.0004         36.0004
 -11551434.18348  -8950276.91746  22824793.7604   22824793.7504   22824794.4474
      1580.2814                         48.0004         41.0004
  -7951629.43847  -6144965.44746  23548325.5194   23548325.7884   23548326.2534
      3116.3124                         44.0004         38.0004
 -19205393.34848 -14912013.61847  21141703.6164   21141703.2724   21141705.4814
      1995.1674                         51.0004         45.0004
 08  5 27  1 24  0.0000000  0 11G31G25G24G21G19G 6G16G 7G18G22G 3
   -518141.92846   -333999.33945  25019122.2864   25019119.4374   25019124.4074
     -3470.3474                         38.0004         34.0004
  -4885064.45847  -3764537.78946  24046137.2254   24046136.9714   24046139.1034
       761.0294                         43.0004         38.0004
   -368318.25046   -237790.09845  25012403.6094   25012404.0644   25012407.0914
     -3503.1634                         40.0004         35.0004
 -18190566.35748 -14118191.91147  21540565.7524   21540564.9944   21540566.1934
     -1814.2484                         52.0004         46.0004
  -8226955.07847  -6361378.13346  23491951.6244   23491950.9444   23491951.3674
      2684.8744                         45.0004         40.0004
 -22211823.79048 -17250548.09247  20611505.6904   20611505.5274   20611507.2434
       788.7334                         52.0004         47.0004
 -24512522.13848 -19059095.29048  20314857.7054   20314857.2834   20314858.3624
      -407.8954                         52.0004         49.0004
  -4655571.09646  -3576905.97146  24575650.5794   24575650.2524   24575652.6914
      2065.1584                         40.0004         36.0004
 -11598617.27548  -8987042.95347  22815815.1704   22815815.1174   22815815.3524
      1565.3834                         48.0004         42.0004
  -8045046.61747  -6217758.03946  23530549.3454   23530548.9784   23530548.8454
      3111.1904                         44.0004         39.0004
 -19265118.05248 -14958552.34047  21130338.2764   21130338.1674   21130340.8094
      1986.4384                         51.0004         45.0004
 08  5 27  1 24 30.0000000  0 11G31G25G24G21G19G 6G16G 7G18G22G 3
   -414092.68746   -252922.07846  25038923.8524   25038923.0154   25038925.6104
     -3467.4664                         40.0004         36.0004
  -4907639.32747  -3782128.58546  24041841.8804   24041841.9784   24041844.8594
       743.6134                         43.0004         38.0004
   -263203.05946   -155882.17745  25032406.1364   25032405.5884   25032409.9844
     -3504.5694                         41.0004         35.0004
 -18135963.48648 -14075644.22347  21550956.3094   21550956.2144   21550956.9354
     -1826.1604                         52.0004         46.0004
  -8307448.68147  -6424100.40546  23476633.9234   23476633.6074   23476633.3764
      2680.9974                         45.0004         40.0004
 -22235356.58748 -17268885.33347  20607027.6094   20607027.3634   20607029.2514
       779.8164                         53.0004         47.0004
 -24500038.92048 -19049368.11248  20317233.3004   20317232.7594   20317234.1354
      -424.6554                         52.0004         49.0004
  -4717308.81546  -3625013.26446  24563902.6404   24563903.5844   24563902.6504
      2050.0234                         40.0004         36.0004
 -11645360.43948  -9023466.17547  22806919.7484   22806920.0034   22806920.4754
      1550.5074                         48.0004         42.0004
  -8138315.68647  -6290435.21846  23512800.6544   23512800.4534   23512800.0404
      3106.2494                         44.0004         38.0004
 -19324586.11448 -15004891.08947  21119022.0544   21119021.9714   21119024.2254
      1977.7864                         51.0004         45.0004
 08  5 27  1 25  0.0000000  0 11G31G25G24G21G19G 6G16G 7G18G22G 3
   -310115.32946   -171900.86145  25058708.6014   25058709.2554   25058710.4344
     -3464.6354                         39.0004         35.0004
  -4929700.46947  -3799319.08646  24037643.8104   24037643.6244   24037645.4354
       726.1084                         44.0004         38.0004
   -158050.17146    -73944.80945  25052415.3704   25052415.1354   25052419.0424
     -3505.9024                         39.0004         33.0004
 -18081005.43648 -14032819.77047  21561414.8954   21561414.3934   21561415.0754
     -1838.3424                         52.0004         46.0004
  -8387829.18447  -6486734.53246  23461337.8374   23461336.5314   23461337.2944
      2677.1534                         45.0004         40.0004
 -22258625.69048 -17287017.09647  20602599.6494   20602599.5204   20602601.3084
       770.6764                         52.0004         47.0004
 -24487053.82748 -19039249.85748  20319704.0574   20319703.7754   20319704.9054
      -441.8384                         52.0004         49.0004
  -4778578.00646  -3672755.47146  24552243.0114   24552242.5574   24552245.4574
      2034.0254                         40.0004         36.0004
 -11691662.13448  -9059545.39947  22798109.2054   22798108.7114   22798109.4874
      1535.4804                         48.0004         42.0004
  -8231434.26647  -6362995.11846  23495081.1134   23495080.7334   23495081.6244
      3100.9724                         45.0004         39.0004
 -19383797.03848 -15051029.46947  21107754.6584   21107754.6704   21107756.6124
      1968.8594                         51.0004         45.0004
 08  5 27  1 25 30.0000000  0 11G31G25G24G21G19G 6G16G 7G18G22G 3
   -206213.33746    -90938.30545  25078481.6594   25078480.6914   25078481.8274
     -3461.8414                         37.0004         33.0004
  -4951249.06147  -3816110.18746  24033544.2044   24033542.9014   24033545.7634
       709.6764                         44.0004         38.0004
    -52862.88946      8019.29945  25072432.2944   25072433.5764   25072436.0424
     -3506.4014                         40.0004         35.0004
 -18025694.98648 -13989720.72547  21571939.8374   21571940.1264   21571940.1404
     -1849.5204                         52.0004         45.0004
  -8468097.56347  -6549281.30946  23446063.7164   23446063.0164   23446063.3994
      2673.4434                         45.0004         40.0004
 -22281632.32648 -17304944.33747  20598221.5214   20598221.4124   20598223.3104
       762.4874                         53.0004         47.0004
 -24473568.04148 -19028741.45648  20322270.3424   20322270.0054   20322271.2944
      -458.0134                         52.0004         49.0004
  -4839378.04046  -3720132.13446  24540672.6584   24540672.1264   24540675.6254
      2018.5124                         39.0004         36.0004
 -11737521.82448  -9095280.20847  22789382.4934   22789383.7094   22789381.7754
      1521.2624                         48.0004         42.0004
  -8324400.92847  -6435436.66346  23477389.7874   23477388.6754   23477389.2554
      3096.1554                         45.0004         39.0004
 -19442750.97848 -15096967.59747  21096535.8734   21096535.8024   21096538.0624
      1960.8164                         51.0004         45.0004
 08  5 27  1 26  0.0000000  0 11G31G25G24G21G19G 6G16G 7G18G22G 3
   -102386.91446    -10034.54946  25098239.6214   25098240.8434   25098242.0554
     -3460.1544                         41.0004         36.0004
  -4972281.48547  -3832499.07546  24029541.0624   24029541.1644   24029542.7444
       692.1174                         43.0004         38.0004
     52359.76346     90010.95845  25092455.0554   25092454.5124   25092461.2504
     -3508.2444                         40.0004         35.0004
 -17970031.58748 -13946346.65247  21582532.0304   21582531.9864   21582532.9454
     -1861.4984                         52.0004         45.0004
  -8548250.25247  -6611737.92546  23430810.8424   23430810.7144   23430810.4634
      2669.6654                         45.0004         40.0004
 -22304373.34648 -17322664.60847  20593894.0514   20593894.0054   20593895.7714
       753.4024                         53.0004         47.0004
 -24459578.61148 -19017840.60348  20324932.4364   20324931.7954   20324933.0974
      -474.8794                         52.0004         49.0004
  -4899704.20646  -3767139.51045  24529192.9044   24529192.6354   24529194.4024
      2002.5104                         37.0004         35.0004
 -11782934.54648  -9130666.74147  22780740.5324   22780740.6724   22780741.9364
      1506.1154                         48.0004         42.0004
  -8417209.88647  -6507755.29446  23459728.0974   23459728.9514   23459729.8984
      3090.8934                         45.0004         39.0004
 -19501445.08748 -15142703.25847  21085366.7104   21085365.9824   21085368.7724
      1951.8614                         51.0004         45.0004
 08  5 27  1 26 30.0000000  0 11G31G25G24G21G19G 6G16G 7G18G22G 3
      1359.80946     70806.95245  25117979.8314   25117981.5304   25117984.9784
     -3457.4544                         37.0004         35.0004
  -4992799.30047  -3848486.98646  24025636.5354   24025637.8924   24025637.9024
       675.7284                         44.0004         38.0004
    157614.34646    172027.50145  25112485.0824   25112484.3634   25112485.4444
     -3509.1884                         41.0004         33.0004
 -17914018.03248 -13902699.73447  21593191.4134   21593190.9524   21593192.0354
     -1872.8644                         52.0004         45.0004
  -8628288.65247  -6674105.49446  23415580.2214   23415579.3014   23415580.1534
      2665.9064                         45.0004         40.0004
 -22326849.95348 -17340178.83947  20589616.8324   20589616.4974   20589618.9544
       744.8974                         53.0004         47.0004
 -24445086.49048 -19006548.04448  20327690.2504   20327689.9094   20327690.9954
      -491.3834                         52.0004         49.0004
  -4959556.25346  -3813777.40346  24517804.0194   24517805.2384   24517805.5124
      1987.2354                         40.0004         36.0004
 -11827899.90348  -9165704.67347  22772183.9114   22772184.7064   22772184.7274
      1491.4384                         48.0004         42.0004
  -8509859.52647  -6579949.79346  23442098.4384   23442098.2364   23442098.1584
      3085.6024                         46.0004         39.0004
 -19559879.74248 -15188236.74747  21074247.0344   21074247.1124   21074249.1544
      1943.5484                         51.0004         45.0004
 08  5 27  1 27  0.0000000  0 11G31G25G24G21G19G 6G16G 7G18G22G 3
  -9347496.52846  -7214016.31345  25137708.7234   25137709.1794   25137708.5814
     -3454.1344                         39.0004         34.0004
  -5012803.34947  -3864074.54346  24021830.1154   24021830.1454   24021832.2954
       658.2474                         44.0004         38.0004
    262897.49346    254066.42145  25132520.3134   25132518.6724   25132524.3374
     -3509.9884                         40.0004         34.0004
 -17857657.46548 -13858782.41447  21603916.5014   21603915.8724   21603916.9504
     -1884.3834                         52.0004         46.0004
  -8708214.22547  -6736385.14346  23400370.6624   23400369.8804   23400371.1354
      2662.0884                         45.0004         40.0004
 -22349063.37648 -17357487.99847  20585389.6824   20585389.7744   20585392.0954
       735.9604                         53.0004         47.0004
 -24430092.91448 -18994864.73948  20330543.3514   20330542.8564   20330544.2284
      -508.2454                         52.0004         49.0004
  -5018933.48746  -3860045.38146  24506505.4144   24506504.8954   24506506.7714
      1971.2254                         41.0004         37.0004
 -11872417.56848  -9200393.76347  22763712.4304   22763712.4104   22763713.6554
      1476.2974                         48.0004         42.0004
  -8602348.49447  -6652019.11246  23424498.4974   23424497.6404   23424497.9794
      3080.1214                         45.0004         39.0004
 -19618056.01148 -15233568.89747  21063176.5164   21063176.5074   21063178.3434
      1934.8214                         51.0004         45.0004
 08  5 27  1 27 30.0000000  0 11G31G25G24G21G19G 6G16G 7G18G22G 3
  -9243917.88846  -7133305.53145  25157418.2664   25157415.4974   25157419.9104
     -3451.2134                         40.0004         34.0004
  -5032291.75047  -3879260.30146  24018121.7104   24018122.3154   24018122.8854
       640.9454                         44.0004         39.0004
    368208.96846    336127.21945  25152559.5764   25152560.3804   25152562.8944
     -3510.9644                         39.0004         34.0004
 -17800950.46548 -13814595.14147  21614707.6134   21614707.1954   21614707.7214
     -1896.0054                         52.0004         45.0004
  -8788024.29847  -6798574.79146  23385183.5164   23385182.9184   23385183.4644
      2658.3114                         45.0004         40.0004
 -22371011.51548 -17374590.43747  20581213.2814   20581213.2204   20581214.9414
       727.0954                         53.0004         47.0004
 -24414595.76948 -18982789.04548  20333492.3894   20333492.1214   20333493.1534
      -525.1114                         52.0004         49.0004
  -5077832.70646  -3905940.88146  24495296.9474   24495296.7714   24495296.6194
      1955.3644                         41.0004         37.0004
 -11916483.80248  -9234731.07547  22755326.5794   22755326.0294   22755327.6614
      1461.4164                         48.0004         42.0004
  -8694672.32047  -6723959.72746  23406929.8644   23406929.5144   23406929.7074
      3074.6354                         45.0004         40.0004
 -19675970.89748 -15278697.37547  21052155.5404   21052155.3674   21052157.5434
      1926.0054                         51.0004         45.0004
 08  5 27  1 28  0.0000000  0 10G25G24G21G19G 6G16G 7G18G22G 3
  -5051261.83547  -3894042.19646  24014511.9214   24014511.4814   24014513.3794
       623.6564                         44.0004         39.0004
    473548.68447    418210.07345  25172605.6454   25172606.4244   25172606.3064
     -3511.5244                         42.0004         34.0004
 -17743896.73948 -13770137.70647  21625564.4094   21625563.4864   21625565.2324
     -1907.5724                         52.0004         45.0004
  -8867716.71847  -6860672.76346  23370017.9294   23370017.7074   23370017.9394
      2654.6024                         45.0004         40.0004
 -22392692.00648 -17391484.32647  20577087.6054   20577087.4354   20577089.4964
       718.2604                         53.0004         47.0004
 -24398592.92448 -18970319.30248  20336537.6914   20336537.3354   20336538.3704
      -541.8564                         52.0004         49.0004
  -5136249.97146  -3951460.81446  24484179.8164   24484180.5134   24484181.8494
      1939.6164                         38.0004         36.0004
 -11960094.49048  -9268713.41147  22747028.0814   22747027.7784   22747030.7484
      1446.1864                         48.0004         42.0004
  -8786825.91647  -6795767.72246  23389393.0154   23389392.9904   23389393.2744
      3068.8734                         45.0004         40.0004
 -19733621.49848 -15323619.91347  21041184.9654   21041184.6324   21041186.7984
      1917.3524                         51.0004         45.0004
 08  5 27  1 28 30.0000000  0 11G31G25G24G21G19G 6G16G 7G18G22G 3
  -9037021.62746  -6972087.91145  25196791.1924   25196789.0754   25196789.6024
     -3444.7914                         41.0004         35.0004
  -5069716.87247  -3908422.73146  24011000.0194   24010999.8264   24011001.7724
       606.7034                         44.0004         39.0004
    578911.75646    500311.25245  25192655.5254   25192653.5174   25192657.0104
     -3512.0024                         40.0004         33.0004
 -17686501.41648 -13725414.07847  21636486.5624   21636486.5504   21636486.6144
     -1918.4664                         52.0004         45.0004
  -8947294.26247  -6922681.22246  23354875.4554   23354874.1694   23354874.7774
      2650.9724                         45.0004         40.0004
 -22414107.71048 -17408171.88248  20573012.3474   20573012.2514   20573014.1764
       709.8094                         52.0004         48.0004
 -24382087.59248 -18957458.01448  20339678.3584   20339677.9664   20339679.4064
      -558.1924                         52.0004         49.0004
  -5194186.65746  -3996606.23745  24473154.4124   24473154.2984   24473154.2854
      1923.5824                         39.0004         35.0004
 -12003251.42548  -9302342.20147  22738815.4544   22738814.3914   22738816.1744
      1431.2854                         48.0004         42.0004
  -8878809.39847  -6867443.15646  23371888.8834   23371889.2004   23371890.6144
      3063.5594                         45.0004         39.0004
 -19791010.49248 -15368338.60447  21030264.2124   21030264.4474   21030266.5214
      1908.9364                         51.0004         45.0004
 08  5 27  1 29  0.0000000  0 10G25G24G21G19G 6G16G 7G18G22G 3
  -5087655.05347  -3922400.53946  24007586.3094   24007585.8354   24007588.9034
       589.5774                         44.0004         39.0004
    684297.77746    582430.20945  25212709.8654   25212710.5674   25212711.9504
     -3512.9624                         39.0004         35.0004
 -17628764.77448 -13680424.48947  21647473.6024   21647472.9644   21647473.5584
     -1930.0604                         52.0004         46.0004
  -9026755.43847  -6984599.00146  23339754.3464   23339753.5964   23339754.8134
      2647.0094                         45.0004         40.0004
 -22435257.25048 -17424652.03848  20568987.5774   20568987.7774   20568989.1534
       700.7074                         52.0004         48.0004
 -24365077.81748 -18944203.65048  20342915.2394   20342914.9784   20342916.2364
      -575.2814                         52.0004         49.0004
  -5251639.55546  -4041374.73146  24462223.1604   24462223.4344   24462224.9484
      1906.9014                         41.0004         36.0004
 -12045951.03748  -9335614.60547  22730689.8974   22730689.4724   22730690.4324
      1415.7874                         49.0004         42.0004
  -8970618.84047  -6938982.96646  23354418.8424   23354419.7634   23354419.2074
      3057.5194                         45.0004         40.0004
 -19848135.99348 -15412851.97147  21019393.6564   21019393.7614   21019395.8204
      1899.9254                         51.0004         45.0004
 08  5 27  1 29 30.0000000  0 10G25G24G21G19G 6G16G 7G18G22G 3
  -5105077.34547  -3935976.34146  24004270.7924   24004271.5434   24004273.3114
       572.2294                         44.0004         38.0004
    789703.53946    664564.47845  25232768.1754   25232766.2694   25232772.3824
     -3513.8524                         41.0004         35.0004
 -17570689.95148 -13635171.38947  21658524.5224   21658524.5694   21658525.5494
     -1941.4464                         52.0004         45.0004
  -9106100.90547  -7046426.62446  23324655.2114   23324654.7854   23324654.8214
      2643.0114                         45.0004         40.0004
 -22456141.18248 -17440925.22948  20565013.5534   20565013.4864   20565015.3574
       691.5964                         52.0004         48.0004
 -24347564.66948 -18930557.04648  20346247.9144   20346247.4694   20346249.0474
      -592.2854                         52.0004         49.0004
  -5308608.03947  -4085765.80546  24451382.2544   24451383.1094   24451384.0664
      1890.8604                         42.0004         38.0004
 -12088192.53748  -9368530.05147  22722651.3304   22722650.3564   22722652.6894
      1400.2384                         48.0004         42.0004
  -9062252.13347  -7010385.51546  23336980.7794   23336981.4504   23336981.6424
      3051.4764                         45.0004         39.0004
 -19904997.98848 -15457160.00647  21008573.2594   21008573.2774   21008575.4684
      1890.8314                         51.0004         46.0004
 08  5 27  1 30  0.0000000  0 10G25G24G21G19G 6G16G 7G18G22G 3
  -5121979.26747  -3949146.67246  24001054.5884   24001054.4514   24001055.8804
       554.6844                         45.0004         39.0004
    895131.34046    746716.12945  25252828.5204   25252828.3284   25252834.5194
     -3514.6944                         39.0004         33.0004
 -17512274.37448 -13589652.75847  21669641.0854   21669640.2094   21669640.5024
     -1952.8814                         52.0004         45.0004
  -9185325.95747  -7108160.42746  23309578.3784   23309577.3734   23309578.6984
      2638.4944                         44.0004         40.0004
 -22476755.05948 -17456987.98647  20561090.8334   20561090.7684   20561092.6154
       682.6904                         52.0004         47.0004
 -24329543.48748 -18916514.57348  20349677.1174   20349676.9354   20349678.0954
      -609.2424                         52.0004         49.0004
  -5365085.77346  -4129774.43546  24440633.7674   24440634.7844   24440636.2804
      1873.9384                         40.0004         37.0004
 -12129970.05748  -9401083.95747  22714701.4454   22714700.8734   22714703.3214
      1384.7704                         48.0004         42.0004
  -9153702.71247  -7081645.70046  23319578.2134   23319578.5764   23319578.7044
      3045.4424                         45.0004         39.0004
 -19961592.03948 -15501259.25947  20997803.6134   20997802.9054   20997805.7454
      1881.9354                         51.0004         46.0004
 08  5 27  1 30 30.0000000  0 10G25G24G21G19G 6G16G 7G18G22G 3
  -5138367.50247  -3961916.73446  23997935.9364   23997935.7324   23997938.1764
       537.7234                         45.0004         38.0004
   1000572.48446    828878.00145  25272894.6184   25272893.8294   25272897.7474
     -3515.2434                         40.0004         34.0004
 -17453527.04048 -13543875.61947  21680820.2934   21680819.6794   21680820.6364
     -1963.9364                         52.0004         45.0004
  -9264437.06047  -7169805.42846  23294524.8114   23294524.0244   23294525.1284
      2635.0204                         45.0004         40.0004
 -22497105.51848 -17472845.48647  20557218.1714   20557218.2674   20557219.6324
       673.8064                         53.0004         47.0004
 -24311021.44448 -18902081.82048  20353201.6564   20353201.5904   20353202.5644
      -625.9614                         52.0004         49.0004
  -5421078.32446  -4173404.96446  24429976.7154   24429976.0794   24429979.9354
      1858.3774                         38.0004         36.0004
 -12171288.46448  -9433280.11347  22706838.8914   22706838.2264   22706840.4504
      1369.4994                         48.0004         42.0004
  -9244973.87047  -7152766.08146  23302210.7204   23302210.1644   23302210.3914
      3039.4274                         46.0004         39.0004
 -20017923.58548 -15545153.95747  20987084.1934   20987083.7044   20987086.0804
      1873.2914                         52.0004         46.0004
 08  5 27  1 31  0.0000000  0 10G25G24G21G19G 6G16G 7G18G22G 3
  -5154235.64547  -3974281.52446  23994916.6074   23994916.1564   23994918.1194
       520.3894                         44.0004         39.0004
   1106031.15346    911053.56346  25292963.2394   25292962.5324   25292966.5924
     -3515.2214                         41.0004         36.0004
 -17394443.69548 -13497836.65247  21692063.2644   21692062.8894   21692063.3994
     -1974.7724                         52.0004         45.0004
  -9343427.69647  -7231356.56146  23279493.7794   23279492.8084   23279492.8624
      2631.1654                         45.0004         40.0004
 -22517186.06648 -17488492.66148  20553396.9884   20553396.7274   20553399.0744
       665.2644                         53.0004         48.0004
 -24291992.10448 -18887253.76948  20356822.9244   20356822.4704   20356824.0064
      -642.4334                         52.0004         49.0004
  -5476577.68646  -4216651.15546  24419418.0714   24419417.6104   24419420.0344
      1841.9914                         39.0004         36.0004
 -12212139.90048  -9465112.37247  22699065.5084   22699065.8564   22699064.8844
      1354.3394                         49.0004         42.0004
  -9336056.89647  -7223739.84046  23284877.6894   23284876.4884   23284877.5464
      3033.2984                         45.0004         39.0004
 -20073986.25348 -15588839.14247  20976415.8564   20976415.2144   20976417.3644
      1864.6074                         52.0004         46.0004
 08  5 27  1 31 30.0000000  0 10G25G24G21G19G 6G16G 7G18G22G 3
  -5169587.15947  -3986243.74046  23991995.0704   23991995.1004   23991997.0474
       502.7034                         44.0004         39.0004
   1211502.14246    993238.66145  25313033.3484   25313030.5394   25313034.3194
     -3516.8094                         38.0004         32.0004
 -17335029.21148 -13451539.66647  21703369.3734   21703369.1804   21703370.0064
     -1986.6584                         52.0004         45.0004
  -9422301.16947  -7292816.39746  23264484.3414   23264483.4834   23264484.8584
      2626.8754                         45.0004         41.0004
 -22536999.76348 -17503931.90748  20549626.6994   20549626.5864   20549628.1424
       655.2344                         53.0004         48.0004
 -24272458.80048 -18872033.01948  20360539.9724   20360539.9604   20360541.0974
      -660.3114                         52.0004         49.0004
  -5531585.48547  -4259514.39246  24408951.2164   24408952.2254   24408951.0264
      1824.3894                         43.0004         38.0004
 -12252526.13548  -9496582.15347  22691380.6054   22691380.0634   22691381.0504
      1337.6464                         49.0004         42.0004
  -9426952.44147  -7294567.50446  23267581.3324   23267581.2514   23267580.7254
      3025.7474                         46.0004         39.0004
 -20129782.51148 -15632316.74047  20965798.3384   20965797.9984   20965799.3474
      1854.7384                         52.0004         46.0004
 08  5 27  1 32  0.0000000  0 10G25G24G21G19G 6G16G 7G18G22G 3
  -5184422.59347  -3997803.81646  23989172.3904   23989171.6634   23989174.0454
       485.8574                         44.0004         39.0004
   1316982.47446   1075431.24845  25333106.8954   25333105.4094   25333109.6944
     -3516.3214                         40.0004         34.0004
 -17275286.52948 -13404986.93147  21714738.3514   21714738.0604   21714738.4824
     -1997.1394                         52.0004         45.0004
  -9501058.05247  -7354185.37846  23249497.6164   23249497.2824   23249497.1214
      2623.1554                         45.0004         40.0004
 -22556547.32348 -17519163.77248  20545906.9944   20545906.4174   20545908.7104
       646.8254                         53.0004         48.0004
 -24252422.21848 -18856420.10248  20364352.7574   20364352.3474   20364353.8304
      -676.4754                         52.0004         49.0004
  -5586101.11947  -4301994.15046  24398577.2184   24398576.4874   24398577.1604
      1808.5724                         42.0004         38.0004
 -12292446.24448  -9527688.72747  22683783.3494   22683783.0094   22683783.4344
      1322.6574                         48.0004         42.0004
  -9517658.24847  -7365247.36146  23250320.4774   23250320.4054   23250320.3144
      3020.2064                         46.0004         40.0004
 -20185312.34248 -15675586.73047  20955231.2664   20955230.7934   20955233.2754
      1846.3494                         52.0004         46.0004
 08  5 27  1 32 30.0000000  0 10G25G24G21G19G 6G16G 7G18G22G 3
  -5198736.64747  -4008957.61446  23986448.1954   23986447.3894   23986450.2594
       468.3164                         45.0004         39.0004
   1422475.58046   1157633.61845  25353180.1034   25353181.7824   25353183.9494
     -3516.7714                         39.0004         35.0004
 -17215212.61948 -13358176.09147  21726169.7594   21726168.8654   21726170.5314
     -2007.9374                         51.0004         45.0004
  -9579692.51647  -7415458.97446  23234533.9844   23234533.9464   23234533.9934
      2618.9034                         46.0004         40.0004
 -22575823.01848 -17534183.79248  20542238.9064   20542238.6524   20542240.8994
       638.0654                         53.0004         48.0004
 -24231877.00948 -18840410.85248  20368262.3734   20368262.0174   20368263.4834
      -693.3394                         52.0004         49.0004
  -5640117.49546  -4344084.83146  24388296.3774   24388294.9804   24388297.1944
      1791.8124                         39.0004         37.0004
 -12331893.09648  -9558426.51847  22676276.9664   22676277.1754   22676277.6854
      1306.9634                         48.0004         42.0004
  -9608166.73547  -7435773.43146  23233096.8284   23233097.3464   23233097.2624
      3013.6744                         46.0004         40.0004
 -20240569.74648 -15718644.44747  20944716.0954   20944715.6534   20944717.6874
      1837.2684                         52.0004         46.0004
 08  5 27  1 33  0.0000000  0 10G25G24G21G19G 6G16G 7G18G22G 3
  -5212531.85247  -4019707.14446  23983822.8694   23983821.9324   23983825.9434
       451.2424                         44.0004         39.0004
   1527977.44246   1239842.75345  25373256.0024   25373258.9394   25373258.7354
     -3516.8494                         38.0004         33.0004
 -17154811.71248 -13311110.45747  21737663.3614   21737663.0284   21737663.5854
     -2018.7384                         51.0004         45.0004
  -9658206.54447  -7476638.72746  23219592.7894   23219592.4664   23219592.7734
      2615.0774                         45.0004         40.0004
 -22594829.23948 -17548993.83248  20538622.0644   20538621.7674   20538624.0704
       629.0264                         53.0004         48.0004
 -24210825.64448 -18824007.19748  20372268.4644   20372267.8154   20372269.6884
      -710.1644                         52.0004         49.0004
  -5693635.63046  -4385787.19046  24378112.1774   24378111.8684   24378115.7134
      1775.2404                         39.0004         36.0004
 -12370867.56148  -9588796.23447  22668859.9904   22668859.3104   22668862.0664
      1291.1564                         48.0004         42.0004
  -9698476.53747  -7506144.69146  23215912.1854   23215912.1914   23215911.7414
      3006.9364                         46.0004         40.0004
 -20295556.54148 -15761491.29647  20934252.3054   20934252.6294   20934254.2614
      1828.4024                         52.0004         46.0004
 08  5 27  1 33 30.0000000  0 10G25G24G21G19G 6G16G 7G18G22G 3
  -5225809.98847  -4030053.73346  23981296.5044   23981295.3834   23981297.4344
       433.9684                         44.0004         39.0004
   1633484.03546   1322055.75645  25393333.6884   25393332.6754   25393337.4904
     -3516.9374                         41.0004         33.0004
 -17094087.42048 -13263792.83647  21749219.1134   21749218.3204   21749219.8634
     -2029.5044                         51.0004         45.0004
  -9736602.28647  -7537726.30946  23204675.0204   23204673.8764   23204675.0294
      2611.0454                         45.0004         40.0004
 -22613567.74548 -17563595.26448  20535056.3854   20535056.0364   20535057.9554
       620.1444                         53.0004         48.0004
 -24189270.21948 -18807210.76648  20376370.1764   20376369.7984   20376371.0874
      -726.9884                         52.0004         49.0004
  -5746655.83947  -4427101.65346  24368023.8604   24368023.4664   24368025.2084
      1758.8174                         42.0004         37.0004
 -12409369.93848  -9618798.07247  22661533.3064   22661532.8444   22661534.8014
      1275.6534                         48.0004         42.0004
  -9788587.31447  -7576360.88846  23198764.0974   23198764.3754   23198763.4284
      3000.1644                         46.0004         40.0004
 -20350273.96748 -15804128.24847  20923839.9224   20923839.6684   20923842.2254
      1819.4214                         52.0004         46.0004
 08  5 27  1 34  0.0000000  0  9G25G21G19G 6G16G 7G18G22G 3
  -5238571.22247  -4039997.55546  23978867.3284   23978866.9844   23978869.1734
       416.2374                         44.0004         38.0004
 -17033041.58448 -13216224.65047  21760835.6634   21760835.4344   21760836.1324
     -2040.2404                         51.0004         45.0004
  -9814879.10347  -7598721.22046  23189779.1884   23189777.7824   23189778.4344
      2606.9524                         45.0004         40.0004
 -22632038.13948 -17577987.77948  20531541.4064   20531541.4824   20531543.5874
       610.9704                         53.0004         48.0004
 -24167210.70448 -18790021.53948  20380568.0564   20380567.9764   20380569.0224
      -743.8384                         52.0004         49.0004
  -5799176.46347  -4468026.84446  24358030.5664   24358030.6714   24358030.9804
      1742.0844                         43.0004         39.0004
 -12447398.57748  -9648430.77047  22654296.7464   22654296.1254   22654298.1514
      1259.6094                         48.0004         42.0004
  -9878496.34947  -7646419.85746  23181654.7284   23181655.2774   23181655.3084
      2993.2164                         46.0004         40.0004
 -20404721.29048 -15846554.72947  20913478.8454   20913478.4174   20913481.5404
      1810.3064                         52.0004         46.0004
 08  5 27  1 34 30.0000000  0  9G25G21G19G 6G16G 7G18G22G 3
  -5250810.76647  -4049534.85046  23976539.0484   23976539.4194   23976540.7044
       399.2704                         45.0004         39.0004
 -16971671.54948 -13168403.85447  21772513.9984   21772512.9844   21772514.6744
     -2050.9114                         51.0004         45.0004
  -9893031.75247  -7659619.37346  23174907.3164   23174907.1964   23174906.2954
      2602.9704                         45.0004         41.0004
 -22650235.47648 -17592167.52048  20528078.6594   20528078.9344   20528080.4664
       602.0914                         53.0004         48.0004
 -24144642.49748 -18772435.92748  20384862.8284   20384862.3954   20384863.6084
      -760.7304                         52.0004         49.0004
  -5851191.25747  -4508557.85246  24348131.9854   24348132.6064   24348132.9254
      1725.4824                         42.0004         38.0004
 -12484947.17148  -9677689.40947  22647151.6604   22647150.3054   22647152.5214
      1243.5804                         49.0004         42.0004
  -9968196.02447  -7716315.71146  23164586.4914   23164586.2064   23164586.1204
      2986.4714                         47.0004         40.0004
 -20458893.32448 -15888766.69847  20903170.2654   20903169.9724   20903172.6154
      1801.1884                         52.0004         46.0004
 08  5 27  1 35  0.0000000  0  9G25G21G19G 6G16G 7G18G22G 3
  -5262532.90247  -4058668.98946  23974307.9244   23974307.5904   23974309.4614
       381.8394                         45.0004         38.0004
 -16909983.63248 -13120335.35847  21784252.7034   21784252.4394   21784253.2574
     -2061.9544                         51.0004         45.0004
  -9971064.42147  -7720424.03646  23160058.6064   23160057.6394   23160057.4394
      2598.6554                         45.0004         40.0004
 -22668163.69648 -17606137.56248  20524666.9164   20524666.8764   20524668.5974
       592.6354                         53.0004         48.0004
 -24121569.78048 -18754457.18948  20389253.4834   20389253.4214   20389254.2244
      -777.7974                         52.0004         49.0004
  -5902702.94346  -4548696.77846  24338328.3614   24338328.1574   24338330.7404
      1708.0454                         39.0004         37.0004
 -12522018.23548  -9706575.94447  22640097.4354   22640097.1234   22640098.6964
      1227.3274                         49.0004         42.0004
 -10057687.64247  -7786049.42946  23147555.6124   23147555.6754   23147557.0724
      2979.2084                         46.0004         40.0004
 -20512793.21848 -15930766.61647  20892913.4834   20892913.3884   20892915.7994
      1791.7004                         52.0004         46.0004
 08  5 27  1 35 30.0000000  0  9G25G21G19G 6G16G 7G18G22G 3
  -5273735.99847  -4067398.68946  23972176.5184   23972175.0434   23972177.8634
       364.8864                         45.0004         39.0004
 -16847978.17248 -13072019.41947  21796052.3704   21796051.8814   21796052.4684
     -2072.0094                         51.0004         45.0004
 -10048975.27847  -7781133.76946  23145232.5514   23145231.6024   23145231.8144
      2594.7394                         45.0004         41.0004
 -22685820.92248 -17619896.44248  20521306.9734   20521306.5434   20521309.0114
       583.9844                         53.0004         48.0004
 -24097990.92848 -18736084.06448  20393740.2914   20393739.5084   20393741.4324
      -794.3964                         52.0004         49.0004
  -5953708.27546  -4588441.15846  24328622.2754   24328623.1604   24328624.7364
      1691.8874                         41.0004         36.0004
 -12558608.69648  -9735087.97847  22633134.5264   22633133.9134   22633136.2924
      1211.6104                         49.0004         42.0004
 -10146966.76447  -7855617.57546  23130567.3094   23130566.8854   23130567.0144
      2972.4624                         47.0004         40.0004
 -20566418.70148 -15972552.70847  20882708.8104   20882708.1644   20882710.6774
      1782.8274                         52.0004         46.0004
 08  5 27  1 36  0.0000000  0  9G25G21G19G 6G16G 7G18G22G 3
  -5284421.37547  -4075724.94746  23970143.1974   23970143.0104   23970143.8024
       347.8344                         45.0004         38.0004
 -16785658.15148 -13023458.36247  21807911.4434   21807910.6134   21807912.4514
     -2082.3384                         51.0004         45.0004
 -10126764.93547  -7841749.07946  23130429.6884   23130428.6464   23130428.6064
      2590.9674                         46.0004         41.0004
 -22703208.06048 -17633444.85948  20517998.3784   20517998.7254   20518000.2444
       575.3434                         53.0004         48.0004
 -24073907.17748 -18717317.50948  20398323.3484   20398323.1314   20398323.9534
      -810.9484                         52.0004         49.0004
  -6004207.01247  -4627790.85746  24319014.0244   24319014.5504   24319014.1384
      1674.8114                         42.0004         37.0004
 -12594718.09448  -9763225.16147  22626263.0904   22626261.7634   22626265.0224
      1195.6564                         49.0004         42.0004
 -10236031.73847  -7925018.85046  23113618.1284   23113617.7334   23113618.9234
      2965.3634                         46.0004         40.0004
 -20619770.06548 -16014125.19847  20872556.5794   20872556.4674   20872558.7594
      1773.9414                         52.0004         46.0004
 08  5 27  1 36 30.0000000  0  9G25G21G19G 6G16G 7G18G22G 3
  -5294585.38147  -4083644.97046  23968208.7894   23968209.1914   23968209.5664
       330.1304                         44.0004         38.0004
 -16723021.89448 -12974650.90247  21819830.5444   21819829.5084   21819830.5814
     -2093.2264                         51.0004         45.0004
 -10204429.48447  -7902266.88146  23115650.3324   23115649.9454   23115649.8704
      2586.8974                         45.0004         41.0004
 -22720321.09148 -17646779.68748  20514741.8594   20514741.4954   20514743.5514
       565.8964                         53.0004         48.0004
 -24049315.15148 -18698154.89748  20403003.1994   20403002.7774   20403003.8524
      -828.1034                         52.0004         49.0004
  -6054193.51147  -4666741.44646  24309502.2214   24309502.1614   24309501.6814
      1657.8054                         43.0004         38.0004
 -12630341.07648  -9790983.31147  22619484.1224   22619483.4914   22619485.2434
      1179.3374                         49.0004         42.0004
 -10324875.80547  -7994247.97446  23096711.4734   23096711.2594   23096712.0684
      2957.5244                         46.0004         40.0004
 -20672842.94048 -16055480.68847  20862457.2734   20862456.7174   20862459.1714
      1764.4754                         52.0004         46.0004
 08  5 27  1 37  0.0000000  0  9G25G21G19G 6G16G 7G18G22G 3
  -5304232.58747  -4091162.25446  23966373.1504   23966373.1314   23966374.2044
       312.7904                         44.0004         39.0004
 -16660075.25448 -12925601.57747  21831808.7854   21831808.2144   21831808.6944
     -2103.3054                         51.0004         45.0004
 -10281972.82247  -7962690.24646  23100894.3144   23100893.9094   23100894.5704
      2582.5854                         45.0004         41.0004
 -22737164.22548 -17659904.21148  20511536.6334   20511536.3454   20511538.1334
       556.9014                         53.0004         48.0004
 -24024218.97548 -18678599.44048  20407778.8474   20407778.2494   20407779.5814
      -844.9604                         52.0004         49.0004
  -6103671.35546  -4705295.61646  24300086.0524   24300085.5964   24300088.4484
      1640.4924                         41.0004         38.0004
 -12665480.51448  -9818364.67847  22612797.2324   22612797.1544   22612798.3554
      1163.2104                         49.0004         42.0004
 -10413500.69147  -8063306.32446  23079847.4534   23079847.4764   23079846.6584
      2950.5434                         46.0004         40.0004
 -20725641.28648 -16096622.25547  20852410.1514   20852409.7814   20852411.9194
      1755.3634                         52.0004         46.0004
 08  5 27  1 37 30.0000000  0  9G25G21G19G 6G16G 7G18G22G 3
  -5313361.44547  -4098275.66046  23964635.6044   23964635.8714   23964638.1834
       295.6504                         44.0004         39.0004
 -16596818.80848 -12876310.84047  21843846.1944   21843845.2974   21843846.7004
     -2113.8734                         51.0004         45.0004
 -10359393.00147  -8023017.64146  23086161.2854   23086160.9324   23086161.7214
      2578.5244                         45.0004         41.0004
 -22753735.37648 -17672816.79748  20508383.2234   20508382.9794   20508384.7764
       547.7024                         53.0004         48.0004
 -23998617.34448 -18658650.12048  20412650.5504   20412650.0534   20412651.5744
      -861.9794                         52.0004         49.0004
  -6152637.25346  -4743450.81246  24290766.8324   24290767.5074   24290770.5784
      1622.8714                         37.0004         37.0004
 -12700133.33948  -9845366.87447  22606203.1174   22606202.3724   22606203.3724
      1146.7714                         49.0004         42.0004
 -10501901.91447  -8132190.37646  23063024.7324   23063024.6874   23063025.2194
      2942.7904                         46.0004         40.0004
 -20778162.35248 -16137547.75847  20842415.5714   20842415.5744   20842417.7484
      1745.7664                         52.0004         46.0004
 08  5 27  1 38  0.0000000  0  9G25G21G19G 6G16G 7G18G22G 3
  -5321968.35247  -4104982.35746  23962998.3544   23962998.0774   23962999.6604
       277.8054                         44.0004         39.0004
 -16533251.00648 -12826777.49747  21855942.5144   21855942.0454   21855942.8254
     -2124.3994                         51.0004         45.0004
 -10436686.20247  -8083246.08746  23071452.9064   23071452.3834   23071453.1494
      2573.8224                         46.0004         41.0004
 -22770030.73448 -17685514.47748  20505282.3004   20505282.0824   20505283.8444
       538.2444                         53.0004         48.0004
 -23972506.79448 -18638304.24348  20417619.2934   20417618.9614   20417620.0524
      -879.1704                         52.0004         49.0004
  -6201086.23846  -4781203.19646  24281546.5504   24281547.5134   24281549.4774
      1606.3314                         39.0004         37.0004
 -12734293.99848  -9871985.54647  22599702.5794   22599700.5664   22599702.7264
      1129.9984                         49.0004         42.0004
 -10590073.25947  -8200895.28946  23046246.4394   23046246.6294   23046247.1084
      2934.8684                         46.0004         40.0004
 -20830401.81248 -16178253.83147  20832474.6814   20832474.5504   20832476.3694
      1736.3124                         52.0004         46.0004
