     2.10           Observation         G (GPS)             RINEX VERSION / TYPE
gps1x2rnx           engb                08/31/2006 11:51:40 PGM / RUN BY / DATE
GRACE A                                                     MARKER NAME
GRACE A             NASA                                    OBSERVER / AGENCY
RECNUM              RECTYPE             RECVERS             REC # / TYPE / VERS
ANTNUM              ANTTYPE                                 ANT # / TYPE
        0.0000        0.0000        0.0000                  APPROX POSITION XYZ
        0.0000        0.0000        0.0000                  ANTENNA: DELTA H/E/N
     1     1                                                WAVELENGTH FACT L1/2
     9    L1    L2    C1    P1    P2    LA    UN    S1    S2# / TYPES OF OBSERV
    10.000                                                  INTERVAL
  2003    10    31     0     0    0.0000000     GPS         TIME OF FIRST OBS
SNR is mapped to signal strength [0,1,2-9]                  COMMENT
SNR: >500 >100  >50  >10   >5   >3  >1  >0  bad  n/a        COMMENT
sig:    9    8    7    6    5    4   3   2    1    0        COMMENT
Loss of Lock Indicator is set for all phase observations    COMMENT
in case a phase break/cycle slip is detected.               COMMENT
Loss of Lock Indicator is also set at acquisition of a PRN  COMMENT
Undetected cycle slips may remain in this file.             COMMENT
Edited by GPSTK Rinex Editor ver 3.0 9/8/2003 on 2006/08/31 COMMENT
                                                            END OF HEADER
 03 10 31  0  0  0.0000000  0  8G 4G 8G10G17G24G26G27G29
 106092653.32048  82669652.07148  20188757.40549  20188757.99548  20188769.26348
 106092649.81449       710.00049       348.00048       349.00048
 109918330.54848  85650704.86748  20916759.83848  20916759.73148  20916772.11148
 109918330.04548       487.00048       183.00048       171.00048
 119914567.31947  93440002.85247  22818979.92748  22818979.74447  22818996.65947
 119914569.81348       298.00048        60.00047        84.00047
 125152173.02646  97521279.29146  23815661.73448  23815661.77646  23815685.33746
 125152170.52748       178.00048        24.00046        32.00046
 106139276.25748  82705987.16648  20197629.95749  20197630.21048  20197642.77848
 106139274.75549       680.00049       329.00048       334.00048
 117985921.06047  91937150.10847  22451968.79548  22451969.49847  22451982.92747
 117985918.55748       328.00048        80.00047        80.00047
 115743822.51947  90190062.55147  22025313.81948  22025314.02547  22025329.33347
 115743822.01148       278.00048        60.00047        70.00047
 111013100.92448  86503773.83948  21125086.88048  21125087.33948  21125099.19848
 111013099.42248       476.00048       169.00048       191.00048
 03 10 31  0  0 10.0000000  0  8G 4G 8G10G17G24G26G27G29
 106065333.90848  82648364.63348  20183558.35349  20183558.96148  20183570.08148
 106065330.40349       711.00049       349.00048       350.00048
 109931040.01348  85660608.79748  20919178.02248  20919177.98948  20919190.14148
 109931039.50448       489.00048       183.00048       168.00048
 120198691.06347  93661398.55247  22873046.54048  22873046.30247  22873063.07447
 120198693.55748       293.00048        61.00047        79.00047
 125437420.98446  97743551.07146  23869942.02848  23869941.96346  23869965.06846
 125437418.48348       176.00048        22.00046        29.00046
 106326473.12048  82851855.25448  20233252.02549  20233252.23648  20233264.74848
 106326471.61749       667.00049       316.00048       327.00048
 117806784.45347  91797563.95947  22417879.63548  22417880.05847  22417893.40547
 117806781.94548       330.00048        83.00047        82.00047
 115973123.23747  90368738.89347  22068948.03248  22068948.12547  22068963.31347
 115973122.73748       274.00048        56.00047        68.00047
 110940067.99048  86446865.62348  21111188.76248  21111189.15448  21111200.92448
 110940066.48948       478.00048       171.00048       191.00048
 03 10 31  0  0 20.0000000  0  8G 4G 8G10G17G24G26G27G29
 106042278.68648  82630399.89948  20179170.82949  20179171.46948  20179182.41548
 106042275.18049       713.00049       353.00048       351.00048
 109949768.22148  85675202.61348  20922741.60448  20922741.51648  20922753.67448
 109949767.71748       490.00048       184.00048       170.00048
 120485786.84047  93885110.04947  22927678.58448  22927678.35747  22927694.98447
 120485789.32648       290.00048        59.00047        76.00047
 125724167.33746  97966990.32846  23924507.76948  23924507.70846  23924530.40946
 125724164.81148       175.00048        21.00046        29.00046
 106517678.83248  83000847.08848  20269636.94849  20269637.17848  20269649.54148
 106517677.33049       655.00049       304.00048       312.00048
 117632080.04047  91661431.40747  22384633.80848  22384634.39447  22384647.43847
 117632077.53648       333.00048        85.00047        80.00047
 116206436.89747  90550542.14047  22113345.90448  22113346.17847  22113360.72947
 116206436.39848       268.00048        54.00047        67.00047
 110872801.59548  86394450.76648  21098388.01848  21098388.41548  21098400.06848
 110872800.09348       479.00048       171.00048       193.00048
 03 10 31  0  0 30.0000000  0  8G 4G 8G10G17G24G26G27G29
 106023488.99248  82615758.90648  20175595.02749  20175595.68748  20175606.52448
 106023485.48749       715.00049       353.00048       351.00048
 109974505.92148  85694479.09648  20927448.71448  20927448.70248  20927460.74048
 109974505.41848       491.00048       185.00048       171.00048
 120775801.36047  94111095.83447  22982866.12348  22982865.71047  22982882.70747
 120775803.85948       284.00048        56.00047        73.00047
 126012376.83846  98191569.69446  23979351.74648  23979351.37646  23979374.54046
 126012374.33748       173.00048        21.00046        27.00046
 106712852.99148  83152931.16348  20306777.07549  20306777.37948  20306789.62748
 106712851.48749       644.00049       295.00048       303.00048
 117461860.00447  91528793.09747  22352241.55548  22352242.03947  22352254.95147
 117461857.50348       337.00048        87.00047        84.00047
 116443699.68347  90735422.56447  22158495.18348  22158495.22347  22158510.30747
 116443699.18748       263.00048        53.00047        65.00047
 110811327.57848  86346549.40148  21086689.52748  21086689.91448  21086701.51148
 110811326.07648       479.00048       168.00048       194.00048
 03 10 31  0  0 40.0000000  0  8G 4G 8G10G17G24G26G27G29
 106008965.24848  82604441.97848  20172831.00949  20172831.64948  20172842.46748
 106008961.74149       719.00049       357.00048       353.00048
 110005242.20048  85718429.73648  20933297.41648  20933297.30548  20933309.26748
 110005241.69648       490.00048       183.00048       169.00048
 121068681.18147  94339314.24447  23038599.16548  23038598.93347  23038615.30147
 121068683.67248       281.00048        53.00047        70.00047
 126302014.80746  98417262.03946  24034467.74648  24034467.72446  24034490.81746
 126302012.30048       171.00048        22.00046        26.00046
 106911954.64748  83308075.57848  20344664.67049  20344664.90848  20344677.15748
 106911953.14449       636.00049       285.00048       296.00048
 117296175.57147  91399688.92847  22320712.33248  22320712.92647  22320725.72047
 117296173.06648       342.00048        88.00047        87.00047
 116684847.11947  90923329.90247  22204383.76948  22204384.01747  22204398.76747
 116684846.61348       258.00048        51.00047        63.00047
 110755669.80748  86303180.11548  21076097.92348  21076098.25948  21076109.77048
 110755668.30948       479.00048       170.00048       197.00048
 03 10 31  0  0 50.0000000  0  8G 4G 8G10G17G24G26G27G29
 105998706.75048  82596448.56248  20170878.80749  20170879.34648  20170890.12748
 105998703.24349       720.00049       359.00048       359.00048
 110041963.98848  85747044.34448  20940285.11248  20940285.16448  20940297.06948
 110041963.48248       488.00048       184.00048       168.00048
 121364372.54547  94569723.39447  23094867.09348  23094866.82347  23094883.42247
 121364375.04348       276.00048        55.00047        68.00047
 126593046.23946  98644040.13146  24089848.85148  24089848.44846  24089871.87046
 126593043.75148       170.00048        21.00046        26.00046
 107114942.25848  83466247.95548  20383291.76449  20383292.07248  20383304.26248
 107114940.75549       628.00049       278.00048       286.00048
 117135077.02847  91274158.09947  22290055.98148  22290056.52147  22290069.10347
 117135074.52548       348.00048        92.00047        92.00047
 116929814.11646  91114213.44747  22250999.33648  22250999.50946  22251014.27947
 116929813.61148       252.00048        47.00046        62.00047
 110705850.53548  86264360.23948  21066617.29948  21066617.67448  21066629.13548
 110705849.03448       478.00048       171.00048       200.00048
 03 10 31  0  1  0.0000000  0  8G 4G 8G10G17G24G26G27G29
 105992712.06648  82591777.53748  20169737.87149  20169738.52248  20169749.21648
 105992708.55749       721.00049       359.00048       359.00048
 110084656.25348  85780311.20248  20948409.13448  20948409.14148  20948420.96148
 110084655.74748       487.00048       180.00048       171.00048
 121662821.54847  94802281.25547  23151659.87148  23151659.64547  23151676.09747
 121662824.04748       272.00048        53.00047        66.00047
 126885436.06846  98871876.56846  24145488.75248  24145487.91546  24145511.84246
 126885433.57248       168.00048        20.00046        25.00046
 107321773.61948  83627415.39948  20422650.32849  20422650.61748  20422662.80748
 107321772.11649       623.00049       275.00048       277.00048
 116978613.56947  91152238.93747  22260281.78248  22260282.25547  22260294.75547
 116978611.06848       354.00048        94.00047        94.00047
 117178535.16546  91308022.13847  22298329.29748  22298329.45746  22298344.23147
 117178534.66148       245.00048        45.00046        61.00047
 110661890.21348  86230105.71148  21058251.76048  21058252.22748  21058263.48248
 110661888.71248       479.00048       172.00048       196.00048
 03 10 31  0  1 10.0000000  0  8G 4G 8G10G17G24G26G27G29
 105990978.56148  82590426.85448  20169407.95349  20169408.57548  20169419.24048
 105990975.05549       721.00049       360.00048       361.00048
 110133302.30348  85818217.31048  20957666.07648  20957666.03848  20957677.88348
 110133301.79848       484.00048       179.00048       171.00048
 121963974.17446  95036945.73847  23208967.30648  23208966.90746  23208983.34647
 121963976.66748       268.00048        50.00046        64.00047
 127179149.54546  99100744.31346  24201380.35048  24201380.51846  24201403.15846
 127179147.05348       166.00048        20.00046        22.00046
 107532406.14748  83791544.72348  20462732.38649  20462732.63548  20462744.71248
 107532404.64249       619.00049       273.00048       271.00048
 116826833.37047  91033968.97747  22231398.73548  22231399.19647  22231411.68947
 116826830.86448       359.00048        97.00047        96.00047
 117430944.16446  91504704.44747  22346361.05048  22346361.51546  22346376.11347
 117430943.66148       240.00048        44.00046        59.00047
 110623807.46848  86200431.04548  21051004.65548  21051005.07548  21051016.34848
 110623805.96648       481.00048       171.00048       196.00048
 03 10 31  0  1 20.0000000  0  8G 4G 8G10G17G24G26G27G29
 105993502.90248  82592393.92148  20169888.30249  20169888.90048  20169899.58248
 105993499.39549       721.00049       360.00048       364.00048
 110187883.66848  85860748.27748  20968052.47748  20968052.57248  20968064.43248
 110187883.16348       483.00048       178.00048       171.00048
 122267776.17746  95273674.57247  23266778.99348  23266778.49746  23266794.90547
 122267778.66848       264.00048        50.00046        59.00047
 127474151.71246  99330616.06746  24257517.39648  24257517.91346  24257539.39446
 127474149.22248       163.00048        18.00046        22.00046
 107746796.63148  83958602.27448  20503529.49349  20503529.74448  20503541.87248
 107746795.12849       614.00049       267.00048       261.00048
 116679783.62047  90919385.01147  22203415.82048  22203416.38547  22203428.81747
 116679781.11648       365.00048       100.00047        97.00047
 117686974.57246  91704208.52747  22395082.31248  22395082.42446  22395097.13447
 117686974.07248       234.00048        40.00046        56.00047
 110591619.19848  86175349.42148  21044879.34648  21044879.73848  21044890.99248
 110591617.69948       483.00048       175.00048       196.00048
 03 10 31  0  1 30.0000000  0  9G 4G 7G 8G10G17G24G26G27G29
 106000280.79648  82597675.39548  20171178.07549  20171178.67348  20171189.34948
 106000277.28949       720.00049       358.00048       364.00048
 123539135.39056  96264328.83557  23508716.16848  23508715.84246  23508732.39147
 123539136.88358       219.00048        39.00046        53.00047
 110248379.46348  85907887.83048  20979564.51548  20979564.44748  20979576.30348
 110248378.95748       484.00048       178.00048       171.00048
 122574173.22546  95512425.42747  23325084.48548  23325083.91646  23325100.30347
 122574175.72748       261.00048        48.00046        57.00047
 127770407.73046  99561464.69746  24313893.38248  24313893.73746  24313915.94046
 127770405.26248       160.00048        18.00046        23.00046
 107964901.37848  84128553.99648  20545033.49349  20545033.73048  20545045.83348
 107964899.87449       607.00049       259.00048       258.00048
 116537510.29848  90808522.85948  22176341.94648  22176342.57048  22176355.00648
 116537507.79548       369.00048       102.00048       102.00048
 117946559.47546  91906482.23947  22444479.85348  22444480.07446  22444495.02247
 117946558.98448       229.00048        40.00046        56.00047
 110565340.27648  86154872.42548  21039878.58548  21039879.00448  21039890.18348
 110565338.77648       485.00048       174.00048       196.00048
 03 10 31  0  1 40.0000000  0  9G 4G 7G 8G10G17G24G26G27G29
 106011306.87048  82606267.09248  20173276.27349  20173276.87448  20173287.59248
 106011303.36349       720.00049       356.00048       365.00048
 123207546.01246  96005947.71047  23445616.66948  23445616.71546  23445632.86547
 123207547.51348       220.00048        36.00046        53.00047
 110314767.54848  85959618.72348  20992197.88648  20992197.82848  20992209.56248
 110314767.04148       483.00048       178.00048       168.00048
 122883110.90546  95753155.86747  23383873.52148  23383872.85746  23383889.68347
 122883113.39248       257.00048        45.00046        55.00047
 128067882.92646  99793263.15846  24370501.27148  24370501.16746  24370524.21246
 128067880.41348       156.00048        15.00046        23.00046
 108186676.24048  84301365.50448  20587235.89049  20587236.15448  20587248.24548
 108186674.73949       597.00049       253.00048       248.00048
 116400058.38948  90701417.57548  22150185.60748  22150186.20448  22150198.62248
 116400055.88148       372.00048       103.00048       104.00048
 118209631.46746  92111473.04447  22494541.04348  22494541.43646  22494556.16247
 118209630.96248       225.00048        36.00046        52.00047
 110544983.82948  86139010.28648  21036004.88848  21036005.23148  21036016.46748
 110544982.32848       486.00048       174.00048       199.00048
 03 10 31  0  1 50.0000000  0  9G 4G 7G 8G10G17G24G26G27G29
 106026574.89348  82618164.15848  20176181.81049  20176182.40348  20176193.13448
 106026571.38749       720.00049       358.00048       366.00048
 122877637.52046  95748876.28347  23382837.09148  23382837.00746  23382853.27447
 122877639.02048       222.00048        38.00046        53.00047
 110387023.62148  86015922.01948  21005947.80748  21005947.73948  21005959.71348
 110387023.11648       483.00048       175.00048       170.00048
 123194534.63346  95995823.39447  23443135.53348  23443135.24046  23443151.87347
 123194537.12248       253.00048        45.00046        54.00047
 128366542.38246 100025984.30146  24427334.41748  24427334.67546  24427356.93146
 128366539.89648       152.00048        16.00046        21.00046
 108412076.62448  84477002.04048  20630128.24749  20630128.55748  20630140.65648
 108412075.12049       586.00049       242.00048       242.00048
 116267471.57948  90598103.21848  22124955.26648  22124955.78048  22124968.12948
 116267469.07548       375.00048       108.00048       106.00048
 118476122.81446  92319128.19546  22545253.19948  22545252.88646  22545268.03346
 118476122.31148       220.00048        37.00046        50.00046
 110530561.08148  86127771.75448  21033260.28448  21033260.66148  21033271.96348
 110530559.57848       486.00048       175.00048       199.00048
 03 10 31  0  2  0.0000000  0  9G 4G 7G 8G10G17G24G26G27G29
 106046077.75248  82633361.04748  20179893.14449  20179893.75248  20179904.49448
 106046074.24649       720.00049       358.00048       365.00048
 122549457.98046  95493152.00947  23320386.64148  23320386.46646  23320402.90747
 122549459.48648       223.00048        38.00046        54.00047
 110465121.67148  86076777.44448  21020809.51848  21020809.46848  21020821.35348
 110465121.16448       482.00048       177.00048       166.00048
 123508389.81246  96240385.45647  23502860.68548  23502860.51946  23502876.78647
 123508392.30548       251.00048        43.00046        52.00047
 128666351.68846 100259601.25846  24484386.74048  24484386.31346  24484409.45946
 128666349.17648       150.00048        16.00046        18.00046
 108641057.50948  84655428.52548  20673702.05749  20673702.19348  20673714.47448
 108641056.00749       573.00049       232.00048       235.00048
 116139792.33648  90498612.86848  22100658.76848  22100659.25448  22100671.64348
 116139789.83448       377.00048       108.00048       107.00048
 118745965.48146  92529394.66746  22596602.78948  22596602.67146  22596617.96246
 118745964.98248       215.00048        35.00046        48.00046
 110522081.38648  86121164.12348  21031646.77148  21031647.11948  21031658.40848
 110522079.89148       484.00048       173.00048       201.00048
 03 10 31  0  2 10.0000000  0  9G 4G 7G 8G10G17G24G26G27G29
 106069807.39048  82651851.48548  20184408.88449  20184409.52248  20184420.33648
 106069803.88449       721.00049       357.00048       364.00048
 122223055.73346  95238812.56647  23258274.51748  23258274.20846  23258290.66447
 122223057.22648       226.00048        39.00046        55.00047
 110549033.90248  86142163.34648  21036777.59148  21036777.61348  21036789.61948
 110549033.39848       479.00048       177.00048       164.00048
 123824621.70646  96486799.41246  23563038.01348  23563037.60446  23563054.56746
 123824624.19548       249.00048        44.00046        49.00046
 128967275.91346 100494086.82046  24541651.58048  24541650.68246  24541674.44846
 128967273.40648       146.00048        14.00046        19.00046
 108873573.32248  84836609.44248  20717948.42249  20717948.66148  20717960.96948
 108873571.81849       560.00049       222.00048       229.00048
 116017061.92248  90402978.67948  22077303.95248  22077304.48548  22077316.87148
 116017059.41748       381.00048       110.00048       107.00048
 119019091.02246  92742219.11946  22648577.34948  22648577.24946  22648592.81446
 119019090.52948       211.00048        33.00046        47.00046
 110519552.24748  86119193.22048  21031165.52348  21031165.97148  21031177.28248
 110519550.74648       481.00048       174.00048       201.00048
 03 10 31  0  2 20.0000000  0  9G 4G 7G 8G10G17G24G26G27G29
 106097754.78948  82673628.44648  20189727.28549  20189727.88948  20189738.77448
 106097751.28349       722.00049       358.00048       362.00048
 121898479.12646  94985895.64547  23196509.48748  23196509.02946  23196525.64247
 121898480.62548       226.00048        39.00046        53.00047
 110638730.77648  86212056.70048  21053846.58248  21053846.68648  21053858.56548
 110638730.27048       475.00048       172.00048       165.00048
 124143175.56546  96735022.58546  23623657.12648  23623656.66846  23623673.71646
 124143178.06448       245.00048        42.00046        47.00046
 129269280.72046 100729414.24046  24599122.04248  24599120.79846  24599144.49946
 129269278.21648       142.00048        14.00046        19.00046
 109109578.23848  85020509.09148  20762858.90749  20762859.17948  20762871.46748
 109109576.73549       548.00049       215.00048       220.00048
 115899320.50848  90311231.96248  22054898.60948  22054899.16348  22054911.53948
 115899318.00348       384.00048       111.00048       109.00048
 119295430.77146  92957548.04546  22701163.63748  22701163.47746  22701179.51946
 119295430.28048       204.00048        32.00046        43.00046
 110522979.25948  86121863.41948  21031817.85148  21031818.26148  21031829.63148
 110522977.75648       480.00048       170.00048       199.00048
 03 10 31  0  2 30.0000000  0 10G 4G 7G 8G10G17G24G26G27G28G29
 106129909.79048  82698684.01548  20195846.37049  20195846.98248  20195857.92748
 106129906.28249       722.00049       359.00048       361.00048
 121575776.73046  94734439.07147  23135101.38148  23135101.00546  23135117.66247
 121575778.23048       229.00048        41.00046        56.00047
 110734180.86148  86286433.02648  21072010.41948  21072010.35848  21072022.60048
 110734180.35648       472.00048       169.00048       159.00048
 124463996.61546  96985012.27646  23684707.93748  23684707.91546  23684724.33846
 124463999.12148       242.00048        42.00046        45.00046
 129572331.44646 100965556.46746  24656791.60348  24656791.89846  24656815.41346
 129572328.93448       139.00048        14.00046        19.00046
 109349026.01648  85207091.43148  20808424.57649  20808424.80348  20808437.23248
 109349024.51149       538.00049       203.00048       211.00048
 115786606.74748  90223402.83748  22033450.02048  22033450.64448  22033463.10648
 115786604.24248       388.00048       114.00048       111.00048
 119574915.73046  93175327.65846  22754348.18448  22754348.44546  22754364.32546
 119574915.23148       199.00048        29.00046        44.00046
 127173301.66156  99096158.70456  24200274.71948  24200274.73946  24200294.29246
 127173301.15458       166.00048        21.00046        29.00046
 110532366.22648  86129177.68748  21033604.28848  21033604.68648  21033616.13248
 110532364.72548       480.00048       170.00048       198.00048
 03 10 31  0  2 40.0000000  0 10G 4G 7G 8G10G17G24G26G27G28G29
 106166261.82048  82727009.95848  20202764.13549  20202764.79548  20202775.76448
 106166258.31349       722.00049       359.00048       357.00048
 121254997.20246  94484480.76447  23074059.19448  23074058.83946  23074075.69547
 121254998.69148       231.00048        42.00046        56.00047
 110835351.28348  86365266.69848  21091262.92348  21091262.80448  21091275.09848
 110835350.77748       466.00048       164.00048       162.00048
 124787030.06346  97236725.78746  23746179.77848  23746179.32546  23746196.87946
 124787032.56048       239.00048        39.00046        46.00046
 129876393.80046 101202486.80346  24714653.76848  24714653.59046  24714677.61546
 129876391.28948       136.00048        14.00046        18.00046
 109591870.18048  85396320.25148  20854636.60249  20854636.80148  20854649.33748
 109591868.67649       528.00049       196.00048       203.00048
 115678958.13248  90139520.52048  22012965.35948  22012965.95948  22012978.49148
 115678955.63048       393.00048       115.00048       112.00048
 119857476.71746  93395504.08346  22808118.65448  22808118.39646  22808134.79846
 119857476.22548       193.00048        28.00046        41.00046
 126895128.60246  98879400.23246  24147340.23348  24147340.15346  24147360.14346
 126895128.08348       172.00048        22.00046        29.00046
 110547714.80448  86141137.31148  21036525.26548  21036525.66748  21036537.21448
 110547713.30048       481.00048       170.00048       198.00048
 03 10 31  0  2 50.0000000  0 10G 4G 7G 8G10G17G24G26G27G28G29
 106206799.01448  82758597.02148  20210478.41049  20210479.05048  20210490.11448
 106206795.50749       720.00049       355.00048       354.00048
 120936189.22946  94236058.66447  23013392.46348  23013392.05846  23013408.74747
 120936190.71448       234.00048        41.00046        57.00047
 110942207.31648  86448530.65748  21111597.22748  21111597.21548  21111609.64048
 110942206.80848       463.00048       163.00048       160.00048
 125112221.13446  97490120.45346  23808062.33648  23808061.89946  23808079.23346
 125112223.62548       236.00048        38.00046        42.00046
 130181433.37646 101440178.44446  24772701.90348  24772702.08846  24772725.59146
 130181430.90648       132.00048        12.00046        18.00046
 109838063.88948  85588159.05248  20901486.02349  20901486.25948  20901498.90548
 109838062.38549       522.00049       190.00048       192.00048
 115576410.77948  90059613.14948  21993451.57548  21993452.08448  21993464.69248
 115576408.27248       397.00048       117.00048       113.00048
 120143044.38346  93618023.24546  22862461.15748  22862461.60846  22862477.52446
 120143043.88548       187.00048        27.00046        40.00046
 126619333.64146  98664494.75846  24094858.43648  24094858.40946  24094878.72646
 126619333.15348       176.00048        24.00046        30.00046
 110569024.89448  86157742.22248  21040580.69048  21040581.13648  21040592.70648
 110569023.39348       482.00048       172.00048       197.00048
 03 10 31  0  3  0.0000000  0 10G 4G 7G 8G10G17G24G26G27G28G29
 106251508.81248  82793435.41448  20218986.74549  20218987.34348  20218998.52848
 106251505.30649       716.00049       352.00048       352.00048
 120619401.68146  93989210.86947  22953110.03448  22953109.73246  22953126.63147
 120619403.16848       237.00048        42.00046        55.00047
 111054712.58848  86536196.55448  21133006.78348  21133006.68848  21133019.20448
 111054712.08248       461.00048       160.00048       157.00048
 125439515.03446  97745153.57246  23870345.17448  23870344.52646  23870362.56946
 125439517.52448       233.00048        39.00046        41.00046
 130487415.76346 101678604.50246  24830929.76348  24830929.58446  24830954.64846
 130487413.28548       127.00048        11.00046        18.00046
 110087559.82848  85782570.95848  20948963.91049  20948964.11548  20948976.93948
 110087558.32549       516.00049       188.00048       186.00048
 115478999.34448  89983707.73648  21974915.16948  21974915.53848  21974928.31748
 115478996.84248       400.00048       122.00048       113.00048
 120431549.18846  93842830.96946  22917362.70648  22917362.90946  22917379.46446
 120431548.67948       182.00048        27.00046        39.00046
 126345964.39146  98451479.32146  24042838.20248  24042838.05346  24042858.08546
 126345963.90248       181.00048        25.00046        31.00046
 110596294.55548  86178990.89548  21045770.25148  21045770.73048  21045782.33548
 110596293.05548       484.00048       171.00048       195.00048
 03 10 31  0  3 10.0000000  0 10G 4G 7G 8G10G17G24G26G27G28G29
 106300377.71748  82831514.61848  20228286.48349  20228287.13348  20228298.41148
 106300374.21249       713.00049       348.00048       349.00048
 120304683.52346  93743975.55247  22893221.24848  22893220.78946  22893238.10947
 120304685.02848       241.00048        44.00046        54.00047
 111172829.14448  86628234.81648  21155484.01248  21155483.98348  21155496.64148
 111172828.63848       459.00048       160.00048       158.00048
 125768856.92446  98001782.40446  23933017.72248  23933017.38646  23933035.39846
 125768859.42048       228.00048        36.00046        40.00046
 130794306.94446 101917738.45346  24889330.84548  24889330.67846  24889355.62246
 130794304.43448       125.00048        12.00046        15.00046
 110340310.60948  85979519.03848  20997061.19249  20997061.48348  20997074.38748
 110340309.10649       511.00049       185.00048       177.00048
 115386757.33248  89911830.38148  21957362.37848  21957362.96148  21957375.71848
 115386754.82648       404.00048       122.00048       115.00048
 120722921.40746  94069872.92346  22972810.05948  22972809.90146  22972827.47246
 120722920.91348       176.00048        23.00046        37.00046
 126075068.02446  98240390.67846  23991288.76048  23991289.05546  23991308.37746
 126075067.51048       186.00048        27.00046        33.00046
 110629519.82548  86204880.24448  21052093.15048  21052093.47748  21052105.36148
 110629518.32548       484.00048       172.00048       193.00048
 03 10 31  0  3 20.0000000  0 10G 4G 7G 8G10G17G24G26G27G28G29
 106353391.19848  82872823.32048  20238375.06749  20238375.61348  20238387.08048
 106353387.69249       709.00049       345.00048       349.00048
 119992083.78946  93500390.88147  22833735.78448  22833735.85946  22833752.76647
 119992085.27848       246.00048        47.00046        56.00047
 111296517.40348  86724614.60548  21179021.69548  21179021.58348  21179034.32848
 111296516.89848       459.00048       159.00048       158.00048
 126100192.12046  98259964.31046  23996069.75348  23996069.27246  23996087.84946
 126100194.61048       225.00048        34.00046        39.00046
 131102072.68445 102157553.70646  24947898.25648  24947898.16045  24947923.79146
 131102070.19348       121.00048        10.00045        15.00046
 110596268.51948  86178966.12248  21045768.83949  21045769.14148  21045782.19748
 110596267.01449       506.00049       179.00048       169.00048
 115299716.64848  89844005.96248  21940799.50348  21940800.01248  21940813.01348
 115299714.14548       407.00048       123.00048       116.00048
 121017091.27446  94299094.71646  23028789.91448  23028790.18546  23028807.57146
 121017090.77948       170.00048        22.00046        33.00046
 125806691.49646  98031265.51146  23940218.95948  23940218.79246  23940239.02546
 125806690.99348       189.00048        28.00046        34.00046
 110668694.91548  86235405.76648  21059548.33048  21059548.75648  21059560.64148
 110668693.41248       482.00048       171.00048       190.00048
 03 10 31  0  3 30.0000000  0 10G 4G 7G 8G10G17G24G26G27G28G29
 106410534.22148  82917349.80348  20249249.33749  20249249.98148  20249261.55648
 106410530.71349       705.00049       343.00048       347.00048
 119681651.46446  93258495.08847  22774662.86248  22774662.88646  22774679.74047
 119681652.96448       251.00048        49.00046        57.00047
 111425736.29848  86825303.92248  21203611.66948  21203611.71148  21203624.64048
 111425735.79248       457.00048       157.00048       157.00048
 126433465.87646  98519656.65846  24059490.75848  24059490.06346  24059508.87546
 126433468.37348       221.00048        35.00046        37.00046
 131410679.07945 102398023.80046  25006626.13048  25006625.51845  25006652.58646
 131410676.61248       119.00048        10.00045        15.00046
 110855385.51848  86380874.77748  21095077.79648  21095078.04548  21095091.29848
 110855384.01648       499.00048       175.00048       163.00048
 115217907.80848  89780258.24848  21925232.16948  21925232.71448  21925245.95648
 115217905.30148       409.00048       124.00048       116.00048
 121313988.90846  94530441.89546  23085288.92448  23085288.77246  23085306.76646
 121313988.40048       165.00048        20.00046        32.00046
 125540881.67546  97824140.30446  23889637.51048  23889637.82646  23889657.85346
 125540881.17648       193.00048        28.00046        34.00046
 110713812.12848  86270561.46248  21068134.21848  21068134.64148  21068146.82348
 110713810.62548       480.00048       170.00048       190.00048
 03 10 31  0  3 40.0000000  0 10G 4G 7G 8G10G17G24G26G27G28G29
 106471790.40048  82965081.30548  20260906.53249  20260907.06648  20260918.80248
 106471786.89349       704.00049       340.00048       343.00048
 119373435.67047  93018326.40147  22716011.75048  22716011.39947  22716028.88247
 119373437.15948       260.00048        51.00047        57.00047
 111560443.05148  86930269.44248  21229246.19248  21229246.09748  21229259.30748
 111560442.54648       456.00048       156.00048       157.00048
 126768623.59146  98780816.84946  24123270.41448  24123269.92246  24123288.94446
 126768626.08148       217.00048        31.00046        36.00046
 131720091.99545 102639122.05946  25065507.31648  25065506.22145  25065534.11046
 131720089.51848       114.00048         8.00045        14.00046
 111117613.34048  86585207.38548  21144978.57148  21144978.93648  21144992.26048
 111117611.83548       491.00048       168.00048       155.00048
 115141359.77248  89720609.81448  21910666.00648  21910666.64548  21910679.84448
 115141357.26548       412.00048       127.00048       119.00048
 121613544.19946  94763859.84846  23142293.62948  23142293.94346  23142311.86446
 121613543.71848       160.00048        19.00046        35.00046
 125277685.07246  97619051.30146  23839553.46548  23839553.90746  23839574.16346
 125277684.56948       197.00048        29.00046        36.00046
 110764861.92548  86310339.90348  21077849.25548  21077849.63948  21077861.75048
 110764860.42248       476.00048       167.00048       190.00048
 03 10 31  0  3 50.0000000  0 10G 4G 7G 8G10G17G24G26G27G28G29
 106537142.95748  83016004.75448  20273343.12949  20273343.71848  20273355.65148
 106537139.45249       701.00049       336.00048       342.00048
 119067485.56047  92779923.17647  22657791.84048  22657791.65047  22657809.33347
 119067487.06048       266.00048        54.00047        59.00047
 111700593.48248  87039476.74748  21255916.51548  21255916.47548  21255929.81948
 111700592.97348       452.00048       154.00048       152.00048
 127105610.64346  99043402.33746  24187398.33548  24187398.02346  24187417.16846
 127105613.14148       213.00048        33.00046        34.00046
 132030277.70445 102880822.22846  25124536.15448  25124536.92045  25124565.09646
 132030275.22548       111.00048        10.00045        14.00046
 111382903.61048  86791926.26448  21195462.30748  21195462.54548  21195476.16748
 111382902.10748       482.00048       164.00048       151.00048
 115070100.18348  89665082.21448  21897106.17548  21897106.77348  21897120.21348
 115070097.67548       414.00048       129.00048       120.00048
 121915687.31646  94999294.11446  23199790.97648  23199791.10146  23199809.67946
 121915686.81748       156.00048        17.00046        33.00046
 125017147.99246  97416034.62746  23789975.53448  23789975.54546  23789995.90046
 125017147.47748       200.00048        30.00046        37.00046
 110821832.99348  86354732.28348  21088690.97148  21088691.34048  21088703.64648
 110821831.49248       474.00048       164.00048       187.00048
 03 10 31  0  4  0.0000000  0 10G 4G 7G 8G10G17G24G26G27G28G29
 106606573.99348  83070106.20548  20286555.95749  20286556.57648  20286568.54548
 106606570.48549       700.00049       335.00048       337.00048
 118763850.28847  92543323.67847  22600012.45348  22600012.27247  22600029.97547
 118763851.77648       274.00048        58.00047        61.00047
 111846142.13048  87152890.42448  21283614.20848  21283614.10948  21283627.68648
 111846141.62648       447.00048       151.00048       154.00048
 127444372.62046  99307370.70046  24251864.04148  24251863.54746  24251883.60946
 127444375.10648       208.00048        31.00046        33.00046
 132341202.38645 103123097.94746  25183705.11548  25183705.01545  25183734.54546
 132341199.91548       109.00048         7.00045        16.00046
 111651207.66948  87000993.49648  21246519.52948  21246519.79548  21246533.57848
 111651206.16748       470.00048       156.00048       144.00048
 115004155.14848  89613695.79348  21884557.84148  21884558.37748  21884571.96648
 115004152.64248       417.00048       132.00048       120.00048
 122220348.16646  95236690.14446  23257767.45648  23257767.78846  23257785.96646
 122220347.65848       151.00048        18.00046        29.00046
 124759316.26546  97215125.97546  23740912.31048  23740912.20346  23740933.04646
 124759315.75748       203.00048        30.00046        39.00046
 110884712.00348  86403728.21548  21100657.01448  21100657.35048  21100669.86248
 110884710.50048       471.00048       164.00048       188.00048
 03 10 31  0  4 10.0000000  0 10G 4G 7G 8G10G17G24G26G27G28G29
 106680064.84648  83127371.11848  20300541.29349  20300541.89048  20300554.05948
 106680061.34049       699.00049       334.00048       333.00048
 118462578.99247  92308566.21747  22542682.78648  22542682.54247  22542700.33947
 118462580.49148       282.00048        63.00047        65.00047
 111997041.82048  87270473.67648  21312330.01748  21312330.08548  21312343.84248
 111997041.31148       443.00048       146.00048       150.00048
 127784855.15746  99572679.63146  24316657.44648  24316656.97246  24316677.21946
 127784857.65648       203.00048        27.00046        32.00046
 132652832.45945 103365922.93846  25243009.39948  25243008.64745  25243038.24446
 132652829.92548       106.00048         7.00045        14.00046
 111922476.73048  87212371.07148  21298141.00948  21298141.26048  21298155.34448
 111922475.22748       457.00048       146.00048       140.00048
 114943549.16648  89566469.63448  21873025.48848  21873026.08248  21873039.81348
 114943546.65948       420.00048       130.00048       120.00048
 122527456.75346  95475993.39846  23316210.08448  23316210.05846  23316229.91946
 122527456.27348       146.00048        16.00046        28.00046
 124504235.49346  97016360.81946  23692372.73448  23692372.94546  23692393.63546
 124504234.99148       206.00048        34.00046        38.00046
 110953483.71348  86457315.82248  21113744.34048  21113744.64848  21113757.39848
 110953482.21148       471.00048       162.00048       185.00048
 03 10 31  0  4 20.0000000  0 10G 4G 7G 8G10G17G24G26G27G28G29
 106757596.13048  83187784.37348  20315295.60149  20315296.16148  20315308.52248
 106757592.62449       698.00049       332.00048       330.00048
 118163720.85847  92075689.10347  22485812.51048  22485812.37347  22485830.38047
 118163722.36248       291.00048        66.00047        67.00047
 112153244.13248  87392188.78648  21342055.07448  21342055.05548  21342069.17948
 112153243.62648       437.00048       145.00048       149.00048
 128127004.09746  99839286.89946  24381767.74648  24381767.69946  24381788.23446
 128127006.59848       199.00048        27.00046        28.00046
 132965134.32345 103609271.15246  25302441.25148  25302441.42845  25302471.55446
 132965131.80648       102.00048         7.00045        13.00046
 112196661.88748  87426020.89048  21350317.36048  21350317.74248  21350332.05048
 112196660.38748       442.00048       137.00048       136.00048
 114888305.20248  89523421.61948  21862513.48248  21862514.12148  21862527.94548
 114888302.69248       422.00048       133.00048       119.00048
 122836943.11646  95717149.28946  23375105.02848  23375104.78046  23375125.28446
 122836942.62548       142.00048        14.00046        28.00046
 124251951.14846  96819774.66646  23644365.36348  23644365.52346  23644386.71446
 124251950.64948       212.00048        33.00046        39.00046
 111028131.14248  86515481.86648  21127949.85148  21127950.28748  21127963.12248
 111028129.64348       470.00048       162.00048       185.00048
 03 10 31  0  4 30.0000000  0 10G 4G 7G 8G10G17G24G26G27G28G29
 106839147.50448  83251330.12548  20330814.86249  20330815.52748  20330827.96048
 106839143.99749       696.00049       330.00048       322.00048
 117867325.06547  91844730.65547  22429410.85548  22429410.61047  22429428.76447
 117867326.56348       300.00048        70.00047        68.00047
 112314699.27748  87517996.94348  21372779.86748  21372779.76048  21372794.11648
 112314698.77048       433.00048       142.00048       146.00048
 128470765.23746 100107150.22046  24447185.28248  24447184.74146  24447206.93646
 128470767.72848       192.00048        26.00046        29.00046
 133278074.80044 103853116.68946  25361994.86347  25361993.93544  25362027.02946
 133278072.30547        98.00047         5.00044        13.00046
 112473714.08848  87641904.71248  21403039.49548  21403039.72648  21403054.23748
 112473712.58948       427.00048       129.00048       134.00048
 114838444.73948  89484568.50448  21853025.94848  21853026.47048  21853040.68248
 114838442.23148       424.00048       133.00048       122.00048
 123148737.26146  95960103.32446  23434439.36948  23434439.96246  23434460.24146
 123148736.77648       137.00048        14.00046        27.00046
 124002508.24546  96625402.55946  23596898.66748  23596898.80446  23596920.41946
 124002507.73748       215.00048        37.00046        39.00046
 111108635.46848  86578211.67648  21143269.96148  21143270.22948  21143283.51848
 111108633.96748       469.00048       159.00048       184.00048
 03 10 31  0  4 40.0000000  0 10G 4G 7G 8G10G17G24G26G27G28G29
 106924698.03548  83317992.07448  20347095.20549  20347095.80848  20347108.52248
 106924694.52849       693.00049       329.00048       318.00048
 117573440.71447  91615729.12547  22373486.97348  22373486.68347  22373505.06347
 117573442.20948       308.00048        73.00047        75.00047
 112481356.20648  87647858.38348  21404494.44948  21404494.45448  21404508.95648
 112481355.70148       431.00048       141.00048       144.00048
 128816084.51646 100376227.49746  24512899.50448  24512898.85146  24512921.01546
 128816087.01548       188.00048        24.00046        26.00046
 133591620.39645 104097433.44046  25421664.39047  25421663.69745  25421696.68146
 133591617.89647        95.00047         6.00045        11.00046
 112753584.13348  87859984.19248  21456297.79748  21456297.97348  21456312.81048
 112753582.63348       413.00048       119.00048       131.00048
 114793987.62848  89449925.76248  21844566.72248  21844567.23248  21844581.57148
 114793985.12548       425.00048       135.00048       119.00048
 123462769.31346  96204801.03346  23494199.37248  23494199.02446  23494221.20146
 123462768.79748       132.00048        13.00046        25.00046
 123755951.42946  96433279.32946  23549981.40748  23549981.30146  23550003.20546
 123755950.91448       219.00048        34.00046        40.00046
 111194976.05548  86645489.18448  21159700.63648  21159700.96148  21159714.44348
 111194974.55448       467.00048       159.00048       180.00048
 03 10 31  0  4 50.0000000  0 10G 4G 7G 8G10G17G24G26G27G28G29
 107014225.79348  83387753.12548  20364132.39949  20364133.01748  20364145.92748
 107014222.28649       688.00049       322.00048       313.00048
 117282116.89347  91388722.77647  22318050.44148  22318050.09747  22318068.70847
 117282118.39448       316.00048        77.00047        77.00047
 112653162.45548  87781732.22848  21437188.95348  21437188.88548  21437203.73748
 112653161.95048       429.00048       139.00048       144.00048
 129162908.16946 100646476.81246  24578899.85848  24578899.32046  24578922.57246
 129162910.66448       182.00048        24.00046        26.00046
 133905737.97144 104342195.48646  25481442.17447  25481444.41344  25481477.18146
 133905735.47747        91.00047         4.00044        11.00046
 113036222.74748  88080220.94148  21510082.92248  21510083.17048  21510098.30448
 113036221.24348       400.00048       113.00048       126.00048
 114754952.16348  89419507.63948  21837139.16948  21837139.73748  21837154.26148
 114754949.65648       427.00048       136.00048       120.00048
 123778969.48546  96451188.08246  23554372.64248  23554372.31946  23554394.03646
 123778968.95848       128.00048        12.00046        24.00046
 123512324.99746  96243439.51246  23503621.55348  23503621.81546  23503643.20546
 123512324.48648       225.00048        37.00046        39.00046
 111287130.51148  86717296.94448  21177237.77048  21177238.17148  21177251.65748
 111287129.01048       462.00048       155.00048       177.00048
 03 10 31  0  5  0.0000000  0 10G 4G 7G 8G10G17G24G26G27G28G29
 107107708.06348  83460595.55048  20381922.14749  20381922.76248  20381935.91148
 107107704.55549       684.00049       319.00048       306.00048
 116993402.57947  91163749.74647  22263110.76648  22263110.41947  22263129.07647
 116993404.07448       322.00048        79.00047        83.00047
 112830064.43348  87919576.69848  21470853.18948  21470853.17948  21470868.34548
 112830063.92848       428.00048       136.00048       141.00048
 129511182.51446 100917856.39446  24645176.65248  24645176.15846  24645199.70946
 129511185.02348       176.00048        22.00046        24.00046
 134220394.43344 104587377.13545  25541323.42647  25541322.58044  25541357.54645
 134220391.94747        89.00047         4.00044        10.00045
 113321580.60148  88302576.52848  21564385.64348  21564385.82448  21564401.24048
 113321579.09948       389.00048       105.00048       125.00048
 114721354.90548  89393327.02348  21830746.55248  21830747.00948  21830761.86748
 114721352.39848       429.00048       135.00048       119.00048
 124097268.17246  96699210.25046  23614944.85448  23614944.05346  23614967.15146
 124097267.68448       125.00048        11.00046        23.00046
 123271672.68546  96055917.14346  23457827.75348  23457827.76646  23457850.07046
 123271672.18648       228.00048        40.00046        41.00046
 111385074.63548  86793616.07948  21195876.60348  21195877.06148  21195890.87348
 111385073.13248       457.00048       154.00048       173.00048
 03 10 31  0  5 10.0000000  0 10G 4G 7G 8G10G17G24G26G27G28G29
 107205121.52548  83536501.16048  20400460.08249  20400460.66248  20400474.04048
 107205118.01849       678.00049       313.00048       303.00048
 116707346.76147  90940848.22147  22208676.68848  22208676.46847  22208695.40747
 116707348.26248       329.00048        83.00047        88.00047
 113012007.20648  88061348.96748  21505476.66748  21505476.72248  21505492.19648
 113012006.69948       429.00048       137.00048       140.00048
 129860854.03846 101190324.46846  24711719.37048  24711718.69346  24711743.38246
 129860856.51648       170.00048        21.00046        23.00046
 134535556.94044 104832952.69045  25601300.90947  25601300.22744  25601334.97345
 134535554.41447        86.00047         4.00044        10.00045
 113609608.16248  88527012.32648  21619196.41148  21619196.62848  21619212.19148
 113609606.65648       381.00048       102.00048       118.00048
 114693210.97048  89371395.67348  21825391.60448  21825392.23948  21825407.20248
 114693208.46448       430.00048       137.00048       119.00048
 124417595.80746  96948813.19846  23675903.12048  23675902.78146  23675926.76246
 124417595.28348       121.00048        11.00046        22.00046
 123034037.91846  95870746.02946  23412608.28548  23412608.21146  23412630.67146
 123034037.41648       233.00048        41.00046        42.00046
 111488782.49548  86874426.36748  21215612.29348  21215612.64848  21215626.79148
 111488780.99348       452.00048       150.00048       171.00048
 03 10 31  0  5 20.0000000  0 10G 4G 7G 8G10G17G24G26G27G28G29
 107306442.03048  83615451.13248  20419741.52649  20419742.10448  20419755.76748
 107306438.52449       672.00049       308.00048       296.00048
 116423998.26347  90720056.24647  22154758.03748  22154757.78947  22154776.77747
 116423999.76648       334.00048        85.00047        91.00047
 113198934.68648  88207005.31948  21541049.00348  21541048.98148  21541064.81248
 113198934.18348       426.00048       136.00048       138.00048
 130211869.26746 101463839.46746  24778517.76448  24778517.71146  24778542.94246
 130211871.77048       163.00048        19.00046        20.00046
 134851192.65844 105078896.64846  25661369.51947  25661368.82144  25661405.22246
 134851190.11247        82.00047         4.00044        11.00046
 113900255.83947  88753489.67848  21674505.84648  21674506.00547  21674522.00848
 113900254.33848       374.00048        97.00047       114.00048
 114670533.70248  89353723.97948  21821077.04748  21821077.71848  21821092.92748
 114670531.19748       429.00048       137.00048       119.00048
 124739882.85446  97199942.85046  23737235.07148  23737235.04846  23737258.99546
 124739882.34348       118.00048        11.00046        21.00046
 122799463.67246  95687959.60946  23367971.18048  23367971.35146  23367994.17846
 122799463.16648       237.00048        43.00046        42.00046
 111598226.51348  86959706.30348  21236439.71148  21236440.09048  21236454.38548
 111598225.00748       448.00048       144.00048       170.00048
 03 10 31  0  5 30.0000000  0 10G 4G 7G 8G10G17G24G26G27G28G29
 107411644.72248  83697426.07248  20439761.85449  20439762.42948  20439776.35448
 107411641.21649       667.00049       303.00048       294.00048
 116143405.85547  90501411.80447  22101363.84648  22101363.53047  22101383.04747
 116143407.35048       339.00048        89.00047        95.00047
 113390789.75048  88356501.17848  21577558.98448  21577558.91348  21577575.12848
 113390789.24248       424.00048       136.00048       136.00048
 130564175.09146 101738359.85446  24845562.02848  24845561.76546  24845588.08646
 130564177.57548       157.00048        17.00046        23.00046
 135167268.70745 105325183.53846  25721520.94847  25721522.46745  25721561.45046
 135167266.32047        80.00047         6.00045        11.00046
 114193474.10347  88981969.95148  21730304.47448  21730304.76547  21730321.14848
 114193472.59948       370.00048        95.00047       109.00048
 114653334.86048  89340321.07848  21817805.18848  21817805.76248  21817821.27148
 114653332.35348       430.00048       137.00048       121.00048
 125064060.09545  97452545.15746  23798926.40148  23798926.88245  23798950.77746
 125064059.59248       114.00048        10.00045        19.00046
 122567992.56346  95507591.12446  23323924.58648  23323924.83346  23323947.82446
 122567992.06948       242.00048        44.00046        44.00046
 111713377.34348  87049433.00748  21258353.07848  21258353.49448  21258368.13448
 111713375.84148       445.00048       144.00048       168.00048
 03 10 31  0  5 40.0000000  0  9G 4G 7G 8G10G24G26G27G28G29
 107520704.04548  83782406.06248  20460516.08949  20460516.70048  20460530.98348
 107520700.53849       663.00049       299.00048       288.00048
 115865618.23147  90284952.86647  22048503.45648  22048503.20047  22048522.78147
 115865619.73048       344.00048        91.00047        99.00047
 113587514.17048  88509791.17348  21614995.77748  21614995.71748  21615012.27748
 113587513.66348       419.00048       131.00048       133.00048
 130917718.37646 102013844.28946  24912841.99748  24912842.00046  24912868.88546
 130917720.87148       151.00048        16.00046        20.00046
 114489213.32547  89212414.45848  21786583.06748  21786583.22647  21786600.09748
 114489211.82548       367.00048        94.00047       106.00048
 114641624.61548  89331194.90548  21815577.78548  21815578.41148  21815594.29448
 114641622.11448       430.00048       137.00048       121.00048
 125390058.33645  97706566.20746  23860964.64248  23860964.14545  23860990.18646
 125390057.82948       110.00048        10.00045        19.00046
 122339666.64746  95329673.32746  23280476.83448  23280477.02446  23280500.67746
 122339666.15248       247.00048        46.00046        44.00046
 111834203.77748  87143582.14248  21281346.66848  21281346.98048  21281361.96248
 111834202.27548       443.00048       144.00048       164.00048
 03 10 31  0  5 50.0000000  0 10G 4G 7G 8G10G17G24G26G27G28G29
 107633593.76148  83870370.64348  20481999.41849  20482000.00548  20482014.64548
 107633590.25549       659.00049       296.00048       284.00048
 115590683.88147  90070717.20948  21996186.00648  21996185.79447  21996205.56848
 115590685.38148       347.00048        94.00047       103.00048
 113789048.65448  88666829.07248  21653347.91448  21653347.75548  21653364.96648
 113789048.14848       413.00048       128.00048       131.00048
 131272446.29146 102290251.50946  24980347.64648  24980346.73746  24980375.93546
 131272448.77548       144.00048        16.00046        20.00046
 135800884.60853 105819045.51055  25842052.96547  25842049.17043  25842091.84745
 135800904.17157        74.00047         3.00043        10.00045
 114787423.88847  89444784.51447  21843332.01248  21843332.12947  21843349.41347
 114787422.39048       363.00048        93.00047        99.00047
 114635411.46848  89326352.04748  21814396.60448  21814397.13948  21814413.40248
 114635408.96548       430.00048       138.00048       123.00048
 125717808.56045  97961952.13546  23923336.09148  23923334.76645  23923363.34146
 125717808.07848       107.00048         9.00045        20.00046
 122114527.60046  95154238.64346  23237635.40548  23237635.53746  23237659.94646
 122114527.10048       252.00048        49.00046        44.00046
 111960673.14648  87242128.24448  21305414.07848  21305414.42348  21305429.71848
 111960671.64248       441.00048       143.00048       163.00048
 03 10 31  0  6  0.0000000  0  9G 4G 7G 8G10G24G26G27G28G29
 107750287.00848  83961298.87648  20504206.52649  20504207.14648  20504222.10948
 107750283.50049       655.00049       291.00048       281.00048
 115318651.12147  89858742.48848  21944420.77348  21944420.50647  21944440.67448
 115318652.62248       352.00048        94.00047       106.00048
 113995332.94848  88827567.92548  21692604.17648  21692604.09448  21692621.79948
 113995332.44348       405.00048       122.00048       129.00048
 131628306.06946 102567540.40246  25048068.76248  25048068.97646  25048098.02746
 131628308.57848       138.00048        14.00046        20.00046
 115088056.23247  89679041.49547  21900541.94148  21900542.05047  21900559.93247
 115088054.72248       359.00048        90.00047        93.00047
 114634702.11448  89325797.70948  21814262.87848  21814263.27448  21814280.03448
 114634699.60948       430.00048       135.00048       124.00048
 126047242.19945  98218649.44646  23986028.67648  23986028.29645  23986056.14546
 126047241.70548       104.00048         9.00045        18.00046
 121892616.68146  94981319.29246  23195408.68348  23195408.67346  23195433.06546
 121892616.17648       256.00048        49.00046        45.00046
 112092751.09948  87345044.52948  21330548.87148  21330549.23648  21330564.92448
 112092749.59648       440.00048       141.00048       158.00048
 03 10 31  0  6 10.0000000  0  9G 4G 7G 8G10G24G26G27G28G29
 107870756.06848  84055169.15548  20527132.40249  20527132.96248  20527148.35848
 107870752.56149       652.00049       287.00048       274.00048
 115049568.22647  89649066.31948  21893216.87048  21893216.78047  21893237.04348
 115049569.72848       357.00048        98.00047       107.00048
 114206305.68848  88991959.86648  21732752.70148  21732752.64548  21732770.93348
 114206305.18348       398.00048       118.00048       124.00048
 131985245.38446 102845670.10546  25115995.98748  25115994.98746  25116025.23046
 131985247.86948       132.00048        11.00046        20.00046
 115391060.77647  89915146.72847  21958203.46048  21958203.74147  21958221.93047
 115391059.27348       354.00048        88.00047        89.00047
 114639501.72648  89329535.90648  21815177.42348  21815178.00348  21815195.19948
 114639499.22348       428.00048       137.00048       123.00048
 126378290.50745  98476604.48746  24049027.87048  24049028.05245  24049055.34546
 126378289.99648       102.00048         6.00045        17.00046
 121673974.41747  94810946.85146  23153803.78648  23153803.90647  23153828.75146
 121673973.92148       260.00048        51.00047        46.00046
 112230401.69648  87452302.97248  21356744.25148  21356744.64548  21356760.75748
 112230400.19448       437.00048       139.00048       155.00048
 03 10 31  0  6 20.0000000  0  9G 4G 7G 8G10G24G26G27G28G29
 107994972.76848  84151959.52648  20550771.40149  20550772.03848  20550787.85448
 107994969.26249       647.00049       284.00048       270.00048
 114783483.16348  89441726.08248  21842583.43148  21842583.16848  21842603.94048
 114783484.66448       364.00048       102.00048       110.00048
 114421904.63848  89159956.36348  21773781.84048  21773781.76448  21773800.77348
 114421904.13148       393.00048       115.00048       120.00048
 132343211.89246 103124599.85646  25184118.58948  25184117.58746  25184149.97146
 132343214.38348       126.00048        12.00046        17.00046
 115696388.05347  90153061.66947  22016307.11048  22016307.30247  22016326.20947
 115696386.55248       348.00048        82.00047        86.00047
 114649813.68048  89337569.23948  21817141.21848  21817141.70748  21817159.37248
 114649811.17648       428.00048       135.00048       122.00048
 126710885.20045  98735764.04346  24112322.62947  24112322.45045  24112352.71346
 126710884.72747        99.00047         7.00045        15.00046
 121458641.04247  94643152.70946  23112828.79848  23112828.74847  23112854.30446
 121458640.54148       264.00048        52.00047        46.00046
 112373587.41948  87563874.29348  21383993.04248  21383993.32048  21384009.95248
 112373585.91648       433.00048       136.00048       152.00048
 03 10 31  0  6 30.0000000  0  9G 4G 7G 8G10G24G26G27G28G29
 108122908.22548  84251647.50048  20575118.21549  20575118.85548  20575135.17148
 108122904.71849       642.00049       279.00048       262.00048
 114520443.75048  89236759.03948  21792529.72848  21792529.51948  21792550.47248
 114520445.24948       371.00048       105.00048       116.00048
 114642066.89848  89331508.41348  21815679.54948  21815679.43248  21815699.19548
 114642066.39148       387.00048       112.00048       116.00048
 132702153.54445 103404288.98246  25252427.15248  25252426.13145  25252458.46546
 132702156.04348       121.00048         9.00045        15.00046
 116003988.52547  90392747.65047  22074843.57248  22074843.74547  22074863.25447
 116003987.02348       341.00048        83.00047        80.00047
 114665639.76048  89349899.07148  21820154.40948  21820155.04248  21820173.20748
 114665637.25248       427.00048       136.00048       122.00048
 127044958.36645  98996075.06246  24175899.35047  24175899.22645  24175930.73546
 127044957.88447        96.00047         7.00045        18.00046
 121246656.16647  94477967.76247  23072490.78048  23072490.75047  23072516.89747
 121246655.66648       266.00048        54.00047        51.00047
 112522269.23548  87679728.04548  21412287.83248  21412288.37348  21412305.39648
 112522267.73548       427.00048       132.00048       152.00048
 03 10 31  0  6 40.0000000  0  9G 4G 7G 8G10G24G26G27G28G29
 108254532.94448  84354210.08048  20600167.21249  20600167.78648  20600184.62748
 108254529.43749       636.00049       273.00048       256.00048
 114260497.56648  89034202.27448  21743064.44348  21743064.27548  21743085.68448
 114260499.06448       378.00048       111.00048       115.00048
 114866728.56748  89506566.24348  21858433.66048  21858433.62848  21858453.99048
 114866728.06348       385.00048       110.00048       111.00048
 133062018.48645 103684697.04946  25320911.66548  25320910.72045  25320946.49146
 133062021.01448       116.00048         8.00045        17.00046
 116313812.56147  90634165.92047  22133803.57848  22133803.68147  22133823.97147
 116313811.06148       333.00048        77.00047        78.00047
 114686980.10448  89366525.52648  21824217.13148  21824217.70248  21824236.41848
 114686977.59748       427.00048       133.00048       123.00048
 127380441.98845  99257484.40646  24239744.65247  24239743.88645  24239777.71946
 127380441.51347        93.00047         6.00045        16.00046
 121038058.74047  94315422.36247  23032797.50548  23032797.38547  23032823.87747
 121038058.23648       270.00048        53.00047        53.00047
 112676406.64848  87799832.64048  21441621.17548  21441621.47148  21441639.21648
 112676405.14748       420.00048       124.00048       144.00048
 03 10 31  0  6 50.0000000  0  9G 4G 7G 8G10G24G26G27G28G29
 108389817.01048  84459624.01348  20625912.58349  20625913.18048  20625930.58648
 108389813.50649       628.00049       268.00048       252.00048
 114003692.09548  88834092.83648  21694196.98948  21694196.69748  21694218.53948
 114003693.59548       385.00048       114.00048       120.00048
 115095825.04648  89685079.58148  21902031.81048  21902031.86248  21902053.08248
 115095824.54048       383.00048       107.00048       108.00048
 133422755.27045 103965783.83146  25389563.03848  25389561.79445  25389599.32646
 133422757.76648       111.00048         9.00045        16.00046
 116625810.69047  90877277.84947  22193177.49348  22193177.49047  22193198.67347
 116625809.18748       324.00048        74.00047        72.00047
 114713833.29648  89387447.54448  21829329.08648  21829329.57348  21829348.98348
 114713830.78948       427.00048       133.00048       120.00048
 127717268.59344  99519939.27946  24303845.71447  24303845.74244  24303878.19046
 127717268.04147        91.00047         5.00044        14.00046
 120832887.36347  94155546.64647  22993756.06248  22993755.97247  22993783.00547
 120832886.85848       273.00048        54.00047        53.00047
 112835957.65048  87924155.36648  21471984.68248  21471985.08648  21472003.52748
 112835956.14948       413.00048       124.00048       143.00048
 03 10 31  0  7  0.0000000  0  9G 4G 7G 8G10G24G26G27G28G29
 108528729.87948  84567865.59348  20652348.53549  20652349.10148  20652366.99748
 108528726.37549       621.00049       261.00048       248.00048
 113750074.46648  88636467.47948  21645936.09648  21645936.05448  21645957.89748
 113750075.96048       393.00048       118.00048       123.00048
 115329291.07748  89866997.69448  21946461.65048  21946461.45248  21946483.67248
 115329290.57148       381.00048       108.00048       105.00048
 133784312.40645 104247509.21446  25458370.55548  25458368.42545  25458407.37146
 133784314.88648       105.00048         8.00045        15.00046
 116939933.74547  91122045.16947  22252956.00748  22252956.02847  22252977.98447
 116939932.24448       314.00048        67.00047        72.00047
 114746196.26348  89412662.81548  21835489.51048  21835490.05248  21835510.18948
 114746193.75848       425.00048       133.00048       120.00048
 128055370.38744  99783386.86246  24368190.70347  24368190.05344  24368225.21446
 128055369.94947        90.00047         5.00044        12.00046
 120631179.81847  93998370.07047  22955373.89248  22955373.92347  22955401.25747
 120631179.32048       275.00048        58.00047        55.00047
 113000878.91748  88052662.52648  21503370.50148  21503370.81048  21503389.95248
 113000877.41648       408.00048       122.00048       139.00048
 03 10 31  0  7 10.0000000  0  9G 4G 7G 8G10G24G26G27G28G29
 108671240.43148  84678910.63348  20679468.93349  20679469.54748  20679487.95048
 108671236.92649       613.00049       254.00048       243.00048
 113499691.52548  88441362.74348  21598290.68948  21598290.54048  21598312.73448
 113499693.02448       402.00048       125.00048       127.00048
 115567060.85648  90052269.41847  21991710.33348  21991710.25348  21991733.09247
 115567060.35048       378.00048       106.00048       100.00047
 134146638.64544 104529833.11746  25527325.06148  25527322.97944  25527364.04746
 134146641.12548       101.00048         5.00044        15.00046
 117256132.79647  91368429.82947  22313129.84448  22313129.96847  22313153.01947
 117256131.29648       304.00048        64.00047        68.00047
 114784064.44348  89442167.91148  21842697.53048  21842698.10648  21842718.80348
 114784061.93848       423.00048       131.00048       120.00048
 128394680.86645 100047774.94546  24432766.99647  24432763.90645  24432805.93346
 128394680.38747        87.00047         6.00045        15.00046
 120432973.80947  93843922.30847  22917657.76348  22917657.58547  22917685.16947
 120432973.30948       278.00048        59.00047        58.00047
 113171125.85748  88185319.46948  21535769.59048  21535769.98548  21535789.84248
 113171124.35448       404.00048       116.00048       135.00048
 03 10 31  0  7 20.0000000  0  9G 4G 7G 8G10G24G26G27G28G29
 108817316.87448  84792734.39748  20707267.89949  20707268.53348  20707287.44248
 108817313.36849       606.00049       247.00048       237.00048
 113252589.93248  88248815.04748  21551269.64148  21551269.31148  21551291.83648
 113252591.43048       409.00048       129.00048       131.00048
 115809067.65048  90240842.91548  22037764.99448  22037765.00948  22037788.75748
 115809067.14748       376.00048       104.00048       101.00048
 134509683.12344 104812715.81546  25596417.05447  25596414.53744  25596457.06846
 134509685.63947        97.00047         5.00044        12.00046
 117574359.10747  91616394.01647  22373689.53648  22373689.66847  22373713.68247
 117574357.60848       294.00048        60.00047        66.00047
 114827431.56948  89475958.09348  21850951.85548  21850952.33648  21850973.63848
 114827429.06248       422.00048       133.00048       120.00048
 128735133.18544 100313051.57746  24497560.86447  24497559.65744  24497604.42146
 128735132.69847        85.00047         4.00044        14.00046
 120238305.54647  93692231.42447  22880614.44948  22880614.48247  22880642.43747
 120238305.04248       283.00048        59.00047        57.00047
 113346652.59048  88322090.62848  21569173.36148  21569173.80648  21569194.41148
 113346651.08948       400.00048       116.00048       134.00048
 03 10 31  0  7 30.0000000  0  9G 4G 7G 8G10G24G26G27G28G29
 108966927.00248  84909311.80848  20735739.19049  20735739.81548  20735759.30048
 108966923.49649       599.00049       242.00048       233.00048
 113008815.82648  88058860.31748  21504881.58048  21504881.29348  21504903.99548
 113008817.32748       417.00048       133.00048       136.00048
 116055244.24948  90432665.86547  22084613.19348  22084613.09448  22084637.58647
 116055243.74348       371.00048       101.00048        97.00047
 134873395.50545 105096118.15046  25665636.21747  25665633.55445  25665678.50746
 134873398.01547        92.00047         6.00045        14.00046
 117894564.18747  91865900.17747  22434625.72948  22434626.02247  22434651.06747
 117894562.68748       286.00048        57.00047        63.00047
 114876289.59148  89514027.21048  21860250.71548  21860251.32848  21860273.02748
 114876287.08948       420.00048       129.00048       120.00048
 129076661.81644 100579165.77946  24562560.84347  24562559.76444  24562605.22746
 129076661.29247        83.00047         5.00044        12.00046
 120047211.24147  93543325.80147  22844251.20848  22844250.98347  22844279.65847
 120047210.73748       287.00048        61.00047        59.00047
 113527411.99148  88462939.47748  21603572.77748  21603573.20048  21603594.40848
 113527410.48848       397.00048       114.00048       129.00048
 03 10 31  0  7 40.0000000  0  9G 4G 7G 8G10G24G26G27G28G29
 109120038.03748  85028617.38348  20764876.55149  20764877.18248  20764897.03248
 109120034.53149       593.00049       239.00048       229.00048
 112768414.89848  87871534.09848  21459135.36448  21459135.10348  21459158.17748
 112768416.39348       425.00048       137.00048       143.00048
 116305522.16347  90627684.81147  22132241.72948  22132241.61347  22132266.65247
 116305521.65848       365.00048        98.00047        96.00047
 135237725.72244 105380001.00546  25734974.33347  25734971.42544  25735021.44846
 135237728.18147        87.00047         5.00044        11.00046
 118216699.51347  92116910.68847  22495929.13848  22495929.22547  22495955.48947
 118216698.00948       278.00048        54.00047        60.00047
 114930628.62148  89556367.50848  21870592.55248  21870593.06448  21870615.34048
 114930626.11648       418.00048       128.00048       118.00048
 129419201.51544 100846068.06246  24627752.64447  24627751.85944  24627796.91446
 129419200.99547        81.00047         4.00044        12.00046
 119859725.23747  93397231.81347  22808574.72648  22808574.57747  22808603.00747
 119859724.73248       291.00048        62.00047        58.00047
 113713355.36848  88607828.15948  21638958.38448  21638958.80248  21638980.42748
 113713353.86648       395.00048       113.00048       125.00048
 03 10 31  0  7 50.0000000  0  9G 4G 7G 8G10G24G26G27G28G29
 109276616.18948  85150624.57548  20794673.74949  20794674.34048  20794694.62948
 109276612.68449       586.00049       233.00048       227.00048
 112531432.57548  87686871.70748  21414039.73148  21414039.56448  21414062.78048
 112531434.07048       432.00048       143.00048       150.00048
 116559832.41747  90825845.84747  22180637.40348  22180637.21547  22180662.99547
 116559831.91248       358.00048        96.00047        93.00047
 135602623.94044 105664325.96045  25804420.89647  25804418.28444  25804471.44445
 135602626.42347        84.00047         4.00044        10.00045
 118540716.74747  92369388.00447  22557590.26648  22557590.40247  22557617.63647
 118540715.24548       272.00048        52.00047        59.00047
 114990436.83748  89602969.58948  21881975.00348  21881975.50248  21881998.05048
 114990434.33248       415.00048       129.00048       120.00048
 129762687.45544 101113706.28446  24693126.45347  24693122.06244  24693176.29646
 129762687.08247        79.00047         4.00044        11.00046
 119675882.95847  93253977.53047  22773591.09848  22773591.07247  22773619.62147
 119675882.45548       295.00048        64.00047        63.00047
 113904432.32848  88756717.24848  21675320.63348  21675321.03348  21675343.24548
 113904430.82848       393.00048       111.00048       122.00048
 03 10 31  0  8  0.0000000  0  9G 4G 7G 8G10G24G26G27G28G29
 109436627.31648  85275306.69348  20825124.24749  20825124.84048  20825145.64048
 109436623.81049       581.00049       227.00048       220.00048
 112297913.81148  87504908.10148  21369603.38848  21369603.16348  21369626.57848
 112297915.31048       439.00048       148.00048       156.00048
 116818105.26247  91027094.38547  22229787.34448  22229787.20647  22229813.77247
 116818104.75648       351.00048        91.00047        92.00047
 135968040.64043 105949054.23946  25873966.30347  25873963.96943  25874016.43846
 135968043.13747        79.00047         3.00043        12.00046
 118866567.18846  92623294.09847  22619600.05848  22619600.43046  22619628.05647
 118866565.68248       266.00048        48.00046        57.00047
 115055700.59948  89653822.59948  21894395.56348  21894396.21448  21894419.31948
 115055698.09448       414.00048       127.00048       120.00048
 130107055.15144 101382031.03046  24758668.18547  24758666.29644  24758722.62346
 130107054.71947        76.00047         5.00044        13.00046
 119495716.91547  93113587.65047  22739307.22648  22739307.10847  22739335.82047
 119495716.41448       300.00048        65.00047        64.00047
 114100591.04948  88909566.11248  21712649.94448  21712650.45948  21712673.03648
 114100589.54748       389.00048       109.00048       120.00048
 03 10 31  0  8 10.0000000  0  9G 4G 7G 8G10G24G26G27G28G29
 109600036.61448  85402636.30148  20856221.72849  20856222.32848  20856243.72448
 109600033.10949       573.00049       222.00048       217.00048
 112067903.46148  87325678.28648  21325834.64448  21325834.41348  21325857.99748
 112067904.95848       447.00048       154.00048       159.00048
 117080270.58947  91231375.58847  22279678.33648  22279678.15847  22279705.64447
 117080270.08448       342.00048        86.00047        89.00047
 136333926.39543 106234147.40545  25943602.21647  25943599.33643  25943656.72545
 136333928.98847        75.00047         3.00043         9.00045
 119194201.89246  92878590.56147  22681949.47048  22681949.40946  22681978.24047
 119194200.39848       262.00048        49.00046        57.00047
 115126404.74448  89708914.53148  21907851.90148  21907852.38648  21907875.92048
 115126402.23848       412.00048       124.00048       119.00048
 130452239.02143 101650992.09645  24824365.43947  24824361.49543  24824420.57645
 130452239.05247        74.00047         3.00043         9.00045
 119319259.42847  92976086.97447  22705729.28448  22705729.45447  22705758.45747
 119319258.92548       305.00048        68.00047        65.00047
 114301778.50548  89066333.15248  21750936.51848  21750936.88948  21750960.32448
 114301777.00448       384.00048       106.00048       116.00048
 03 10 31  0  8 20.0000000  0  8G 4G 7G 8G 9G24G26G28G29
 109766809.65448  85532586.83248  20887959.55149  20887960.06048  20887981.98348
 109766806.14949       566.00049       216.00048       214.00048
 111841446.05248  87149217.04548  21282741.91248  21282741.65448  21282765.46848
 111841447.54748       455.00048       157.00048       167.00048
 117346257.77347  91438634.32447  22330297.05748  22330296.90747  22330325.26547
 117346257.27148       335.00048        83.00047        87.00047
 119468854.94857  93092744.03956  22734167.21848  22734167.31747  22734198.92346
 119468854.44058       270.00048        61.00047        46.00046
 119523572.05146  93135238.98647  22744629.27948  22744629.51346  22744658.97547
 119523570.54648       258.00048        45.00046        55.00047
 115202532.73548  89768232.44048  21922340.55548  21922341.04748  21922365.28448
 115202530.23448       410.00048       121.00048       117.00048
 119146543.55547  92841501.69047  22672863.76648  22672863.81347  22672893.05247
 119146543.04948       307.00048        70.00047        64.00047
 114507940.68848  89226976.14848  21790170.03048  21790170.34848  21790194.38348
 114507939.18748       378.00048       101.00048       115.00048
 03 10 31  0  8 30.0000000  0  9G 4G 7G 8G 9G24G26G27G28G29
 109936910.97348  85665130.45248  20920330.90449  20920331.47448  20920354.11548
 109936907.46749       560.00049       209.00048       208.00048
 111618585.55748  86975558.71948  21240333.54948  21240333.39948  21240357.35648
 111618587.05548       462.00048       162.00048       175.00048
 117615996.41647  91648815.78647  22381629.95348  22381629.84047  22381659.46547
 117615995.90948       328.00048        80.00047        82.00047
 119132535.52547  92830677.56546  22670167.23548  22670167.57147  22670198.79246
 119132535.02148       276.00048        64.00047        50.00046
 119854629.21946  93393201.44447  22807630.47948  22807630.63346  22807661.14447
 119854627.71448       255.00048        44.00046        55.00047
 115284066.55048  89831762.21448  21937858.26148  21937858.68848  21937883.59848
 115284064.04548       408.00048       123.00048       118.00048
 131145568.94353 102191641.94155  24956178.17747  24956172.14943  24956242.71645
 131145601.45557        69.00047         3.00043         9.00045
 118977600.87147  92709856.41647  22640716.28448  22640716.36147  22640746.04247
 118977600.35948       311.00048        72.00047        68.00047
 114719022.81947  89391452.41748  21830340.09148  21830340.36247  21830365.28848
 114719021.32148       371.00048        98.00047       111.00048
 03 10 31  0  8 40.0000000  0  8G 4G 7G 8G 9G24G26G28G29
 110110303.97648  85800238.23348  20953329.19149  20953329.73748  20953353.33448
 110110300.47149       553.00049       206.00048       203.00048
 111399365.77148  86804737.55748  21198617.80148  21198617.62148  21198641.80848
 111399367.27048       469.00048       168.00048       179.00048
 117889415.00447  91861864.03347  22433663.68448  22433663.60947  22433694.22747
 117889414.49948       322.00048        76.00047        80.00047
 118799087.21647  92570848.70247  22606713.42148  22606713.82947  22606744.88747
 118799086.71148       284.00048        67.00047        51.00047
 120187325.34946  93652440.38747  22870943.99548  22870944.36146  22870975.82747
 120187323.85448       253.00048        45.00046        53.00047
 115370986.45648  89899488.41648  21954401.21248  21954401.71548  21954427.50448
 115370983.95348       406.00048       120.00048       117.00048
 118812463.06447  92581176.35347  22609292.49448  22609292.67047  22609322.71447
 118812462.55948       314.00048        72.00047        67.00047
 114934968.49947  89559717.76548  21871436.34348  21871436.52947  21871462.38848
 114934967.00148       364.00048        95.00047       108.00048
 03 10 31  0  8 50.0000000  0  8G 4G 7G 8G 9G24G26G28G29
 110286952.60548  85937882.06848  20986947.62249  20986948.24448  20986972.82948
 110286949.09849       546.00049       201.00048       197.00048
 111183829.97248  86636787.48448  21157602.85548  21157602.62148  21157626.78548
 111183831.47048       476.00048       174.00048       186.00048
 118166441.81647  92077723.05247  22486384.79748  22486384.56847  22486416.84747
 118166441.31148       315.00048        75.00047        76.00047
 118468590.69347  92313320.56247  22543820.91648  22543821.20047  22543851.77847
 118468590.18748       289.00048        71.00047        56.00047
 120521612.32946  93912918.08847  22934560.92948  22934561.21346  22934594.19547
 120521610.82748       252.00048        44.00046        52.00047
 115463271.23348  89971394.48048  21971965.60548  21971966.08448  21971992.86848
 115463268.73148       404.00048       119.00048       114.00048
 118651161.08047  92455486.11947  22578598.07448  22578598.12147  22578628.53147
 118651160.57448       318.00048        75.00047        68.00047
 115155720.71347  89731727.73148  21913447.55448  21913447.73047  21913474.83348
 115155719.21448       358.00048        90.00047       107.00048
 03 10 31  0  9  0.0000000  0  8G 4G 7G 8G 9G24G26G28G29
 110466819.42548  86078032.25048  21021179.53049  21021180.07048  21021206.09248
 110466815.91849       539.00049       196.00048       192.00048
 110972021.16548  86471742.27348  21117296.41248  21117296.26648  21117320.25248
 110972022.66348       485.00048       181.00048       187.00048
 118447004.52547  92296336.17047  22539779.39848  22539779.10247  22539813.30547
 118447004.02348       310.00048        71.00047        72.00047
 118141126.80247  92058156.41647  22481504.54648  22481504.89447  22481535.14447
 118141126.29948       296.00048        72.00047        57.00047
 120857442.25046  94174597.03146  22998472.31248  22998472.46846  22998507.31146
 120857440.74648       249.00048        42.00046        50.00046
 115560898.21248  90047462.68648  21990546.88748  21990547.31748  21990575.50248
 115560895.70948       402.00048       118.00048       114.00048
 118493725.03047  92332809.68147  22548638.21548  22548638.28347  22548668.36447
 118493724.52848       323.00048        77.00047        72.00047
 115381221.37947  89907436.97148  21956363.06448  21956363.42447  21956391.65948
 115381219.88048       352.00048        88.00047       102.00048
 03 10 31  0  9 10.0000000  0  8G 4G 7G 8G 9G24G26G28G29
 110649872.41748  86220666.28248  21056016.87349  21056017.43348  21056044.58548
 110649868.91149       533.00049       191.00048       189.00048
 110763982.20748  86309635.75648  21077706.68748  21077706.52748  21077730.00148
 110763983.70548       494.00048       187.00048       193.00048
 118731029.04347  92517644.65947  22593834.51148  22593834.31847  22593870.58847
 118731028.53848       304.00048        67.00047        70.00047
 117816777.05147  91805420.35447  22419779.89848  22419780.23047  22419809.32947
 117816776.54548       302.00048        74.00047        60.00047
 121194767.06046  94437439.35146  23062669.24248  23062669.13246  23062706.08546
 121194765.55648       247.00048        42.00046        48.00046
 115663844.19748  90127675.58448  22010140.46248  22010140.95848  22010170.27148
 115663841.69248       398.00048       116.00048       113.00048
 118340183.21047  92213169.10147  22519418.38848  22519418.50247  22519447.94447
 118340182.69748       327.00048        78.00047        72.00047
 115611409.91847  90086797.43547  22000171.96748  22000172.27047  22000202.36547
 115611408.42248       347.00048        86.00047       100.00047
 03 10 31  0  9 20.0000000  0  8G 4G 7G 8G 9G24G26G28G29
 110836080.34348  86365762.79948  21091451.54249  21091452.18248  21091479.50848
 110836076.83649       526.00049       188.00048       182.00048
 110559755.21548  86150501.14748  21038841.14149  21038840.93348  21038863.73748
 110559756.71349       503.00049       192.00048       197.00048
 119018447.27247  92741597.54947  22648535.48948  22648535.21347  22648573.81247
 119018446.77348       298.00048        64.00047        65.00047
 117495622.92047  91555176.42447  22358661.71548  22358662.16447  22358689.81947
 117495622.41548       308.00048        80.00047        64.00047
 121533539.37446  94701407.95446  23127142.91348  23127142.96946  23127182.22646
 121533537.87248       245.00048        42.00046        47.00046
 115772090.75448  90212022.42748  22030740.03248  22030740.68948  22030770.05348
 115772088.24848       395.00048       114.00048       112.00048
 118190564.50747  92096587.65147  22490943.40048  22490943.67847  22490972.00047
 118190564.00548       331.00048        79.00047        73.00047
 115846230.32947  90269767.42447  22044862.10148  22044862.34847  22044894.11847
 115846228.83148       343.00048        86.00047        94.00047
 03 10 31  0  9 30.0000000  0  8G 4G 7G 8G 9G24G26G28G29
 111025404.80048  86513291.40648  21127476.51849  21127477.09648  21127503.71148
 111025401.29549       520.00049       182.00048       172.00048
 110359379.84348  85994368.76148  21000707.69149  21000707.55148  21000729.25648
 110359381.34249       514.00049       201.00048       200.00048
 119309199.84347  92968155.24747  22703865.97948  22703865.87647  22703905.14447
 119309199.34248       292.00048        63.00047        63.00047
 117177743.01347  91307484.97447  22298165.67748  22298166.10347  22298192.18247
 117177742.50748       315.00048        84.00047        65.00047
 121873716.68146  94966471.89146  23191883.55148  23191883.60646  23191925.04646
 121873715.18048       243.00048        41.00046        45.00046
 115885611.99048  90300483.73648  22052340.12948  22052340.60548  22052369.34648
 115885609.48248       393.00048       112.00048       111.00048
 118044894.15947  91983084.28147  22463218.87448  22463219.03147  22463245.81247
 118044893.65448       336.00048        82.00047        74.00047
 116085630.87947  90456311.17147  22090420.20948  22090420.54847  22090452.76847
 116085629.37348       341.00048        81.00047        92.00047
 03 10 31  0  9 40.0000000  0  8G 4G 7G 8G 9G24G26G28G29
 111217803.76948  86663217.27748  21164085.42549  21164086.03548  21164111.52748
 111217800.26449       513.00049       179.00048       167.00048
 110162894.76048  85841267.86048  20963314.54049  20963314.34848  20963335.03448
 110162896.25649       524.00049       209.00048       204.00048
 119603212.10047  93197258.63047  22759812.49148  22759812.46947  22759851.00647
 119603211.59748       286.00048        62.00047        60.00047
 116863215.41347  91062405.72347  22238307.74548  22238308.15547  22238332.44947
 116863214.91148       323.00048        86.00047        68.00047
 122215256.01646  95232599.48346  23256881.52748  23256881.64346  23256924.76946
 122215254.50948       239.00048        39.00046        44.00046
 116004374.90748  90393031.65048  22074935.81648  22074936.38448  22074963.88048
 116004372.40248       390.00048       111.00048       111.00048
 117903195.60347  91872676.15847  22436249.64248  22436249.92247  22436275.26447
 117903195.10248       339.00048        85.00047        75.00047
 116329549.63647  90646380.27147  22136834.52648  22136834.74847  22136866.58347
 116329548.13648       338.00048        80.00047        88.00047
 03 10 31  0  9 50.0000000  0  8G 4G 7G 8G 9G24G26G28G29
 111413235.99048  86815506.65448  21201271.46849  21201272.03348  21201296.36648
 111413232.48549       506.00049       173.00048       167.00048
 109970338.88748  85691228.43548  20926669.25549  20926669.11748  20926688.75748
 109970340.38649       535.00049       216.00048       209.00048
 119900404.65847  93428842.59747  22816362.26948  22816362.51047  22816399.56247
 119900404.15948       280.00048        59.00047        56.00047
 116552119.41547  90819999.93347  22179103.09948  22179103.40847  22179126.11647
 116552118.90948       331.00048        91.00047        73.00047
 122558111.43946  95499755.25146  23322127.96148  23322128.60446  23322172.30746
 122558109.94648       236.00048        40.00046        42.00046
 116128346.78748  90489639.39648  22098522.13648  22098522.79448  22098548.62848
 116128344.28248       388.00048       109.00048       109.00048
 117765492.20247  91765380.77647  22410041.04248  22410041.24047  22410065.13247
 117765491.70148       342.00048        86.00047        75.00047
 116577918.59147  90839918.86147  22184094.30148  22184094.87847  22184125.36247
 116577917.08748       336.00048        80.00047        86.00047
 03 10 31  0 10  0.0000000  0  8G 4G 7G 8G 9G24G26G28G29
 111611663.08648  86970129.72348  21239027.44548  21239028.13948  21239051.21348
 111611659.57848       499.00048       166.00048       162.00048
 109781751.28248  85544280.93348  20890779.31049  20890779.11848  20890797.92248
 109781752.78149       544.00049       226.00048       214.00048
 120200700.54647  93662845.12547  22873502.36648  22873502.66147  22873538.22447
 120200700.04148       274.00048        56.00047        54.00047
 116244535.10647  90580329.95547  22120567.05248  22120567.39047  22120588.74647
 116244534.60048       339.00048        95.00047        76.00047
 122902236.06846  95767902.17446  23387614.45448  23387614.53646  23387659.41446
 122902234.56748       232.00048        37.00046        41.00046
 116257494.62148  90590280.50448  22123093.23648  22123093.84348  22123118.27448
 116257492.12148       385.00048       107.00048       110.00048
 117631806.19347  91661214.63547  22384597.85848  22384598.04047  22384620.70447
 117631805.68848       345.00048        88.00047        76.00047
 116830674.23647  91036877.30847  22232187.55948  22232187.91847  22232217.31747
 116830672.73848       332.00048        79.00047        83.00047
 03 10 31  0 10 10.0000000  0  8G 4G 7G 8G 9G24G26G28G29
 111813045.38448  87127055.08348  21277346.15148  21277346.82948  21277368.92248
 111813041.87648       492.00048       160.00048       157.00048
 109597170.41348  85400455.38148  20855651.92449  20855651.73148  20855669.59648
 109597171.90849       552.00049       233.00048       222.00048
 120504025.58247  93899207.96947  22931219.00848  22931218.99847  22931253.65147
 120504025.07248       268.00048        53.00047        52.00047
 115940542.50147  90343458.10547  22062715.03148  22062715.30647  22062735.16347
 115940541.99448       346.00048       100.00047        80.00047
 123247582.89546  96037003.15946  23453332.08048  23453332.16946  23453377.01646
 123247581.39448       229.00048        36.00046        40.00046
 116391784.51248  90694928.12448  22148643.19048  22148643.78048  22148666.57548
 116391782.00648       383.00048       107.00048       107.00048
 117502162.32647  91560197.93047  22359924.08248  22359924.28847  22359945.79747
 117502161.82048       346.00048        89.00047        75.00047
 117087750.74847  91237203.34747  22281102.62948  22281102.86147  22281130.45447
 117087749.25048       327.00048        76.00047        79.00047
 03 10 31  0 10 20.0000000  0  8G 4G 7G 8G 9G24G26G28G29
 112017343.82948  87286252.24948  21316220.15548  21316220.77048  21316242.13448
 112017340.32448       484.00048       159.00048       157.00048
 109416634.06048  85259781.21248  20821294.34649  20821294.19148  20821311.17048
 109416635.55749       560.00049       238.00048       228.00048
 120810305.51046  94137872.77846  22989498.16948  22989498.33146  22989531.68746
 120810305.00948       260.00048        50.00046        49.00046
 115640221.59948  90109446.73447  22005562.14048  22005562.51148  22005581.18147
 115640221.09248       354.00048       104.00048        84.00047
 123594105.61746  96307021.73546  23519272.44348  23519272.73746  23519317.25246
 123594104.12048       224.00048        36.00046        39.00046
 116531181.77548  90803555.09248  22175165.29248  22175165.88148  22175187.22648
 116531179.27048       380.00048       104.00048       108.00048
 117376583.84547  91462349.35847  22336023.68448  22336023.82147  22336044.06047
 117376583.33848       348.00048        88.00047        79.00047
 117349082.86747  91440845.74547  22330827.10948  22330827.65147  22330853.38547
 117349081.36448       321.00048        72.00047        79.00047
 03 10 31  0 10 30.0000000  0  8G 4G 7G 8G 9G24G26G28G29
 112224520.46548  87447692.26648  21355641.70048  21355642.38248  21355662.81648
 112224516.96048       478.00048       151.00048       152.00048
 109240178.60148  85122286.49748  20787713.71649  20787713.53548  20787729.73848
 109240180.09749       566.00049       244.00048       236.00048
 121119467.36246  94378782.86146  23048326.17348  23048326.34046  23048358.18746
 121119466.86648       253.00048        46.00046        50.00046
 115343651.84148  89878357.63547  21949123.56548  21949123.99048  21949141.56947
 115343651.33848       360.00048       109.00048        86.00047
 123941758.52346  96577922.13546  23585427.25848  23585427.40946  23585471.53246
 123941757.02348       219.00048        34.00046        36.00046
 116675649.65548  90916132.27348  22202652.95648  22202653.54248  22202673.90548
 116675647.15148       377.00048       103.00048       106.00048
 117255090.90847  91367684.19747  22312900.91448  22312900.98147  22312920.15847
 117255090.40148       350.00048        89.00047        80.00047
 117614603.55047  91647751.41247  22381349.23548  22381349.66947  22381373.68347
 117614602.05048       316.00048        71.00047        76.00047
 03 10 31  0 10 40.0000000  0  8G 4G 7G 8G 9G24G26G28G29
 112434535.43848  87611343.84348  21395603.62048  21395604.21048  21395623.84648
 112434531.93048       472.00048       150.00048       149.00048
 109067840.53948  84987999.67648  20754916.91049  20754916.68148  20754932.29848
 109067842.03649       573.00049       252.00048       246.00048
 121431438.09046  94621881.36446  23107688.78748  23107688.96746  23107719.68246
 121431437.58848       244.00048        43.00046        47.00046
 115050912.95748  89650253.03647  21893414.48748  21893414.87148  21893431.54247
 115050912.45448       366.00048       112.00048        94.00047
 124290495.73846  96849668.25046  23651787.49748  23651787.94146  23651831.17346
 124290494.23548       213.00048        32.00046        33.00046
 116825151.19448  91032630.90348  22231099.25248  22231099.73448  22231119.00848
 116825148.69048       374.00048       101.00048       104.00048
 117137702.17647  91276216.23947  22290559.53548  22290559.86447  22290578.27047
 117137701.67148       351.00048        91.00047        80.00047
 117884245.42447  91857867.15347  22432656.37648  22432656.89747  22432679.71147
 117884243.92748       309.00048        67.00047        75.00047
 03 10 31  0 10 50.0000000  0  8G 4G 7G 8G 9G24G26G28G29
 112647348.28848  87777175.10348  21436098.20248  21436098.90948  21436117.68148
 112647344.78548       466.00048       147.00048       145.00048
 108899655.68948  84856948.85548  20722910.63149  20722910.43048  20722925.57348
 108899657.18749       582.00049       257.00048       253.00048
 121746143.67946  94867110.46846  23167572.52848  23167572.38446  23167602.35546
 121746143.18648       236.00048        41.00046        45.00046
 114762084.55848  89425195.17247  21838449.91548  21838450.14448  21838466.02947
 114762084.05248       373.00048       114.00048        99.00047
 124640271.36746  97122223.84746  23718345.21748  23718345.72846  23718388.45146
 124640269.85948       208.00048        29.00046        33.00046
 116979648.39247  91153021.59748  22260496.51848  22260497.20447  22260515.53848
 116979645.88648       369.00048        99.00047       103.00048
 117024437.52647  91187961.35847  22269003.57248  22269003.72047  22269021.10447
 117024437.02148       355.00048        90.00047        80.00047
 118157942.62547  92071141.98347  22484736.07648  22484736.18447  22484758.39547
 118157941.12548       302.00048        63.00047        73.00047
 03 10 31  0 11  0.0000000  0  8G 4G 7G 8G 9G24G26G28G29
 112862919.52748  87945155.39748  21477118.04648  21477118.62048  21477136.80748
 112862916.02048       460.00048       141.00048       142.00048
 108735658.88648  84729161.14448  20691701.55949  20691701.37748  20691715.90148
 108735660.38349       591.00049       267.00048       263.00048
 122063511.39946  95114413.58546  23227962.76948  23227962.68646  23227991.86246
 122063510.89848       228.00048        36.00046        43.00046
 114477245.74548  89203245.78448  21784244.70648  21784244.93848  21784260.12848
 114477245.23748       380.00048       122.00048       101.00048
 124991040.49546  97395553.76546  23785091.75048  23785091.99446  23785134.20746
 124991038.98548       202.00048        28.00046        31.00046
 117139101.61447  91277273.49048  22290837.53948  22290838.13147  22290855.95548
 117139099.10648       366.00048        96.00047       101.00048
 116915315.63847  91102934.36947  22248236.05048  22248236.23047  22248252.96147
 116915315.13148       357.00048        95.00047        81.00047
 118435627.90347  92287523.43947  22537575.32748  22537575.48247  22537596.83547
 118435626.40048       296.00048        62.00047        72.00047
 03 10 31  0 11 10.0000000  0  8G 4G 7G 8G 9G24G26G28G29
 113081208.72648  88115253.10848  21518655.41948  21518656.06948  21518673.58748
 113081205.21848       456.00048       139.00048       138.00048
 108575884.55848  84604663.55548  20661296.06349  20661295.86548  20661309.99348
 108575886.05649       603.00049       276.00048       272.00048
 122383467.29946  95363732.94946  23288845.90448  23288845.92646  23288874.34246
 122383466.79848       219.00048        36.00046        41.00046
 114196475.43248  88984466.54048  21730813.74148  21730814.05548  21730828.62248
 114196474.93048       387.00048       126.00048       105.00048
 125342758.22946  97669622.72546  23852019.13848  23852019.40146  23852060.83546
 125342756.73348       196.00048        26.00046        29.00046
 117303470.67847  91405355.67047  22322114.07348  22322114.87547  22322131.80147
 117303468.17248       362.00048        93.00047        97.00047
 116810351.93047  91021146.42347  22228260.68548  22228260.75647  22228276.98247
 116810351.42648       361.00048        96.00047        81.00047
 118717232.68447  92506957.62347  22591161.40748  22591161.77147  22591182.51747
 118717231.18548       290.00048        59.00047        69.00047
 03 10 31  0 11 20.0000000  0  8G 4G 7G 8G 9G24G26G28G29
 113302175.63948  88287436.86248  21560702.66848  21560703.30548  21560720.42148
 113302172.13248       451.00048       136.00048       136.00048
 108420366.70148  84483482.90748  20631700.47149  20631700.28448  20631713.85348
 108420368.19849       615.00049       289.00048       279.00048
 122705938.31846  95615011.62946  23350208.25048  23350208.21346  23350235.94946
 122705937.81948       211.00048        34.00046        40.00046
 113919852.18548  88768918.85748  21678171.84848  21678172.18248  21678185.91548
 113919851.67948       394.00048       131.00048       111.00048
 125695380.06646  97944395.79746  23919118.77348  23919119.15046  23919159.53746
 125695378.55248       189.00048        23.00046        28.00046
 117472714.54647  91537236.63847  22354318.17248  22354318.79047  22354335.31847
 117472712.03748       359.00048        94.00047        96.00047
 116709565.04847  90942613.34447  22209079.94148  22209080.04447  22209095.88847
 116709564.54148       363.00048        99.00047        83.00047
 119002691.79447  92729395.24047  22645481.04548  22645481.60647  22645501.57047
 119002690.29448       285.00048        59.00047        68.00047
 03 10 31  0 11 30.0000000  0  8G 4G 7G 8G 9G24G26G28G29
 113525780.47448  88461675.88948  21603252.19648  21603252.68248  21603269.53548
 113525776.96848       446.00048       135.00048       131.00048
 108269138.09348  84365644.92348  20602920.74049  20602920.55348  20602933.52048
 108269139.59049       629.00049       301.00048       285.00048
 123030851.42946  95868192.77346  23412035.54048  23412035.26546  23412062.74846
 123030850.92448       204.00048        29.00046        38.00046
 113647453.93148  88556663.55548  21626333.82148  21626334.20448  21626347.23748
 113647453.42448       401.00048       134.00048       116.00048
 126048862.15646  98219838.87146  23986382.29148  23986382.95146  23986422.46446
 126048860.63848       183.00048        22.00046        26.00046
 117646790.90947  91672884.02047  22387441.24748  22387441.86447  22387457.34147
 117646788.40048       356.00048        91.00047        93.00047
 116612971.92747  90867349.23947  22190696.46248  22190696.54347  22190711.58947
 116612971.42748       366.00048        99.00047        84.00047
 119291937.64547  92954784.10247  22700520.83948  22700521.19547  22700540.78147
 119291936.14448       281.00048        56.00047        67.00047
 03 10 31  0 11 40.0000000  0  8G 4G 7G 8G 9G24G26G28G29
 113751984.45948  88637940.87848  21646295.76448  21646296.38048  21646312.55548
 113751980.95148       441.00048       131.00048       125.00048
 108122229.78648  84251173.48648  20574963.09149  20574962.92148  20574975.17448
 108122231.28449       641.00049       310.00048       291.00048
 123358134.93046  96123221.26846  23474313.59648  23474313.86946  23474340.63246
 123358134.44948       198.00048        30.00046        39.00046
 113379357.33148  88347760.05548  21575314.64148  21575314.80848  21575327.13948
 113379356.82448       408.00048       139.00048       120.00048
 126403161.95046  98495919.28046  24053801.16148  24053801.77046  24053840.62546
 126403160.45148       175.00048        23.00046        28.00046
 117825654.47447  91812262.11047  22421474.95048  22421475.48147  22421490.23647
 117825651.96948       353.00048        90.00047        90.00047
 116520585.50848  90795363.55547  22173113.11848  22173113.17848  22173127.41347
 116520585.00248       369.00048       101.00048        83.00047
 119584904.29247  93183074.20847  22756267.14348  22756267.87147  22756286.12647
 119584902.79148       276.00048        56.00047        66.00047
 03 10 31  0 11 50.0000000  0  8G 4G 7G 8G 9G24G26G28G29
 113980746.36348  88816199.44448  21689825.79848  21689826.49948  21689842.00648
 113980742.85748       435.00048       127.00048       124.00048
 107979671.99848  84140091.82348  20547833.50449  20547833.31848  20547845.06048
 107979673.49449       650.00049       322.00048       295.00048
 123687716.20346  96380040.54246  23537028.81948  23537029.26146  23537054.90646
 123687715.69548       193.00048        27.00046        35.00046
 113115638.71648  88142267.63348  21525128.61748  21525128.88448  21525140.57548
 113115638.21048       415.00048       142.00048       127.00048
 126758236.72246  98772603.96546  24121367.37048  24121368.15846  24121406.41846
 126758235.20848       168.00048        21.00046        24.00046
 118009257.86647  91955333.10247  22456410.80348  22456411.44147  22456425.35747
 118009255.36148       349.00048        87.00047        90.00047
 116432417.04548  90726664.21947  22156332.66348  22156332.66848  22156346.08647
 116432416.54148       371.00048       101.00048        85.00047
 119881518.37247  93414206.54947  22812707.68748  22812708.16947  22812725.53247
 119881516.86748       272.00048        52.00047        63.00047
 03 10 31  0 12  0.0000000  0  8G 4G 7G 8G 9G24G26G28G29
 114212025.22548  88996419.50948  21733834.65448  21733835.21948  21733850.17948
 114212021.71748       430.00048       124.00048       119.00048
 107841494.91548  84032423.63548  20521537.59349  20521537.34648  20521548.55548
 107841496.41249       659.00049       329.00048       301.00048
 124019522.14646  96638593.52046  23600167.30348  23600167.28546  23600192.58046
 124019521.66948       189.00048        25.00046        33.00046
 112856374.55348  87940246.02248  21475790.50048  21475790.70248  21475801.82048
 112856374.05148       421.00048       148.00048       131.00048
 127114042.95646  99049858.81246  24189072.66248  24189073.31646  24189110.70346
 127114041.45648       162.00048        18.00046        23.00046
 118197555.99947  92102062.70047  22492239.96448  22492240.50147  22492253.54647
 118197553.49448       347.00048        87.00047        87.00047
 116348479.44247  90661261.70447  22140357.29348  22140357.37247  22140369.75647
 116348478.93648       373.00048       100.00047        86.00047
 120181708.34046  93648124.42447  22869829.20648  22869829.55746  22869845.96847
 120181706.83748       268.00048        50.00046        62.00047
 03 10 31  0 12 10.0000000  0  8G 4G 7G 8G 9G24G26G28G29
 114445780.18348  89178569.30548  21778314.37648  21778315.05548  21778329.07048
 114445776.67648       424.00048       120.00048       117.00048
 107707727.06848  83928190.87748  20496080.95949  20496080.71948  20496091.46848
 107707728.56549       664.00049       336.00048       308.00048
 124353480.59446  96898824.08846  23663715.19048  23663714.92646  23663739.67346
 124353480.10748       186.00048        27.00046        31.00046
 112601640.15148  87741753.71348  21427314.51448  21427314.79948  21427325.43648
 112601639.64348       426.00048       151.00048       136.00048
 127470538.44946  99327651.06446  24256908.76448  24256909.00646  24256946.25746
 127470536.93648       154.00048        18.00046        18.00046
 118390500.68647  92252413.19147  22528953.12148  22528953.70947  22528965.73247
 118390498.18248       343.00048        84.00047        86.00047
 116268783.84448  90599164.79247  22125188.90348  22125189.14748  22125200.66947
 116268783.33948       373.00048       102.00048        85.00047
 120485407.15046  93884777.14347  22927617.89448  22927618.31246  22927633.80447
 120485405.65048       264.00048        49.00046        60.00047
 03 10 31  0 12 20.0000000  0  8G 4G 7G 8G 9G24G26G28G29
 114681969.75248  89362616.17148  21823257.49748  21823258.09448  21823271.60348
 114681966.25048       419.00048       117.00048       112.00048
 107578396.52148  83827415.40648  20471468.91449  20471468.83648  20471479.06648
 107578398.01949       669.00049       339.00048       311.00048
 124689518.80146  97160675.40246  23727658.49548  23727658.39346  23727682.37146
 124689518.28948       183.00048        25.00046        29.00046
 112351510.25048  87546848.89148  21379715.17148  21379715.49648  21379725.79448
 112351509.74748       431.00048       155.00048       139.00048
 127827680.70146  99605947.64446  24324867.86048  24324868.33346  24324903.09846
 127827679.20348       149.00048        15.00046        22.00046
 118588040.92547  92406343.70847  22566541.44848  22566541.95147  22566553.26047
 118588038.42448       339.00048        83.00047        84.00047
 116193338.32348  90540378.84447  22110830.07348  22110830.07248  22110841.08147
 116193337.81748       374.00048       102.00048        86.00047
 120792543.71646  94124108.93647  22986060.57848  22986060.85746  22986075.14847
 120792542.22348       258.00048        46.00046        59.00047
 03 10 31  0 12 30.0000000  0  8G 4G 7G 8G 9G24G26G28G29
 114920552.16148  89548527.21448  21868656.10948  21868656.83448  21868669.58648
 114920548.65148       413.00048       114.00048       108.00048
 107453530.66648  83730118.66748  20447706.78349  20447706.55748  20447716.51948
 107453532.16249       674.00049       343.00048       319.00048
 125027564.35446  97424091.02746  23791983.76248  23791983.75046  23792006.50946
 125027563.86948       180.00048        24.00046        27.00046
 112106059.38148  87355589.76448  21333006.49648  21333006.77748  21333016.69648
 112106058.87748       437.00048       159.00048       141.00048
 128185427.15646  99884715.13346  24392941.68548  24392942.31246  24392976.84946
 128185425.66348       141.00048        15.00046        20.00046
 118790127.98347  92563816.90347  22604995.25748  22604995.89547  22605006.46847
 118790125.48148       336.00048        81.00047        84.00047
 116122152.45548  90484911.70047  22097282.00748  22097282.06648  22097292.35147
 116122151.94948       375.00048       102.00048        86.00047
 121103045.59846  94366062.42547  23045144.11548  23045144.35046  23045157.71647
 121103044.09848       253.00048        46.00046        58.00047
 03 10 31  0 12 40.0000000  0  8G 4G 7G 8G 9G24G26G28G29
 115161486.48348  89736270.61648  21914502.66448  21914503.20748  21914515.44348
 115161482.97748       407.00048       110.00048       103.00048
 107333155.74848  83636321.07248  20424799.39649  20424799.19948  20424808.89748
 107333157.24549       680.00049       350.00048       328.00048
 125367545.25546  97689014.58646  23856677.22648  23856677.91046  23856698.88946
 125367544.75148       177.00048        23.00046        26.00046
 111865361.01848  87168033.55848  21287202.34448  21287202.75748  21287212.27248
 111865360.51548       443.00048       164.00048       148.00048
 128543735.91246 100163920.82546  24461122.18448  24461122.91246  24461157.08346
 128543734.41648       135.00048        14.00046        16.00046
 118996710.39347  92724792.34547  22644304.93748  22644305.45747  22644315.59247
 118996707.89448       332.00048        79.00047        80.00047
 116055234.12048  90432769.57547  22084546.40848  22084546.47548  22084556.26147
 116055233.61248       375.00048       102.00048        88.00047
 121416842.47446  94610583.13547  23104854.96248  23104855.29946  23104867.52047
 121416840.97448       247.00048        42.00046        53.00047
 03 10 31  0 12 50.0000000  0  8G 4G 7G 8G 9G24G26G28G29
 115404731.34048  89925814.02047  21960789.01448  21960789.60948  21960801.43947
 115404727.83148       401.00048       109.00048       100.00047
 107217297.12348  83546042.40948  20402751.64049  20402751.48048  20402760.97948
 107217298.62049       687.00049       357.00048       339.00048
 125709389.59546  97955390.12446  23921725.94848  23921725.92046  23921746.92746
 125709389.10948       173.00048        22.00046        25.00046
 111629488.19148  86984237.33648  21242316.73948  21242316.98348  21242326.38348
 111629487.68748       449.00048       169.00048       153.00048
 128902565.24046 100443532.08346  24529402.58348  24529402.40946  24529435.89646
 128902563.72648       128.00048        11.00046        17.00046
 119207736.38047  92889229.71547  22684460.59248  22684461.37947  22684470.96547
 119207733.87648       329.00048        78.00047        79.00047
 115992589.81948  90383957.43047  22072624.31148  22072624.47748  22072633.82847
 115992589.31148       376.00048       102.00048        86.00047
 121733862.58446  94857614.78047  23165179.60748  23165180.23246  23165191.76947
 121733861.07748       240.00048        41.00046        52.00047
 03 10 31  0 13  0.0000000  0  8G 4G 7G 8G 9G24G26G28G29
 115650245.65548  90117125.45347  22007507.69248  22007508.32548  22007519.66247
 115650242.14548       396.00048       103.00048        97.00047
 107105979.14348  83459301.70348  20381567.98849  20381567.88748  20381577.29348
 107105980.64149       696.00049       367.00048       349.00048
 126053025.81146  98223161.67846  23987115.26948  23987115.18046  23987135.75146
 126053025.31148       170.00048        21.00046        24.00046
 111398512.85448  86804257.19648  21198363.06948  21198363.26748  21198372.62448
 111398512.34748       455.00048       172.00048       158.00048
 129261873.66345 100723516.47446  24597773.51748  24597774.28445  24597804.66446
 129261872.17948       123.00048        10.00045        18.00046
 119423153.67147  93057088.46447  22725452.34048  22725452.95247  22725462.36247
 119423151.16348       325.00048        76.00047        78.00047
 115934225.29048  90338479.78747  22061516.95748  22061517.06948  22061526.15447
 115934224.78548       377.00048       104.00048        88.00047
 122054034.70846  95107101.92346  23226104.38648  23226104.55046  23226116.06546
 122054033.19848       233.00048        38.00046        50.00046
 03 10 31  0 13 10.0000000  0  8G 4G 7G 8G 9G24G26G28G29
 115897988.74048  90310173.48047  22054650.47148  22054651.19648  22054662.15647
 115897985.23748       390.00048       102.00048        93.00047
 106999225.38048  83376117.38248  20361253.20749  20361252.98948  20361262.29348
 106999226.87649       706.00049       377.00048       359.00048
 126398382.51746  98492273.56546  24052832.35548  24052832.56546  24052852.16546
 126398382.02248       166.00048        20.00046        22.00046
 111172505.91048  86628148.32648  21155355.05648  21155355.27148  21155364.47948
 111172505.40448       461.00048       176.00048       164.00048
 129621620.25245 101003842.02446  24666228.78648  24666229.11545  24666259.74446
 129621618.74648       116.00048        10.00045        15.00046
 119642909.40447  93228327.83647  22767269.60648  22767270.26847  22767279.39347
 119642906.89548       321.00048        75.00047        75.00047
 115880144.88948  90296339.98747  22051225.28048  22051225.44248  22051234.30547
 115880144.38448       377.00048       104.00048        87.00047
 122377287.67046  95358989.23546  23287615.98048  23287616.41846  23287626.93546
 122377286.17148       225.00048        35.00046        47.00046
 03 10 31  0 13 20.0000000  0  8G 4G 7G 8G 9G24G26G28G29
 116147919.26447  90504925.84447  22102209.68148  22102210.38247  22102221.09547
 116147915.75948       385.00048        99.00047        90.00047
 106897057.95948  83296506.65148  20341811.19049  20341811.03348  20341820.24048
 106897059.45749       715.00049       387.00048       368.00048
 126745389.06246  98762670.82946  24118863.64848  24118862.93546  24118882.71446
 126745388.55548       161.00048        20.00046        21.00046
 110951537.02148  86455964.80448  21113306.05148  21113306.37348  21113315.53248
 110951536.51448       467.00048       179.00048       169.00048
 129981764.49045 101284477.37446  24734758.91948  24734759.87445  24734790.31446
 129981763.00848       111.00048         7.00045        14.00046
 119866949.39647  93402905.71047  22809902.07248  22809902.76747  22809911.58547
 119866946.89148       318.00048        73.00047        73.00047
 115830352.44248  90257541.17547  22041749.62748  22041749.76348  22041758.67347
 115830351.93648       379.00048       104.00048        88.00047
 122703550.90046  95613222.18946  23349700.43248  23349700.81846  23349711.00646
 122703549.39648       218.00048        33.00046        47.00046
 03 10 31  0 13 30.0000000  0  8G 4G 7G 8G 9G24G26G28G29
 116399995.17147  90701349.40147  22150177.64148  22150178.21947  22150188.72547
 116399991.66748       379.00048        95.00047        87.00047
 106799497.92648  83220485.73548  20323246.23249  20323246.06248  20323255.32848
 106799499.42549       722.00049       394.00048       378.00048
 127093974.71046  99034298.14846  24185195.44048  24185196.01846  24185214.11646
 127093974.19648       155.00048        18.00046        19.00046
 110735675.49448  86287760.72548  21072229.25748  21072229.39748  21072238.66948
 110735674.98848       471.00048       183.00048       176.00048
 130342265.67545 101565390.47646  24803357.92848  24803358.21245  24803387.88746
 130342264.22248       105.00048         7.00045        13.00046
 120095217.27147  93580777.59547  22853339.41548  22853339.94747  22853348.60947
 120095214.77148       314.00048        72.00047        71.00047
 115784849.78548  90222084.54647  22033090.79848  22033090.95048  22033099.78147
 115784849.28348       380.00048       105.00048        89.00047
 123032751.85246  95869743.78546  23412344.24348  23412345.00246  23412354.61646
 123032750.34348       211.00048        32.00046        46.00046
 03 10 31  0 13 40.0000000  0  8G 4G 7G 8G 9G24G26G28G29
 116654175.25447  90899412.00247  22198546.36248  22198546.95547  22198557.40947
 116654171.74948       374.00048        93.00047        85.00047
 106706565.82948  83148070.80048  20305562.06149  20305561.87948  20305571.22248
 106706567.32649       728.00049       400.00048       384.00048
 127444068.58446  99307099.96946  24251814.97048  24251814.64246  24251832.75846
 127444068.06048       151.00048        17.00046        19.00046
 110524989.50648  86123589.26548  21032137.39848  21032137.61248  21032146.98048
 110524989.00148       477.00048       189.00048       184.00048
 130703083.65145 101846549.83246  24872017.08447  24872016.87745  24872046.78446
 130703082.12747        99.00047         6.00045        12.00046
 120327657.12347  93761900.00247  22897570.89648  22897571.44347  22897580.04947
 120327654.62048       311.00048        69.00047        70.00047
 115743638.66248  90189971.70347  22025248.87548  22025248.84348  22025257.81647
 115743638.15948       381.00048       106.00048        92.00047
 123364818.99046  96128498.38346  23475533.68948  23475534.17346  23475543.74746
 123364817.48248       204.00048        31.00046        45.00046
 03 10 31  0 13 50.0000000  0  8G 4G 7G 8G 9G24G26G28G29
 116910418.33047  91099081.58647  22247308.00548  22247308.63947  22247319.09647
 116910414.81948       368.00048        89.00047        81.00047
 106618280.88448  83079276.83548  20288762.43249  20288762.24148  20288771.65348
 106618282.38349       731.00049       403.00048       388.00048
 127795600.57246  99581021.60246  24318709.00648  24318708.86846  24318726.75846
 127795600.04948       145.00048        14.00046        19.00046
 110319546.44048  85963503.09748  20993043.35548  20993043.65348  20993053.16148
 110319545.93748       482.00048       193.00048       188.00048
 131064178.23945 102127924.20546  24940729.80147  24940730.61345  24940759.11946
 131064176.76247        95.00047         7.00045        14.00046
 120564212.16247  93946228.77647  22942585.66848  22942586.32347  22942594.71947
 120564209.65948       308.00048        68.00047        68.00047
 115706719.36748  90161202.92847  22018223.77248  22018223.80148  22018232.73047
 115706718.86048       382.00048       106.00048        93.00047
 123699680.23446  96389429.65946  23539255.35548  23539255.59046  23539265.06946
 123699678.73948       198.00048        25.00046        42.00046
 03 10 31  0 14  0.0000000  0  8G 4G 7G 8G 9G24G26G28G29
 117168683.04647  91300325.82947  22296455.00948  22296455.62847  22296466.34947
 117168679.54148       361.00048        87.00047        80.00047
 106534661.59048  83014118.40148  20272850.58449  20272850.41148  20272859.93848
 106534663.08849       733.00049       406.00048       391.00048
 128148500.80046  99856008.43346  24385864.25148  24385863.30146  24385882.06746
 128148500.29648       140.00048        14.00046        17.00046
 110119411.98948  85807553.27948  20954959.69548  20954960.00848  20954969.73848
 110119411.48548       490.00048       196.00048       194.00048
 131425509.97644 102409482.61146  25009488.21447  25009489.15244  25009516.36646
 131425508.52347        89.00047         5.00044        11.00046
 120804824.81147  94133718.95947  22988372.89348  22988373.52847  22988381.96847
 120804822.30748       305.00048        67.00047        65.00047
 115674091.27148  90135777.89247  22012015.15148  22012015.33548  22012024.52047
 115674090.76848       384.00048       105.00048        90.00047
 124037264.05846  96652481.93546  23603495.40848  23603496.16746  23603505.13346
 124037262.55848       192.00048        26.00046        43.00046
 03 10 31  0 14 10.0000000  0  8G 4G 7G 8G 9G24G26G28G29
 117428929.54347  91503114.31247  22345978.95448  22345979.64747  22345990.59847
 117428926.03848       355.00048        83.00047        76.00047
 106455724.99948  82952608.77948  20257829.90949  20257829.70348  20257839.42348
 106455726.49749       736.00049       406.00048       394.00048
 128502701.54846 100132008.32846  24453266.67848  24453266.02146  24453285.28246
 128502701.04648       135.00048        12.00046        16.00046
 109924651.53648  85655791.07348  20917898.63148  20917898.93748  20917908.90248
 109924651.03048       499.00048       204.00048       200.00048
 131787039.81145 102691194.61946  25078284.43447  25078284.34645  25078313.51346
 131787038.29847        86.00047         6.00045        11.00046
 121049436.94447  94324325.32747  23034921.49648  23034922.03147  23034930.51147
 121049434.43948       302.00048        63.00047        64.00047
 115645752.12348  90113694.71047  22006622.95848  22006623.18648  22006632.26347
 115645751.61648       384.00048       108.00048        92.00047
 124377499.03546  96917599.82846  23668240.26948  23668240.75246  23668250.65846
 124377497.54148       187.00048        25.00046        39.00046
 03 10 31  0 14 20.0000000  0  8G 4G 7G 8G 9G24G26G28G29
 117691114.76247  91707412.49147  22395872.68948  22395873.10947  22395884.68547
 117691111.26148       349.00048        83.00047        74.00047
 106381486.68648  82894759.93948  20243703.40949  20243703.21948  20243713.13748
 106381488.18349       739.00049       411.00048       399.00048
 128858131.70446 100408964.63546  24520904.51448  24520904.38146  24520924.35846
 128858131.18848       130.00048        12.00046        17.00046
 109735327.26948  85508264.29348  20881872.40349  20881872.77048  20881882.98548
 109735326.76349       506.00049       211.00048       204.00048
 132148728.99844 102973030.01745  25147112.08847  25147114.02544  25147137.30445
 132148727.46447        81.00047         5.00044        10.00045
 121297989.44347  94518001.77347  23082219.94148  23082220.61047  23082229.31347
 121297986.93648       300.00048        63.00047        60.00047
 115621698.86548  90094951.05647  22002046.45948  22002046.57648  22002056.02847
 115621698.35948       384.00048       107.00048        93.00047
 124720313.26346  97184727.18046  23733476.31548  23733476.49846  23733486.06946
 124720311.75648       182.00048        23.00046        39.00046
 03 10 31  0 14 30.0000000  0  7G 4G 7G 8G 9G26G28G29
 117955195.87147  91913186.15547  22446128.43648  22446128.99847  22446141.27747
 117955192.36548       342.00048        78.00047        72.00047
 106311962.43448  82840584.58148  20230473.85749  20230473.65248  20230483.70148
 106311963.93149       745.00049       418.00048       405.00048
 129214720.74445 100686821.40346  24588764.85048  24588764.67645  24588784.09546
 129214720.21648       126.00048        10.00045        14.00046
 109551501.53248  85365021.55948  20846893.09849  20846893.34048  20846904.09848
 109551501.02449       513.00049       218.00048       207.00048
 121550421.93447  94714700.75947  23130257.60048  23130258.12347  23130267.37847
 121550419.42348       296.00048        62.00047        58.00047
 115601928.87848  90079545.66747  21998284.53348  21998284.49848  21998294.22447
 115601928.37048       384.00048       106.00048        91.00047
 125065634.06946  97453806.92646  23799189.52748  23799190.05846  23799199.95446
 125065632.55348       179.00048        24.00046        37.00046
 03 10 31  0 14 40.0000000  0  8G 4G 7G 8G 9G24G26G28G29
 118221135.43347  92120407.78847  22496738.13048  22496738.59147  22496751.97647
 118221131.92548       335.00048        75.00047        70.00047
 106247167.68648  82790095.59648  20218143.51549  20218143.35448  20218153.29148
 106247169.18349       751.00049       424.00048       413.00048
 129572401.19245 100965526.28046  24656834.47148  24656833.55845  24656855.98946
 129572400.69348       122.00048        10.00045        16.00046
 109373239.40548  85226115.63948  20812971.21949  20812971.47348  20812982.25048
 109373238.89849       519.00049       223.00048       212.00048
 132872668.75553 103537284.77755  25284830.68347  25284828.33543  25284862.62745
 132872681.39157        73.00047         2.00043        10.00045
 121806673.27347  94914374.21347  23179022.88848  23179023.40447  23179032.89547
 121806670.76248       292.00048        60.00047        56.00047
 115586437.77048  90067475.58247  21995335.94148  21995336.04548  21995345.38047
 115586437.26548       384.00048       105.00048        92.00047
 125413389.25446  97724782.49046  23865367.05648  23865367.45946  23865377.81246
 125413387.74748       175.00048        23.00046        38.00046
 03 10 31  0 14 50.0000000  0  8G 4G 7G 8G 9G24G26G28G29
 118488896.55947  92329050.74447  22547692.84148  22547693.34047  22547707.37947
 118488893.05348       329.00048        72.00047        66.00047
 106187115.03548  82743302.76048  20206714.82249  20206714.63248  20206724.19548
 106187116.53249       759.00049       432.00048       420.00048
 129931111.35846 101245034.20346  24725099.57448  24725098.76446  24725121.35446
 129931110.83748       116.00048        11.00046        16.00046
 109200601.00048  85091593.65748  20780118.13749  20780118.44548  20780128.86248
 109200600.49649       523.00049       225.00048       214.00048
 133234602.11744 103819305.14645  25353707.31647  25353707.32244  25353742.15345
 133234614.55747        71.00047         4.00044         7.00045
 122066685.01347  95116977.72947  23228503.68748  23228504.03947  23228514.76747
 122066682.50948       287.00048        59.00047        53.00047
 115575219.31748  90058736.04247  21993199.57148  21993199.68848  21993208.47847
 115575218.81448       383.00048       107.00048        90.00047
 125763508.33146  97997599.51546  23931994.64548  23931995.51546  23932005.95846
 125763506.82048       174.00048        21.00046        34.00046
 03 10 31  0 15  0.0000000  0  9G 4G 5G 7G 8G 9G24G26G28G29
 118758439.12947  92539084.08947  22598985.07948  22598985.79647  22598999.42247
 118758435.62148       323.00048        69.00047        64.00047
 128613331.02256 100218246.81956  24474302.96948  24474303.25446  24474319.46346
 128613329.53658       144.00048        18.00046        18.00046
 106131815.67248  82700214.63248  20196189.94049  20196189.78148  20196198.83648
 106131817.17049       764.00049       438.00048       430.00048
 130290788.69445 101525298.69546  24793546.77148  24793546.43445  24793570.11546
 130290788.17348       113.00048         9.00045        14.00046
 109033644.70048  84961501.18948  20748344.89449  20748345.22548  20748354.82848
 109033644.19349       527.00049       228.00048       222.00048
 133596544.30643 104101330.42845  25422586.16847  25422581.13243  25422616.02345
 133596556.00147        66.00047         2.00043         9.00045
 122330397.46247  95322465.57047  23278688.20748  23278688.69147  23278699.83447
 122330394.95248       284.00048        57.00047        54.00047
 115568265.57548  90053320.58247  21991873.96048  21991874.09248  21991882.34947
 115568265.06948       383.00048       105.00048        91.00047
 126115921.76846  98272204.77146  23999058.80648  23999059.31746  23999070.62346
 126115920.25248       171.00048        21.00046        32.00046
 03 10 31  0 15 10.0000000  0  8G 4G 5G 7G 8G 9G26G28G29
 119029724.38347  92750478.67747  22650606.32248  22650607.15847  22650619.86947
 119029720.88048       317.00048        67.00047        62.00047
 128487798.95546 100120429.68046  24450414.81348  24450415.38746  24450431.87646
 128487797.44548       145.00048        17.00046        20.00046
 106081278.39748  82660837.27148  20186571.29449  20186571.10448  20186579.59248
 106081279.89349       769.00049       444.00048       438.00048
 130651370.48145 101806272.91746  24862162.07448  24862162.78045  24862185.03246
 130651369.95448       108.00048         8.00045        12.00046
 108872425.86548  84835880.68448  20717662.54049  20717662.79448  20717671.31548
 108872425.35749       530.00049       233.00048       227.00048
 122597750.75947  95530792.05347  23329564.49048  23329565.23847  23329576.52347
 122597748.25448       278.00048        53.00047        52.00047
 115565565.44848  90051219.27747  21991358.11448  21991358.27748  21991365.80247
 115565564.94348       384.00048       107.00048        92.00047
 126470559.89546  98548544.84746  24066545.03548  24066545.48446  24066558.17846
 126470558.39548       169.00048        20.00046        34.00046
 03 10 31  0 15 20.0000000  0  8G 4G 5G 7G 8G 9G26G28G29
 119302707.14947  92963196.95247  22702549.93148  22702550.54447  22702562.63747
 119302703.64848       311.00048        63.00047        59.00047
 128364062.11746 100024016.33846  24426864.88348  24426864.94146  24426880.60546
 128364060.60148       146.00048        18.00046        21.00046
 106035509.74048  82625174.37448  20177861.01749  20177860.86648  20177869.05448
 106035511.23849       770.00049       445.00048       445.00048
 131012787.49745 102087901.57046  24930933.82548  24930933.60745  24930954.94246
 131012787.00948       104.00048        10.00045        12.00046
 108716992.19048  84714765.51648  20688082.91949  20688083.24748  20688091.24748
 108716991.68449       537.00049       238.00048       230.00048
 122868682.73047  95741908.78546  23381120.41548  23381120.98347  23381132.24246
 122868680.22148       274.00048        52.00047        50.00046
 115567106.98348  90052421.61647  21991650.72648  21991650.67548  21991657.87247
 115567106.48048       384.00048       105.00048        91.00047
 126827352.03146  98826564.84646  24134440.29448  24134440.32446  24134452.84646
 126827350.54148       166.00048        20.00046        31.00046
 03 10 31  0 15 30.0000000  0  8G 4G 5G 7G 8G 9G26G28G29
 119577343.83047  93177203.37747  22754808.54648  22754809.12847  22754820.25947
 119577340.32348       305.00048        62.00047        57.00047
 128242147.89046  99929024.76646  24403660.63448  24403660.43846  24403675.38346
 128242146.37248       148.00048        19.00046        18.00046
 105994519.00148  82593233.82548  20170060.50849  20170060.37148  20170068.51148
 105994520.49749       772.00049       446.00048       451.00048
 131374968.49945 102370126.26146  24999850.52047  24999850.77445  24999873.34946
 131374967.99547       100.00047         8.00045        13.00046
 108567398.94448  84598199.51548  20659616.22449  20659616.41448  20659624.42448
 108567398.43849       543.00049       243.00048       234.00048
 123143128.18647  95955763.73846  23433344.66348  23433345.26847  23433356.02546
 123143125.67648       268.00048        51.00047        48.00046
 115572880.93848  90056921.13047  21992749.12848  21992749.08348  21992756.24547
 115572880.43048       385.00048       106.00048        92.00047
 127186225.21746  99106206.94946  24202731.21748  24202731.83046  24202743.83646
 127186223.72048       164.00048        19.00046        30.00046
 03 10 31  0 15 40.0000000  0  8G 4G 5G 7G 8G 9G26G28G29
 119853594.54947  93392467.18447  22807374.72948  22807375.34947  22807385.74147
 119853591.05048       300.00048        60.00047        55.00047
 128122083.17846  99835472.46746  24380809.43648  24380809.27846  24380822.15446
 128122081.68148       149.00048        20.00046        20.00046
 105958314.13448  82565022.36848  20163170.89449  20163170.68948  20163178.85848
 105958315.62949       772.00049       445.00048       451.00048
 131737848.10845 102652896.11446  25068898.97047  25068898.07045  25068917.99846
 131737847.61547        96.00047         6.00045        12.00046
 108423702.14448  84486228.32048  20632271.37149  20632271.68748  20632279.52148
 108423701.63649       552.00049       251.00048       237.00048
 123421022.54146  96172305.87646  23486225.37848  23486225.88146  23486236.32746
 123421020.03548       263.00048        47.00046        45.00046
 115582876.77648  90064710.21247  21994651.16148  21994651.25548  21994658.47447
 115582876.27048       386.00048       108.00048        91.00047
 127547107.22046  99387414.20346  24271404.39648  24271404.50046  24271417.17846
 127547105.72848       162.00048        18.00046        32.00046
 03 10 31  0 15 50.0000000  0  8G 4G 5G 7G 8G 9G26G28G29
 120131416.77847  93608954.00947  22860240.96648  22860241.78247  22860251.37347
 120131413.26748       295.00048        59.00047        53.00047
 128003901.94246  99743386.03546  24358318.22548  24358318.79146  24358330.36546
 128003900.44948       150.00048        20.00046        20.00046
 105926901.46948  82540545.15248  20157193.12449  20157192.91348  20157200.99248
 105926902.96549       773.00049       448.00048       450.00048
 132101358.54345 102936156.90946  25138067.69347  25138069.41045  25138085.92346
 132101358.03247        92.00047         7.00045        12.00046
 108285951.91848  84378890.81748  20606058.03649  20606058.34348  20606066.18748
 108285951.41349       559.00049       257.00048       239.00048
 123702302.11446  96391485.44446  23539750.57548  23539750.86446  23539761.42646
 123702299.60148       258.00048        47.00046        44.00046
 115597082.51348  90075779.88247  21997354.31248  21997354.25348  21997361.34747
 115597082.01248       386.00048       107.00048        88.00047
 127909927.43346  99670131.48846  24340446.66548  24340446.67446  24340458.64046
 127909925.90148       160.00048        17.00046        27.00046
 03 10 31  0 16  0.0000000  0  8G 4G 5G 7G 8G 9G26G28G29
 120410772.15047  93826634.95346  22913399.46448  22913400.36047  22913409.64046
 120410768.63848       290.00048        57.00047        50.00046
 127887638.86146  99652793.28046  24336192.54748  24336192.65346  24336205.03046
 127887637.34748       152.00048        19.00046        19.00046
 105900285.24748  82519805.33248  20152128.13549  20152127.97148  20152135.99048
 105900286.74549       775.00049       448.00048       448.00048
 132465433.03044 103219855.47446  25207346.04947  25207347.24244  25207361.99346
 132465432.55447        89.00047         5.00044        12.00046
 108154194.38748  84276221.56248  20580986.21049  20580986.51848  20580994.56448
 108154193.88049       566.00049       264.00048       239.00048
 123986903.54946  96613253.42246  23593907.94348  23593908.48346  23593918.46446
 123986901.04848       253.00048        45.00046        43.00046
 115615483.86348  90090118.77847  22000855.81548  22000855.86048  22000862.80947
 115615483.35848       387.00048       108.00048        88.00047
 128274615.67946  99954304.37746  24409844.07448  24409844.18946  24409856.24846
 128274614.16448       157.00048        17.00046        26.00046
 03 10 31  0 16 10.0000000  0  8G 4G 5G 7G 8G 9G26G28G29
 120691619.32847  94045477.10746  22966842.73848  22966843.30147  22966852.41246
 120691615.82048       285.00048        54.00047        47.00046
 127773328.21846  99563721.44746  24314438.92048  24314438.83446  24314449.82446
 127773326.71148       154.00048        18.00046        20.00046
 105878469.31148  82502806.08148  20147976.58849  20147976.40048  20147984.40148
 105878470.80849       779.00049       452.00048       447.00048
 132830008.27944 103503942.69546  25276720.56047  25276721.41644  25276736.10346
 132830007.71247        86.00047         5.00044        11.00046
 108028482.67948  84178265.01048  20557063.66749  20557063.92448  20557071.79348
 108028482.17349       573.00049       267.00048       240.00048
 124274762.29446  96837559.32546  23648685.45948  23648686.06846  23648695.81046
 124274759.78548       249.00048        44.00046        41.00046
 115638066.14648  90107715.57547  22005152.91548  22005152.99348  22005159.88047
 115638065.63748       386.00048       107.00048        89.00047
 128641101.41346 100239877.63446  24479584.23648  24479584.24346  24479596.73646
 128641099.87948       155.00048        16.00046        26.00046
 03 10 31  0 16 20.0000000  0  8G 4G 5G 7G 8G 9G26G28G29
 120973922.98947  94265455.18946  23020562.51748  23020563.09947  23020572.19446
 120973919.48148       279.00048        52.00047        44.00046
 127661003.38446  99476196.86946  24293063.12948  24293062.68246  24293074.97746
 127661001.87148       157.00048        20.00046        19.00046
 105861455.68848  82489548.90948  20144738.82649  20144738.66848  20144746.60748
 105861457.18449       783.00049       459.00048       443.00048
 133195022.48145 103788371.60545  25346178.45547  25346177.77445  25346193.95545
 133195021.99347        84.00047         6.00045         9.00045
 107908860.75648  84085054.74148  20534299.17749  20534299.41748  20534306.91248
 107908860.25049       579.00049       273.00048       245.00048
 124565814.05846  97064353.22746  23704070.48948  23704070.87946  23704081.28546
 124565811.54748       243.00048        42.00046        40.00046
 115664812.93448  90128557.20547  22010242.57148  22010242.74548  22010249.72447
 115664812.43148       385.00048       105.00048        88.00047
 129009314.56446 100526796.73546  24549653.24548  24549653.27746  24549664.99646
 129009313.06348       151.00048        15.00046        23.00046
 03 10 31  0 16 30.0000000  0  8G 4G 5G 7G 8G 9G26G28G29
 121257641.24846  94486535.50546  23074551.36848  23074551.94946  23074560.91046
 121257637.73648       273.00048        48.00046        43.00046
 127550697.35246  99390245.43946  24272071.70948  24272072.00746  24272082.05046
 127550695.84148       159.00048        20.00046        19.00046
 105849245.16148  82480034.22448  20142415.30649  20142415.08148  20142422.99648
 105849246.65749       787.00049       462.00048       443.00048
 133560415.37944 104073096.46146  25415708.13647  25415707.23244  25415722.97446
 133560414.87947        80.00047         4.00044        11.00046
 107795367.68248  83996618.94048  20512701.87349  20512702.15348  20512709.62248
 107795367.17649       583.00049       277.00048       248.00048
 124859994.58146  97293585.31246  23760050.75848  23760051.40146  23760061.15546
 124859992.07648       239.00048        38.00046        39.00046
 115695707.87348  90152631.17247  22016121.71448  22016121.82648  22016128.77547
 115695707.36748       384.00048       106.00048        88.00047
 129379186.46246 100815008.55946  24620037.38348  24620037.95146  24620049.53346
 129379184.96948       148.00048        14.00046        23.00046
 03 10 31  0 16 40.0000000  0  8G 4G 5G 7G 8G 9G26G28G29
 121542733.96046  94708686.42646  23128802.12748  23128802.65046  23128811.21246
 121542730.45148       267.00048        46.00046        39.00046
 127442441.23346  99305890.83346  24251470.73048  24251470.92046  24251481.37946
 127442439.73548       161.00048        21.00046        21.00046
 105841838.04548  82474262.49548  20141005.70449  20141005.50348  20141013.40448
 105841839.54349       789.00049       465.00048       450.00048
 133926121.40543 104358064.86345  25485298.02547  25485299.11743  25485318.77545
 133926120.77947        79.00047         3.00043         9.00045
 107688047.39448  83912992.97248  20492279.28449  20492279.61048  20492286.95448
 107688046.88849       589.00049       284.00048       253.00048
 125157238.23246  97525204.20146  23816614.16348  23816614.84746  23816624.35246
 125157235.73948       234.00048        40.00046        41.00046
 115730733.22548  90179923.70247  22022786.85048  22022786.91948  22022793.79947
 115730732.71748       381.00048       105.00048        88.00047
 129750647.42146 101104458.69746  24690723.93548  24690724.79246  24690736.22146
 129750645.92448       144.00048        15.00046        23.00046
 03 10 31  0 16 50.0000000  0  8G 4G 5G 7G 8G 9G26G28G29
 121829162.02246  94931877.69346  23183307.24048  23183307.86946  23183316.40946
 121829158.51548       261.00048        45.00046        39.00046
 127336268.30646  99223159.57046  24231265.91348  24231265.73346  24231276.72746
 127336266.81948       163.00048        21.00046        22.00046
 105839232.96648  82472232.59248  20140509.99949  20140509.78048  20140517.72148
 105839234.46249       789.00049       465.00048       449.00048
 134292078.67544 104643228.91846  25554936.02447  25554937.86544  25554950.33546
 134292078.06747        75.00047         4.00044        11.00046
 107586939.91048  83834208.09448  20473039.06249  20473039.34948  20473046.68048
 107586939.40549       594.00049       289.00048       252.00048
 125457479.39846  97759158.65346  23873747.71248  23873748.26646  23873757.98346
 125457476.89948       229.00048        37.00046        37.00046
 115769869.83248  90210419.73647  22030234.27248  22030234.19748  22030241.36947
 115769869.32448       379.00048       103.00048        87.00047
 130123628.05046 101395092.90646  24761699.89748  24761700.39846  24761712.52946
 130123626.55848       139.00048        13.00046        20.00046
 03 10 31  0 17  0.0000000  0  8G 4G 5G 7G 8G 9G26G28G29
 122116886.71646  95156079.32246  23238058.96648  23238059.57346  23238067.88646
 122116883.21248       254.00048        43.00046        39.00046
 127232210.22446  99142076.14746  24211463.64048  24211463.78346  24211473.52746
 127232208.71648       165.00048        24.00046        23.00046
 105841427.48048  82473942.58548  20140927.53749  20140927.36648  20140935.26348
 105841428.97849       787.00049       461.00048       452.00048
 134658237.04953 104928537.18955  25624610.82347  25624610.58843  25624620.53045
 134658238.46957        73.00047         2.00043         9.00045
 107492082.44548  83760292.95248  20454988.50949  20454988.78448  20454996.14948
 107492081.93949       601.00049       293.00048       255.00048
 125760652.90546  97995398.03646  23931439.45348  23931439.96246  23931449.69346
 125760650.39648       224.00048        36.00046        38.00046
 115813097.86648  90244103.87847  22038460.29548  22038460.38648  22038467.39047
 115813097.36448       378.00048       103.00048        88.00047
 130498059.60146 101686857.57846  24832951.89548  24832951.74046  24832964.34546
 130498058.09948       136.00048        13.00046        21.00046
 03 10 31  0 17 10.0000000  0  8G 4G 5G 7G 9G11G26G28G29
 122405868.87646  95381260.72346  23293050.05848  23293050.78746  23293058.87446
 122405865.36948       247.00048        39.00046        35.00046
 127130299.13446  99062666.08846  24192069.97348  24192070.08346  24192079.66146
 127130297.63248       166.00048        22.00046        22.00046
 105848417.84748  82479389.54148  20142257.80649  20142257.64848  20142265.56248
 105848419.34449       785.00049       458.00048       455.00048
 107403512.89048  83691278.04448  20438133.96149  20438134.31848  20438141.61348
 107403512.38349       607.00049       300.00048       259.00048
 128307512.37256  99979907.56956  24416107.64848  24416107.90046  24416114.68446
 128307510.86058       141.00048        15.00046        26.00046
 126066693.07346  98233871.24946  23989676.74548  23989677.23846  23989687.22346
 126066690.57548       220.00048        34.00046        36.00046
 115860396.47747  90280959.82147  22047461.02148  22047461.05847  22047468.09647
 115860395.96848       376.00048       100.00047        85.00047
 130873873.93146 101979699.88846  24904467.06948  24904467.34946  24904478.99446
 130873872.43548       132.00048        12.00046        21.00046
 03 10 31  0 17 20.0000000  0  8G 4G 5G 7G 9G11G26G28G29
 122696069.22046  95607391.10446  23348273.07248  23348273.71146  23348282.14546
 122696065.72248       240.00048        38.00046        34.00046
 127030565.05146  98984952.14746  24173090.48548  24173090.33146  24173100.16146
 127030563.53348       167.00048        23.00046        22.00046
 105860199.41748  82488569.86148  20144499.90849  20144499.69948  20144507.66848
 105860200.91549       782.00049       456.00048       451.00048
 107321263.92048  83627188.20248  20422482.35449  20422482.65248  20422489.87548
 107321263.41449       611.00049       305.00048       257.00048
 128021454.21846  99757005.08346  24361672.81348  24361673.66346  24361680.42846
 128021452.71148       145.00048        16.00046        27.00046
 126375533.80046  98474526.67946  24048447.02248  24048447.59846  24048457.23846
 126375531.31148       215.00048        32.00046        32.00046
 115911743.89548  90320970.65947  22057232.30748  22057232.28648  22057239.28847
 115911743.38948       375.00048       101.00048        83.00047
 131251002.38145 102273566.11646  24976232.33348  24976232.56045  24976243.88146
 131251000.91048       128.00048        10.00045        19.00046
 03 10 31  0 17 30.0000000  0  9G 4G 5G 7G 8G 9G11G26G28G29
 122987447.72246  95834438.59946  23403721.08948  23403721.76646  23403729.73246
 122987444.21448       233.00048        36.00046        33.00046
 126933038.72746  98908958.28646  24154531.27248  24154531.18746  24154541.01646
 126933037.22848       168.00048        24.00046        26.00046
 105876766.58448  82501479.35748  20147652.51049  20147652.29448  20147660.28548
 105876768.08149       782.00049       454.00048       453.00048
 135757192.03953 105784899.05455  25833736.55447  25833734.71443  25833752.99045
 135757201.29957        68.00047         3.00043         8.00045
 107245367.22248  83568047.95348  20408039.69549  20408039.96948  20408047.21748
 107245366.71649       615.00049       309.00048       261.00048
 127736076.23046  99534632.62846  24307366.95548  24307367.41946  24307374.61346
 127736074.72748       148.00048        16.00046        28.00046
 126687108.62446  98717312.30246  24107737.57848  24107737.88746  24107747.38246
 126687106.11248       211.00048        31.00046        32.00046
 115967117.88447  90364119.32147  22067769.48048  22067769.60847  22067776.63147
 115967117.38248       375.00048       100.00047        84.00047
 131629377.19545 102568403.39946  25048235.01148  25048234.61345  25048247.10046
 131629375.69448       124.00048        10.00045        18.00046
 03 10 31  0 17 40.0000000  0  8G 4G 5G 7G 9G11G26G28G29
 123279969.20046  96062377.47346  23459386.09648  23459386.71646  23459394.84346
 123279965.69448       227.00048        35.00046        32.00046
 126837751.63746  98834709.42146  24136398.03448  24136397.59846  24136406.93146
 126837750.14248       169.00048        23.00046        21.00046
 105898111.82948  82518111.95248  20151714.42649  20151714.20248  20151722.20348
 105898113.32749       782.00049       454.00048       450.00048
 107175853.25148  83513881.30448  20394811.55149  20394811.74348  20394819.07048
 107175852.74749       618.00049       311.00048       261.00048
 127451411.46946  99312815.90746  24253196.96348  24253197.55746  24253204.79946
 127451409.96848       151.00048        16.00046        27.00046
 127001351.75046  98962177.09946  24167536.10548  24167536.40346  24167545.81346
 127001349.25248       206.00048        30.00046        32.00046
 116026494.14448  90410386.52247  22079068.37548  22079068.41948  22079075.47247
 116026493.63948       375.00048       102.00048        83.00047
 132008930.80245 102864159.16146  25120461.69848  25120461.14645  25120474.95746
 132008929.29848       120.00048        10.00045        16.00046
 03 10 31  0 17 50.0000000  0  8G 4G 5G 7G 9G11G26G28G29
 123573593.48146  96291175.48746  23515261.08448  23515261.28646  23515269.95046
 123573589.97448       219.00048        30.00046        28.00046
 126744733.29046  98762228.27746  24118696.66748  24118696.47346  24118705.94746
 126744731.76848       169.00048        24.00046        25.00046
 105924226.82848  82538461.13048  20156684.07049  20156683.88748  20156691.89648
 105924228.32449       784.00049       456.00048       444.00048
 107112749.55448  83464709.54548  20382803.27049  20382803.53748  20382810.77048
 107112749.04849       619.00049       312.00048       261.00048
 127167493.29246  99091580.86646  24199169.23748  24199169.78746  24199176.74846
 127167491.78148       155.00048        18.00046        30.00046
 127318197.83846  99209070.56046  24227829.74548  24227830.35746  24227839.59446
 127318195.32148       201.00048        30.00046        31.00046
 116089848.46548  90459753.59847  22091124.29048  22091124.33248  22091131.42747
 116089847.95748       375.00048       101.00048        82.00047
 132389596.60845 103160781.76946  25192900.26848  25192899.90245  25192911.79146
 132389595.11148       116.00048         7.00045        14.00046
 03 10 31  0 18  0.0000000  0  8G 4G 5G 7G 9G11G26G28G29
 123868282.70046  96520803.19446  23571338.77848  23571339.06546  23571347.49346
 123868279.19648       212.00048        29.00046        27.00046
 126654012.27346  98691536.53246  24101432.88048  24101433.28246  24101442.11146
 126654010.76048       169.00048        24.00046        25.00046
 105955102.21748  82562519.64148  20162559.58249  20162559.44448  20162567.48148
 105955103.71349       785.00049       459.00048       443.00048
 107056081.81848  83420552.64448  20372019.94449  20372020.29248  20372027.54148
 107056081.31249       621.00049       313.00048       264.00048
 126884355.44846  98870953.92746  24145290.04148  24145290.44546  24145297.55446
 126884353.93348       158.00048        20.00046        28.00046
 127637579.38746  99457939.59046  24288605.63448  24288606.64246  24288615.79446
 127637576.87948       196.00048        27.00046        27.00046
 116157155.50348  90512200.86147  22103932.20148  22103932.38948  22103939.20747
 116157154.99648       374.00048       101.00048        81.00047
 132771307.24145 103458218.37446  25265537.08148  25265536.86445  25265550.40146
 132771305.73248       112.00048         8.00045        17.00046
 03 10 31  0 18 10.0000000  0  8G 4G 5G 7G 9G11G26G28G29
 124163999.45646  96751231.73446  23627611.74648  23627612.38546  23627620.97846
 124163995.94748       206.00048        27.00046        27.00046
 126565619.71946  98622659.36346  24084612.39748  24084612.45546  24084621.96446
 126565618.21848       168.00048        24.00046        26.00046
 105990727.76048  82590279.64848  20169339.03649  20169338.87048  20169346.97948
 105990729.25749       785.00049       458.00048       433.00048
 107005873.07548  83381428.24548  20362466.06449  20362466.39148  20362473.83348
 107005872.57149       623.00049       316.00048       265.00048
 126602032.01446  98650961.81746  24091565.48148  24091566.24646  24091573.06146
 126602030.51548       162.00048        21.00046        31.00046
 127959430.15046  99708732.56446  24349851.66848  24349852.19646  24349861.75446
 127959427.64048       190.00048        26.00046        26.00046
 116228388.81647  90567707.68747  22117487.13348  22117487.33347  22117494.14947
 116228388.30848       374.00048        98.00047        79.00047
 133153996.05445 103756417.04046  25338360.63948  25338361.39945  25338372.94346
 133153994.56048       107.00048         8.00045        15.00046
 03 10 31  0 18 20.0000000  0  9G 4G 5G 7G 8G 9G11G26G28G29
 124460706.05546  96982431.71846  23684073.21648  23684073.59946  23684082.04346
 124460702.56448       199.00048        26.00046        26.00046
 126479581.50046  98555615.24346  24068240.89148  24068241.28346  24068250.29546
 126479579.99648       168.00048        22.00046        24.00046
 106031091.03548  82621731.09548  20177020.30449  20177020.06148  20177028.25248
 106031092.53349       784.00049       455.00048       429.00048
 137586998.19753 107210723.18555  26181940.67747  26181935.39343  26181953.76845
 137587026.78757        62.00047         2.00043         9.00045
 106962146.66648  83347355.40348  20354145.44549  20354145.78248  20354153.31448
 106962146.16049       625.00049       317.00048       268.00048
 126320556.19646  98431629.96946  24038002.49448  24038002.67646  24038009.93546
 126320554.68548       165.00048        22.00046        30.00046
 128283683.85346  99961397.90246  24411554.95648  24411555.73046  24411564.64946
 128283681.34348       184.00048        24.00046        27.00046
 116303519.93547  90626251.30147  22131784.30048  22131784.38947  22131791.25647
 116303519.43248       372.00048        97.00047        78.00047
 133537597.54345 104055326.95446  25411358.30848  25411357.13645  25411370.61246
 133537596.09648       104.00048         7.00045        14.00046
 03 10 31  0 18 30.0000000  0  8G 4G 5G 7G 9G11G26G28G29
 124758364.60646  97214373.33346  23740715.73448  23740716.08546  23740725.10646
 124758361.10048       193.00048        26.00046        26.00046
 126395930.75646  98490432.23946  24052323.10548  24052322.98846  24052332.83646
 126395929.24448       169.00048        23.00046        25.00046
 106076179.99048  82656864.97048  20185600.67049  20185600.49948  20185608.81148
 106076181.48749       781.00049       451.00048       427.00048
 106924920.00448  83318346.73448  20347062.15949  20347062.43448  20347070.20348
 106924919.50149       627.00049       320.00048       269.00048
 126039962.36146  98212985.30746  23984607.10648  23984607.41646  23984614.40346
 126039960.85948       169.00048        19.00046        31.00046
 128610273.60146 100215883.22546  24473703.12948  24473704.21746  24473713.03346
 128610271.08448       179.00048        24.00046        25.00046
 116382520.93247  90687809.96447  22146818.15348  22146818.14147  22146825.17847
 116382520.42648       369.00048        98.00047        79.00047
 133922045.79045 104354896.38546  25484516.42847  25484516.66845  25484529.49346
 133922044.25447       100.00047         6.00045        15.00046
 03 10 31  0 18 40.0000000  0  9G 4G 5G 7G 8G 9G11G26G28G29
 125056936.88746  97447026.44846  23797532.60848  23797533.57846  23797541.74946
 125056933.36048       188.00048        24.00046        24.00046
 126314692.29246  98427128.05046  24036865.02148  24036864.94846  24036874.82046
 126314690.76748       169.00048        22.00046        25.00046
 106125979.33948  82695668.70548  20195077.92349  20195077.70948  20195086.20748
 106125980.83749       777.00049       446.00048       405.00048
 138316990.92553 107779529.76655  26320844.55147  26320848.31343  26320862.15845
 138316971.60957        60.00047         3.00043        10.00045
 106894211.03148  83294416.58648  20341219.20449  20341219.53948  20341227.49848
 106894210.52449       628.00049       321.00048       264.00048
 125760285.29046  97995055.13846  23931386.54948  23931386.96446  23931393.98146
 125760283.78548       173.00048        21.00046        33.00046
 128939132.83246 100472136.70646  24536283.27648  24536283.98746  24536293.45246
 128939130.33648       172.00048        20.00046        25.00046
 116465363.33447  90752361.74047  22162583.10848  22162583.19547  22162590.19147
 116465362.82848       367.00048        96.00047        76.00047
 134307275.23345 104655074.52046  25557823.68447  25557823.79045  25557836.51246
 134307273.77747        97.00047         6.00045        13.00046
 03 10 31  0 18 50.0000000  0  8G 4G 5G 7G 9G11G26G28G29
 125356385.83746  97680362.15546  23854516.79648  23854517.21046  23854525.60646
 125356382.33448       183.00048        22.00046        22.00046
 126235895.82546  98365726.72546  24021871.77248  24021871.54646  24021882.45646
 126235894.32748       170.00048        22.00046        25.00046
 106180476.06848  82738133.18048  20205448.67449  20205448.52748  20205457.15648
 106180477.56549       774.00049       443.00048       422.00048
 106870035.66348  83275577.81748  20336619.45049  20336619.73448  20336627.93248
 106870035.15849       629.00049       320.00048       266.00048
 125481559.95246  97777866.96746  23878346.46548  23878346.85446  23878354.14046
 125481558.45348       178.00048        23.00046        34.00046
 129270194.93246 100730106.18846  24599283.09348  24599283.96446  24599293.32846
 129270192.40348       165.00048        19.00046        23.00046
 116552018.23747  90819884.54947  22179073.31348  22179073.36747  22179080.55847
 116552017.72448       364.00048        93.00047        77.00047
 134693220.75544 104955810.05146  25631267.77747  25631271.65544  25631281.29046
 134693219.27047        93.00047         4.00044        11.00046
 03 10 31  0 19  0.0000000  0  8G 4G 5G 7G 9G11G26G28G29
 125656676.49546  97914354.03146  23911660.78648  23911661.20346  23911670.38246
 125656672.98248       178.00048        20.00046        22.00046
 126159569.49246  98306250.40346  24007348.24748  24007347.72646  24007358.58546
 126159567.98148       172.00048        24.00046        24.00046
 106239654.27348  82784246.11148  20216709.83349  20216709.71348  20216718.28748
 106239655.76949       771.00049       435.00048       402.00048
 106852408.83048  83261843.13548  20333264.77949  20333265.08548  20333273.19248
 106852408.32549       629.00049       319.00048       265.00048
 125203821.39046  97561448.24546  23825493.84448  23825494.14846  23825501.49646
 125203819.88548       182.00048        27.00046        35.00046
 129603395.03546 100989742.02146  24662689.21648  24662690.09346  24662699.97146
 129603392.53448       159.00048        17.00046        23.00046
 116642455.56547  90890355.25347  22196282.83848  22196283.00247  22196290.24347
 116642455.06148       361.00048        93.00047        77.00047
 135079818.57145 105257053.77646  25704836.28347  25704836.18245  25704850.62446
 135079817.00747        88.00047         7.00045        12.00046
 03 10 31  0 19 10.0000000  0  8G 4G 5G 7G 9G11G26G28G29
 125957771.79346  98148973.01346  23968958.02848  23968958.50146  23968967.89446
 125957768.29348       172.00048        19.00046        22.00046
 126085741.58946  98248721.93146  23993299.44948  23993299.20146  23993310.60146
 126085740.07048       173.00048        23.00046        27.00046
 106303496.27748  82833993.54548  20228858.30549  20228858.07148  20228866.57748
 106303497.77349       769.00049       433.00048       404.00048
 106841337.59648  83253216.32248  20331157.88749  20331158.19248  20331166.31348
 106841337.09149       629.00049       317.00048       260.00048
 124927102.98246  97345824.23046  23772835.43548  23772835.81446  23772842.32646
 124927101.48048       188.00048        26.00046        36.00046
 129938665.59146 101250990.77546  24726490.14248  24726490.39546  24726500.48546
 129938663.07048       153.00048        17.00046        22.00046
 116736643.94247  90963749.36647  22214205.90448  22214206.00247  22214213.16247
 116736643.43848       359.00048        92.00047        73.00047
 135467005.16444 105558756.41645  25778516.03547  25778517.74244  25778530.26845
 135467003.62147        86.00047         5.00044        10.00045
 03 10 31  0 19 20.0000000  0  8G 4G 5G 7G 9G11G26G28G29
 126259635.02246  98384190.31846  24026401.22848  24026401.73246  24026410.87046
 126259631.52148       167.00048        19.00046        22.00046
 126014438.87846  98193162.34246  23979730.34348  23979730.27446  23979740.98246
 126014437.36848       175.00048        24.00046        27.00046
 106371983.94948  82887361.39348  20241890.45749  20241890.25448  20241898.61948
 106371985.44649       769.00049       437.00048       411.00048
 106836832.49048  83249706.69648  20330299.89049  20330300.23848  20330308.09948
 106836831.98549       628.00049       319.00048       267.00048
 124651440.16346  97131022.68346  23720378.31048  23720378.53546  23720384.90746
 124651438.65948       193.00048        28.00046        38.00046
 130275941.38046 101513802.22946  24790672.01248  24790672.72546  24790683.24646
 130275938.87548       147.00048        15.00046        22.00046
 116834549.92047  91040040.15947  22232836.45948  22232836.49647  22232843.53147
 116834549.41748       357.00048        90.00047        73.00047
 135854715.46044 105860866.63745  25852296.04647  25852298.16444  25852310.61445
 135854713.89847        81.00047         4.00044         9.00045
 03 10 31  0 19 30.0000000  0  7G 4G 5G 7G 9G11G26G28
 126562232.31246  98619980.65346  24083983.53048  24083983.77946  24083993.38346
 126562228.80148       162.00048        18.00046        19.00046
 125945688.14546  98139592.82446  23966645.41348  23966645.29046  23966655.86746
 125945686.63848       177.00048        27.00046        23.00046
 106445096.08448  82944332.23848  20255802.94849  20255802.78048  20255811.05248
 106445097.58249       769.00049       436.00048       403.00048
 106838896.94348  83251315.53948  20330692.69149  20330692.99948  20330700.83748
 106838896.43749       627.00049       316.00048       266.00048
 124376867.90546  96917070.70346  23668128.52148  23668129.01446  23668134.90546
 124376866.39248       198.00048        28.00046        39.00046
 130615155.29346 101778123.48046  24855223.44448  24855224.00646  24855235.37946
 130615152.78748       140.00048        15.00046        20.00046
 116936140.84247  91119202.26247  22252168.33348  22252168.45847  22252175.35647
 116936140.33148       355.00048        90.00047        72.00047
 03 10 31  0 19 40.0000000  0  8G 4G 5G 7G 9G11G26G28G29
 126865526.81346  98856314.90146  24141697.66648  24141697.92846  24141708.02446
 126865523.30848       157.00048        17.00046        19.00046
 125879508.65146  98088025.14746  23954051.62348  23954050.79646  23954061.22346
 125879507.14848       180.00048        25.00046        25.00046
 106522813.41548  83004891.61648  20270591.74049  20270591.56848  20270599.69148
 106522814.91449       770.00049       437.00048       402.00048
 106847536.04748  83258047.49948  20332336.56249  20332336.86448  20332344.72748
 106847535.54149       626.00049       313.00048       247.00048
 124103422.03646  96703996.47546  23616093.33148  23616093.56946  23616099.89246
 124103420.52448       205.00048        30.00046        41.00046
 130956243.11646 102043905.43546  24920130.86448  24920131.66646  24920142.05946
 130956240.59848       136.00048        11.00046        20.00046
 117041383.16347  91201209.64547  22272195.04448  22272195.08547  22272202.00247
 117041382.66248       355.00048        88.00047        72.00047
 136631493.58554 106466168.23155  26000107.92947  26000108.75244  26000125.79945
 136631489.15957        74.00047         4.00044        10.00045
 03 10 31  0 19 50.0000000  0  7G 4G 5G 7G 9G11G26G28
 127169479.67446  99093161.17846  24199538.15948  24199538.67146  24199548.02746
 127169476.17548       153.00048        17.00046        17.00046
 125815928.45746  98038482.67646  23941952.36448  23941952.29346  23941961.46746
 125815926.94348       181.00048        27.00046        27.00046
 106605115.25948  83069023.81748  20286252.60049  20286252.45948  20286260.38548
 106605116.75649       769.00049       435.00048       394.00048
 106862753.74248  83269906.75648  20335231.40149  20335231.68948  20335239.13448
 106862753.23749       628.00049       316.00048       261.00048
 123831137.97946  96491827.49946  23564279.02048  23564279.49046  23564285.60846
 123831136.48048       212.00048        33.00046        41.00046
 131299137.54146 102311094.94646  24985382.00348  24985383.09746  24985393.90946
 131299135.02248       130.00048        11.00046        19.00046
 117150242.86447  91286035.92747  22292909.95648  22292910.09647  22292916.83247
 117150242.35948       354.00048        89.00047        71.00047
 03 10 31  0 20  0.0000000  0  7G 4G 5G 7G 9G11G26G28
 127474058.14746  99330495.19346  24257497.33248  24257497.61946  24257507.90246
 127474054.63248       147.00048        14.00046        17.00046
 125754974.40246  97990987.54746  23930351.90448  23930351.74346  23930361.13346
 125754972.89348       184.00048        27.00046        28.00046
 106691977.58648  83136709.34948  20302781.50649  20302781.31948  20302789.11748
 106691979.08349       765.00049       430.00048       384.00048
 106884544.78648  83286886.97148  20339377.92849  20339378.19648  20339385.68748
 106884544.28149       627.00049       317.00048       267.00048
 123560051.38546  96280591.44646  23512692.82448  23512692.93846  23512699.01246
 123560049.87348       219.00048        34.00046        40.00046
 131643775.99745 102579644.75046  25050964.32548  25050965.35545  25050976.53246
 131643773.47848       126.00048         9.00045        20.00046
 117262684.49947  91373653.26747  22314306.57548  22314306.72747  22314313.10247
 117262683.99848       353.00048        90.00047        68.00047
 03 10 31  0 20 10.0000000  0  8G 4G 5G 7G 9G11G14G26G28
 127779226.87546  99568289.48046  24315568.66848  24315569.68146  24315578.23246
 127779223.39848       143.00048        14.00046        18.00046
 125696668.56346  97945555.74546  23919255.76248  23919255.55046  23919264.22746
 125696667.04848       186.00048        27.00046        26.00046
 106783376.60948  83207929.52048  20320174.04849  20320173.85548  20320181.58348
 106783378.10649       760.00049       423.00048       379.00048
 106912909.14348  83308989.49548  20344775.13749  20344775.43348  20344782.76148
 106912908.63849       627.00049       314.00048       266.00048
 123290198.29446  96070316.53546  23461341.19748  23461341.39446  23461347.87446
 123290196.77448       226.00048        37.00046        42.00046
 128164951.38256  99868819.02156  24388978.78348  24388979.32346  24388985.74046
 128164947.87158       128.00048        13.00046        19.00046
 131990091.17745 102849501.56346  25116865.26048  25116866.11145  25116876.25246
 131990088.67048       121.00048         9.00045        22.00046
 117378671.61547  91464032.90347  22336378.11848  22336378.14347  22336384.46247
 117378671.10648       352.00048        88.00047        69.00047
 03 10 31  0 20 20.0000000  0  8G 4G 5G 7G 9G11G14G26G28
 128084950.61946  99806516.24746  24373745.72748  24373745.92946  24373754.79646
 128084947.10848       138.00048        12.00046        16.00046
 125641031.05646  97902201.25646  23908668.57048  23908668.83846  23908677.19446
 125641029.54048       187.00048        28.00046        28.00046
 106879288.48648  83282666.08048  20338425.46949  20338425.24248  20338433.04448
 106879289.98349       753.00049       417.00048       374.00048
 106947840.01448  83336208.20048  20351422.33149  20351422.62148  20351430.01848
 106947839.50949       623.00049       314.00048       268.00048
 123021614.73146  95861030.82746  23410231.44848  23410231.55246  23410237.82646
 123021613.22248       234.00048        42.00046        45.00046
 127756765.30046  99550752.17046  24311303.32248  24311303.28746  24311309.22446
 127756761.81948       135.00048        16.00046        17.00046
 132338016.25345 103120612.52446  25183073.00548  25183074.12745  25183084.02946
 132338013.75648       118.00048         9.00045        21.00046
 117498168.99047  91557148.00447  22359117.54848  22359117.55647  22359123.96947
 117498168.48648       349.00048        87.00047        68.00047
 03 10 31  0 20 30.0000000  0  8G 4G 5G 7G 9G11G14G26G28
 128391194.29345 100045148.08446  24432021.67048  24432022.18845  24432032.00546
 128391190.77648       134.00048         9.00045        16.00046
 125588092.35246  97860951.51046  23898593.79348  23898593.96846  23898602.24046
 125588090.82448       189.00048        30.00046        29.00046
 106979687.65148  83360898.98748  20357530.90349  20357530.73448  20357538.44548
 106979689.14849       747.00049       411.00048       368.00048
 106989331.72148  83368539.54348  20359317.92349  20359318.12348  20359325.50248
 106989331.21549       620.00049       309.00048       263.00048
 122754337.03946  95652762.72346  23359370.03448  23359370.13646  23359376.32546
 122754335.53048       242.00048        44.00046        44.00046
 127350110.34046  99233878.35746  24233919.52048  24233919.57846  24233925.97046
 127350106.82448       142.00048        18.00046        19.00046
 132687485.01045 103392925.53946  25249575.14848  25249575.57845  25249585.29846
 132687482.54448       114.00048         8.00045        18.00046
 117621138.71447  91652968.55747  22382517.87448  22382517.91047  22382524.26347
 117621138.20748       347.00048        86.00047        63.00047
 03 10 31  0 20 40.0000000  0  8G 4G 5G 7G 9G11G14G26G28
 128697923.20046 100284157.82546  24490389.78648  24490390.96846  24490399.40646
 128697919.71548       129.00048        12.00046        17.00046
 125537868.40146  97821815.72746  23889036.96248  23889036.95046  23889045.46346
 125537866.88848       190.00048        28.00046        25.00046
 107084548.43148  83442608.61348  20377485.31849  20377485.12148  20377492.94948
 107084549.92949       743.00049       405.00048       362.00048
 107037374.07248  83405975.26748  20368459.91249  20368460.16848  20368467.50248
 107037373.56749       619.00049       309.00048       265.00048
 122488401.37546  95445540.30946  23308763.86848  23308764.13346  23308769.96246
 122488399.86648       250.00048        46.00046        44.00046
 126945062.06646  98918256.70746  24156841.22248  24156841.32246  24156847.25246
 126945058.56048       150.00048        19.00046        22.00046
 133038433.86345 103666391.73446  25316358.18748  25316359.59945  25316369.45446
 133038431.35248       112.00048         8.00045        17.00046
 117747542.63847  91751464.62947  22406572.10648  22406572.29247  22406578.64947
 117747542.13248       344.00048        84.00047        64.00047
 03 10 31  0 20 50.0000000  0  8G 4G 5G 7G 9G11G14G26G28
 129005103.98645 100523519.86246  24548844.35948  24548844.46245  24548853.52046
 129005100.48348       125.00048         9.00045        17.00046
 125490386.16446  97784817.33246  23880000.58948  23880000.42346  23880008.82746
 125490384.66848       190.00048        29.00046        27.00046
 107193843.21848  83527773.38748  20398283.42049  20398283.23048  20398290.99348
 107193844.71549       738.00049       402.00048       358.00048
 107091955.30148  83448506.21348  20378846.29549  20378846.58148  20378853.89148
 107091954.79449       616.00049       304.00048       262.00048
 122223844.31046  95239392.19146  23258420.16048  23258420.30946  23258426.49446
 122223842.80348       257.00048        49.00046        47.00046
 126541695.85746  98603945.71646  24080082.87548  24080083.48746  24080088.49846
 126541692.35048       157.00048        22.00046        22.00046
 133390799.09745 103940962.07746  25383411.38648  25383413.28345  25383422.00346
 133390796.60748       109.00048         8.00045        18.00046
 117877344.57547  91852609.02347  22431272.60348  22431272.77947  22431279.33647
 117877344.06748       341.00048        82.00047        62.00047
 03 10 31  0 21  0.0000000  0  8G 4G 5G 7G 9G11G14G26G28
 129312701.27845 100763205.87046  24607378.36848  24607380.30245  24607387.88546
 129312697.76348       121.00048         8.00045        15.00046
 125445666.32146  97749971.96446  23871489.73048  23871489.82846  23871498.42346
 125445664.80048       191.00048        29.00046        28.00046
 107307543.96048  83616371.50848  20419919.85149  20419919.66848  20419927.42948
 107307545.45849       736.00049       399.00048       355.00048
 107153061.32348  83496121.45448  20390474.27249  20390474.54848  20390481.85548
 107153060.81749       614.00049       304.00048       262.00048
 121960702.22347  95034346.57046  23208345.79748  23208346.17547  23208352.15946
 121960700.71448       265.00048        51.00047        48.00046
 126140087.84046  98291004.67746  24003659.13048  24003659.73846  24003665.27946
 126140084.32448       163.00048        22.00046        23.00046
 133744515.86345 104216585.67946  25450721.24548  25450721.13545  25450732.22546
 133744513.34948       107.00048         9.00045        18.00046
 118010505.05647  91956370.66147  22456611.93048  22456612.10047  22456618.41747
 118010504.55048       337.00048        81.00047        62.00047
 03 10 31  0 21 10.0000000  0  8G 4G 5G 7G 9G11G14G26G28
 129620681.46845 101003189.86146  24665985.68248  24665986.59645  24665994.69846
 129620677.99848       118.00048         9.00045        15.00046
 125403726.42046  97717291.74546  23863508.62848  23863508.54146  23863517.09446
 125403724.90348       191.00048        29.00046        28.00046
 107425621.23048  83708379.93348  20442389.12349  20442388.92448  20442396.63348
 107425622.72749       733.00049       393.00048       349.00048
 107220675.62948  83548807.91148  20403340.91249  20403341.18748  20403348.43548
 107220675.12549       613.00049       299.00048       255.00048
 121699012.29547  94830432.63846  23158547.63048  23158547.84447  23158553.62146
 121699010.78448       271.00048        53.00047        49.00046
 125740314.55446  97979493.29946  23927584.82348  23927585.08246  23927591.51446
 125740311.06348       170.00048        25.00046        22.00046
 134099519.41845 104493212.05846  25518276.23948  25518276.95845  25518287.58046
 134099516.92248       104.00048         7.00045        17.00046
 118146983.76847  92062717.71047  22482583.10048  22482583.04747  22482589.40947
 118146983.26048       334.00048        77.00047        60.00047
 03 10 31  0 21 20.0000000  0  8G 4G 5G 7G 9G11G14G26G28
 129929012.58145 101243447.46946  24724659.13048  24724659.67045  24724668.78646
 129929009.09348       114.00048         8.00045        15.00046
 125364589.18946  97686795.53146  23856060.81348  23856060.86946  23856068.65046
 125364587.67348       191.00048        29.00046        29.00046
 107548045.65848  83803776.09948  20465685.29249  20465685.16648  20465692.73848
 107548047.15549       729.00049       389.00048       348.00048
 107294781.10248  83606552.92048  20417442.33049  20417442.65448  20417449.72748
 107294780.59549       612.00049       300.00048       255.00048
 121438810.68547  94627678.26346  23109032.77648  23109033.41247  23109039.14146
 121438809.18348       275.00048        55.00047        50.00046
 125342453.05846  97669471.54246  23851874.05548  23851874.46346  23851880.59546
 125342449.56548       177.00048        27.00046        26.00046
 134455745.23245 104770790.48346  25586064.19148  25586064.93945  25586074.06146
 134455742.70048       103.00048         6.00045        16.00046
 118286741.67547  92171620.21247  22509177.90448  22509178.04947  22509184.54747
 118286741.16948       330.00048        78.00047        58.00047
 03 10 31  0 21 30.0000000  0  8G 4G 5G 7G 9G11G14G26G28
 130237662.00045 101483953.67846  24783393.27248  24783394.14745  24783402.04346
 130237658.47248       110.00048         8.00045        17.00046
 125328272.99346  97658496.95046  23849150.38948  23849150.43046  23849158.49246
 125328271.48548       191.00048        29.00046        28.00046
 107674784.22448  83902533.22548  20489803.00649  20489802.82248  20489810.49148
 107674785.72049       724.00049       384.00048       343.00048
 107375354.92248  83669337.50648  20432775.21749  20432775.45348  20432782.59748
 107375354.41649       611.00049       298.00048       254.00048
 121180135.24747  94426113.36047  23059808.29148  23059808.35947  23059814.35147
 121180133.74348       281.00048        58.00047        52.00047
 124946580.83046  97360999.85846  23776542.19048  23776542.16646  23776547.87446
 124946577.32448       183.00048        29.00046        25.00046
 134813132.44645 105049275.21046  25654071.59448  25654071.54045  25654082.14146
 134813129.93148       101.00048         8.00045        15.00046
 118429737.04747  92283045.02647  22536389.15348  22536389.26547  22536395.70147
 118429736.54148       327.00048        76.00047        57.00047
 03 10 31  0 21 40.0000000  0  8G 4G 5G 7G 9G11G14G26G28
 130546594.61345 101724680.12046  24842180.87848  24842181.80645  24842190.72446
 130546591.13548       109.00048         7.00045        14.00046
 125294799.15246  97632413.74546  23842780.18648  23842780.00946  23842788.37946
 125294797.64648       190.00048        29.00046        28.00046
 107805807.45848  84004629.44748  20514735.72649  20514735.52848  20514743.18148
 107805808.95549       716.00049       373.00048       340.00048
 107462376.94148  83737147.24548  20449334.54249  20449334.83948  20449341.90348
 107462376.43449       607.00049       296.00048       255.00048
 120923022.25947  94225765.83447  23010881.14348  23010881.16547  23010887.08047
 120923020.75448       284.00048        60.00047        52.00047
 124552775.62246  97054138.81946  23701603.15448  23701603.50046  23701609.65546
 124552772.11048       188.00048        33.00046        28.00046
 135171614.11045 105328612.10746  25722287.44047  25722289.21445  25722298.29946
 135171611.58047       100.00047         7.00045        17.00046
 118575932.12847  92396964.33447  22564208.34748  22564208.49947  22564214.62647
 118575931.62148       324.00048        74.00047        59.00047
 03 10 31  0 21 50.0000000  0  8G 4G 5G 7G 9G11G14G26G28
 130855779.44045 101965603.21546  24901016.90348  24901018.50245  24901025.18046
 130855775.89848       106.00048         8.00045        16.00046
 125264184.79246  97608558.48746  23836954.37148  23836954.55346  23836962.44246
 125264183.28848       191.00048        29.00046        30.00046
 107941082.13048  84110038.57948  20540477.42349  20540477.23448  20540484.79148
 107941083.62749       705.00049       366.00048       336.00048
 107555820.15648  83809960.02248  20467116.28649  20467116.64048  20467123.73148
 107555819.65349       603.00049       291.00048       251.00048
 120667508.71047  94026664.45647  22962258.43748  22962259.04847  22962264.47547
 120667507.20448       289.00048        61.00047        54.00047
 124161115.49146  96748949.21646  23627072.76948  23627072.96146  23627078.98646
 124161111.98648       195.00048        32.00046        29.00046
 135531127.67045 105608753.00346  25790700.58347  25790702.18645  25790709.82146
 135531125.19247        98.00047         6.00045        15.00046
 118725281.68647  92513341.00047  22592628.36948  22592628.55947  22592634.56647
 118725281.18148       322.00048        73.00047        57.00047
 03 10 31  0 22  0.0000000  0  8G 4G 5G 7G 9G11G14G26G28
 131165184.14745 102206698.19846  24959894.83348  24959896.00145  24959903.16946
 131165180.70348       104.00048         7.00045        14.00046
 125236449.33446  97586947.01746  23831675.98348  23831675.99646  23831683.62646
 125236447.83248       192.00048        27.00046        29.00046
 108080574.42948  84218734.08848  20567021.71749  20567021.52248  20567029.07248
 108080575.92649       695.00049       354.00048       328.00048
 107655659.08848  83887756.67848  20486114.99049  20486115.23048  20486122.35148
 107655658.58249       597.00049       284.00048       250.00048
 120413632.58447  93828839.18047  22913947.25348  22913947.46447  22913952.94947
 120413631.07948       292.00048        63.00047        56.00047
 123771679.10746  96445492.41346  23552965.38248  23552965.68046  23552971.24046
 123771675.59648       200.00048        34.00046        30.00046
 135891610.97044 105889649.52646  25859297.66347  25859300.85744  25859308.74546
 135891608.42747        97.00047         5.00044        14.00046
 118877744.12847  92632142.81647  22621641.02748  22621641.27947  22621646.92847
 118877743.62448       319.00048        74.00047        58.00047
 03 10 31  0 22 10.0000000  0  9G 4G 5G 7G 9G11G14G23G26G28
 131474775.26945 102447937.88146  25018807.85048  25018808.00945  25018816.94646
 131474771.73548       101.00048         7.00045        12.00046
 125211609.58346  97567592.21946  23826948.70648  23826948.53646  23826956.38546
 125211608.06748       191.00048        30.00046        29.00046
 108224250.22548  84330689.35848  20594362.25949  20594362.09948  20594369.57048
 108224251.72249       685.00049       342.00048       319.00048
 107761864.70148  83970514.55548  20506324.99049  20506325.34448  20506332.36648
 107761864.19349       593.00049       281.00048       247.00048
 120161430.73347  93632318.49847  22865954.59348  22865954.70447  22865960.47747
 120161429.22148       297.00048        64.00047        57.00047
 123384545.19446  96143829.75446  23479296.14448  23479296.49146  23479302.19946
 123384541.69548       205.00048        38.00046        32.00046
 127345036.02456  99229928.78156  24232954.51948  24232954.63846  24232962.25046
 127345035.50658       176.00048        26.00046        24.00046
 136252999.90245 106171251.27946  25928068.06747  25928069.41645  25928078.42346
 136252997.37347        94.00047         6.00045        15.00046
 119033278.32347  92753338.37347  22651238.21948  22651238.34647  22651244.37047
 119033277.81748       317.00048        71.00047        56.00047
 03 10 31  0 22 20.0000000  0  9G 4G 5G 7G 9G11G14G23G26G28
 131784521.29945 102689298.33246  25077750.63547  25077750.71845  25077760.18046
 131784517.75947       100.00047         6.00045        13.00046
 125189680.98046  97550505.47146  23822775.32548  23822775.21746  23822782.92146
 125189679.47848       192.00048        28.00046        30.00046
 108372075.38148  84445878.18848  20622492.17349  20622492.01348  20622499.39848
 108372076.87949       674.00049       332.00048       313.00048
 107874406.05748  84058209.55648  20527740.58749  20527740.89448  20527747.82948
 107874405.55249       590.00049       278.00048       244.00048
 119910940.06347  93437130.93247  22818287.86048  22818288.09347  22818293.75147
 119910938.55648       301.00048        67.00047        59.00047
 122999792.78646  95844022.75846  23406080.14548  23406080.18646  23406086.11246
 122999789.28248       209.00048        39.00046        34.00046
 127071124.99646  99016491.72446  24180830.96748  24180831.10146  24180838.53846
 127071124.48248       180.00048        27.00046        24.00046
 136615230.61445 106453507.64346  25996998.99147  25996999.63945  25997011.37646
 136615228.16147        92.00047         6.00045        12.00046
 119191841.22247  92876894.02247  22681411.53048  22681411.76947  22681417.66747
 119191840.71848       315.00048        69.00047        53.00047
 03 10 31  0 22 30.0000000  0  9G 4G 5G 7G 9G11G14G23G26G28
 132094390.71844 102930754.95646  25136716.77447  25136717.94444  25136727.82146
 132094387.20647        96.00047         5.00044        14.00046
 125170679.48246  97535699.13846  23819159.69148  23819159.93346  23819166.97446
 125170677.97348       193.00048        30.00046        30.00046
 108524013.08448  84564271.34748  20651404.82049  20651404.65648  20651411.98748
 108524014.58049       665.00049       324.00048       308.00048
 107993249.62148  84150815.28048  20550355.52649  20550355.81048  20550362.68048
 107993249.11549       587.00049       275.00048       240.00048
 119662198.58147  93243306.38947  22770953.83848  22770954.01947  22770959.81947
 119662197.07148       304.00048        67.00047        60.00047
 122617501.30246  95546133.32946  23333332.48148  23333332.63546  23333338.15146
 122617497.79848       214.00048        41.00046        35.00046
 126799704.41246  98804995.22446  24129181.44448  24129181.14146  24129188.76946
 126799703.92448       183.00048        27.00046        26.00046
 136978245.91045 106736376.26546  26066079.35347  26066079.38845  26066089.67046
 136978243.44347        90.00047         6.00045        13.00046
 119353389.21047  93002775.53647  22712153.13348  22712153.18147  22712159.20347
 119353388.70048       311.00048        69.00047        52.00047
 03 10 31  0 22 40.0000000  0  9G 4G 5G 7G 9G11G14G23G26G28
 132404351.60844 103172282.35246  25195700.92547  25195702.60544  25195710.94146
 132404348.02747        95.00047         5.00044        13.00046
 125154621.39546  97523186.41346  23816103.62148  23816103.59946  23816111.29446
 125154619.89948       195.00048        31.00046        30.00046
 108680027.32348  84685840.95848  20681093.29749  20681093.12248  20681100.46248
 108680028.82149       659.00049       315.00048       299.00048
 108118360.51748  84248304.60948  20574163.08649  20574163.34848  20574170.09948
 108118360.01149       586.00049       275.00048       238.00048
 119415243.68947  93050873.94847  22723959.96148  22723960.22947  22723965.77647
 119415242.17848       308.00048        69.00047        61.00047
 122237750.52046  95250223.66146  23261068.24448  23261068.50246  23261074.08146
 122237747.01148       218.00048        41.00046        35.00046
 126530820.19446  98595475.05146  24078014.46548  24078013.89546  24078021.67646
 126530819.69448       186.00048        28.00046        26.00046
 137341983.79145 107019808.71646  26135295.60647  26135294.74945  26135306.58846
 137341981.25247        88.00047         7.00045        12.00046
 119517879.00847  93130949.41647  22743454.61748  22743454.57447  22743460.71247
 119517878.50148       307.00048        68.00047        51.00047
 03 10 31  0 22 50.0000000  0  9G 4G 5G 7G 9G11G14G23G26G28
 132714373.62044 103413857.81746  25254696.29947  25254697.07944  25254706.03246
 132714370.10747        93.00047         5.00044        11.00046
 125141521.48846  97512978.70146  23813610.77348  23813610.58046  23813618.94046
 125141519.98648       196.00048        30.00046        30.00046
 108840081.12048  84810558.27248  20711550.49549  20711550.30048  20711557.63648
 108840082.61749       654.00049       309.00048       295.00048
 108249701.25048  84350648.00848  20599156.40549  20599156.73148  20599163.45648
 108249700.74549       583.00049       268.00048       233.00048
 119170112.99847  92859862.89847  22677313.22648  22677313.53447  22677319.32447
 119170111.48848       314.00048        71.00047        60.00047
 121860620.42446  94956356.08446  23189302.64948  23189302.68646  23189308.76046
 121860616.90848       223.00048        46.00046        37.00046
 126264518.11246  98387967.02246  24027338.75248  24027338.64146  24027346.27246
 126264517.60748       188.00048        32.00046        29.00046
 137706380.97044 107303755.05146  26204638.23547  26204638.04144  26204647.80046
 137706378.55547        86.00047         4.00044        13.00046
 119685266.69847  93261381.46246  22775307.36448  22775307.39447  22775313.22646
 119685266.19348       302.00048        64.00047        50.00046
 03 10 31  0 23  0.0000000  0  9G 4G 5G 7G 9G11G14G23G26G28
 133024425.67544 103655456.54746  25313697.34347  25313697.74044  25313708.23646
 133024422.18347        91.00047         4.00044        13.00046
 125131393.48046  97505086.51346  23811683.62848  23811683.42046  23811691.07246
 125131391.97048       197.00048        30.00046        31.00046
 109004136.67248  84938393.81848  20742769.20949  20742769.01648  20742776.30748
 109004138.16849       648.00049       305.00048       291.00048
 108387233.97548  84457816.48048  20625327.92649  20625328.22248  20625334.97848
 108387233.47049       579.00049       265.00048       228.00048
 118926844.36847  92670302.88347  22631020.76448  22631020.89947  22631026.62647
 118926842.85748       319.00048        74.00047        61.00047
 121486191.14546  94664593.08046  23118051.30948  23118051.47346  23118057.28946
 121486187.64348       228.00048        46.00046        39.00046
 126000843.51246  98182506.48546  23977162.87948  23977162.72746  23977170.25146
 126000843.00748       191.00048        30.00046        30.00046
 138071377.20543 107588168.14846  26274093.94747  26274095.30343  26274105.02346
 138071374.67047        83.00047         3.00043        13.00046
 119855507.62847  93394036.74246  22807702.93648  22807703.05247  22807708.89546
 119855507.12748       297.00048        63.00047        49.00046
 03 10 31  0 23 10.0000000  0  8G 4G 5G 7G 9G11G14G23G28
 133334477.61544 103897055.37846  25372697.89647  25372698.05544  25372709.97746
 133334474.07647        89.00047         5.00044        12.00046
 125124251.66246  97499521.47746  23810324.51648  23810324.90746  23810331.96946
 125124250.15948       198.00048        30.00046        31.00046
 109172155.41848  85069317.49048  20774742.07949  20774741.93848  20774749.25148
 109172156.91549       642.00049       299.00048       283.00048
 108530917.48348  84569777.66048  20652669.96849  20652670.25248  20652677.01748
 108530916.97849       573.00049       258.00048       225.00048
 118685475.28647  92482223.03347  22585089.82248  22585090.10547  22585095.78747
 118685473.77648       325.00048        77.00047        63.00047
 121114543.08346  94374997.23946  23047328.90248  23047329.24246  23047334.78046
 121114539.57548       234.00048        48.00046        40.00046
 125739841.20546  97979128.24046  23927495.68848  23927495.72446  23927503.25846
 125739840.71148       193.00048        32.00046        30.00046
 120028557.24547  93528880.59046  22840633.31048  22840633.41647  22840639.12246
 120028556.74048       292.00048        61.00047        47.00046
 03 10 31  0 23 20.0000000  0  8G 4G 5G 7G 9G11G14G23G28
 133644498.99244 104138630.58646  25431693.46647  25431695.07944  25431701.91246
 133644495.47747        86.00047         5.00044        11.00046
 125120108.69846  97496293.40046  23809536.20948  23809536.36246  23809543.61946
 125120107.20348       198.00048        32.00046        30.00046
 109344098.58048  85203299.22048  20807461.82849  20807461.59148  20807468.83548
 109344100.07849       633.00049       291.00048       279.00048
 108680709.54048  84686498.79448  20681174.39049  20681174.71548  20681181.47548
 108680709.03549       567.00049       255.00048       220.00048
 118446043.51647  92295652.79147  22539527.42148  22539527.64147  22539533.41047
 118446042.00748       330.00048        80.00047        65.00047
 120745756.69347  94087631.25946  22977151.13448  22977151.13947  22977157.05646
 120745753.18848       240.00048        51.00047        42.00046
 125481555.57646  97777866.62646  23878345.77048  23878345.47346  23878353.06046
 125481555.07248       196.00048        31.00046        31.00046
 120204370.74447  93665878.19446  22874089.46148  22874089.41647  22874095.33846
 120204370.23348       285.00048        56.00047        47.00046
 03 10 31  0 23 30.0000000  0  9G 4G 5G 7G 9G11G14G23G26G28
 133954458.89344 104380157.72246  25490676.22647  25490676.94844  25490689.42546
 133954455.37847        85.00047         5.00044        11.00046
 125118976.56246  97495411.47446  23809320.50948  23809320.49746  23809328.03446
 125118975.06148       199.00048        32.00046        32.00046
 109519926.02148  85340307.48948  20840920.72549  20840920.51248  20840927.85048
 109519927.51949       623.00049       284.00048       272.00048
 108836565.82748  84807945.33048  20710832.81349  20710833.08448  20710839.82648
 108836565.32149       559.00049       248.00048       214.00048
 118208587.14947  92110622.03847  22494340.85748  22494341.07647  22494346.84447
 118208585.64248       338.00048        84.00047        65.00047
 120379912.80747  93802558.16146  22907533.22548  22907533.27147  22907539.34446
 120379909.30848       248.00048        55.00047        45.00046
 125226031.50746  97578756.89346  23829721.21548  23829721.05946  23829728.46546
 125226031.01148       199.00048        33.00046        31.00046
 139169278.65053 108443629.31855  26483032.13847  26483033.21643  26483041.86545
 139169273.14157        76.00047         3.00043        10.00045
 120382902.17647  93804993.45746  22908062.90248  22908062.77747  22908068.99846
 120382901.67248       279.00048        54.00047        45.00046
 03 10 31  0 23 40.0000000  0  8G 4G 5G 7G 9G11G14G23G28
 134264327.91143 104621614.93046  25549643.08347  25549643.32043  25549649.11046
 134264324.47947        82.00047         3.00043        11.00046
 125120865.61646  97496883.24346  23809680.19148  23809679.98646  23809687.72546
 125120864.11948       199.00048        31.00046        30.00046
 109699597.80048  85480311.37448  20875111.19449  20875110.99148  20875118.36448
 109699599.29749       611.00049       274.00048       266.00048
 108998440.18148  84934081.24848  20741636.37949  20741636.66248  20741643.46348
 108998439.67649       552.00049       241.00048       211.00048
 117973143.22947  91927159.29547  22449537.45348  22449537.61947  22449543.45047
 117973141.72248       344.00048        86.00047        65.00047
 120017092.21747  93519840.83646  22838490.84048  22838491.07047  22838496.56846
 120017088.71548       256.00048        57.00047        48.00046
 124973313.42446  97381833.75046  23781630.44748  23781630.38546  23781637.46346
 124973312.92248       203.00048        34.00046        32.00046
 120564106.66647  93946191.76846  22942545.00148  22942545.22147  22942551.01446
 120564106.15848       273.00048        54.00047        45.00046
 03 10 31  0 23 50.0000000  0  9G 4G 5G 7G 9G11G14G23G26G28
 134574076.53944 104862977.62746  25608586.05147  25608584.24744  25608597.16346
 134574073.02947        81.00047         4.00044        11.00046
 125125788.22646  97500719.08446  23810616.91748  23810616.99346  23810624.19646
 125125786.72348       199.00048        32.00046        32.00046
 109883073.25648  85623279.24748  20910025.40049  20910025.23148  20910032.58248
 109883074.75349       599.00049       261.00048       260.00048
 109166284.82448  85064869.29748  20773576.19349  20773576.43248  20773583.23548
 109166284.31849       547.00049       236.00048       208.00048
 117739749.58347  91745294.09647  22405124.13448  22405124.26147  22405129.86847
 117739748.07848       350.00048        90.00047        67.00047
 119657375.95547  93239542.46646  22770038.90448  22770039.30247  22770044.66646
 119657372.45048       265.00048        60.00047        48.00046
 124723444.75246  97187130.86146  23734081.79948  23734081.97246  23734089.43746
 124723444.24648       207.00048        34.00046        33.00046
 139903154.16453 109015481.87055  26622683.04547  26622685.14943  26622694.23645
 139903142.69957        73.00047         3.00043        10.00045
 120747938.08546  94089437.02546  22977527.06548  22977527.21446  22977533.15646
 120747937.57748       268.00048        49.00046        44.00046
 03 10 31  0 24  0.0000000  0  8G 4G 5G 7G 9G11G14G23G28
 134883675.11843 105104223.51046  25667500.92547  25667499.49243  25667505.53346
 134883671.77747        79.00047         2.00043        11.00046
 125133753.67646  97506925.90146  23812132.69148  23812132.65046  23812139.74046
 125133752.15748       199.00048        30.00046        30.00046
 110070310.93848  85769178.80648  20945655.52549  20945655.33848  20945662.63148
 110070312.43449       588.00049       251.00048       252.00048
 109340050.31148  85200270.95648  20806642.62649  20806643.01148  20806649.72248
 109340049.80549       542.00049       231.00048       203.00048
 117508444.34047  91565056.33547  22361107.95348  22361108.25347  22361113.88647
 117508442.83248       358.00048        93.00047        68.00047
 119300845.03947  92961726.18147  22702193.41248  22702193.54047  22702199.34447
 119300841.53648       273.00048        66.00047        52.00047
 124476469.20546  96994682.41346  23687084.08048  23687084.44346  23687090.88146
 124476468.71048       213.00048        38.00046        34.00046
 120934350.09946  94234693.02246  23013000.01448  23013000.04646  23013006.14146
 120934349.59648       263.00048        48.00046        41.00046
 03 10 31  0 24 10.0000000  0  9G 4G 5G 7G 9G11G14G20G23G28
 135193094.38043 105345328.32746  25726381.82947  25726383.19343  25726394.08346
 135193091.76647        77.00047         2.00043        11.00046
 125144771.47546  97515511.21546  23814229.26048  23814229.12446  23814236.53946
 125144769.97548       197.00048        32.00046        32.00046
 110261268.72748  85917977.13248  20981993.49649  20981993.33848  20982000.68648
 110261270.22449       577.00049       243.00048       246.00048
 109519685.68348  85340246.59848  20840826.10149  20840826.42548  20840833.15148
 109519685.17849       536.00049       228.00048       198.00048
 117279264.84747  91386474.94547  22317496.60748  22317496.85147  22317502.28047
 117279263.33548       364.00048        96.00047        70.00047
 118947580.54447  92686455.13747  22634969.24148  22634969.66947  22634975.39947
 118947577.04048       283.00048        70.00047        54.00047
 129491264.17256 100902315.54856  24641368.63548  24641368.34246  24641376.08646
 129491265.66558       135.00048        17.00046        19.00046
 124232429.72646  96804521.75546  23640644.98348  23640644.64746  23640652.19746
 124232429.21948       218.00048        39.00046        38.00046
 121123297.03146  94381924.47546  23048955.56148  23048955.67646  23048961.80146
 121123296.53348       259.00048        46.00046        41.00046
 03 10 31  0 24 20.0000000  0 10G 4G 5G 7G 9G11G14G20G23G26G28
 135502305.51343 105586271.68245  25785222.73847  25785217.76143  25785231.32145
 135502304.09647        74.00047         3.00043        10.00045
 125158850.07846  97526481.42446  23816908.47148  23816908.32946  23816915.84946
 125158848.56148       198.00048        32.00046        30.00046
 110455904.20348  86069641.21348  21019031.36849  21019031.22048  21019038.49748
 110455905.70049       567.00049       234.00048       237.00048
 109705138.25348  85484755.14448  20876116.54149  20876116.79348  20876123.56548
 109705137.74749       532.00049       221.00048       192.00048
 117052248.78947  91209579.28847  22274296.91648  22274297.18947  22274302.65947
 117052247.27348       370.00048       100.00047        73.00047
 118597663.66747  92413792.62947  22568382.46748  22568382.74547  22568388.39947
 118597660.16348       292.00048        75.00047        58.00047
 129330059.94546 100776702.12746  24610692.42548  24610691.89046  24610699.75146
 129330061.43048       135.00048        17.00046        20.00046
 123991368.97546  96616682.17946  23594772.71048  23594772.83746  23594780.14046
 123991368.48148       224.00048        42.00046        36.00046
 141005635.50053 109874524.26355  26832478.55547  26832480.42443  26832481.09945
 141005625.82557        67.00047         3.00043         9.00045
 121314731.41046  94531093.94146  23085384.32648  23085384.58546  23085390.40146
 121314730.90848       255.00048        46.00046        38.00046
 03 10 31  0 24 30.0000000  0  9G 4G 5G 7G 9G11G14G20G23G28
 135811281.55243 105827032.20746  25844018.52047  25844014.96843  25844029.27546
 135811280.01847        74.00047         3.00043        11.00046
 125175998.45346  97539844.09346  23820171.29548  23820171.42246  23820178.47046
 125175996.95148       197.00048        31.00046        31.00046
 110654174.20748  86224137.29148  21056760.92049  21056760.77848  21056767.99748
 110654175.70449       559.00049       227.00048       230.00048
 109896353.30548  85633753.70848  20912503.68549  20912503.97948  20912510.72448
 109896352.79849       527.00049       218.00048       184.00048
 116827433.91548  91034398.86447  22231516.01348  22231516.41548  22231521.84447
 116827432.40848       375.00048       102.00048        71.00047
 118251175.49147  92143801.83447  22502447.91548  22502448.16347  22502454.01447
 118251171.98548       301.00048        81.00047        61.00047
 129169854.18646 100651866.42646  24580206.08448  24580206.39446  24580212.51446
 129169855.67948       136.00048        17.00046        19.00046
 123753329.41446  96431196.78846  23549475.35348  23549475.36846  23549482.81146
 123753328.91148       231.00048        45.00046        37.00046
 121508607.58646  94682166.41646  23122277.70148  23122277.75946  23122283.65146
 121508607.08448       251.00048        44.00046        40.00046
 03 10 31  0 24 40.0000000  0  8G 5G 7G 9G11G14G20G23G28
 125196222.57446  97555603.19146  23824019.90448  23824019.84946  23824026.91846
 125196221.06748       196.00048        30.00046        30.00046
 110856035.62148  86381431.88948  21095173.90849  21095173.73148  21095181.03748
 110856037.11749       551.00049       219.00048       221.00048
 110093275.63448  85787199.55648  20949976.86149  20949977.13748  20949983.92248
 110093275.12949       522.00049       212.00048       179.00048
 116604857.70448  90860962.79547  22189161.29548  22189161.43448  22189167.06547
 116604856.19648       381.00048       106.00048        76.00047
 117908197.08547  91876545.91847  22437181.38548  22437181.54947  22437187.37847
 117908193.58348       310.00048        85.00047        64.00047
 129010679.96346 100527834.39846  24549916.63548  24549917.06346  24549923.31346
 129010681.46248       136.00048        17.00046        19.00046
 123518352.91646  96248098.23346  23504760.66448  23504760.66746  23504768.06146
 123518352.40948       237.00048        48.00046        40.00046
 121704877.96046  94835104.43346  23159626.62648  23159626.77446  23159632.75946
 121704877.46048       248.00048        42.00046        37.00046
 03 10 31  0 24 50.0000000  0  9G 4G 5G 7G 9G11G14G20G23G28
 136428366.52953 106307842.92555  25961454.48247  25961454.96943  25961461.21945
 136428363.64057        71.00047         3.00043        10.00045
 125219529.48746  97573764.47346  23828455.03948  23828454.93746  23828462.33346
 125219527.97748       195.00048        31.00046        31.00046
 111061444.46348  86541490.67048  21134261.97849  21134261.75948  21134269.08848
 111061445.96049       544.00049       213.00048       213.00048
 110295847.95548  85945047.98048  20988525.19149  20988525.44748  20988532.28348
 110295847.45149       517.00049       209.00048       174.00048
 116384557.69348  90689300.32647  22147239.57548  22147240.02748  22147245.57247
 116384556.18548       386.00048       110.00048        79.00047
 117568809.58747  91612088.15847  22372598.10848  22372598.24747  22372604.22747
 117568806.08548       318.00048        88.00047        66.00047
 128852570.65146 100404632.27646  24519829.55348  24519829.66446  24519836.35446
 128852572.14448       138.00048        17.00046        20.00046
 123286480.69546  96067418.50546  23460637.03748  23460637.05246  23460644.22946
 123286480.19548       242.00048        49.00046        39.00046
 121903495.42846  94989871.27146  23197422.39048  23197422.27946  23197428.79546
 121903494.92848       245.00048        42.00046        35.00046
 03 10 31  0 25  0.0000000  0  9G 4G 5G 7G 9G11G14G20G23G28
 136736463.58543 106547919.69545  26020083.95647  26020084.96043  26020092.62045
 136736462.19347        69.00047         2.00043         8.00045
 125245923.85846  97594330.98346  23833478.06648  23833478.36646  23833485.60246
 125245922.33648       194.00048        31.00046        28.00046
 111270356.57448  86704279.24948  21174016.60349  21174016.47048  21174023.75448
 111270358.07349       536.00049       207.00048       208.00048
 110504011.91048  86107253.59948  21028137.54149  21028137.84448  21028144.64548
 110504011.40549       511.00049       204.00048       167.00048
 116166571.36448  90519440.66047  22105758.37248  22105758.66548  22105764.32747
 116166569.85648       391.00048       112.00048        80.00047
 117233093.77747  91350491.40747  22308713.48748  22308713.58947  22308719.49247
 117233090.27448       326.00048        93.00047        68.00047
 128695559.33146 100282285.87546  24489950.95848  24489950.91546  24489958.18146
 128695560.82148       140.00048        18.00046        21.00046
 123057754.28646  95889190.19946  23417111.90148  23417111.98446  23417119.18846
 123057753.78448       248.00048        48.00046        42.00046
 122104412.74746  95146430.12446  23235655.77948  23235655.89246  23235661.49246
 122104412.24148       242.00048        40.00046        34.00046
 03 10 31  0 25 10.0000000  0  8G 5G 7G 9G11G14G20G23G28
 125275412.52946  97617308.92446  23839089.86748  23839089.88846  23839097.15146
 125275411.03348       193.00048        30.00046        30.00046
 111482727.51448  86869763.14048  21214429.45249  21214429.23948  21214436.62748
 111482729.01049       529.00049       204.00048       203.00048
 110717707.47948  86273769.59148  21068802.44549  21068802.76548  21068809.57248
 110717706.97349       505.00049       201.00048       160.00048
 115950936.76048  90351413.75747  22064724.40348  22064724.80648  22064730.38647
 115950935.25348       395.00048       113.00048        83.00047
 116901130.63547  91091818.85147  22245542.95948  22245543.24447  22245548.96147
 116901127.13248       332.00048        95.00047        71.00047
 128539678.52046 100160820.27846  24460287.84148  24460286.94046  24460294.88346
 128539680.02048       142.00048        18.00046        20.00046
 122832213.76247  95713444.31346  23374192.70148  23374192.72847  23374200.18546
 122832213.26048       253.00048        52.00047        42.00046
 122307582.94346  95304744.57546  23274317.52548  23274317.59846  23274323.55746
 122307582.43548       239.00048        41.00046        35.00046
 03 10 31  0 25 20.0000000  0  8G 5G 7G 9G11G14G20G23G28
 125307999.72546  97642701.48746  23845291.13848  23845291.07346  23845298.40146
 125307998.21948       193.00048        31.00046        30.00046
 111698511.84248  87037906.74648  21255491.85949  21255491.59848  21255499.02348
 111698513.33949       522.00049       196.00048       195.00048
 110936873.39448  86444548.23748  21110508.34648  21110508.63248  21110515.48648
 110936872.88848       498.00048       195.00048       155.00048
 115737690.94348  90185248.38747  22024144.96348  22024145.18248  22024150.87147
 115737689.43648       400.00048       115.00048        86.00047
 116573000.58147  90836133.08847  22183101.90248  22183102.07747  22183107.96147
 116572997.07448       338.00048       100.00047        72.00047
 128384962.01546 100040262.13846  24430846.26348  24430846.08646  24430853.37746
 128384963.49048       143.00048        17.00046        21.00046
 122609899.11147  95540212.00146  23331887.93548  23331887.83247  23331895.31846
 122609898.61548       257.00048        54.00047        46.00046
 122512957.99346  95464776.90446  23313399.23248  23313399.09146  23313405.24546
 122512957.48748       235.00048        39.00046        33.00046
 03 10 31  0 25 30.0000000  0  9G 4G 5G 7G 9G11G14G20G23G28
 137658558.38253 107266447.39455  26195552.39147  26195552.82743  26195562.23245
 137658556.68457        67.00047         2.00043         9.00045
 125343689.35346  97670511.90046  23852082.16648  23852082.21546  23852089.95446
 125343687.85248       192.00048        30.00046        29.00046
 111917664.30948  87208674.88348  21297195.22749  21297195.06648  21297202.31248
 111917665.80749       513.00049       191.00048       194.00048
 111161446.85948  86619540.45548  21153243.29648  21153243.59448  21153250.46648
 111161446.35448       491.00048       188.00048       150.00048
 115526870.44448  90020972.68447  21984027.09848  21984027.41748  21984033.07547
 115526868.93648       404.00048       118.00048        88.00047
 116248784.00848  90583496.77047  22121405.69648  22121405.79648  22121411.56347
 116248780.50848       343.00048       103.00048        73.00047
 128231441.65146  99920635.75846  24401632.59348  24401632.36746  24401639.17746
 128231443.15248       147.00048        20.00046        21.00046
 122390849.80347  95369523.94046  23290204.38948  23290204.54347  23290211.70846
 122390849.30148       261.00048        56.00047        49.00046
 122720491.10646  95626491.02646  23352891.66048  23352891.89546  23352897.73946
 122720490.59848       233.00048        37.00046        34.00046
 03 10 31  0 25 40.0000000  0  8G 5G 7G 9G11G14G20G23G28
 125382483.03746  97700740.74346  23859464.65848  23859464.07646  23859472.35446
 125382481.53148       192.00048        29.00046        28.00046
 112140139.15548  87382031.89048  21339530.79749  21339530.60848  21339537.99048
 112140140.65249       504.00049       185.00048       187.00048
 111391364.54048  86798697.07648  21196995.22048  21196995.49548  21197002.36748
 111391364.03448       483.00048       181.00048       144.00048
 115318512.49648  89858615.70747  21944377.94648  21944378.39148  21944384.22347
 115318510.98848       408.00048       121.00048        88.00047
 115928561.18248  90333972.47147  22060469.21848  22060469.41348  22060475.20147
 115928557.68248       347.00048       106.00048        78.00047
 128079151.75346  99801968.36946  24372652.70448  24372652.89046  24372659.56546
 128079153.27648       149.00048        20.00046        22.00046
 122175105.74047  95201411.70246  23249149.58448  23249149.57147  23249157.27146
 122175105.23948       266.00048        58.00047        49.00046
 122930133.88546  95789848.84046  23392785.58048  23392785.50946  23392791.52846
 122930133.37548       229.00048        37.00046        31.00046
 03 10 31  0 25 50.0000000  0  8G 5G 7G 9G11G14G20G23G28
 125424383.95146  97733390.94346  23867437.82748  23867437.92246  23867445.17246
 125424382.44548       192.00048        30.00046        29.00046
 112365890.05148  87557941.54148  21382489.87448  21382489.66948  21382497.03248
 112365891.54948       495.00048       178.00048       181.00048
 111626561.42848  86981967.40548  21241751.64448  21241752.01648  21241758.84048
 111626560.92348       474.00048       175.00048       139.00048
 115112654.62648  89698206.93947  21905204.58548  21905204.85448  21905210.59247
 115112653.11548       413.00048       125.00048        91.00047
 115612411.84948  90087622.29347  22000307.97948  22000308.20248  22000314.04447
 115612408.34948       353.00048       108.00048        78.00047
 127928124.78846  99684284.88146  24343913.37648  24343913.27546  24343919.69146
 127928126.28048       152.00048        20.00046        22.00046
 121962704.98647  95035904.70546  23208731.05148  23208730.88047  23208738.46146
 121962704.48948       269.00048        60.00047        50.00046
 123141839.03746  95954813.71446  23433071.66248  23433072.02946  23433077.39346
 123141838.53648       225.00048        36.00046        32.00046
 03 10 31  0 26  0.0000000  0  8G 5G 7G 9G11G14G20G23G28
 125469392.84646  97768462.77346  23876002.88348  23876002.65546  23876010.33946
 125469391.34048       192.00048        28.00046        28.00046
 112594870.87048  87736368.00348  21426063.60048  21426063.34648  21426070.83248
 112594872.36848       487.00048       169.00048       177.00048
 111866971.38448  87169299.83348  21287500.17948  21287500.44548  21287507.42348
 111866970.87948       465.00048       169.00048       133.00048
 114909333.36848  89539774.78247  21866513.89648  21866514.11348  21866519.81747
 114909331.86348       418.00048       128.00048        92.00047
 115300415.65548  89844508.32647  21940937.06048  21940937.37148  21940943.40747
 115300412.15448       361.00048       114.00048        81.00047
 127778394.41346  99567611.85046  24315420.44548  24315420.76446  24315427.66946
 127778395.89548       155.00048        20.00046        21.00046
 121753684.98847  94873031.86447  23168955.95448  23168955.89147  23168963.51347
 121753684.48148       274.00048        62.00047        54.00047
 123355559.11546  96121348.77546  23473741.38848  23473741.27946  23473747.36446
 123355558.60448       221.00048        35.00046        30.00046
 03 10 31  0 26 10.0000000  0  8G 5G 7G 9G11G14G20G23G28
 125517511.04346  97805957.57546  23885159.28248  23885159.12646  23885167.08446
 125517509.53948       192.00048        30.00046        29.00046
 112827034.80248  87917274.73048  21470243.14948  21470242.88348  21470250.37648
 112827036.30048       477.00048       164.00048       168.00048
 112112527.18948  87360641.93748  21334227.93648  21334228.20548  21334235.07048
 112112526.68348       457.00048       162.00048       129.00048
 114708585.57248  89383348.00847  21828312.67948  21828313.13848  21828318.75647
 114708584.06648       423.00048       133.00048        92.00047
 114992651.93448  89604692.44347  21882371.67848  21882371.85748  21882377.68447
 114992648.42948       371.00048       120.00048        82.00047
 127629993.69146  99451974.97046  24287180.78448  24287181.20646  24287188.02746
 127629995.18648       157.00048        21.00046        21.00046
 121548083.62447  94712823.01347  23129831.24648  23129831.13647  23129839.02947
 121548083.11948       278.00048        63.00047        54.00047
 123571245.70246  96289416.03446  23514785.23848  23514785.43746  23514791.71946
 123571245.20248       216.00048        33.00046        29.00046
 03 10 31  0 26 20.0000000  0  8G 5G 7G 9G11G14G20G23G28
 125568738.33346  97845875.07346  23894907.50648  23894907.39946  23894914.97646
 125568736.83348       192.00048        30.00046        28.00046
 113062335.31248  88100625.65548  21515019.37548  21515019.14848  21515026.73548
 113062336.81148       469.00048       159.00048       164.00048
 112363160.95348  87555940.92548  21381922.01748  21381922.26548  21381929.08848
 112363160.44948       450.00048       159.00048       125.00048
 114510447.68748  89228954.97247  21790608.22148  21790608.57748  21790614.20947
 114510446.17748       428.00048       134.00048        95.00047
 114689199.19248  89368235.69947  21824626.64448  21824626.70548  21824632.75347
 114689195.69248       384.00048       129.00048        86.00047
 127482955.95046  99337400.22846  24259200.38848  24259200.35046  24259207.36746
 127482957.45248       159.00048        23.00046        24.00046
 121345937.69747  94555306.78747  23091364.16248  23091364.02547  23091371.68947
 121345937.19348       283.00048        65.00047        57.00047
 123788851.23846  96458978.55046  23556194.52648  23556194.61546  23556201.00446
 123788850.73948       211.00048        32.00046        28.00046
 03 10 31  0 26 30.0000000  0  8G 5G 7G 9G11G14G20G23G28
 125623073.30046  97888213.82346  23905247.26448  23905247.03846  23905254.80946
 125623071.79948       193.00048        30.00046        27.00046
 113300725.12848  88286383.87748  21560383.50648  21560383.27048  21560390.83548
 113300726.62548       461.00048       155.00048       157.00048
 112618803.30648  87755142.63448  21430569.19648  21430569.50348  21430576.40048
 112618802.80348       443.00048       152.00048       119.00048
 114314956.24248  89076624.28247  21753407.30648  21753407.53448  21753413.11847
 114314954.73648       435.00048       139.00048        93.00047
 114390136.08348  89135199.52147  21767716.82248  21767716.94948  21767722.93847
 114390132.58048       398.00048       137.00048        89.00047
 127337313.81246  99223912.74446  24231485.57948  24231485.60446  24231492.44346
 127337315.30848       162.00048        25.00046        22.00046
 121147282.72447  94400510.55847  23053561.53248  23053561.40747  23053568.97547
 121147282.22448       287.00048        68.00047        57.00047
 124008328.29746  96629999.56046  23597959.31048  23597959.63446  23597966.10546
 124008327.80448       205.00048        31.00046        27.00046
 03 10 31  0 26 40.0000000  0  9G 4G 5G 7G 9G11G14G20G23G28
 139793929.51653 108930347.78455  26601892.96947  26601900.29043  26601903.55545
 139793890.12957        62.00047         2.00043         8.00045
 125680515.01446  97932973.35746  23916178.25548  23916177.82746  23916185.72746
 125680513.50348       191.00048        30.00046        28.00046
 113542156.98448  88474512.59548  21606326.44948  21606326.27148  21606333.75548
 113542158.48148       454.00048       148.00048       152.00048
 112879384.40748  87958192.74948  21480156.21748  21480156.60048  21480163.46848
 112879383.89948       436.00048       148.00048       116.00048
 114122146.27948  88926382.65647  21716716.75248  21716717.13948  21716722.62447
 114122144.77248       440.00048       142.00048        97.00047
 114095540.29148  88905644.34647  21711657.08848  21711657.24448  21711663.10647
 114095536.78848       413.00048       148.00048        92.00047
 127193101.68846  99111540.00946  24204042.50648  24204042.31946  24204049.39946
 127193103.17248       165.00048        25.00046        22.00046
 120952154.81447  94248462.72347  23016429.91148  23016430.01747  23016437.86547
 120952154.30848       292.00048        71.00047        57.00047
 124229627.75446  96802440.06146  23640071.74548  23640072.35646  23640078.04146
 124229627.24248       200.00048        29.00046        27.00046
 03 10 31  0 26 50.0000000  0  8G 5G 7G 9G11G14G20G23G28
 125741061.52646  97980152.31746  23927699.79448  23927699.75146  23927706.88946
 125741060.01648       191.00048        29.00046        27.00046
 113786582.64648  88664973.99348  21652839.19648  21652839.07748  21652846.71648
 113786584.14248       447.00048       145.00048       147.00048
 113144833.19348  88165035.85148  21530669.58748  21530669.80748  21530676.75048
 113144832.68748       429.00048       143.00048       111.00048
 113932054.88548  88778259.53047  21680543.59348  21680543.83448  21680549.56447
 113932053.37448       445.00048       145.00048        99.00047
 113805489.23748  88679630.53647  21656462.24448  21656462.27848  21656468.27947
 113805485.73248       426.00048       158.00048        97.00047
 127050351.64746  99000306.51246  24176878.10548  24176877.92946  24176884.37746
 127050353.14848       167.00048        25.00046        23.00046
 120760588.84747  94099190.47247  22979976.08248  22979976.25847  22979984.06247
 120760588.34548       297.00048        73.00047        62.00047
 124452702.86346  96976264.25246  23682522.18248  23682522.31846  23682528.90946
 124452702.35148       193.00048        27.00046        27.00046
 03 10 31  0 27  0.0000000  0  8G 5G 7G 9G11G14G20G23G28
 125804709.42746  98029747.68946  23939811.86648  23939811.78146  23939819.39446
 125804707.92748       190.00048        28.00046        28.00046
 114033954.75348  88857731.32548  21699912.66348  21699912.48548  21699920.09848
 114033956.25248       442.00048       140.00048       145.00048
 113415077.99048  88375616.12948  21582095.43248  21582095.76848  21582102.82048
 113415077.48448       422.00048       138.00048       107.00048
 113744717.40048  88632282.22248  21644894.37248  21644894.79248  21644900.42248
 113744715.89148       450.00048       147.00048       101.00048
 113520059.71048  88457217.96647  21602146.71948  21602146.98448  21602152.80547
 113520056.20848       438.00048       168.00048       100.00047
 126909096.87346  98890238.06746  24149998.19448  24149998.39846  24150005.50746
 126909098.36748       168.00048        24.00046        25.00046
 120572619.23047  93952720.70247  22944206.81148  22944206.62747  22944214.46447
 120572618.73248       303.00048        74.00047        63.00047
 124677506.49846  97151435.68646  23725300.91448  23725301.45646  23725308.16446
 124677505.98448       188.00048        23.00046        27.00046
 03 10 31  0 27 10.0000000  0  8G 5G 7G 9G11G14G20G23G28
 125871456.32246  98081758.29946  23952513.57948  23952513.23746  23952521.05046
 125871454.82248       189.00048        28.00046        28.00046
 114284225.32448  89052747.20748  21747537.69748  21747537.42248  21747545.24648
 114284226.82448       437.00048       139.00048       140.00048
 113690046.03748  88589876.83848  21634420.21648  21634420.49848  21634427.43248
 113690045.53548       415.00048       133.00048       107.00048
 113560170.11748  88488479.42148  21609776.02648  21609776.29648  21609781.94348
 113560168.61148       456.00048       150.00048       102.00048
 113239327.82848  88238465.91348  21548725.22148  21548725.39748  21548731.33748
 113239324.32648       448.00048       174.00048       103.00048
 126769370.04546  98781360.00946  24123408.85848  24123408.97846  24123415.73946
 126769371.54848       169.00048        26.00046        24.00046
 120388279.64147  93809079.70147  22909127.96948  22909127.98547  22909135.58447
 120388279.13548       308.00048        75.00047        64.00047
 124903990.88746  97327917.17346  23768399.56048  23768399.65646  23768405.88346
 124903990.39048       182.00048        23.00046        25.00046
 03 10 31  0 27 20.0000000  0  8G 5G 7G 9G11G14G20G23G28
 125941296.89246  98136179.46146  23965803.87048  23965803.47746  23965811.57446
 125941295.38148       188.00048        29.00046        29.00046
 114537346.42248  89249984.36148  21795705.11448  21795704.95748  21795712.59648
 114537347.91948       433.00048       133.00048       138.00048
 113969664.25348  88807761.15048  21687629.80848  21687630.15148  21687637.17048
 113969663.74748       408.00048       131.00048       105.00048
 113378447.47448  88346877.51048  21575195.22248  21575195.62848  21575201.11048
 113378445.96448       461.00048       155.00048       106.00048
 112963368.68448  88023432.71348  21496212.02348  21496212.19648  21496218.13148
 112963365.18048       456.00048       182.00048       111.00048
 126631205.54446  98673699.73046  24097116.71048  24097116.79046  24097123.63246
 126631207.02948       171.00048        27.00046        24.00046
 120207602.12847  93668292.06947  22874746.03648  22874746.12447  22874753.69047
 120207601.62748       315.00048        80.00047        67.00047
 125132107.77346  97505670.71046  23811808.62448  23811808.32046  23811815.31046
 125132107.24948       177.00048        24.00046        25.00046
 03 10 31  0 27 30.0000000  0  8G 5G 7G 9G11G14G20G23G28
 126014226.15146  98193007.47646  23979681.80148  23979681.84546  23979689.56746
 126014224.65548       187.00048        28.00046        29.00046
 114793269.69548  89449405.02048  21844405.82148  21844405.53848  21844413.21348
 114793271.19148       428.00048       130.00048       134.00048
 114253858.49448  89029211.21148  21741710.22548  21741710.46448  21741717.49248
 114253857.99048       401.00048       126.00048       102.00048
 113199584.32248  88207503.66248  21541158.72248  21541158.97748  21541164.55448
 113199582.81648       464.00048       157.00048       111.00048
 112692257.88248  87812177.69848  21444621.18148  21444621.41248  21444627.23348
 112692254.37648       464.00048       189.00048       115.00048
 126494635.29546  98567281.66446  24071127.86848  24071127.98746  24071134.35646
 126494636.78948       171.00048        28.00046        26.00046
 120030618.98947  93530382.98547  22841067.42048  22841067.27247  22841075.06947
 120030618.48448       321.00048        85.00047        70.00047
 125361812.07546  97684662.50746  23855518.80448  23855518.87846  23855525.90846
 125361811.56348       171.00048        22.00046        27.00046
 03 10 31  0 27 40.0000000  0  8G 5G 7G 9G11G14G20G23G28
 126090237.57946  98252236.87146  23994146.51248  23994146.47446  23994154.22946
 126090236.07448       185.00048        28.00046        29.00046
 115051946.62948  89650971.32248  21893630.47448  21893630.30348  21893637.91248
 115051948.12548       422.00048       127.00048       133.00048
 114542553.50148  89254168.11648  21796647.28048  21796647.33348  21796654.54048
 114542552.99448       395.00048       120.00048       102.00048
 113023615.81248  88070385.30948  21507673.02348  21507673.30948  21507678.94248
 113023614.30348       468.00048       159.00048       121.00048
 112426069.06848  87604758.08448  21393966.94448  21393967.15848  21393973.01348
 112426065.56448       472.00048       194.00048       127.00048
 126359692.22746  98462131.46746  24045448.90748  24045448.85246  24045455.48746
 126359693.72648       172.00048        27.00046        27.00046
 119857362.68447  93395378.31047  22808097.60648  22808097.63547  22808105.13447
 119857362.18448       327.00048        87.00047        71.00047
 125593051.34746  97864849.20346  23899522.07448  23899521.89046  23899528.63346
 125593050.82948       167.00048        19.00046        25.00046
 03 10 31  0 27 50.0000000  0  8G 5G 7G 9G11G14G20G23G28
 126169325.08446  98313863.16946  24009196.68348  24009196.12046  24009204.16346
 126169323.56848       182.00048        26.00046        29.00046
 115313329.13548  89854646.02048  21943369.88548  21943369.71848  21943377.35948
 115313330.63248       417.00048       127.00048       133.00048
 114835674.80348  89482574.30748  21852426.40648  21852426.74048  21852433.74448
 114835674.30048       388.00048       115.00048       103.00048
 112850577.02548  87935550.07548  21474744.73048  21474745.03248  21474750.54748
 112850575.51448       471.00048       161.00048       122.00048
 112164875.15248  87401230.51248  21344263.32448  21344263.56148  21344269.14448
 112164871.64748       482.00048       202.00048       135.00048
 126226408.84746  98358274.33546  24020085.91548  24020085.70346  24020092.56846
 126226410.34548       174.00048        28.00046        27.00046
 119687863.60147  93263301.53747  22775842.69848  22775842.66647  22775850.18147
 119687863.09448       332.00048        89.00047        77.00047
 125825779.10446  98046195.04446  23943808.96948  23943808.42946  23943814.89246
 125825778.60448       162.00048        20.00046        26.00046
 03 10 31  0 28  0.0000000  0  8G 5G 7G 9G11G14G20G23G28
 126251482.01446  98377881.45946  24024830.54448  24024830.30946  24024838.54346
 126251480.49348       180.00048        25.00046        28.00046
 115577368.10848  90060390.54848  21993614.90348  21993614.72548  21993622.42948
 115577369.60448       410.00048       122.00048       129.00048
 115133146.04348  89714370.02748  21909033.28048  21909033.55148  21909040.68448
 115133145.53748       380.00048       111.00048       103.00048
 112680501.37448  87803023.64348  21442380.35148  21442380.67648  21442386.10948
 112680499.86448       474.00048       164.00048       126.00048
 111908748.34748  87201651.18448  21295524.00148  21295524.24448  21295529.99748
 111908744.84148       493.00048       211.00048       144.00048
 126094817.98946  98255735.89246  23995045.21948  23995044.93146  23995051.77446
 126094819.48348       175.00048        28.00046        28.00046
 119522150.19447  93134174.12447  22744308.51748  22744308.53447  22744315.85047
 119522149.69448       336.00048        93.00047        76.00047
 126059950.35646  98228666.08746  23988370.10148  23988370.24946  23988376.91046
 126059949.83948       159.00048        18.00046        24.00046
 03 10 31  0 28 10.0000000  0  8G 5G 7G 9G11G14G20G23G28
 126336700.26146  98444285.42646  24041046.79748  24041047.02446  24041054.62546
 126336698.76848       178.00048        24.00046        28.00046
 115844015.23048  90268167.42448  22044356.27348  22044356.02048  22044363.79448
 115844016.73048       402.00048       116.00048       124.00048
 115434890.68748  89949495.61147  21966453.48348  21966453.77848  21966460.72547
 115434890.18348       373.00048       107.00048        99.00047
 112513423.14848  87672832.92648  21410586.32648  21410586.64248  21410592.21348
 112513421.64048       478.00048       166.00048       128.00048
 111657760.72648  87006076.54148  21247762.59549  21247762.72648  21247768.47348
 111657757.22349       505.00049       222.00048       147.00048
 125964952.78246  98154542.25246  23970332.46348  23970332.32146  23970339.13646
 125964954.27048       175.00048        28.00046        26.00046
 119360252.71347  93008020.14847  22713500.67348  22713500.72147  22713508.08247
 119360252.21148       339.00048        94.00047        78.00047
 126295516.66146  98412224.08146  24033197.13248  24033196.36246  24033203.28546
 126295516.15848       155.00048        17.00046        23.00046
 03 10 31  0 28 20.0000000  0  8G 5G 7G 9G11G14G20G23G28
 126424970.60346  98513067.55046  24057844.28148  24057843.97246  24057852.21146
 126424969.10848       175.00048        25.00046        27.00046
 116113222.56948  90477939.61448  22095584.55248  22095584.28148  22095591.90548
 116113224.06648       394.00048       110.00048       120.00048
 115740832.08248  90187891.45647  22024672.27348  22024672.51748  22024679.59247
 115740831.57748       367.00048       101.00048        96.00047
 112349375.70248  87545003.84048  21379369.05848  21379369.31748  21379374.79948
 112349374.19348       482.00048       166.00048       132.00048
 111411982.43348  86814561.06548  21200992.38649  21200992.64148  21200998.34748
 111411978.93149       518.00049       231.00048       153.00048
 125836845.74846  98054718.75246  23945954.45748  23945954.62346  23945961.32346
 125836847.22648       176.00048        27.00046        28.00046
 119202200.00947  92884862.37047  22683424.12248  22683424.00247  22683431.39847
 119202199.51048       342.00048        96.00047        81.00047
 126532432.02646  98596833.64546  24078280.45248  24078280.09946  24078287.06746
 126532431.50748       152.00048        15.00046        24.00046
 03 10 31  0 28 30.0000000  0  8G 5G 7G 9G11G14G20G23G28
 126516284.57446  98584221.69346  24075220.16948  24075220.40146  24075227.85846
 126516283.04448       173.00048        24.00046        28.00046
 116384940.51248  90689668.04648  22147290.63348  22147290.43748  22147298.06548
 116384942.00848       385.00048       106.00048       119.00048
 116050892.85647  90429497.28647  22083674.91348  22083675.08947  22083682.11647
 116050892.35348       358.00048        99.00047        95.00047
 112188392.14348  87419562.09148  21348734.89648  21348735.15548  21348740.60948
 112188390.63248       485.00048       170.00048       134.00048
 111171483.08348  86627159.04048  21155226.84049  21155227.06248  21155232.80048
 111171479.58049       531.00049       246.00048       158.00048
 125710528.50246  97956289.66446  23921917.25048  23921917.29146  23921923.94046
 125710529.99148       177.00048        28.00046        26.00046
 119048019.23647  92764721.72247  22654084.16648  22654084.21947  22654091.56547
 119048018.73248       345.00048        97.00047        81.00047
 126770649.41946  98782458.17746  24123611.47348  24123611.38646  24123617.77546
 126770648.92148       150.00048        16.00046        23.00046
 03 10 31  0 28 40.0000000  0  8G 5G 7G 9G11G14G20G23G28
 126610630.70646  98657738.31846  24093173.67048  24093173.50646  24093181.71546
 126610629.20648       171.00048        24.00046        27.00046
 116659120.37548  90903314.82848  22199465.22948  22199464.90548  22199472.65748
 116659121.87148       375.00048       101.00048       117.00048
 116364995.09147  90674252.31447  22143446.54748  22143446.90647  22143453.74747
 116364994.58848       352.00048        94.00047        93.00047
 112030505.59348  87296533.59748  21318690.10548  21318690.39148  21318695.85548
 112030504.08548       490.00048       174.00048       138.00048
 110936331.14248  86443923.84148  21110478.91849  21110479.07248  21110484.79948
 110936327.63749       542.00049       254.00048       161.00048
 125586033.60846  97859280.51446  23898226.80748  23898226.99446  23898233.28046
 125586035.11248       179.00048        28.00046        28.00046
 118897736.78247  92647618.63147  22625486.32048  22625486.30847  22625493.64947
 118897736.28148       347.00048        98.00047        85.00047
 127010121.24446  98969060.09046  24169180.78648  24169180.90046  24169187.79746
 127010120.74248       148.00048        15.00046        20.00046
 03 10 31  0 28 50.0000000  0  8G 5G 7G 9G11G14G20G23G28
 126707998.77946  98733609.65546  24111701.91248  24111702.22646  24111710.21446
 126707997.26548       169.00048        23.00046        28.00046
 116935713.51847  91118842.09548  22252098.97748  22252098.71447  22252106.30348
 116935715.01348       367.00048        96.00047       111.00048
 116683060.44447  90922095.41847  22203972.37148  22203972.73547  22203979.70047
 116683059.93948       345.00048        93.00047        91.00047
 111875748.62848  87175943.75348  21289240.85148  21289241.14548  21289246.61648
 111875747.12148       495.00048       178.00048       143.00048
 110706593.72848  86264907.64748  21066761.37249  21066761.52748  21066767.29348
 110706590.22549       554.00049       265.00048       166.00048
 125463393.53446  97763716.77446  23874889.12548  23874888.96946  23874895.42246
 125463395.02748       181.00048        29.00046        25.00046
 118751378.60947  92533573.32247  22597635.37748  22597635.28847  22597642.67947
 118751378.11048       351.00048       100.00047        86.00047
 127250799.79146  99156601.70146  24214980.67048  24214980.35146  24214986.87746
 127250799.28148       146.00048        16.00046        21.00046
 03 10 31  0 29  0.0000000  0  8G 5G 7G 9G11G14G20G23G28
 126808377.08246  98811826.54346  24130803.44348  24130803.34146  24130811.13446
 126808375.58448       167.00048        23.00046        27.00046
 117214671.08147  91336211.73148  22305182.79448  22305182.61047  22305190.23448
 117214672.57648       359.00048        92.00047       108.00048
 117005010.61847  91172965.70547  22265237.40548  22265237.74147  22265244.86947
 117005010.11248       340.00048        89.00047        88.00047
 111724153.30648  87057817.53748  21260393.19949  21260393.46848  21260398.87548
 111724151.79849       502.00049       184.00048       144.00048
 110482337.31448  86090162.32048  21024086.81249  21024087.02948  21024092.78548
 110482333.81049       563.00049       274.00048       172.00048
 125342639.78746  97669622.82546  23851910.71748  23851910.28246  23851917.17446
 125342641.28748       182.00048        29.00046        28.00046
 118608969.88948  92422605.47747  22570535.81548  22570535.78848  22570543.28447
 118608969.38548       355.00048       102.00048        91.00047
 127492639.98746  99345048.65646  24261001.08648  24261001.84746  24261007.05746
 127492639.48448       145.00048        15.00046        22.00046
 03 10 31  0 29 10.0000000  0  8G 5G 7G 9G11G14G20G23G28
 126911753.94946  98892380.11146  24150475.31648  24150474.73446  24150482.70346
 126911752.44448       166.00048        23.00046        27.00046
 117495944.35147  91555385.77148  22358707.30448  22358707.15847  22358714.67848
 117495945.84948       352.00048        88.00047       108.00048
 117330766.70647  91426801.64547  22327226.64048  22327226.91247  22327233.98647
 117330766.20648       334.00048        85.00047        85.00047
 111575751.35448  86942179.65248  21232153.28249  21232153.52848  21232158.99548
 111575749.84749       508.00049       188.00048       148.00048
 110263627.15348  85919738.85048  20982467.61349  20982467.86048  20982473.46648
 110263623.64949       573.00049       283.00048       175.00048
 125223804.09846  97577023.30846  23829297.04148  23829297.09146  23829303.56846
 125223805.59748       185.00048        30.00046        29.00046
 118470534.84848  92314734.00147  22544192.58648  22544192.55548  22544199.85547
 118470534.34548       360.00048       105.00048        91.00047
 127735595.39346  99534364.67146  24307234.09148  24307234.55946  24307239.49746
 127735594.88548       143.00048        14.00046        20.00046
 03 10 31  0 29 20.0000000  0  8G 5G 7G 9G11G14G20G23G28
 127018115.49446  98975259.07246  24170715.29948  24170715.39146  24170723.04746
 127018113.97848       165.00048        24.00046        24.00046
 117779484.82947  91776326.53548  22412663.15548  22412663.00547  22412670.51948
 117779486.32548       345.00048        86.00047       103.00048
 117660249.64347  91683541.60147  22389925.23748  22389925.43547  22389932.51547
 117660249.13848       329.00048        83.00047        84.00047
 111430574.00448  86829054.38648  21204526.93649  21204527.31348  21204532.76348
 111430572.49649       516.00049       191.00048       152.00048
 110050526.59048  85753686.38148  20941916.03749  20941916.19948  20941921.92648
 110050523.08749       581.00049       292.00048       183.00048
 125106919.20546  97485944.30646  23807054.46948  23807054.91246  23807061.26646
 125106920.69948       187.00048        30.00046        29.00046
 118336096.87948  92209977.16947  22518609.86648  22518609.89148  22518617.24547
 118336096.37648       366.00048       109.00048        94.00047
 127979619.77646  99724513.63846  24353670.25748  24353669.99246  24353676.41046
 127979619.25648       142.00048        13.00046        19.00046
 03 10 31  0 29 30.0000000  0  8G 5G 7G 9G11G14G20G23G28
 127127449.09746  99060454.15146  24191520.93648  24191520.81046  24191528.67146
 127127447.58048       163.00048        22.00046        25.00046
 118065243.64447  91998995.81848  22467041.11648  22467040.89147  22467048.52748
 118065245.14148       340.00048        83.00047       103.00048
 117993380.19147  91943123.85847  22453317.80348  22453318.25247  22453325.00647
 117993379.68848       324.00048        80.00047        80.00047
 111288652.48848  86718466.20748  21177520.18349  21177520.47748  21177525.91748
 111288650.98049       521.00049       197.00048       155.00048
 109843097.79548  85592053.19448  20902443.89149  20902444.11948  20902449.91848
 109843094.29149       589.00049       301.00048       189.00048
 124992014.52646  97396407.72146  23785189.24648  23785188.83446  23785196.15646
 124992016.01948       188.00048        31.00046        28.00046
 118205677.95348  92108351.88347  22493791.94048  22493792.06148  22493799.40247
 118205677.45248       371.00048       112.00048        93.00047
 128224666.89246  99915459.47646  24400301.38248  24400301.33146  24400307.85846
 128224666.41748       140.00048        14.00046        19.00046
 03 10 31  0 29 40.0000000  0  8G 5G 7G 9G11G14G20G23G28
 127239739.96246  99147953.48546  24212889.05848  24212888.58446  24212896.62046
 127239738.45348       162.00048        23.00046        27.00046
 118353172.12647  92223355.68647  22521832.11448  22521831.90547  22521839.44647
 118353173.62248       336.00048        83.00047        98.00047
 118330078.74247  92205486.32847  22517389.55948  22517389.78347  22517396.81547
 118330078.24148       318.00048        78.00047        78.00047
 111150017.44348  86610439.01148  21151138.75549  21151139.11348  21151144.49348
 111150015.93549       527.00049       200.00048       158.00048
 109641401.91548  85434886.94448  20864062.92549  20864063.11348  20864069.10348
 109641398.41249       596.00049       308.00048       200.00048
 124879123.54546  97308440.80446  23763706.70548  23763706.94746  23763713.58746
 124879125.04548       191.00048        34.00046        31.00046
 118079299.17948  92009874.37347  22469743.32748  22469743.45748  22469750.82747
 118079298.67448       376.00048       112.00048        96.00047
 128470691.13346 100107166.58746  24447118.06848  24447118.42646  24447125.12346
 128470690.61548       138.00048        14.00046        20.00046
 03 10 31  0 29 50.0000000  0  8G 5G 7G 9G11G14G20G23G28
 127354973.18246  99237745.43146  24234817.21148  24234816.95346  24234824.73446
 127354971.66148       162.00048        20.00046        24.00046
 118643221.67547  92449368.28147  22577026.70748  22577026.49647  22577034.07547
 118643223.17448       332.00048        78.00047        94.00047
 118670265.92647  92470567.25047  22582124.84248  22582125.28147  22582132.20847
 118670265.42248       312.00048        76.00047        73.00047
 111014698.39348  86504995.54148  21125388.40549  21125388.80548  21125394.19948
 111014696.88749       531.00049       206.00048       164.00048
 109445499.53148  85282235.21548  20826784.36349  20826784.56448  20826790.61948
 109445496.02749       607.00049       319.00048       205.00048
 124768276.13046  97222066.22246  23742613.16048  23742613.37746  23742619.60346
 124768277.63048       193.00048        33.00046        30.00046
 117956982.46648  91914562.38247  22446467.46948  22446467.42848  22446475.09647
 117956981.96548       378.00048       116.00048        99.00047
 128717646.98346 100299599.67946  24494111.85748  24494113.28846  24494117.75546
 128717646.47248       137.00048        13.00046        18.00046
 03 10 31  0 30  0.0000000  0  8G 5G 7G 9G11G14G20G23G28
 127473133.53246  99329818.39746  24257302.80448  24257302.52346  24257310.16546
 127473132.03948       159.00048        20.00046        25.00046
 118935344.05347  92676996.05347  22632615.82648  22632615.67947  22632623.23147
 118935345.55148       329.00048        77.00047        92.00047
 119013861.93047  92738304.42347  22647509.12648  22647509.20047  22647516.44847
 119013861.42248       306.00048        72.00047        71.00047
 110882725.27748  86402159.30648  21100274.88049  21100275.10648  21100280.52748
 110882723.76749       534.00049       205.00048       166.00048
 109255451.28748  85134146.45548  20790618.80149  20790619.00148  20790624.88848
 109255447.78249       617.00049       329.00048       213.00048
 124659503.04546  97137307.89346  23721914.31748  23721914.42846  23721921.33346
 124659504.53548       195.00048        34.00046        30.00046
 117838746.06148  91822429.40647  22423968.39248  22423968.36648  22423976.23047
 117838745.55748       381.00048       118.00048        95.00047
 128965489.26346 100492723.52646  24541275.07648  24541274.76346  24541281.10846
 128965488.73648       135.00048        13.00046        18.00046
 03 10 31  0 30 10.0000000  0  8G 5G 7G 9G11G14G20G23G28
 127594204.51646  99424159.28346  24280341.91448  24280340.92946  24280349.16646
 127594203.02248       158.00048        19.00046        27.00046
 119229491.01647  92906201.54247  22688589.95948  22688589.97247  22688597.44647
 119229492.51548       325.00048        76.00047        89.00047
 119360786.83247  93008635.53947  22713526.66848  22713526.76147  22713533.95847
 119360786.32548       301.00048        70.00047        68.00047
 110754127.38748  86301953.24848  21075803.44249  21075803.69048  21075809.07448
 110754125.87849       536.00049       208.00048       172.00048
 109071310.03648  84990659.83948  20755577.81049  20755578.05248  20755583.91748
 109071306.53449       628.00049       339.00048       223.00048
 124552834.91546  97054189.74946  23701616.35248  23701616.52646  23701622.74346
 124552836.42048       196.00048        35.00046        31.00046
 117724610.46348  91733492.31847  22402249.35948  22402249.27848  22402257.08347
 117724609.96148       382.00048       118.00048        96.00047
 129214172.48546 100686502.54346  24588598.33248  24588597.69546  24588604.11346
 129214171.96948       132.00048        13.00046        17.00046
 03 10 31  0 30 20.0000000  0  8G 5G 7G 9G11G14G20G23G28
 127718168.86746  99520754.44346  24303931.63648  24303931.33946  24303938.98846
 127718167.35548       157.00048        19.00046        23.00046
 119525614.06947  93136946.79047  22744940.52148  22744940.12547  22744947.81947
 119525615.57148       321.00048        74.00047        87.00047
 119710960.66347  93281498.25447  22780162.60248  22780162.85647  22780169.75547
 119710960.15948       294.00048        68.00047        66.00047
 110628932.84948  86204399.05448  21051979.66249  21051979.95848  21051985.41348
 110628931.33949       538.00049       210.00048       174.00048
 108893131.84748  84851819.43248  20721671.88449  20721672.00848  20721677.99748
 108893128.34349       638.00049       350.00048       227.00048
 124448302.70146  96972736.18146  23681724.36648  23681724.18346  23681730.88346
 124448304.19848       198.00048        35.00046        31.00046
 117614593.15348  91647764.60347  22381313.67148  22381313.60448  22381321.32847
 117614592.65048       384.00048       118.00048        99.00047
 129463652.18546 100880902.26946  24636072.64548  24636073.16446  24636078.45046
 129463651.70048       130.00048        11.00046        19.00046
 03 10 31  0 30 30.0000000  0  8G 5G 7G 9G11G14G20G23G28
 127845009.63646  99619591.00246  24328068.79848  24328068.56346  24328076.43246
 127845008.12648       155.00048        18.00046        24.00046
 119823665.22647  93369194.47547  22801657.63148  22801657.44847  22801664.88947
 119823666.72348       316.00048        72.00047        82.00047
 120064303.70647  93556830.55447  22847401.44748  22847401.73547  22847408.70747
 120064303.20048       289.00048        65.00047        64.00047
 110507169.94848  86109518.85248  21028808.96049  21028809.32748  21028814.74448
 110507168.43849       539.00049       212.00048       181.00048
 108720972.21848  84717669.39548  20688910.69949  20688910.85748  20688916.75348
 108720968.71449       644.00049       358.00048       233.00048
 124345935.52346  96892969.43346  23662244.66448  23662244.72246  23662251.17146
 124345937.02348       199.00048        36.00046        31.00046
 117508709.46848  91565257.47347  22361164.90248  22361164.83648  22361172.75847
 117508708.96848       386.00048       119.00048       100.00047
 129713883.58446 101075887.69646  24683690.35048  24683690.96046  24683695.89846
 129713883.08348       128.00048        12.00046        15.00046
 03 10 31  0 30 40.0000000  0  8G 5G 7G 9G11G14G20G23G28
 127974709.28746  99720655.61946  24352750.05848  24352749.94146  24352758.02746
 127974707.79048       153.00048        20.00046        24.00046
 120123596.27847  93602907.01747  22858732.53448  22858732.48747  22858739.80747
 120123597.77748       312.00048        72.00047        78.00047
 120420735.69647  93834569.72747  22915228.25548  22915228.63847  22915235.44047
 120420735.19148       283.00048        61.00047        61.00047
 110388866.37348  86017334.21948  21006296.49749  21006296.83248  21006302.37348
 110388864.86449       541.00049       212.00048       180.00048
 108554881.27348  84588247.80048  20657304.63849  20657304.87048  20657310.67548
 108554877.77149       648.00049       362.00048       238.00048
 124245763.98346  96814913.68146  23643182.61748  23643182.58046  23643189.65546
 124245765.47148       200.00048        38.00046        30.00046
 117406976.31448  91485984.62347  22341805.97048  22341805.90948  22341813.81647
 117406975.81448       388.00048       120.00048       100.00047
 129964822.13445 101271424.11146  24731442.25148  24731442.29345  24731448.79246
 129964821.64048       124.00048        10.00045        15.00046
 03 10 31  0 30 50.0000000  0  8G 5G 7G 9G11G14G20G23G28
 128107247.79546  99823932.02946  24377971.54548  24377970.91646  24377979.85046
 128107246.27948       152.00048        16.00046        24.00046
 120425359.14847  93838046.79247  22916156.31448  22916156.07847  22916163.70847
 120425360.64048       306.00048        69.00047        74.00047
 120780176.88247  94114653.72247  22983627.65448  22983628.14247  22983634.93647
 120780176.37348       278.00048        60.00047        58.00047
 110274049.36348  85927866.47248  20984447.53649  20984447.89248  20984453.32948
 110274047.85549       545.00049       214.00048       186.00048
 108394910.30348  84463595.01948  20626863.27649  20626863.51848  20626869.41548
 108394906.80049       651.00049       364.00048       243.00048
 124147817.47246  96738591.74346  23624544.13448  23624544.13246  23624551.07146
 124147818.96748       202.00048        38.00046        32.00046
 117309409.75348  91409959.23248  22323239.25248  22323239.18348  22323247.09948
 117309409.24948       391.00048       123.00048       101.00048
 130216423.69646 101467477.08246  24779320.56648  24779320.24446  24779326.77346
 130216423.18148       122.00048        12.00046        16.00046
 03 10 31  0 31  0.0000000  0  8G 5G 7G 9G11G14G20G23G28
 128242607.25746  99929407.02746  24403729.50348  24403729.17946  24403737.46946
 128242605.74548       150.00048        16.00046        22.00046
 120728906.79447  94074577.56147  22973919.31248  22973919.00247  22973926.75447
 120728908.29548       299.00048        64.00047        72.00047
 121142547.51047  94397020.42947  23052584.47948  23052584.68947  23052591.90047
 121142547.01048       274.00048        58.00047        54.00047
 110162744.58648  85841135.16248  20963267.15649  20963267.47148  20963272.98648
 110162743.07949       551.00049       218.00048       191.00048
 108241107.73148  84343748.70548  20597595.75049  20597595.93548  20597601.88648
 108241104.22749       653.00049       366.00048       252.00048
 124052125.57846  96664026.85746  23606334.32048  23606334.42246  23606340.94246
 124052127.07548       201.00048        38.00046        31.00046
 117216020.51948  91337188.03748  22305468.21548  22305468.16248  22305475.88448
 117216020.01548       395.00048       127.00048       103.00048
 130468645.13645 101664013.45746  24827316.37948  24827317.42045  24827322.91346
 130468644.64948       119.00048        10.00045        14.00046
 03 10 31  0 31 10.0000000  0  8G 5G 7G 9G11G14G20G23G28
 128380766.41646 100037063.46546  24430020.30748  24430020.24246  24430028.46046
 128380764.91448       148.00048        17.00046        21.00046
 121034190.84547  94312461.22047  23032012.92248  23032012.60247  23032020.36447
 121034192.33548       292.00048        61.00047        69.00047
 121507767.02047  94681606.65347  23122083.75948  23122084.08247  23122091.03247
 121507766.51948       269.00048        55.00047        53.00047
 110054978.98848  85757161.79248  20942760.21749  20942760.50748  20942766.05048
 110054977.48149       556.00049       223.00048       194.00048
 108093519.86648  84228744.63648  20569511.03049  20569511.26848  20569517.26548
 108093516.36349       657.00049       370.00048       245.00048
 123958715.78946  96591239.61446  23588559.31148  23588559.23746  23588565.73346
 123958717.28148       202.00048        37.00046        32.00046
 117126822.62548  91267682.59748  22288494.87548  22288494.82548  22288502.83148
 117126822.12748       400.00048       129.00048       106.00048
 130721441.67545 101860997.67746  24875421.77048  24875422.17645  24875428.58646
 130721441.19448       114.00048         9.00045        16.00046
 03 10 31  0 31 20.0000000  0  8G 5G 7G 9G11G14G20G23G28
 128521703.87546 100146884.24946  24456840.37548  24456839.89646  24456848.09746
 128521702.35748       145.00048        17.00046        21.00046
 121341163.79847  94551660.72947  23090428.09148  23090428.00547  23090435.61747
 121341165.29248       285.00048        59.00047        65.00047
 121875756.13347  94968350.81147  23192110.22048  23192110.39047  23192117.57047
 121875755.62648       265.00048        55.00047        51.00047
 109950777.54248  85675965.62348  20922931.55849  20922931.89348  20922937.52748
 109950776.03449       563.00049       228.00048       191.00048
 107952193.54448  84118620.12048  20542617.71049  20542617.90548  20542623.93648
 107952190.04149       662.00049       376.00048       264.00048
 123867616.79346  96520252.40346  23571224.20248  23571224.30446  23571231.57846
 123867618.29548       203.00048        37.00046        32.00046
 117041828.88448  91201453.35448  22272321.31348  22272321.29848  22272329.48148
 117041828.38248       404.00048       133.00048       106.00048
 130974770.30245 102058396.37746  24923629.25348  24923629.22145  24923636.17146
 130974769.77948       112.00048         8.00045        14.00046
 03 10 31  0 31 30.0000000  0  8G 5G 7G 9G11G14G20G23G28
 128665400.01146 100258854.90746  24484185.05148  24484184.55546  24484192.98646
 128665398.53048       143.00048        16.00046        22.00046
 121649779.03347  94792140.10747  23149155.58348  23149155.35347  23149163.07147
 121649780.52848       277.00048        56.00047        62.00047
 122246436.82147  95257192.84346  23262648.42648  23262648.73647  23262655.89246
 122246436.31348       261.00048        53.00047        50.00046
 109850164.51548  85597565.31548  20903785.94849  20903786.23348  20903792.01948
 109850163.00749       570.00049       233.00048       189.00048
 107817170.66448  84013407.15048  20516923.90349  20516924.14348  20516930.31548
 107817167.16149       670.00049       383.00048       268.00048
 123778860.99946  96451092.52146  23554334.47548  23554334.01746  23554341.18246
 123778862.49948       204.00048        36.00046        31.00046
 116961050.54448  91138509.31448  22256949.62948  22256949.69048  22256957.65348
 116961050.04248       408.00048       135.00048       110.00048
 131228587.74945 102256176.01546  24971929.14448  24971927.97245  24971935.88346
 131228587.30748       108.00048         8.00045        15.00046
 03 10 31  0 31 40.0000000  0  8G 5G 7G 9G11G14G20G23G28
 128811830.36646 100372954.84346  24512050.87848  24512050.46346  24512059.64746
 128811828.83648       140.00048        15.00046        20.00046
 121959988.77047  95033861.75747  23208186.67848  23208186.56447  23208194.19447
 121959990.26348       269.00048        52.00047        57.00047
 122619727.88246  95548068.54246  23333683.61648  23333684.10546  23333691.48046
 122619727.37948       257.00048        50.00046        47.00046
 109753166.50848  85521982.79648  20885327.56349  20885327.85248  20885333.58148
 109753165.00049       576.00049       238.00048       202.00048
 107688494.83448  83913140.84648  20492437.37349  20492437.54148  20492443.60848
 107688491.33149       677.00049       393.00048       274.00048
 123692471.96646  96383775.99446  23537895.55148  23537895.29646  23537902.87346
 123692473.45648       204.00048        37.00046        30.00046
 116884497.03848  91078857.62948  22242381.61848  22242381.70848  22242389.62448
 116884496.53548       411.00048       134.00048       110.00048
 131482849.90245 102454301.15546  25020314.58148  25020315.11745  25020320.69646
 131482849.36248       106.00048         6.00045        16.00046
 03 10 31  0 31 50.0000000  0  8G 5G 7G 9G11G14G20G23G28
 128960977.42946 100489173.19446  24540433.05748  24540432.41046  24540442.07646
 128960975.91648       139.00048        16.00046        20.00046
 122271746.25346  95276789.34547  23267512.55548  23267512.12846  23267519.90647
 122271747.74848       260.00048        48.00046        57.00047
 122995551.44846  95840917.89146  23405200.74048  23405201.20346  23405208.69846
 122995550.94848       252.00048        50.00046        44.00046
 109659804.72748  85449233.34848  20867561.43449  20867561.78048  20867567.38448
 109659803.21849       582.00049       243.00048       202.00048
 107566203.11348  83817848.84848  20469165.75349  20469165.99348  20469171.95648
 107566199.61049       684.00049       399.00048       284.00048
 123608480.06946  96318327.91746  23521912.34048  23521912.11146  23521918.68546
 123608481.58648       206.00048        37.00046        32.00046
 116812176.46548  91022504.25648  22228619.35348  22228619.34148  22228627.24448
 116812175.96348       413.00048       138.00048       113.00048
 131737517.29945 102652743.02746  25068776.41448  25068775.71345  25068783.12846
 131737516.84748       101.00048         7.00045        13.00046
 03 10 31  0 32  0.0000000  0  8G 5G 7G 9G11G14G20G23G28
 129112816.16946 100607489.13246  24569326.72748  24569326.45646  24569336.55746
 129112814.62748       137.00048        15.00046        21.00046
 122585004.88746  95520886.61447  23327123.81248  23327123.47246  23327131.55447
 122585006.38048       253.00048        43.00046        55.00047
 123373827.11246  96135677.48146  23477184.64948  23477185.06046  23477192.50546
 123373826.61348       248.00048        45.00046        44.00046
 109570103.07348  85379336.10048  20850491.71649  20850491.98048  20850497.60548
 109570101.56249       586.00049       246.00048       209.00048
 107450333.00948  83727560.38148  20447116.45949  20447116.66448  20447122.65148
 107450329.50649       686.00049       402.00048       282.00048
 123526910.55446  96254766.74146  23506390.46348  23506390.26246  23506397.13246
 123526912.04448       207.00048        38.00046        32.00046
 116744096.65048  90969455.37048  22215663.84448  22215663.90148  22215671.71548
 116744096.14948       414.00048       139.00048       113.00048
 131992547.12645 102851467.63546  25117306.98547  25117307.86145  25117312.70446
 131992546.60847        98.00047         7.00045        14.00046
 03 10 31  0 32 10.0000000  0  8G 5G 7G 9G11G14G20G23G28
 129267321.85546 100727882.94946  24598728.49348  24598727.22546  24598737.03346
 129267320.36348       134.00048        13.00046        19.00046
 122899719.06046  95766118.45446  23387011.83648  23387012.02546  23387019.68146
 122899720.55548       244.00048        44.00046        50.00046
 123754478.61246  96432289.16046  23549620.15348  23549620.41546  23549628.03446
 123754478.10648       243.00048        44.00046        42.00046
 109484083.80248  85312308.38448  20834122.49549  20834122.86048  20834128.41248
 109484082.29549       590.00049       248.00048       213.00048
 107340920.25448  83642303.42548  20426296.13449  20426296.31848  20426302.39148
 107340916.75249       687.00049       402.00048       283.00048
 123447792.13346  96193115.83546  23491335.08448  23491334.80446  23491341.78946
 123447793.62948       208.00048        38.00046        32.00046
 116680261.98048  90919713.19448  22203517.14248  22203517.13548  22203525.20248
 116680261.47948       415.00048       137.00048       113.00048
 132247896.41445 103050441.22246  25165898.16047  25165897.73545  25165906.06046
 132247895.91047        96.00047         6.00045        13.00046
 03 10 31  0 32 20.0000000  0  8G 5G 7G 9G11G14G20G23G28
 129424469.27346 100850334.25746  24628633.67148  24628633.24046  24628642.99846
 129424467.81248       132.00048        14.00046        20.00046
 123215841.70046  96012447.84146  23447168.15848  23447168.00746  23447175.52246
 123215843.19948       237.00048        41.00046        49.00046
 124137426.40846  96730690.41446  23622492.47848  23622492.94646  23622499.57646
 124137425.90048       238.00048        43.00046        38.00046
 109401767.83748  85248166.06648  20818458.35449  20818458.60248  20818464.18048
 109401766.32849       592.00049       252.00048       215.00048
 107237996.40448  83562101.58048  20406711.44549  20406711.67148  20406718.09048
 107237992.90149       686.00049       399.00048       285.00048
 123371150.42346  96133394.58046  23476750.92548  23476750.58246  23476758.08846
 123371151.91548       211.00048        38.00046        32.00046
 116620679.19648  90873283.53948  22192180.18448  22192180.11748  22192188.58348
 116620678.69448       416.00048       139.00048       112.00048
 132503524.12645 103249632.01946  25214542.02347  25214541.17645  25214550.27746
 132503523.57647        93.00047         7.00045        15.00046
 03 10 31  0 32 30.0000000  0  7G 5G 7G 9G11G14G23G28
 129584239.79546 100974831.44246  24659036.36148  24659036.81446  24659045.88346
 129584238.29748       129.00048        14.00046        20.00046
 123533325.97646  96259837.89246  23507583.59548  23507583.34346  23507591.13246
 123533327.47848       229.00048        38.00046        48.00046
 124522591.21146  97030818.96546  23695786.96248  23695786.98946  23695794.14746
 124522590.70348       233.00048        41.00046        41.00046
 109323176.51248  85186926.00648  20803502.87249  20803503.22848  20803508.76148
 109323175.00349       595.00049       254.00048       219.00048
 107141598.77248  83486986.92648  20388367.29749  20388367.58548  20388373.81948
 107141595.26849       686.00049       399.00048       285.00048
 116565357.11148  90830175.44248  22181652.57848  22181652.67848  22181661.10748
 116565356.60748       416.00048       137.00048       109.00048
 132759386.79245 103449005.25046  25263231.04047  25263231.11945  25263236.94446
 132759386.29447        91.00047         7.00045        11.00046
 03 10 31  0 32 40.0000000  0  6G 7G 9G14G20G23G28
 123852127.62246  96508254.94346  23568249.35048  23568249.22546  23568256.93246
 123852129.11148       222.00048        34.00046        44.00046
 124909894.51546  97332613.35946  23769488.46348  23769488.88546  23769496.58646
 124909894.01748       227.00048        39.00046        36.00046
 107051750.30648  83416974.08448  20371270.39849  20371270.67048  20371277.15648
 107051746.80349       687.00049       398.00048       282.00048
 123225417.33356  96019837.36656  23449017.45448  23449017.27146  23449025.21746
 123225417.82458       214.00048        38.00046        29.00046
 116514294.85948  90790385.96848  22171936.36648  22171936.30848  22171944.79648
 116514294.36148       418.00048       136.00048       103.00048
 133015444.71244 103648530.44546  25311957.60447  25311958.53844  25311965.88246
 133015444.15947        87.00047         4.00044        15.00046
 03 10 31  0 32 50.0000000  0  8G 5G 7G 9G11G14G20G23G28
 129911530.23346 101229860.88046  24721319.05548  24721319.00346  24721328.57446
 129911528.70248       126.00048        13.00046        20.00046
 124172198.81646  96757660.64946  23629157.22748  23629157.23746  23629165.22946
 124172200.31648       214.00048        32.00046        41.00046
 125299259.55546  97636014.19546  23843582.58648  23843582.49446  23843590.41946
 125299259.04748       222.00048        39.00046        36.00046
 109177224.22858  85073187.17658  20775734.73149  20775735.04448  20775741.24548
 109177222.71959       602.00049       260.00048       217.00048
 106968481.44148  83352088.53348  20355425.58849  20355425.76848  20355432.66048
 106968477.93749       690.00049       392.00048       244.00048
 123156361.61246  95966026.40346  23435877.53948  23435877.18446  23435885.08646
 123156362.11048       215.00048        41.00046        30.00046
 116467498.69948  90753921.88648  22163031.00648  22163030.95048  22163039.54948
 116467498.19648       419.00048       138.00048       107.00048
 133271656.52443 103848175.33146  25360713.90247  25360713.06043  25360720.93046
 133271656.02847        85.00047         3.00043        13.00046
 03 10 31  0 33  0.0000000  0  5G 7G 9G14G23G28
 124493494.81546  97008020.43246  23690298.30548  23690298.16346  23690306.01846
 124493496.30748       207.00048        31.00046        42.00046
 125690607.97846  97940959.95446  23918054.40648  23918054.51646  23918062.73646
 125690607.47848       216.00048        36.00046        34.00046
 106891817.08848  83292348.78948  20340837.38349  20340837.60248  20340843.80048
 106891813.58549       694.00049       397.00048       227.00048
 116424967.92448  90720781.51847  22154937.27548  22154937.28748  22154945.59047
 116424967.41748       422.00048       140.00048        94.00047
 133527981.92843 104047908.36146  25409491.46947  25409491.55843  25409499.83846
 133527981.48347        84.00047         3.00043        11.00046
 03 10 31  0 33 10.0000000  0  8G 5G 7G 9G11G14G20G23G28
 130248881.00456 101492674.26556  24785537.67748  24785538.13046  24785547.84846
 130248879.50858       123.00048        14.00046        17.00046
 124815972.05546  97259301.20646  23751663.90648  23751663.74346  23751671.74546
 124815973.54748       200.00048        30.00046        40.00046
 126083865.76746  98247394.43246  23992889.06548  23992889.38246  23992896.95846
 126083865.27348       210.00048        33.00046        31.00046
 109046439.81058  84971276.87858  20750847.32949  20750847.63948  20750853.85948
 109046438.30359       609.00049       255.00048       114.00048
 106821775.47358  83237770.23158  20327507.88449  20327508.09448  20327513.80848
 106821773.97159       700.00049       417.00048       296.00048
 123026041.62956  95864491.23756  23411077.80048  23411077.36346  23411087.96246
 123026044.12558       218.00048        39.00046        24.00046
 116386706.15348  90690969.47248  22147654.64948  22147654.57948  22147662.47248
 116386705.65148       423.00048       143.00048       116.00048
 133784383.08444 104247701.16245  25458283.15747  25458286.70544  25458290.51945
 133784382.57247        83.00047         5.00044        10.00045
 03 10 31  0 33 20.0000000  0  6G 5G 7G 9G14G20G28
 130421366.05746 101627081.52646  24818357.86148  24818357.25546  24818366.99746
 130421364.56848       122.00048        12.00046        17.00046
 125139584.36046  97511466.36446  23813245.50048  23813244.73646  23813253.23846
 125139585.85948       193.00048        27.00046        37.00046
 126478953.97246  98555254.93046  24068072.20248  24068072.38746  24068080.40146
 126478953.46148       205.00048        31.00046        29.00046
 106758383.28448  83188372.06248  20315446.01349  20315446.24448  20315452.32748
 106758381.78249       701.00049       410.00048       286.00048
 122964792.67556  95816766.07656  23399422.57448  23399422.14346  23399432.99746
 122964795.16658       218.00048        41.00046        25.00046
 134040818.70844 104447520.90346  25507081.93947  25507080.40244  25507088.97846
 134040818.13947        80.00047         4.00044        12.00046
 03 10 31  0 33 30.0000000  0  6G 5G 7G 9G20G23G28
 130596291.23756 101763382.59856  24851648.40848  24851647.91546  24851657.40246
 130596293.70958       121.00048        11.00046        17.00046
 125464288.21646  97764482.53346  23875034.54048  23875033.93846  23875042.43446
 125464289.69748       187.00048        25.00046        37.00046
 126875795.18146  98864480.62846  24143589.65948  24143589.39646  24143598.06046
 126875794.68048       199.00048        30.00046        29.00046
 122906209.40746  95771118.95346  23388272.83448  23388273.06346  23388281.43446
 122906211.91148       219.00048        41.00046        32.00046
 116322987.76158  90641327.70057  22135528.91848  22135528.72248  22135538.04747
 116322989.26958       425.00048       135.00048        72.00047
 134297058.78554 104647104.11355  25555881.97547  25555880.60344  25555891.66445
 134297065.25457        78.00047         4.00044        10.00045
 03 10 31  0 33 40.0000000  0  7G 5G 7G 9G11G14G20G23
 130773664.09856 101901601.73756  24885401.82048  24885400.88646  24885412.00846
 130773668.54158       120.00048        11.00046        15.00046
 125790035.38646  98018310.29946  23937022.88848  23937022.58846  23937031.24646
 125790036.87648       181.00048        23.00046        35.00046
 127274310.29346  99175008.20046  24219426.95548  24219427.33846  24219436.32046
 127274309.78648       191.00048        28.00046        27.00046
 108878935.90958  84840753.92658  20718972.50349  20718972.76448  20718978.78948
 108878934.40159       624.00049       259.00048       131.00048
 106651650.34658  83105214.42558  20295134.23549  20295134.44448  20295142.31648
 106651649.84559       697.00049       392.00048       203.00048
 122850299.58446  95727552.75946  23377633.03748  23377632.92946  23377642.52146
 122850302.07948       218.00048        38.00046        21.00046
 116297522.39758  90621492.53857  22130682.76848  22130682.78548  22130694.15147
 116297521.89358       427.00048       142.00048        93.00047
 03 10 31  0 33 50.0000000  0  6G 5G 7G 9G14G23G28
 130953428.80646 102041672.69346  24919614.04148  24919613.46946  24919626.91246
 130953433.28548       119.00048        11.00046        15.00046
 126116783.84746  98272917.95946  23999202.24648  23999201.61846  23999210.83946
 126116785.34548       176.00048        22.00046        33.00046
 127674434.61446  99486792.78946  24295568.71348  24295568.37046  24295578.24946
 127674434.10748       185.00048        26.00046        25.00046
 106608303.42048  83071436.10648  20286885.91549  20286886.16648  20286895.07048
 106608302.91849       696.00049       399.00048       292.00048
 116276301.94048  90604957.75147  22126644.55148  22126644.54448  22126656.02047
 116276301.43848       427.00048       142.00048        94.00047
 134809747.47153 105046599.65756  25653443.09547  25653442.11643  25653452.57546
 134809752.99757        78.00047         3.00043        13.00046
 03 10 31  0 34  0.0000000  0  5G 7G 9G11G14G23
 126444491.98346  98528274.24746  24061563.40848  24061563.45346  24061572.53146
 126444493.48848       171.00048        19.00046        33.00046
 128076080.98746  99799760.30546  24372002.41748  24372002.35046  24372012.78746
 128076080.49048       178.00048        24.00046        23.00046
 108786586.15058  84768799.44258  20701398.83949  20701399.20648  20701406.68648
 108786584.64059       631.00049       276.00048       150.00048
 106571670.96848  83042896.57348  20279912.87649  20279913.08148  20279921.72648
 106571670.46449       695.00049       397.00048       261.00048
 116259333.77148  90591738.56848  22123414.65948  22123414.74548  22123426.17748
 116259333.26748       428.00048       145.00048       103.00048
 03 10 31  0 34 10.0000000  0  8G 5G 7G 9G11G14G20G23G25
 131320103.87256 102327421.08656  24989386.86348  24989384.95746  24989401.47446
 131320113.38158       114.00048        11.00046        14.00046
 126773114.30146  98784342.78146  24124098.81248  24124098.70446  24124108.09246
 126773115.81248       167.00048        20.00046        31.00046
 128479186.16046 100113867.31846  24448711.39048  24448711.45346  24448721.89646
 128479185.66948       171.00048        22.00046        23.00046
 108746243.17458  84737362.07458  20693721.81749  20693722.09348  20693729.37048
 108746241.66659       633.00049       283.00048       213.00048
 106541750.02448  83019580.97748  20274219.97249  20274220.17748  20274228.73648
 106541749.52249       695.00049       397.00048       271.00048
 122698837.62756  95609524.43456  23348813.11948  23348812.58646  23348822.54246
 122698840.12958       218.00048        40.00046        29.00046
 116246609.32048  90581823.29748  22120993.58748  22120993.45848  22121004.63448
 116246608.81648       429.00048       142.00048       107.00048
 128064835.78856  99790822.20256  24369927.86748  24369927.99746  24369938.12846
 128064835.29258       134.00048        14.00046        21.00046
 03 10 31  0 34 20.0000000  0  9G 5G 7G 9G11G14G20G23G25G28
 131506927.26055 102472981.28356  25024935.87948  25024936.28945  25024948.71546
 131506924.70158       112.00048         9.00045        12.00046
 127102608.67646  99041091.38746  24186799.85948  24186800.05646  24186808.95646
 127102610.18548       163.00048        17.00046        31.00046
 128883666.87246 100429044.32846  24525683.47248  24525683.83546  24525695.00046
 128883666.36948       163.00048        19.00046        23.00046
 108709810.05248  84708974.84648  20686789.26849  20686789.53248  20686797.41848
 108709808.54349       633.00049       274.00048       175.00048
 106518554.79648  83001507.04448  20269806.12449  20269806.32348  20269815.04348
 106518554.29149       695.00049       398.00048       267.00048
 122653843.44046  95574458.56046  23340254.61548  23340254.00546  23340263.79646
 122653845.93748       218.00048        40.00046        23.00046
 116238127.69548  90575216.28848  22119377.83048  22119377.87848  22119388.65548
 116238127.19248       429.00048       144.00048       109.00048
 127669690.53746  99482918.42046  24294732.98848  24294734.38646  24294742.85746
 127669690.00448       138.00048        15.00046        24.00046
 135577766.29953 105645077.21856  25799597.00447  25799591.10443  25799606.89946
 135577796.72357        75.00047         3.00043        11.00046
 03 10 31  0 34 30.0000000  0  6G 7G 9G11G14G23G25
 127432927.49046  99298480.59946  24249658.91748  24249658.40646  24249668.72346
 127432928.98848       158.00048        19.00046        26.00046
 129289454.68546 100745240.84946  24602903.59748  24602903.92946  24602915.51846
 129289454.18848       156.00048        18.00046        22.00046
 108677299.18048  84683642.82548  20680603.53949  20680603.87048  20680611.48948
 108677297.67149       636.00049       288.00048       236.00048
 106502079.86358  82988667.45958  20266671.82749  20266672.02848  20266680.19748
 106502078.36059       699.00049       410.00048       322.00048
 116233875.79848  90571904.75948  22118567.59948  22118567.56648  22118577.88848
 116233875.29748       430.00048       146.00048       118.00048
 127276261.96146  99176352.17146  24219864.82448  24219865.22946  24219874.11046
 127276261.46048       140.00048        16.00046        20.00046
 03 10 31  0 34 40.0000000  0  8G 5G 9G11G14G20G23G25G28
 131887372.15855 102769441.46356  25097333.41248  25097332.49245  25097347.41946
 131887376.63658       106.00048         9.00045        13.00046
 129696477.06546 101062400.68546  24680357.70448  24680358.61546  24680369.17246
 129696476.55048       148.00048        16.00046        21.00046
 108648722.13348  84661374.77548  20675165.65249  20675166.02348  20675173.65448
 108648720.62449       638.00049       292.00048       252.00048
 106492344.48348  82981081.53748  20264819.20849  20264819.42848  20264827.59648
 106492342.98149       701.00049       418.00048       344.00048
 122572269.17856  95510900.56556  23324727.34948  23324727.30346  23324737.56746
 122572268.67558       219.00048        43.00046        34.00046
 116233843.22548  90571879.92848  22118560.92048  22118560.88348  22118570.96448
 116233842.72548       431.00048       148.00048       121.00048
 126884626.06446  98871182.20246  24145338.44348  24145338.74446  24145348.17546
 126884625.57048       143.00048        16.00046        23.00046
 136088722.58853 106043201.22955  25896820.52847  25896822.93543  25896832.92145
 136088710.24957        73.00047         3.00043         9.00045
 03 10 31  0 34 50.0000000  0  7G 7G 9G11G14G23G25G28
 128095781.15856  99814932.71856  24375816.28948  24375816.74046  24375826.19546
 128095778.65458       150.00048        17.00046        26.00046
 130104657.70846 101380462.71546  24758032.81148  24758032.15946  24758044.67446
 130104657.19148       141.00048        13.00046        19.00046
 108624087.47348  84642178.16048  20670478.43649  20670478.71048  20670486.59948
 108624085.96449       641.00049       290.00048       247.00048
 106489340.44848  82978740.77548  20264247.51549  20264247.73748  20264255.84248
 106489338.94649       701.00049       417.00048       345.00048
 116238021.15148  90575135.61748  22119355.73048  22119355.73748  22119365.88348
 116238020.65048       432.00048       149.00048       118.00048
 126494861.22846  98567470.46146  24071167.84448  24071169.01846  24071176.59646
 126494860.75048       147.00048        16.00046        25.00046
 136343720.79543 106241892.79745  25945348.90347  25945351.62743  25945378.88845
 136343708.10447        71.00047         3.00043         9.00045
 03 10 31  0 35  0.0000000  0  8G 5G 7G 9G11G14G23G25G31
 132276711.77545 103072821.65146  25171425.07648  25171424.54745  25171440.87146
 132276716.27348       101.00048         7.00045        16.00046
 128428328.22646 100074058.36046  24439099.44048  24439099.16746  24439109.41246
 128428325.71148       146.00048        15.00046        25.00046
 130513924.51546 101699370.95746  24835914.46948  24835914.22946  24835926.56946
 130513924.00748       134.00048        14.00046        16.00046
 108603406.53448  84626062.51248  20666543.50449  20666543.76548  20666551.73448
 108603405.02649       646.00049       298.00048       250.00048
 106493065.43948  82981643.32448  20264956.34349  20264956.53548  20264964.67848
 106493063.93649       700.00049       413.00048       345.00048
 116246399.05648  90581663.90548  22120950.10548  22120950.04648  22120960.13648
 116246398.55348       435.00048       151.00048       119.00048
 126107043.73846  98265275.80146  23997367.85348  23997369.57846  23997376.61946
 126107043.19848       150.00048        17.00046        25.00046
 128924456.29856 100460654.08756  24533508.07348  24533508.37746  24533517.94846
 128924454.78058       156.00048        20.00046        23.00046
 03 10 31  0 35 10.0000000  0  9G 7G 9G11G14G20G23G25G28G31
 128761536.16646 100333700.26946  24502507.42148  24502507.34946  24502517.87146
 128761533.65148       144.00048        14.00046        26.00046
 130924207.39346 102019071.65346  24913988.71948  24913988.55246  24914001.31246
 130924206.86748       128.00048        12.00046        15.00046
 108586689.31148  84613036.05548  20663362.31649  20663362.62048  20663370.64048
 108586687.80249       649.00049       299.00048       252.00048
 106503515.49448  82989786.36548  20266944.79649  20266945.02448  20266953.10948
 106503513.99349       698.00049       412.00048       350.00048
 122471125.82156  95432095.67256  23305480.40348  23305480.38246  23305492.46646
 122471125.31958       224.00048        45.00046        34.00046
 116258966.74648  90591457.89748  22123340.79048  22123340.81348  22123350.75948
 116258966.24548       435.00048       150.00048       119.00048
 125721251.66446  97964659.44146  23923953.36348  23923953.70546  23923962.09146
 125721251.14948       155.00048        19.00046        25.00046
 136852607.43953 106638501.83455  26042200.62447  26042185.35843  26042211.30745
 136852687.67757        70.00047         2.00043        10.00045
 128666747.77546 100259843.45346  24484467.01948  24484467.26446  24484477.17246
 128666746.26348       161.00048        21.00046        24.00046
 03 10 31  0 35 20.0000000  0 10G 5G 7G 9G11G14G20G23G25G28G31
 132674718.22855 103382957.27856  25247160.63847  25247159.54045  25247174.25246
 132674723.72757        95.00047         7.00045        16.00046
 129095359.71146 100593821.34746  24566032.83648  24566031.72446  24566043.04046
 129095357.21148       140.00048        13.00046        24.00046
 131335433.02245 102339506.88946  24992242.56648  24992242.12245  24992255.33146
 131335432.54148       121.00048        10.00045        16.00046
 108573944.80448  84603106.19948  20660936.42049  20660936.65648  20660944.49348
 108573943.29549       652.00049       299.00048       249.00048
 106520683.91948  83003164.76548  20270211.59049  20270211.83448  20270219.80648
 106520682.41649       696.00049       408.00048       353.00048
 122443146.63646  95410294.00846  23300155.90648  23300155.77646  23300167.66446
 122443146.12848       227.00048        44.00046        33.00046
 116275708.46348  90604503.98948  22126526.21048  22126526.22048  22126535.95948
 116275707.96148       436.00048       150.00048       116.00048
 125337563.29146  97665682.43346  23850939.36748  23850939.94146  23850948.24646
 125337562.80348       158.00048        21.00046        27.00046
 137106542.59653 106836371.96755  26090510.30947  26090507.66943  26090533.28945
 137106556.93357        69.00047         2.00043         9.00045
 128409691.42046 100059541.03746  24435549.79648  24435549.98846  24435558.35046
 128409689.90248       164.00048        23.00046        25.00046
 03 10 31  0 35 30.0000000  0  9G 5G 7G 9G11G14G20G23G25G31
 132876874.93845 103540482.57846  25285629.49147  25285629.74945  25285643.36446
 132876880.39347        93.00047         7.00045        17.00046
 129429758.05846 100854390.08646  24629667.74948  24629667.43946  24629678.45746
 129429755.56648       136.00048        13.00046        23.00046
 131747529.19245 102660619.63046  25070662.82848  25070664.50145  25070674.97146
 131747528.69048       116.00048         9.00045        16.00046
 108565176.80948  84596274.13648  20659267.82249  20659268.13148  20659275.85748
 108565175.30249       655.00049       306.00048       257.00048
 106544561.57248  83021771.39348  20274754.82849  20274755.02048  20274762.89348
 106544560.06849       695.00049       406.00048       352.00048
 122418068.45946  95390753.86346  23295382.94448  23295382.78046  23295394.32946
 122418067.96348       228.00048        46.00046        33.00046
 116296611.44148  90620792.98048  22130503.18648  22130503.26948  22130512.72748
 116296610.93848       435.00048       150.00048       117.00048
 124956057.54546  97368406.55646  23778340.33948  23778341.02546  23778348.44246
 124956057.05248       163.00048        23.00046        28.00046
 128153318.83446  99859771.75046  24386762.67748  24386763.23446  24386770.93946
 128153317.31748       168.00048        22.00046        27.00046
 03 10 31  0 35 40.0000000  0  9G 5G 7G 9G11G14G20G23G25G31
 133081094.90645 103699615.81846  25324490.32947  25324489.56145  25324503.49346
 133081100.38647        91.00047         7.00045        18.00046
 129764693.25946 101115378.45946  24693404.06048  24693404.31146  24693415.39146
 129764690.75348       132.00048        14.00046        23.00046
 132160427.40445 102982357.62346  25149235.18248  25149235.61245  25149247.65546
 132160426.89648       110.00048         9.00045        15.00046
 108560395.38248  84592549.34248  20658357.18749  20658357.50948  20658365.02648
 108560393.87649       657.00049       305.00048       259.00048
 106575136.30348  83045596.41148  20280572.60449  20280572.80948  20280580.55448
 106575134.80249       695.00049       407.00048       347.00048
 122395908.08846  95373488.06046  23291164.38148  23291164.39646  23291175.14246
 122395907.58448       230.00048        47.00046        33.00046
 116321660.94748  90640313.61348  22135268.92348  22135268.88848  22135277.93148
 116321660.44648       434.00048       149.00048       116.00048
 124576811.88246  97072891.62246  23706171.21348  23706171.69746  23706179.00146
 124576811.37148       169.00048        23.00046        31.00046
 127897660.00546  99660558.28046  24338111.31848  24338111.08746  24338119.27846
 127897658.50048       172.00048        26.00046        27.00046
 03 10 31  0 35 50.0000000  0  9G 5G 7G 9G11G14G20G23G25G31
 133287343.42445 103860329.01346  25363738.03847  25363739.19445  25363753.74446
 133287348.92347        90.00047         6.00045        17.00046
 130100121.62046 101376750.99846  24757234.04848  24757233.65346  24757245.34846
 130100119.13448       130.00048        12.00046        21.00046
 132574059.27745 103304668.46246  25227946.57748  25227945.79545  25227958.49446
 132574058.79948       105.00048         8.00045        13.00046
 108559603.94548  84591933.35048  20658206.08649  20658206.33348  20658213.68448
 108559602.43749       659.00049       307.00048       256.00048
 106612395.47848  83074630.50048  20287662.06349  20287662.27348  20287669.79348
 106612393.97649       697.00049       412.00048       345.00048
 122376682.46546  95358510.13646  23287503.60548  23287503.52346  23287514.04946
 122376681.95648       231.00048        48.00046        34.00046
 116350839.05648  90663051.05948  22140820.31648  22140820.31648  22140829.14348
 116350838.55648       434.00048       150.00048       118.00048
 124199904.07146  96779197.73546  23634447.58248  23634447.82446  23634455.66246
 124199903.56848       175.00048        25.00046        32.00046
 127642746.49746  99461925.23846  24289602.09648  24289602.23646  24289610.13146
 127642744.98648       176.00048        25.00046        27.00046
 03 10 31  0 36  0.0000000  0  9G 5G 7G 9G11G14G20G23G25G31
 133495587.00444 104022596.17346  25403365.75747  25403365.65544  25403380.31646
 133495592.52647        88.00047         5.00044        13.00046
 130436001.20845 101638474.28246  24821150.45248  24821150.10145  24821161.94946
 130435998.72848       126.00048         9.00045        21.00046
 132988353.59445 103627495.54446  25306784.05147  25306782.88345  25306798.24946
 132988353.04447       100.00047         6.00045        14.00046
 108562809.45748  84594432.63048  20658815.00449  20658815.26948  20658822.20048
 108562807.94949       659.00049       308.00048       259.00048
 106656321.81548  83108859.51848  20296020.46649  20296020.61748  20296028.00848
 106656320.31249       699.00049       411.00048       340.00048
 122360403.35546  95345827.10446  23284404.31848  23284404.13046  23284414.12046
 122360402.84748       233.00048        45.00046        33.00046
 116384128.39548  90688991.64348  22147154.41548  22147154.41748  22147162.95348
 116384127.89148       432.00048       147.00048       115.00048
 123825415.31646  96487389.15446  23563184.24348  23563184.27946  23563192.21146
 123825414.80948       183.00048        28.00046        34.00046
 127388610.37546  99263897.77046  24241241.25548  24241241.33546  24241249.33146
 127388608.87048       180.00048        27.00046        28.00046
 03 10 31  0 36 10.0000000  0 10G 5G 7G 9G11G14G20G23G25G28G31
 133705799.15944 104186400.19946  25443366.23447  25443366.11144  25443379.14346
 133705804.61547        87.00047         5.00044        17.00046
 130772295.55446 101900521.68746  24885145.37448  24885145.70746  24885156.36846
 130772293.02648       123.00048        11.00046        22.00046
 133403239.83445 103950783.53846  25385734.13347  25385733.67345  25385746.69046
 133403239.34147        95.00047         6.00045        12.00046
 108570012.45348  84600045.77748  20660185.28649  20660185.64848  20660192.50448
 108570010.94349       659.00049       310.00048       256.00048
 106706897.50248  83148269.82548  20305644.18349  20305644.39448  20305651.54548
 106706895.99949       699.00049       410.00048       339.00048
 122347085.74646  95335450.55246  23281869.39048  23281869.27746  23281878.85546
 122347085.24448       231.00048        47.00046        34.00046
 116421511.00248  90718121.48748  22154267.71048  22154267.59848  22154276.04848
 116421510.50048       430.00048       147.00048       114.00048
 123453423.40346  96197525.70946  23492396.12548  23492396.24946  23492403.68846
 123453422.90948       190.00048        31.00046        35.00046
 138368400.48053 107819625.74956  26330629.31847  26330631.26043  26330653.97646
 138368390.75857        62.00047         3.00043        11.00046
 127135283.31646  99066500.50046  24193034.38948  24193034.16346  24193042.31946
 127135281.81548       182.00048        28.00046        30.00046
 03 10 31  0 36 20.0000000  0  9G 5G 7G 9G11G14G20G23G25G31
 133917941.08044 104351708.85446  25483732.67847  25483733.25144  25483744.31346
 133917946.54047        87.00047         5.00044        15.00046
 131108962.72245 102162859.59346  24949211.14448  24949210.69845  24949222.62846
 131108960.18048       119.00048         9.00045        20.00046
 133818650.28845 104274479.72046  25464784.61547  25464784.97145  25464797.49746
 133818649.82447        90.00047         6.00045        11.00046
 108581218.58048  84608778.44148  20662317.27049  20662317.62448  20662324.34248
 108581217.07349       661.00049       311.00048       256.00048
 106764102.04548  83192845.42648  20316529.36149  20316529.57648  20316536.55948
 106764100.54149       697.00049       409.00048       332.00048
 122336747.21946  95327395.58746  23279901.49348  23279901.40146  23279910.69246
 122336746.71648       232.00048        46.00046        36.00046
 116462968.33448  90750426.42248  22162156.36248  22162156.36048  22162164.63148
 116462967.83348       430.00048       146.00048       117.00048
 123084008.98246  95909670.72846  23422098.82648  23422098.94146  23422106.00746
 123084008.47648       199.00048        33.00046        38.00046
 126882798.06946  98869759.24446  24144987.77648  24144987.26746  24144995.06446
 126882796.55948       185.00048        29.00046        30.00046
 03 10 31  0 36 30.0000000  0  9G 5G 7G 9G11G14G20G23G25G31
 134131975.12944 104518490.85346  25524459.97847  25524461.70744  25524471.94446
 134131980.49647        87.00047         5.00044        14.00046
 131445962.68845 102425456.69146  25013340.35348  25013339.36545  25013352.05946
 131445960.19248       117.00048        10.00045        19.00046
 134234518.27345 104598532.85346  25543921.31747  25543921.50845  25543931.08946
 134234517.79247        86.00047         6.00045        13.00046
 108596429.02748  84620630.88648  20665211.65349  20665211.95348  20665218.59248
 108596427.51849       662.00049       309.00048       256.00048
 106827912.78148  83242568.66048  20328671.73449  20328671.87848  20328678.73448
 106827911.27749       696.00049       408.00048       330.00048
 122329401.49846  95321672.71346  23278502.71548  23278502.59246  23278511.46346
 122329400.98748       230.00048        45.00046        34.00046
 116508480.44448  90785890.96448  22170816.58448  22170816.66148  22170824.88148
 116508479.94448       429.00048       146.00048       117.00048
 122717251.63946  95623886.12446  23352306.94248  23352306.86046  23352314.29946
 122717251.13648       209.00048        35.00046        39.00046
 126631186.49746  98673698.71746  24097107.30948  24097107.27146  24097114.89046
 126631184.99948       188.00048        30.00046        31.00046
 03 10 31  0 36 40.0000000  0  9G 5G 7G 9G11G14G20G23G25G31
 134347867.35644 104686720.56846  25565542.30547  25565542.45344  25565553.39946
 134347872.79847        87.00047         5.00044        16.00046
 131783257.19745 102688283.48346  25077525.59248  25077525.71045  25077537.60446
 131783254.69348       112.00048         9.00045        20.00046
 134650774.74744 104922888.31546  25623132.18347  25623132.23744  25623145.92046
 134650774.24347        81.00047         4.00044        11.00046
 108615646.77848  84635606.13648  20668868.35949  20668868.67548  20668875.23448
 108615645.27049       663.00049       311.00048       258.00048
 106898304.72448  83297420.01248  20342066.47549  20342066.65048  20342073.39648
 106898303.22249       690.00049       399.00048       325.00048
 122325061.58746  95318291.85246  23277676.02648  23277675.93446  23277684.64046
 122325061.08048       229.00048        46.00046        35.00046
 116558026.08148  90824498.39048  22180244.33848  22180244.58648  22180252.57848
 116558025.57748       428.00048       145.00048       116.00048
 122353231.13846  95340233.96246  23283035.85048  23283036.23846  23283043.32346
 122353230.64148       219.00048        38.00046        42.00046
 126380481.03846  98478344.15646  24049399.24248  24049399.07446  24049406.61846
 126380479.52748       192.00048        30.00046        33.00046
 03 10 31  0 36 50.0000000  0  8G 5G 7G11G14G20G23G25G31
 134565581.97644 104856369.45746  25606971.09647  25606970.54444  25606982.90146
 134565587.51147        86.00047         5.00044        16.00046
 132120808.76345 102951311.57346  25141758.37648  25141756.57645  25141769.36946
 132120806.26948       109.00048         8.00045        17.00046
 108638872.46148  84653704.64748  20673287.66949  20673287.91148  20673294.36048
 108638870.95349       664.00049       312.00048       254.00048
 106975250.75748  83357378.33648  20356708.55249  20356708.70648  20356715.38548
 106975249.25449       689.00049       397.00048       323.00048
 122323741.23546  95317264.15246  23277423.90848  23277423.74046  23277432.63446
 122323740.73148       227.00048        47.00046        33.00046
 116611583.21748  90866231.50348  22190435.81648  22190435.89448  22190443.90248
 116611582.71348       427.00048       143.00048       114.00048
 121992028.03846  95058777.19646  23214301.06248  23214301.43046  23214308.14946
 121992027.53948       229.00048        42.00046        43.00046
 126130714.15946  98283720.84946  24001869.97448  24001870.26146  24001877.72846
 126130712.66448       194.00048        32.00046        33.00046
 03 10 31  0 37  0.0000000  0  8G 5G 7G11G14G20G23G25G31
 134785084.58544 105027410.89246  25648740.36847  25648740.48444  25648752.06646
 134785090.00947        86.00047         4.00044        14.00046
 132458576.41245 103214507.81546  25206033.04548  25206032.13845  25206044.25946
 132458573.89648       107.00048         8.00045        18.00046
 108666105.00248  84674925.14348  20678469.53949  20678469.94248  20678476.18048
 108666103.49449       664.00049       312.00048       252.00048
 107058721.93748  83422421.23848  20372592.24549  20372592.39148  20372598.99848
 107058720.43349       686.00049       395.00048       319.00048
 122325451.62146  95318597.79646  23277748.85348  23277748.63146  23277757.32646
 122325451.11148       227.00048        45.00046        36.00046
 116669129.41148  90911072.99048  22201386.32848  22201386.34148  22201394.25848
 116669128.90948       425.00048       144.00048       116.00048
 121633722.40246  94779578.16546  23146117.49748  23146117.90746  23146124.74646
 121633721.89948       241.00048        47.00046        45.00046
 125881918.88346  98089854.61746  23954525.79848  23954525.70846  23954533.31146
 125881917.37348       196.00048        32.00046        34.00046
 03 10 31  0 37 10.0000000  0  9G 5G 7G 9G11G14G20G23G25G31
 135006339.96244 105199818.13646  25690843.80547  25690843.19944  25690854.61246
 135006345.47647        85.00047         5.00044        14.00046
 132796522.77745 103477843.78146  25270341.08348  25270341.40045  25270352.57046
 132796520.28448       104.00048         8.00045        17.00046
 135900904.22453 105896877.00755  25861082.70247  25861082.26243  25861098.96245
 135900905.86057        69.00047         3.00043        10.00045
 108697343.87348  84699267.36548  20684413.91349  20684414.25348  20684420.46148
 108697342.36749       665.00049       314.00048       252.00048
 107148686.55748  83492523.77848  20389711.72949  20389711.96848  20389718.42148
 107148685.05349       685.00049       392.00048       314.00048
 122330204.55146  95322302.11346  23278652.58348  23278652.46546  23278661.07546
 122330204.04048       226.00048        45.00046        35.00046
 116730640.63448  90959003.95848  22213091.41548  22213091.38948  22213099.33248
 116730640.13048       423.00048       141.00048       113.00048
 121278394.68846  94502699.55946  23078501.02948  23078501.27046  23078508.38446
 121278394.18548       251.00048        50.00046        49.00046
 125634127.92446  97896770.91846  23907372.41748  23907372.41746  23907380.01046
 125634126.41748       199.00048        32.00046        35.00046
 03 10 31  0 37 20.0000000  0  8G 5G 7G11G14G20G23G25G31
 135229313.60344 105373563.40646  25733273.92447  25733273.87944  25733283.32646
 135229319.11547        84.00047         5.00044        14.00046
 133134606.39744 103741285.21846  25334676.50847  25334677.16944  25334687.82746
 133134603.90347       100.00047         5.00044        17.00046
 108732587.26748  84726729.88948  20691120.43649  20691120.75348  20691127.01448
 108732585.75949       664.00049       313.00048       250.00048
 107245111.59748  83567660.39748  20408060.62249  20408060.83848  20408067.29048
 107245110.09349       684.00049       391.00048       310.00048
 122338011.09846  95328385.81046  23280137.74548  23280137.58546  23280145.97346
 122338010.60248       227.00048        44.00046        36.00046
 116796092.65248  91010005.72648  22225546.28748  22225546.41648  22225554.23748
 116796092.15448       421.00048       140.00048       114.00048
 120926125.52447  94228204.27246  23011466.25048  23011466.55947  23011473.45046
 120926125.02648       262.00048        55.00047        49.00046
 125387374.51846  97704495.70746  23860416.84048  23860416.92946  23860424.08946
 125387373.01948       202.00048        33.00046        35.00046
 03 10 31  0 37 30.0000000  0  8G 5G 7G11G14G20G23G25G31
 135453968.37544 105548619.60746  25776023.84347  25776024.28844  25776033.88246
 135453973.95147        82.00047         5.00044        13.00046
 133472793.41744 104004807.69446  25399031.17747  25399030.59944  25399043.36546
 133472790.87147        98.00047         5.00044        16.00046
 108771832.85148  84757311.07248  20698588.42849  20698588.74648  20698594.93848
 108771831.34449       663.00049       308.00048       248.00048
 107347961.37148  83647803.20848  20427632.18249  20427632.39348  20427638.79748
 107347959.86949       682.00049       389.00048       304.00048
 122348881.46246  95336856.73146  23282205.79448  23282205.87946  23282213.66046
 122348880.95248       228.00048        44.00046        34.00046
 116865459.88248  91064058.27448  22238746.45348  22238746.31748  22238754.22848
 116865459.37648       418.00048       138.00048       111.00048
 120576995.36147  93956154.95647  22945028.89348  22945029.13547  22945035.91847
 120576994.85448       271.00048        58.00047        51.00047
 125141692.03546  97513055.07246  23813664.86348  23813665.03146  23813672.18346
 125141690.52948       204.00048        34.00046        36.00046
 03 10 31  0 37 40.0000000  0  8G 5G 7G11G14G20G23G25G31
 135680268.57744 105724957.57046  25819087.00747  25819086.53744  25819100.96946
 135680274.08147        81.00047         4.00044        12.00046
 133811044.48945 104268379.80146  25463398.25847  25463397.10745  25463410.00846
 133811041.99047        95.00047         7.00045        14.00046
 108815077.03248  84791008.05748  20706817.34149  20706817.67948  20706823.79548
 108815075.52549       662.00049       310.00048       245.00048
 107457198.70248  83732923.38748  20448419.28149  20448419.42748  20448425.83148
 107457197.19949       678.00049       385.00048       298.00048
 122362825.74946  95347723.02646  23284858.82748  23284858.97446  23284866.24246
 122362825.24548       229.00048        45.00046        35.00046
 116938715.97748  91121141.08548  22252686.49848  22252686.49048  22252694.12348
 116938715.47448       415.00048       137.00048       111.00048
 120231084.64347  93686614.29347  22879204.08848  22879204.35347  22879211.27947
 120231084.14948       280.00048        61.00047        54.00047
 124897113.56646  97322474.66846  23767123.01748  23767122.94446  23767130.56846
 124897112.06148       207.00048        36.00046        38.00046
 03 10 31  0 37 50.0000000  0  8G 5G 7G11G14G20G23G25G31
 135908120.60154 105902486.61156  25862456.07147  25862455.61044  25862469.07246
 135908123.17457        81.00047         4.00044        12.00046
 134149324.74045 104531975.15446  25527771.47247  25527770.32345  25527781.56246
 134149322.21447        92.00047         6.00045        13.00046
 108862315.45948  84827817.43048  20715806.42049  20715806.69648  20715812.76248
 108862313.95149       662.00049       309.00048       242.00048
 107572783.99348  83822990.00848  20470414.28749  20470414.46448  20470420.79848
 107572782.49049       672.00049       377.00048       290.00048
 122379852.53346  95360991.16846  23288098.62648  23288098.52146  23288106.29646
 122379852.02748       231.00048        46.00046        36.00046
 117015833.67548  91181232.83748  22267361.45248  22267361.39048  22267369.33148
 117015833.17348       412.00048       134.00048       108.00048
 119888474.05247  93419645.15447  22814007.38048  22814007.65747  22814014.49347
 119888473.54148       289.00048        69.00047        56.00047
 124653672.71546  97132780.73946  23720797.36448  23720797.03146  23720804.34446
 124653671.20748       211.00048        36.00046        39.00046
 03 10 31  0 38  0.0000000  0  8G 5G 7G11G14G20G23G25G31
 136137614.97454 106081301.33755  25906124.33647  25906126.80444  25906137.44645
 136137601.43057        79.00047         5.00044         9.00045
 134487595.42144 104795562.97346  25592141.87047  25592138.89744  25592151.91346
 134487592.97947        90.00047         5.00044        14.00046
 108913542.74948  84867734.86948  20725554.61449  20725554.84648  20725560.90448
 108913541.24149       662.00049       310.00048       238.00048
 107694675.66048  83917970.60948  20493609.45249  20493609.60748  20493615.90048
 107694674.15849       668.00049       371.00048       284.00048
 122399969.77846  95376667.16146  23291926.54648  23291926.52246  23291933.92646
 122399969.28048       234.00048        49.00046        35.00046
 117096785.07248  91244311.82148  22282765.94848  22282765.90348  22282773.73348
 117096784.56948       409.00048       132.00048       108.00048
 119549244.02747  93155310.26147  22749453.79948  22749454.25247  22749461.11147
 119549243.51948       296.00048        69.00047        59.00047
 124411403.08746  96943999.48446  23674695.01248  23674695.28846  23674701.92446
 124411401.59148       215.00048        37.00046        40.00046
 03 10 31  0 38 10.0000000  0  8G 5G 7G11G14G20G23G25G31
 136368631.80344 106261314.86846  25950085.93647  25950085.54744  25950096.38146
 136368618.30947        79.00047         5.00044        13.00046
 134825820.32844 105059114.60646  25656503.45547  25656501.48544  25656516.15846
 134825817.82447        87.00047         5.00044        13.00046
 108968753.05448  84910755.91248  20736060.76349  20736061.02048  20736067.08548
 108968751.54749       662.00049       308.00048       237.00048
 107822830.51148  84017831.61448  20517996.43449  20517996.62248  20518002.92748
 107822829.00849       662.00049       365.00048       276.00048
 122423185.84646  95394757.84046  23296344.33648  23296344.21446  23296351.90446
 122423185.33648       235.00048        49.00046        36.00046
 117181541.55048  91310355.83048  22298894.53148  22298894.65748  22298902.37448
 117181541.04648       406.00048       130.00048       108.00048
 119213474.92047  92893672.19147  22685558.97748  22685559.41047  22685566.22147
 119213474.42248       303.00048        73.00047        63.00047
 124170338.51446  96756157.21846  23628821.49548  23628821.82646  23628828.61346
 124170336.99348       218.00048        40.00046        41.00046
 03 10 31  0 38 20.0000000  0  8G 5G 7G11G14G20G23G25G31
 136601147.07244 106442497.98245  25994331.81747  25994331.80244  25994346.32745
 136601133.61047        77.00047         4.00044         9.00045
 135163963.74844 105322600.95346  25720850.79447  25720851.02844  25720864.13746
 135163960.18047        85.00047         4.00044        15.00046
 109027939.78348  84956875.51148  20747323.56849  20747323.83348  20747329.88348
 109027938.27549       661.00049       309.00048       233.00048
 107957203.32948  84122537.79748  20543566.59549  20543566.86748  20543573.14748
 107957201.82849       660.00049       362.00048       273.00048
 122449507.78346  95415268.77646  23301353.11348  23301352.69746  23301360.21346
 122449507.28348       237.00048        48.00046        35.00046
 117270073.69648  91379342.02348  22315741.63548  22315741.69548  22315749.41748
 117270073.19248       403.00048       129.00048       106.00048
 118881247.15447  92634793.57247  22622338.06048  22622338.43547  22622344.94347
 118881246.64948       310.00048        78.00047        67.00047
 123930512.75546  96569280.27346  23583184.00548  23583184.18746  23583191.37946
 123930511.24848       222.00048        41.00046        42.00046
 03 10 31  0 38 30.0000000  0  8G 5G 7G11G14G20G23G25G31
 136835124.57543 106624821.23845  26038855.93647  26038855.08543  26038870.87345
 136835110.93347        76.00047         3.00043        10.00045
 135501989.95844 105585997.99546  25785174.64847  25785174.85044  25785186.22646
 135501986.39647        82.00047         4.00044        14.00046
 109091095.20848  85006087.62748  20759341.57349  20759341.92248  20759347.85148
 109091093.70049       659.00049       306.00048       232.00048
 108097747.20548  84232052.64948  20570311.15249  20570311.31648  20570317.55848
 108097745.70149       655.00049       355.00048       270.00048
 122478941.56746  95438204.44746  23306953.80748  23306953.73046  23306960.88846
 122478941.06648       238.00048        50.00046        36.00046
 117362351.02848  91451246.59248  22333301.31748  22333301.28648  22333309.09848
 117362350.52648       399.00048       127.00048       106.00048
 118552640.89047  92378736.88047  22559806.21048  22559806.50647  22559813.17947
 118552640.39248       316.00048        78.00047        70.00047
 123691959.64746  96383394.87946  23537788.82448  23537788.69246  23537795.87846
 123691958.14448       226.00048        42.00046        41.00046
 03 10 31  0 38 40.0000000  0  6G11G14G20G23G25G31
 109158211.20148  85058386.08148  20772113.11749  20772113.41148  20772119.35248
 109158209.69449       657.00049       303.00048       229.00048
 108244413.24248  84346338.05348  20598220.62749  20598220.84648  20598227.04848
 108244411.73949       652.00049       352.00048       261.00048
 122511493.26546  95463569.79646  23313147.90148  23313147.71746  23313155.10846
 122511492.76548       239.00048        49.00046        33.00046
 117458342.54148  91526045.42148  22351567.70548  22351567.67748  22351575.48348
 117458342.04248       397.00048       124.00048       106.00048
 118227736.08347  92125564.37147  22497978.78748  22497979.18747  22497985.82747
 118227735.58148       322.00048        84.00047        73.00047
 123454713.47746  96198527.81046  23492642.39448  23492642.60446  23492649.58746
 123454711.97348       230.00048        45.00046        43.00046
 03 10 31  0 38 50.0000000  0  8G 5G 7G11G14G20G23G25G31
 137307304.61853 106992738.12656  26128709.97647  26128711.36143  26128719.56446
 137307296.68557        75.00047         2.00043        11.00046
 136177570.08054 106112447.44156  25913729.91847  25913730.07944  25913743.44646
 136177569.62357        78.00047         4.00044        13.00046
 109229277.93948  85113762.95048  20785636.55849  20785636.76848  20785642.69648
 109229276.42949       655.00049       302.00048       226.00048
 108397150.78148  84465354.47448  20627285.47549  20627285.65148  20627291.87648
 108397149.27849       646.00049       345.00048       252.00048
 122547167.58846  95491368.36246  23319936.31748  23319936.12146  23319943.20546
 122547167.08648       237.00048        49.00046        32.00046
 117558016.25848  91603713.51448  22370534.77648  22370534.85948  22370542.53448
 117558015.75048       395.00048       122.00048       107.00048
 117906612.48547  91875338.20847  22436871.15648  22436871.51647  22436877.86347
 117906611.98848       331.00048        88.00047        76.00047
 123218808.56646  96014705.89446  23447751.01048  23447750.95346  23447758.12046
 123218807.07148       234.00048        47.00046        42.00046
 03 10 31  0 39  0.0000000  0  7G 7G11G14G20G23G25G31
 136515032.19944 106375405.69346  25977946.34747  25977944.23844  25977959.78246
 136515031.71647        75.00047         4.00044        12.00046
 109304285.40548  85172210.46048  20799909.90349  20799910.16748  20799916.04448
 109304283.90049       652.00049       300.00048       227.00048
 108555907.53248  84589061.15448  20657495.81449  20657495.93248  20657502.08148
 108555906.03049       640.00049       338.00048       245.00048
 122585968.47946  95521603.06046  23327319.71548  23327319.42046  23327326.63246
 122585967.97848       236.00048        49.00046        32.00046
 117661339.15348  91684224.94948  22390196.41448  22390196.42548  22390204.01448
 117661338.65148       394.00048       123.00048       106.00048
 117589349.98847  91628120.75147  22376497.96348  22376498.28347  22376504.97247
 117589349.48848       339.00048        91.00047        78.00047
 122984279.40246  95831956.04346  23403121.53248  23403121.45646  23403128.12946
 122984277.90548       239.00048        48.00046        45.00046
