     2.10           OBSERVATION DATA    G (GPS)             RINEX VERSION / TYPE
teqc  2006Jul20     administrateur ccgps20080528 00:03:14UTCPGM / RUN BY / DATE
Solaris 5.9|UltraSparc IIi|cc -xarch=v9 SC5.5|=+-|*Sparc    COMMENT
teqc  2006Jul20     administrateur ccgps20080528 00:03:13UTCCOMMENT
teqc  2006Jul20     administrateur ccgps20080528 00:03:12UTCCOMMENT
teqc  2006Jul20     administrateur ccgps20080528 00:03:11UTCCOMMENT
teqc  2006Jul20     administrateur ccgps20080528 00:03:11UTCCOMMENT
teqc  2006Jul20     administrateur ccgps20080528 00:03:10UTCCOMMENT
teqc  2006Jul20     administrateur ccgps20080528 00:03:09UTCCOMMENT
teqc  2006Jul20     administrateur ccgps20080528 00:03:08UTCCOMMENT
teqc  2006Jul20     administrateur ccgps20080528 00:03:08UTCCOMMENT
teqc  2006Jul20     administrateur ccgps20080528 00:03:07UTCCOMMENT
teqc  2006Jul20     administrateur ccgps20080528 00:03:07UTCCOMMENT
teqc  2006Jul20     administrateur ccgps20080528 00:03:06UTCCOMMENT
teqc  2006Jul20     administrateur ccgps20080528 00:03:06UTCCOMMENT
teqc  2006Jul20     administrateur ccgps20080528 00:03:05UTCCOMMENT
teqc  2006Jul20     administrateur ccgps20080528 00:03:05UTCCOMMENT
teqc  2006Jul20     administrateur ccgps20080528 00:03:04UTCCOMMENT
teqc  2006Jul20     administrateur ccgps20080528 00:03:04UTCCOMMENT
teqc  2006Jul20     administrateur ccgps20080528 00:03:04UTCCOMMENT
teqc  2006Jul20     administrateur ccgps20080528 00:03:03UTCCOMMENT
teqc  2006Jul20     administrateur ccgps20080528 00:03:03UTCCOMMENT
teqc  2006Jul20     administrateur ccgps20080528 00:03:03UTCCOMMENT
teqc  2006Jul20     administrateur ccgps20080528 00:03:03UTCCOMMENT
teqc  2006Jul20     administrateur ccgps20080528 00:03:03UTCCOMMENT
teqc  2006Jul20     administrateur ccgps20080528 00:03:03UTCCOMMENT
teqc  2002Mar14     CNES                20080527 00:01:00UTCCOMMENT
MSWin2000|IAx86-PII|bcc32 5.0|MSWin95/98/NT/2000|486/DX+    COMMENT
teqc  2002Mar14                         20080527 00:01:00UTCCOMMENT
BIT 2 OF LLI FLAGS DATA COLLECTED UNDER A/S CONDITION       COMMENT
TLSE                                                        MARKER NAME
10003M009                                                   MARKER NUMBER
CARDALIAGUET        CNES                                    OBSERVER / AGENCY
30708               TRIMBLE 4000SSI     7.32                REC # / TYPE / VERS
227554              TRM29659.00     NONE                    ANT # / TYPE
  4627854.3231   119667.7959  4372995.7087                  APPROX POSITION XYZ
        1.0530        0.0000        0.0000                  ANTENNA: DELTA H/E/N
     1     1                                                WAVELENGTH FACT L1/2
     6    L1    L2    C1    P2    P1    D1                  # / TYPES OF OBSERV
    30.0000                                                 INTERVAL
 SNR is mapped to RINEX snr flag value [1-9]                COMMENT
  L1: 3 -> 1; 8 -> 5; 40 -> 9                               COMMENT
  L2: 1 -> 1; 5 -> 5; 60 -> 9                               COMMENT
  2008     5    27     0     0    0.0000000     GPS         TIME OF FIRST OBS
                                                            END OF HEADER
 08  5 27  0  0  0.0000000  0  9G31G18G16G 6G 3G24G30G29G21
 -15762376.18546 -12089738.67146  22297446.0364   22297445.1454
     -2539.9594
   -588517.44042   -287772.96243  25230434.8854   25230433.1154
      2885.3904
 -16574300.01646  -8652108.51046  21508890.4224   21508890.7504
      2006.0504
 -11600746.38145  -8241585.10246  22503100.8004   22503102.3594
      2227.8034
  -1701259.87542  -1053892.51544  24129473.5284   24129474.6064
      3111.1444
 -12457305.51746  -9506654.06646  22198454.3914   22198455.8914
     -2180.0004
  -4659378.73643  -1161071.77245  24336144.6864   24336146.1984
     -3459.4844
 -11283042.98645  -8563541.07546  22751848.8214   22751849.8874
     -2504.1504
 -21762195.84946 -15239860.70946  21171153.2764   21171152.8664
       823.4804
 08  5 27  0  0 30.0000000  0  9G31G18G16G 6G 3G24G30G29G21
 -15685982.65946 -12030211.24946  22311983.2734   22311982.5694
     -2552.9324
   -675076.81842                  25213963.3004
      2885.2434
 -16634338.31546  -8698891.59946  21497465.4824   21497465.3414
      1996.4904
 -11667480.49445  -8293585.68646  22490401.6804   22490402.1374
      2221.1264
  -1794536.46642  -1126575.64445  24111723.6334   24111723.5864
      3107.2964
 -12391688.15646  -9455523.65746  22210940.9174   22210942.1714
     -2194.4524
  -4555524.45643  -1080146.39845  24355906.9124   24355908.2024
     -3464.1504
 -11207856.11146  -8504953.92346  22766156.3104   22766156.8854
     -2508.3064
 -21786652.59646 -15258917.90546  21166499.3514   21166498.8824
       806.9214
 08  5 27  0  1  0.0000000  0  9G31G18G16G 6G 3G24G30G29G21
 -15609201.40846 -11970381.70446  22326594.3354   22326593.7614
     -2565.8104
   -761631.41341                  25197490.2134
      2885.0444
 -16694088.67246  -8745450.30546  21486095.2554   21486095.2434
      1986.8464
 -11734014.77745  -8345430.55746  22477740.2804   22477740.8424
      2214.4764
  -1887696.86341  -1199167.97845  24093996.7594   24093996.7944
      3103.4004
 -12325638.24546  -9404056.20346  22223510.1774   22223511.5494
     -2208.8584
  -4451530.83143   -999112.37845  24375696.6544   24375697.1824
     -3468.7684
 -11132544.68445  -8446269.69446  22780487.4374   22780487.9654
     -2512.4464
 -21810611.75946 -15277587.37546  21161940.1974   21161939.7404
       790.3374
 08  5 27  0  1 30.0000000  0  9G31G18G16G 6G 3G24G30G29G21
 -15532035.20646 -11910252.19246  22341278.2344   22341277.5194
     -2578.6004
   -848178.44542                  25181022.4794
      2884.7384
 -16753549.55646  -8791783.44146  21474780.2124   21474779.7794
      1977.1824
 -11800348.91545  -8397119.45946  22465117.8464   22465118.5024
      2207.8134
  -1980740.65341  -1271669.61744  24076290.4494   24076293.8844
      3099.4674
 -12259157.98046  -9352253.40246  22236161.0894   22236162.1804
     -2223.1824
  -4347399.29543   -917970.98245  24395512.1424   24395514.1934
     -3473.3484
 -11057109.98445  -8387489.42846  22794842.1784   22794842.5414
     -2516.5394
 -21834073.03446 -15295868.87946  21157475.5584   21157474.9374
       773.7524
 08  5 27  0  2  0.0000000  0  9G31G18G16G 6G 3G24G30G29G21
 -15454486.36446 -11849824.53146  22356035.5114   22356035.3824
     -2591.3234
   -934715.20542                  25164554.9574
      2884.3304
 -16812719.02646  -8837889.52246  21463520.5694   21463519.7494
      1967.4404
 -11866482.60345  -8448652.18346  22452532.6424   22452533.7204
      2201.1124
  -2073666.81741  -1344079.53745  24058607.3244   24058615.0374
      3095.5534
 -12192249.73246  -9300117.10146  22248892.7304   22248894.0314
     -2237.3944
  -4243130.80343   -836722.84045  24415353.1604   24415354.0394
     -3477.8794
 -10981553.36645  -8328614.14346  22809219.8744   22809220.6484
     -2520.5944
 -21857036.40446 -15313762.40846  21153105.5964   21153105.0924
       757.1524
 08  5 27  0  2 30.0000000  0  9G31G18G16G 6G 3G24G30G29G21
 -15376557.55146 -11789100.79046  22370864.7624   22370864.3874
     -2603.9414
  -1021239.12642                  25148088.7064
      2883.8734
 -16871595.37346  -8883767.18446  21452316.6004   21452316.1084
      1957.6294
 -11932415.41045  -8500028.35846  22439986.0554   22439987.7084
      2194.4094
  -2166474.83242                  24040948.0694
      3091.6394
 -12124916.20346  -9247649.40346  22261706.4104   22261708.0394
     -2251.5244
  -4138726.72243   -755369.03045  24435220.9224   24435223.4074
     -3482.3694
 -10905874.85145  -8269643.88446  22823620.9994   22823621.0584
     -2524.6394
 -21879501.56546 -15331267.71446  21148830.5294   21148830.0834
       740.5404
 08  5 27  0  3  0.0000000  0  9G31G18G16G 6G 3G24G30G29G21
 -15298251.31246 -11728082.94746  22385765.8914   22385765.1054
     -2616.4684
  -1107747.23142                  25131628.8664
      2883.3334
 -16930176.94746  -8929415.14746  21441168.9654   21441168.9764
      1947.7934
 -11998147.15745  -8551247.88846  22427477.7644   22427479.0424
      2187.7014
  -2259163.97542                  24023307.9184
      3087.6604
 -12057159.55546  -9194852.02746  22274599.8814   22274601.7334
     -2265.5694
  -4034188.54443   -673910.62645  24455114.2064   24455114.1714
     -3486.8464
 -10830075.80345  -8210579.71646  22838045.5424   22838045.6944
     -2528.6144
 -21901468.29946 -15348384.64146  21144650.4984   21144650.0644
       723.8914
 08  5 27  0  3 30.0000000  0  9G31G18G16G 6G 3G24G30G29G21
 -15219570.03346 -11666772.86446  22400738.4404   22400737.7954
     -2628.9354
  -1194236.70742                  25115168.6894
      2882.6384
 -16988461.99746  -8974832.06346  21430077.7164   21430077.5874
      1937.8684
 -12063677.62745  -8602310.56346  22415007.7254   22415008.8864
      2180.9804
  -2351733.43042                  24005692.7564
      3083.6224
 -11988982.29046  -9141726.87946  22287573.6274   22287574.9984
     -2279.5594
  -3929517.30043   -592348.67645  24475032.0554   24475034.2594
     -3491.2624
 -10754157.20345  -8151422.36046  22852492.1884   22852492.6454
     -2532.5924
 -21922935.48346 -15365112.30946  21140565.3494   21140564.9274
       707.2454
 08  5 27  0  4  0.0000000  0  9G31G18G16G 6G 3G24G30G29G21
 -15140516.12346 -11605172.41646  22415782.3254   22415782.1024
     -2641.3164
  -1280705.04042                  25098714.5564
      2881.9084
 -17046448.35946  -9020016.23246  21419043.1284   21419042.7064
      1927.8764
 -12129006.34745  -8653216.04146  22402575.7464   22402576.7894
      2174.2474
  -2444182.40842                  23988099.9354
      3079.5794
 -11920386.65546  -9088275.71846  22300627.0474   22300628.6064
     -2293.4834
  -3824714.27043   -510683.91745  24494974.4314   24494973.9164
     -3495.6254
 -10678119.90345  -8092172.53046  22866961.5904   22866961.6954
     -2536.5464
 -21943903.19546 -15381450.77546  21136575.4184   21136575.0664
       690.5894
 08  5 27  0  4 30.0000000  0  9G31G18G16G 6G 3G24G30G29G21
 -15061092.52646 -11543283.89746  22430895.9664   22430895.0754
     -2653.5774
  -1367149.74742                  25082263.7904
      2881.0434
 -17104134.65746  -9064966.57846  21408065.7424   21408066.2934
      1917.8524
 -12194132.85945  -8703963.96246  22390182.4784   22390182.9824
      2167.5294
  -2536510.61643    -52747.85045  23970532.1914   23970533.4454
      3075.5804
 -11851374.92946  -9034500.35046  22313759.2774   22313760.9184
     -2307.3014
  -3719780.78443   -428917.53445  24514943.7364   24514944.4404
     -3499.9274
 -10601964.76045  -8032830.86146  22881453.4644   22881453.9914
     -2540.4564
 -21964371.12146 -15397399.80546  21132680.9324   21132680.3934
       673.9394
 08  5 27  0  5  0.0000000  0  9G31G18G16G 6G 3G24G30G29G21
 -14981301.90946 -11481109.41046  22446079.6154   22446079.4864
     -2665.7784
  -1453567.44542    -65091.99345  25065821.0214   25065820.0954
      2880.0934
 -17161519.11146  -9109681.72346  21397146.0534   21397145.9474
      1907.7674
 -12259057.00545  -8754554.18846  22377827.6834   22377827.8004
      2160.7624
  -2628716.83242   -124596.79645  23952984.1954   23952982.1794
      3071.4984
 -11781949.73246  -8980402.81746  22326970.5304   22326971.4564
     -2321.0334
  -3614718.30843   -347050.68245  24534936.1994   24534934.4884
     -3504.2134
 -10525692.81345  -7973398.20646  22895968.0544   22895968.6874
     -2544.3324
 -21984339.32146 -15412959.43246  21128880.9864   21128880.6224
       657.2894
 08  5 27  0  5 30.0000000  0  9G31G18G16G 6G 3G24G30G29G21
 -14901146.47946 -11418650.63446  22461332.3254   22461331.8914
     -2677.8944
  -1539955.26942   -132407.09944  25049380.7134   25049374.2074
      2879.0374
 -17218600.02246  -9154160.34146  21386283.7694   21386283.0664
      1897.6194
 -12323778.39545  -8804986.43046  22365511.6664   22365512.2524
      2153.9944
  -2720800.90343   -196350.56645  23935462.8544   23935464.6134
      3067.4264
 -11712113.41846  -8925984.88646  22340260.0334   22340261.8384
     -2334.7024
  -3509527.98643   -265084.13345  24554953.7694   24554954.4614
     -3508.4834
 -10449304.86045  -7913875.13746  22910503.5614   22910503.9244
     -2548.1714
 -22003807.88946 -15428129.73946  21125175.9804   21125175.4294
       640.6004
 08  5 27  0  6  0.0000000  0  9G31G18G16G 6G 3G24G30G29G21
 -14820629.28846 -11355909.96646  22476654.3554   22476653.7924
     -2689.9064
  -1626310.91242                  25032948.8554
      2877.9584
 -17275375.51746  -9198400.98646  21375479.6644   21375479.4884
      1887.3914
 -12388296.87445  -8855260.54146  22353234.6524   22353235.4494
      2147.2094
  -2812762.30843   -268008.76045  23917963.0894   23917966.7704
      3063.3244
 -11641868.27346  -8871248.41646  22353627.0764   22353628.1084
     -2348.2974
  -3404210.74643   -183018.75845  24574994.9924   24574996.9384
     -3512.6744
 -10372801.80645  -7854262.40346  22925062.1414   22925062.9384
     -2552.0204
 -22022775.34646 -15442909.56746  21121566.5964   21121566.2094
       623.8944
 08  5 27  0  6 30.0000000  0  9G31G18G16G 6G 3G24G30G29G21
 -14739752.61546 -11292889.18146  22492044.3194   22492043.8384
     -2701.8284
  -1712631.34842                  25016521.7104
      2876.7074
 -17331843.43546  -9242401.95446  21364734.5284   21364734.3054
      1877.1394
 -12452612.12745  -8905376.32146  22340995.4714   22340996.4324
      2140.4624
  -2904600.17143   -339570.68445  23900485.9384   23900485.5514
      3059.1854
 -11571216.91846  -8816195.41546  22367071.6314   22367072.8274
     -2361.7794
  -3298768.27942   -100855.77745  24595059.6244   24595059.3314
     -3516.7954
 -10296184.64345  -7794560.71146  22939641.6604   22939641.7424
     -2555.7964
 -22041241.88546 -15457299.07246  21118052.5494   21118052.1154
       607.2204
 08  5 27  0  7  0.0000000  0  9G31G18G16G 6G 3G24G30G29G21
 -14658519.22446 -11229590.44346  22507502.7824   22507502.0904
     -2713.7164
  -1798913.95542                  25000102.1874
      2875.4214
 -17388002.30446  -9286162.10246  21354047.5524   21354047.3294
      1866.7724
 -12516723.73345  -8955333.39046  22328795.7334   22328796.4604
      2133.6304
  -2996313.61743   -411035.67645  23883034.4264   23883035.0594
      3055.0144
 -11500161.57946  -8760827.62946  22380592.8584   22380594.0664
     -2375.2194
  -3193202.04443    -18596.34945  24615149.2844   24615147.9364
     -3520.9534
 -10219454.11345  -7734770.71146  22954242.8564   22954243.4774
     -2559.5774
 -22059207.81846 -15471298.48646  21114633.4274   21114633.1574
       590.5064
 08  5 27  0  7 30.0000000  0  9G31G18G16G 6G 3G24G30G29G21
 -14576931.72346 -11166015.76746  22523028.0864   22523027.5824
     -2725.4564
  -1885155.63642                  24983691.7174
      2874.0254
 -17443850.23746  -9329679.96546  21343420.0994   21343419.6304
      1856.3954
 -12580631.30045  -9005131.46146  22316634.5084   22316635.5984
      2126.8644
  -3087901.43444   -482402.75445  23865604.6324   23865606.7544
      3050.8084
 -11428704.49846  -8705146.78146  22394190.9974   22394192.8374
     -2388.5884
  -3087512.88742     63758.84745  24635260.6034   24635264.7414
     -3524.9954
 -10142611.19445  -7674893.13046  22968865.6544   22968865.3034
     -2563.3104
 -22076672.53946 -15484907.35546  21111310.2054   21111310.0174
       573.7994
 08  5 27  0  8  0.0000000  0  9G31G18G16G 6G 3G24G30G29G21
 -14494992.83346 -11102167.29246  22538620.6694   22538620.3874
     -2737.1344
  -1971353.93342    -31338.61445  24967286.8924   24967287.4784
      2872.5194
 -17499385.74946  -9372954.38246  21332852.3384   21332852.3854
      1845.9634
 -12644334.72245  -9054770.47146  22304512.3514   22304512.6444
      2120.0284
  -3179363.65343   -553671.98945  23848200.1074   23848203.6824
      3046.6474
 -11356848.37346  -8649154.99846  22407864.8374   22407866.4674
     -2401.8264
  -2981702.76543    146208.32645  24655395.0424   24655398.9574
     -3529.0144
 -10065656.75445  -7614928.64946  22983509.3164   22983509.8084
     -2566.9944
 -22093636.29146 -15498125.85346  21108081.8684   21108081.5404
       557.1124
 08  5 27  0  8 30.0000000  0  9G31G18G16G 6G 3G24G30G29G21
 -14412705.03945 -11038046.93246  22554279.4284   22554278.7134
     -2748.7064
  -2057506.27542    -98470.26445  24950893.2494   24950891.3624
      2870.9314
 -17554606.90646  -9415983.85646  21322343.7444   21322343.5334
      1835.4564
 -12707833.79545  -9104250.24846  22292428.6344   22292429.2324
      2113.2204
  -3270699.85743   -624843.01845  23830820.2274   23830821.4004
      3042.4234
 -11284595.84546  -8592854.31746  22421613.6374   22421615.7354
     -2415.0044
  -2875772.85943    228751.14145  24675553.1034   24675555.3074
     -3532.9494
  -9988591.54145  -7554877.86246  22998175.1854   22998175.1854
     -2570.6644
 -22110098.89046 -15510953.83946  21104949.5804   21104949.0764
       540.3904
 08  5 27  0  9  0.0000000  0  9G31G18G16G 6G 3G24G30G29G21
 -14330071.19945 -10973656.92546  22570004.3724   22570003.9734
     -2760.2024
  -2143609.29242   -165563.52245  24934509.4214   24934512.5634
      2869.2694
 -17609511.65946  -9458766.77846  21311895.7684   21311895.8034
      1824.8704
 -12771128.00245  -9153570.40046  22280383.8954   22280385.0324
      2106.3974
  -3361908.85243   -695914.93645  23813462.8794   23813464.8364
      3038.1444
 -11211949.05946  -8536246.43546  22435437.9794   22435440.2304
     -2428.1014
  -2769724.45743    311386.19645  24695733.0244   24695735.1694
     -3536.9194
  -9911416.48945  -7494741.47446  23012860.8484   23012861.2474
     -2574.3194
 -22126059.65746 -15523390.79646  21101912.1324   21101911.6984
       523.6714
 08  5 27  0  9 30.0000000  0  9G31G18G16G 6G 3G24G30G29G21
 -14247093.87346 -10908999.29446  22585794.9664   22585794.5324
     -2771.6084
  -2229660.54843   -232616.33845  24918134.3804   24918132.0244
      2867.4774
 -17664098.68546  -9501302.12646  21301508.2184   21301508.0534
      1814.2584
 -12834217.20645  -9202730.78546  22268379.1224   22268379.7904
      2099.5364
  -3452990.02443   -766887.20845  23796130.4214   23796136.1534
      3033.9104
 -11138910.67646  -8479333.41846  22449336.5554   22449338.4314
     -2441.1044
  -2663558.83442    394112.60445  24715936.3304   24715936.7054
     -3540.7684
  -9834132.67445  -7434520.34146  23027567.5884   23027567.5994
     -2577.9364
 -22141518.94346 -15535436.98846  21098970.2294   21098969.7364
       506.9444
 08  5 27  0 10  0.0000000  0  9G31G18G16G 6G 3G24G30G29G21
 -14163776.00546 -10844076.27246  22601649.6814   22601649.5284
     -2782.9084
  -2315657.29042   -299626.85645  24901769.1264   24901765.6214
      2865.6134
 -17718366.09846  -9543588.41846  21291181.6104   21291181.2944
      1803.5754
 -12897101.06845  -9251731.18846  22256411.7694   22256412.4254
      2092.7114
  -3543943.14143   -837759.80845  23778822.8314   23778825.7384
      3029.6634
 -11065483.12046  -8422117.13546  22463309.6384   22463310.6814
     -2454.0354
  -2557277.25043    476929.44945  24736161.5194   24736157.1004
     -3544.6194
  -9756740.63245  -7374214.87646  23042295.3424   23042294.4044
     -2581.5154
 -22156476.63546 -15547092.32246  21096124.0424   21096123.5384
       490.2384
 08  5 27  0 10 30.0000000  0  9G31G18G16G 6G 3G24G30G29G21
 -14080119.62445 -10778889.49346  22617568.3124   22617567.7264
     -2794.1594
  -2401596.29343   -366592.39645  24885415.4374   24885413.5734
      2863.6164
 -17772311.99846  -9585624.17746  21280916.0324   21280915.6104
      1792.8144
 -12959779.16745  -9300571.25146  22244484.5334   22244485.3424
      2085.8344
  -3634767.23743   -908531.73745  23761539.8824   23761541.7344
      3025.2924
 -10991668.64246  -8364599.35746  22477355.4364   22477357.1944
     -2466.8984
  -2450881.05443    559835.58845  24756407.8234   24756406.5104
     -3548.4474
  -9679241.18245  -7313825.71246  23057042.1314   23057042.8934
     -2585.0964
 -22170932.15346 -15558356.35646  21093373.2774   21093372.7854
       473.4914
 08  5 27  0 11  0.0000000  0  9G31G18G16G 6G 3G24G30G29G21
 -13996128.18345 -10713441.61446  22633551.8374   22633550.8874
     -2805.2894
  -2487475.07443   -433510.85145  24869074.0084   24869070.7384
      2861.5694
 -17825934.70046  -9627408.09846  21270712.0164   21270711.6054
      1782.0064
 -13022251.31845  -9349250.82646  22232596.7564   22232598.0924
      2078.9734
  -3725461.60043   -979202.62845  23744280.5444   23744286.4524
      3020.9574
 -10917470.07046  -8306782.28446  22491475.5804   22491477.1044
     -2479.6664
  -2344371.09943    642830.33145  24776674.6244   24776682.8884
     -3552.2134
  -9601635.46945  -7253353.73246  23071810.7324   23071810.6264
     -2588.6304
 -22184886.63346 -15569229.97646  21090717.5554   21090717.2384
       456.7524
 08  5 27  0 11 30.0000000  0  9G31G18G16G 6G 3G24G30G29G21
 -13911803.89546 -10647734.37046  22649598.3144   22649597.5644
     -2816.3254
  -2573290.67342   -500380.16045  24852743.2534   24852745.6104
      2859.4364
 -17879232.04346  -9668938.50246  21260570.0644   21260569.6544
      1771.1344
 -13084516.96945  -9397769.49946  22220748.0474   22220748.7624
      2072.0944
  -3816025.41743  -1049771.82445  23727047.1304   23727045.9584
      3016.6174
 -10842889.54346  -8248667.60346  22505667.7074   22505670.1224
     -2492.3704
  -2237749.29542    725912.29245  24796965.2074   24796969.8614
     -3555.9114
  -9523923.94745  -7192799.32446  23086597.6344   23086598.0804
     -2592.1274
 -22198338.73846 -15579712.12746  21088157.8794   21088157.5044
       440.0644
 08  5 27  0 12  0.0000000  0  9G31G18G16G 6G 3G24G30G29G21
 -13827149.63346 -10581770.02546  22665707.6694   22665706.8494
     -2827.2714
  -2659040.44643   -567198.08945  24836426.1994   24836426.0934
      2857.2234
 -17932202.63546  -9710214.28246  21250489.8534   21250489.7824
      1760.2194
 -13146576.04445  -9446127.20946  22208938.7154   22208939.3364
      2065.1844
  -3906457.79543  -1120238.59845  23709838.0474   23709841.3764
      3012.2164
 -10767929.47046  -8190257.16146  22519931.9404   22519934.0034
     -2504.9644
  -2131016.97743    809080.31945  24817274.4274   24817272.8564
     -3559.5664
  -9446107.56945  -7132163.20746  23101406.2104   23101406.0464
     -2595.6164
 -22211289.14046 -15589803.33846  21085693.7524   21085693.1204
       423.3034
 08  5 27  0 12 30.0000000  0  9G31G18G16G 6G 3G24G30G29G21
 -13742168.43246 -10515550.90546  22681878.6234   22681878.3894
     -2838.1314
  -2744721.50043   -633962.61845  24820121.7964   24820118.3964
      2854.8434
 -17984844.78446  -9751234.13746  21240472.3524   21240472.0124
      1749.2354
 -13208428.18745  -9494323.66646  22197168.2104   22197169.1254
      2058.2734
  -3996758.59243  -1190602.81345  23692654.8234   23692654.9524
      3007.8084
 -10692592.49146  -8131553.01246  22534268.2204   22534270.7644
     -2517.4874
  -2024175.26242    892333.52645  24837606.1704   24837608.7494
     -3563.1704
  -9368187.33245  -7071446.15546  23116234.3314   23116234.8824
     -2599.0664
 -22223737.64646 -15599503.46646  21083324.8524   21083324.0904
       406.6144
 08  5 27  0 13  0.0000000  0  9G31G18G16G 6G 3G24G30G29G21
 -13656862.58245 -10449078.82746  22698111.7654   22698111.3664
     -2848.8834
  -2830330.56142   -700670.85244  24803829.4434   24803829.0214
      2852.4294
 -18037156.68046  -9791996.64946  21230517.7174   21230517.3894
      1738.2144
 -13270073.04745  -9542358.60346  22185438.2994   22185439.4014
      2051.3644
  -4086926.90043  -1260863.78045  23675496.9994   23675501.7234
      3003.4124
 -10616880.91046  -8072556.97546  22548675.9204   22548677.6554
     -2529.9354
  -1917225.15843    975671.30945  24857959.3484   24857962.3604
     -3566.7704
  -9290164.06645  -7010648.82246  23131080.8374   23131081.2014
     -2602.4954
 -22235684.91146 -15608813.01946  21081051.3974   21081050.5764
       389.8694
 08  5 27  0 13 30.0000000  0  9G31G18G16G 6G 3G24G30G29G21
 -13571235.11745 -10382356.12946  22714406.4714   22714404.8654
     -2859.5834
  -2915865.19043   -767321.14745  24787553.3604   24787549.4804
      2849.8804
 -18089136.22746  -9832500.18946  21220626.1984   21220625.7414
      1727.1044
 -13331510.57245  -9590231.99846  22173746.7914   22173747.3774
      2044.4624
  -4176962.20343  -1331021.14745  23658364.1104   23658364.9194
      2998.9434
 -10540797.61946  -8013271.30346  22563153.8744   22563155.3634
     -2542.2824
  -1810168.83842   1059091.89945  24878331.2784   24878332.4034
     -3570.3064
  -9212038.36945  -6949771.68746  23145947.5634   23145948.1134
     -2605.8804
 -22247129.85746 -15617731.15146  21078873.6504   21078873.1584
       373.1364
 08  5 27  0 14  0.0000000  0  9G31G18G16G 6G 3G24G30G29G21
 -13485288.37946 -10315384.65046  22730761.2704   22730760.1794
     -2870.1824
  -3001322.85442   -833911.64245  24771292.7154   24771291.8004
      2847.2554
 -18140782.12146  -9872743.74546  21210798.5944   21210798.2544
      1715.9404
 -13392740.35945  -9637943.50546  22162094.7984   22162095.8294
      2037.5184
  -4266863.62443  -1401074.20645  23641255.6464   23641256.1384
      2994.4744
 -10464344.97745  -7953697.80646  22577701.9984   22577703.8044
     -2554.5564
  -1703007.08243   1142594.56445  24898723.3094   24898720.3664
     -3573.7834
  -9133811.29745  -6888815.52246  23160833.6394   23160834.3544
     -2609.2524
 -22258073.20846 -15626258.43546  21076790.7014   21076790.0684
       356.4084
 08  5 27  0 14 30.0000000  0  9G31G18G16G 6G 3G24G30G29G21
 -13399025.19946 -10248166.58446  22747177.0244   22747175.9344
     -2880.6664
  -3086700.61442   -900439.66345  24755043.2434   24755044.6264
      2844.5814
 -18192092.07746  -9912725.51546  21201034.4924   21201034.5274
      1704.7174
 -13453761.75845  -9685492.63146  22150483.2874   22150484.2954
      2030.5714
  -4356630.39043  -1471022.26745  23624173.4974   23624174.0944
      2989.9624
 -10387524.97946  -7893838.07546  22592320.8284   22592322.4234
     -2566.7594
  -1595741.23542   1226178.29145  24919135.7214   24919135.9084
     -3577.2134
  -9055483.29845  -6827780.73746  23175739.6644   23175739.6994
     -2612.5864
 -22268514.88046 -15634394.80046  21074804.0514   21074803.3834
       339.6874
 08  5 27  0 15  0.0000000  0  9G31G18G16G 6G 3G24G30G29G21
 -13312448.69446 -10180704.38746  22763651.8264   22763651.2054
     -2891.0774
  -3171995.51742   -966903.18345  24738812.9734   24738818.4714
      2841.7774
 -18243064.78746  -9952444.51246  21191334.8594   21191334.5194
      1693.4534
 -13514574.84845  -9732879.44346  22138910.9984   22138911.8664
      2023.6174
  -4446262.24743  -1540865.21745  23607116.7384   23607116.3744
      2985.4764
 -10310340.61446  -7833694.41846  22607008.0794   22607009.7434
     -2578.8634
  -1488373.03042   1309842.04145  24939566.8584   24939569.3194
     -3580.5974
  -8977055.46145  -6766668.13946  23190663.5164   23190663.9274
     -2615.9154
 -22278454.80046 -15642140.18046  21072912.4444   21072912.1044
       322.9854
 08  5 27  0 15 30.0000000  0  9G31G18G16G 6G 3G24G30G29G21
 -13225561.47346 -10113000.05846  22780186.2814   22780185.5664
     -2901.3884
  -3257204.63842  -1033299.90145  24722597.9284   24722596.4984
      2838.8344
 -18293698.20846  -9991899.12446  21181699.3974   21181699.1634
      1682.1074
 -13575179.30245  -9780103.67446  22127377.9044   22127379.1474
      2016.6564
  -4535758.37243  -1610602.43145  23590086.8274   23590089.4884
      2980.9204
 -10232794.47446  -7773268.85346  22621764.9454   22621765.9654
     -2590.8634
  -1380903.64942   1393584.33944  24960016.2894   24960017.7314
     -3583.9664
  -8898528.52145  -6705478.36646  23205606.4324   23205606.4794
     -2619.2044
 -22287893.15246 -15649494.73146  21071116.1634   21071115.7534
       306.2414
 08  5 27  0 16  0.0000000  0  9G31G18G16G 6G 3G24G30G29G21
 -13138366.17446 -10045055.66746  22796778.4884   22796777.9734
     -2911.6134
  -3342325.17443  -1099627.61545  24706400.8504   24706400.1584
      2835.8094
 -18343990.40546 -10031087.84246  21172128.8154   21172128.6984
      1670.6844
 -13635574.73446  -9827165.03946  22115885.4324   22115886.1704
      2009.6834
  -4625118.08043  -1680233.36945  23573081.4434   23573082.2174
      2976.3634
 -10154889.01045  -7712563.30146  22636589.9084   22636592.6744
     -2602.8274
  -1273334.62842   1477404.34044  24980487.7984   24980487.8454
     -3587.2564
  -8819903.15545  -6644211.86446  23220568.7204   23220567.8644
     -2622.4864
 -22296829.93946 -15656458.45346  21069415.4524   21069415.1124
       289.5224
 08  5 27  0 16 30.0000000  0  9G31G18G16G 6G 3G24G30G29G21
 -13050865.46446  -9976873.30546  22813429.6234   22813428.5914
     -2921.7514
  -3427354.38842  -1165884.14045  24690219.2974   24690219.4374
      2832.7804
 -18393940.00146 -10070009.60146  21162623.8994   21162623.3484
      1659.2694
 -13695760.74746  -9874063.20946  22104431.9454   22104432.5314
      2002.7224
  -4714340.66943  -1749757.43645  23556103.3234   23556103.5574
      2971.8014
 -10076626.53246  -7651579.55646  22651483.0884   22651484.8004
     -2614.6634
  -1165667.21942   1561301.02745  25000975.9634   25000977.6394
     -3590.5264
  -8741180.01145  -6582869.17745  23235549.4704   23235549.9284
     -2625.7274
 -22305265.30746 -15663031.46546  21067810.2094   21067809.6824
       272.8364
 08  5 27  0 17  0.0000000  0  9G31G18G16G 6G 3G24G30G29G21
 -12963062.51346  -9908455.42146  22830138.4314   22830137.3064
     -2931.7724
  -3512289.50243  -1232067.20045  24674058.9034   24674055.9144
      2829.5584
 -18443545.14746 -10108662.95946  21153184.5434   21153183.8164
      1647.7354
 -13755737.26846  -9920798.16046  22093019.3224   22093019.1344
      1995.7134
  -4803425.10844  -1819173.83945  23539151.3704   23539152.8934
      2967.1504
  -9998009.49145  -7590319.51546  22666442.7694   22666443.7894
     -2626.4564
  -1057902.77942   1645273.23145  25021482.0394   25021484.4664
     -3593.7614
  -8662359.97345  -6521450.99246  23250548.3374   23250548.4194
     -2628.9444
 -22313199.68446 -15669214.08946  21066300.5594   21066300.0664
       256.1274
 08  5 27  0 17 30.0000000  0  9G31G18G16G 6G 3G24G30G29G21
 -12874959.81146  -9839803.97146  22846903.1284   22846902.0854
     -2941.7254
  -3597127.31243  -1298174.60145  24657914.1564   24657914.0154
      2826.2834
 -18492803.95946 -10147046.44646  21143810.7444   21143810.7094
      1636.1664
 -13815503.77446  -9967369.45946  22081645.6794   22081645.9374
      1988.7124
  -4892370.69044  -1888482.09245  23522225.3464   23522225.1934
      2962.5284
  -9919040.64945  -7528785.35146  22681470.8144   22681472.6434
     -2638.1384
   -950042.41642   1729320.30945  25042005.9534   25041999.9634
     -3596.9524
  -8583443.77045  -6459957.89946  23265566.0274   23265565.9574
     -2632.1414
 -22320633.46146 -15675006.63746  21064886.1904   21064885.9094
       239.4364
 08  5 27  0 18  0.0000000  0  9G31G18G16G 6G 3G24G30G29G21
 -12786560.28046  -9770921.21146  22863725.3194   22863724.1704
     -2951.5674
  -3681865.29942  -1364204.24645  24641787.7314   24641785.5034
      2822.9264
 -18541714.91146 -10185158.86846  21134503.3214   21134503.3564
      1624.5474
 -13875060.23646 -10013777.07946  22070312.7374   22070313.4994
      1981.7004
  -4981176.97045  -1957681.69945  23505326.2494   23505330.2354
      2957.8764
  -9839722.44045  -7466978.96646  22696564.0054   22696565.5414
     -2649.7494
   -842087.68442   1813440.79945  25062550.6314   25062552.0614
     -3600.0544
  -8504432.36045  -6398390.53346  23280601.3924   23280601.1814
     -2635.2914
 -22327566.38846 -15680408.90146  21063566.8024   21063566.2054
       222.7554
 08  5 27  0 18 30.0000000  0  9G31G18G16G 6G 3G24G30G29G21
 -12697866.71946  -9701809.35846  22880603.0004   22880602.1334
     -2961.3234
  -3766500.36943  -1430153.56345  24625682.9304   24625679.0974
      2819.4074
 -18590275.92546 -10222998.61546  21125262.5494   21125262.3974
      1612.8544
 -13934406.17246 -10060020.66246  22059020.0594   22059020.3174
      1974.6734
  -5069843.48144  -2026772.52345  23488453.7704   23488454.2034
      2953.2144
  -9760057.15445  -7404902.11546  22711723.7304   22711725.4414
     -2661.2654
   -734040.07042   1897633.77544  25083112.1874   25083115.2344
     -3603.1334
  -8425326.33245  -6336749.51445  23295654.4944   23295654.8814
     -2638.4434
 -22333998.46046 -15685420.90946  21062342.7134   21062342.2094
       206.0624
 08  5 27  0 19  0.0000000  0  9G31G18G16G 6G 3G24G30G29G21
 -12608882.04546  -9632470.67246  22897536.3304   22897535.3694
     -2970.9864
  -3851029.80843  -1496020.73145  24609597.4974   24609590.1824
      2815.8654
 -18638485.40446 -10260564.43546  21116088.5534   21116088.3194
      1601.1044
 -13993541.37646 -10106100.02846  22047766.4554   22047766.8884
      1967.6544
  -5158369.42544  -2095753.70245  23471607.2704   23471610.1074
      2948.5074
  -9680047.53445  -7342556.96546  22726949.0814   22726950.3244
     -2672.7024
   -625900.69842   1981898.10445  25103690.2824   25103690.1644
     -3606.1594
  -8346126.59545  -6275035.44346  23310725.6944   23310725.1904
     -2641.5364
 -22339930.49846 -15690043.27246  21061213.7974   21061213.3994
       189.3864
 08  5 27  0 19 30.0000000  0  9G31G18G16G 6G 3G24G30G29G21
 -12519608.73445  -9562907.05246  22914524.6764   22914524.3834
     -2980.5434
  -3935450.82842  -1561803.37445  24593531.8454   24593531.6584
      2812.2104
 -18686341.62746 -10297854.98946  21106981.9874   21106981.8114
      1589.3094
 -14052465.51446 -10152014.91846  22036553.4394   22036554.0844
      1960.6434
  -5246753.75344  -2164624.58945  23454788.7904   23454789.5874
      2943.8124
  -9599696.15745  -7279945.48446  22742239.9674   22742241.7374
     -2684.0374
   -517671.19142   2066232.82245  25124283.0784   25124279.2224
     -3609.1584
  -8266833.95645  -6213248.97845  23325814.8694   23325814.9394
     -2644.6174
 -22345362.28446 -15694275.83946  21060180.2134   21060179.9094
       172.7314
 08  5 27  0 20  0.0000000  0  9G31G18G16G 6G 3G24G30G29G21
 -12430049.95446  -9493121.00346  22931566.9304   22931566.0504
     -2990.0304
  -4019760.44742  -1627499.18345  24577487.9994   24577488.4214
      2808.4464
 -18733842.67546 -10334868.78546  21097942.5284   21097942.0834
      1577.4364
 -14111178.36546 -10197765.17546  22025381.1104   22025381.9424
      1953.5404
  -5334996.36544  -2233385.04745  23437996.2004   23437998.9314
      2939.0364
  -9519005.36345  -7217069.56646  22757594.1754   22757595.8514
     -2695.3114
   -409352.75942   2150636.90545  25144897.6494   25144897.3914
     -3612.1034
  -8187448.97645  -6151390.59545  23340920.4644   23340921.1444
     -2647.6954
 -22350294.32046 -15698118.98046  21059241.7784   21059241.2624
       156.0654
 08  5 27  0 20 30.0000000  0  9G31G18G16G 6G 3G24G30G29G21
 -12340208.12945  -9423114.38546  22948662.8164   22948662.4534
     -2999.4074
  -4103956.23543  -1693106.27845  24561466.1914   24561468.0904
      2804.6124
 -18780986.97546 -10371604.59546  21088971.4224   21088971.4574
      1565.5034
 -14169679.44246 -10243350.43546  22014248.5594   22014249.0514
      1946.5124
  -5423096.13944  -2302034.17445  23421231.2054   23421231.1934
      2934.2574
  -9437977.90445  -7153931.25245  22773013.6804   22773014.6774
     -2706.4974
   -300946.66341   2235109.14045  25165524.0004   25165524.8684
     -3614.9854
  -8107972.25945  -6089460.69745  23356044.8264   23356045.6944
     -2650.7384
 -22354727.33446 -15701573.28146  21058398.0334   21058397.7054
       139.4214
 08  5 27  0 21  0.0000000  0  9G31G18G16G 6G 3G24G30G29G21
 -12250086.40945  -9352889.68646  22965812.6654   22965812.5484
     -3008.6854
  -4188035.04443  -1758622.31245  24545467.6624   24545468.2484
      2800.6584
 -18827772.52846 -10408060.85746  21080068.3334   21080068.0634
      1553.5234
 -14227968.49046 -10288770.45646  22003156.7824   22003157.4274
      1939.4304
  -5511052.41944  -2370571.50545  23404494.3654   23404494.6934
      2929.4974
  -9356616.15745  -7090532.50145  22788495.9444   22788496.6714
     -2717.6004
   -192454.24242   2319648.78745  25186172.3184   25186178.0034
     -3617.8184
  -8028404.57245  -6027459.94245  23371185.6894   23371185.8184
     -2653.7634
 -22358660.60146 -15704638.16246  21057649.6034   21057648.9114
       122.7894
 08  5 27  0 21 30.0000000  0  9G31G18G16G 6G 3G24G30G29G21
 -12159687.64145  -9282449.10446  22983015.0434   22983013.8124
     -3017.8894
  -4271993.52143  -1824044.32845  24529490.0924   24529489.1784
      2796.5944
 -18874197.85246 -10444236.42946  21071233.5114   21071233.5004
      1541.4864
 -14286045.26046 -10334025.06446  21992105.1774   21992106.0214
      1932.3434
  -5598864.74344  -2438996.63145  23387783.6214   23387786.0594
      2924.6744
  -9274922.74445  -7026875.27845  22804042.0264   22804044.2774
     -2728.6284
    -83877.13742   2404254.17243  25206832.9664   25206833.4934
     -3620.6214
  -7948746.67445  -5965388.87245  23386344.9924   23386345.4144
     -2656.7544
 -22362094.81646 -15707314.17946  21056995.8974   21056995.3104
       106.1654
 08  5 27  0 22  0.0000000  0  9G31G18G16G 6G 3G24G30G29G21
 -12069014.22545  -9211794.50846  23000269.6304   23000269.4544
     -3026.9804
  -4355829.17842  -1889370.92345  24513537.2394   24513533.9694
      2792.4584
 -18920261.13346 -10480129.88646  21062468.4694   21062468.1294
      1529.3974
 -14343909.38446 -10379113.98246  21981093.5494   21981094.2174
      1925.2694
  -5686532.43744  -2507309.07845  23371102.0054   23371105.1584
      2919.8584
  -9192899.84145  -6962961.34346  22819650.1994   22819651.8644
     -2739.5524
     24783.02242   2488924.49443  25227510.5214   25227514.2724
     -3623.3814
  -7868999.27445  -5903248.07145  23401520.2234   23401521.0094
     -2659.7134
 -22365030.34446 -15709601.60146  21056437.5024   21056437.1394
        89.5364
 08  5 27  0 22 30.0000000  0  9G31G18G16G 6G 3G24G30G29G21
 -11978069.33445  -9140928.34446  23017575.9724   23017574.7654
     -3035.9854
  -4439539.42943  -1954599.62745  24497608.1734   24497605.4544
      2788.2004
 -18965960.54946 -10515739.81046  21053772.2884   21053772.0304
      1517.2314
 -14401560.61146 -10424037.02446  21970123.3644   21970124.0794
      1918.1164
  -5774054.74145  -2575508.27045  23354445.7384   23354446.6294
      2914.9604
  -9110550.30245  -6898792.84545  22835321.0484   22835322.5604
     -2750.4084
    133525.30142   2573658.66445  25248203.0844   25248201.7484
     -3626.0954
  -7789163.22545  -5841038.19245  23416712.4724   23416712.7184
     -2662.6854
 -22367467.47446 -15711500.67246  21055973.8004   21055973.1794
        72.9344
 08  5 27  0 23  0.0000000  0  9G31G18G16G 6G 3G24G30G29G21
 -11886856.07045  -9069853.10046  23034933.3434   23034932.4994
     -3044.8894
  -4523121.32543  -2019728.44145  24481702.1944   24481703.9404
      2783.8754
 -19011294.43546 -10551064.91646  21045145.7394   21045145.4814
      1505.0164
 -14458998.93246 -10468794.13446  21959192.7664   21959193.2814
      1911.0534
  -5861430.52844  -2643593.27545  23337818.8824   23337819.2454
      2910.0684
  -9027876.57845  -6834371.79445  22851053.2274   22851054.0364
     -2761.1714
    242347.94941   2658455.56344  25268910.3314   25268906.8034
     -3628.7784
  -7709239.14345  -5778759.71745  23431921.3524   23431921.6104
     -2665.6094
 -22369406.89946 -15713011.91746  21055604.8984   21055604.4174
        56.3594
 08  5 27  0 23 30.0000000  0  9G31G18G16G 6G 3G24G30G29G21
 -11795376.80145  -8998570.55446  23052340.7584   23052339.7034
     -3053.6744
  -4606571.76643  -2084754.70645  24465823.3634   24465827.3484
      2779.4864
 -19056261.04246 -10586103.82546  21036588.4944   21036588.2484
      1492.7624
 -14516223.68946 -10513384.84346  21948303.4294   21948303.9224
      1903.9444
  -5948659.61044  -2711563.96245  23321220.1004   23321221.0384
      2905.2044
  -8944881.17545  -6769700.04645  22866847.2854   22866848.1874
     -2771.8274
    351250.04242   2743314.27345  25289635.7494   25289634.4834
     -3631.3654
  -7629227.76245  -5716413.20545  23447147.7174   23447147.0734
     -2668.4714
 -22370848.69846 -15714135.39846  21055330.4024   21055329.8044
        39.7924
 08  5 27  0 24  0.0000000  0  9G31G18G16G 6G 3G24G30G29G21
 -11703634.70845  -8927083.22646  23069798.9594   23069797.0724
     -3062.4214
  -4689888.30543  -2149676.70145  24449967.3324   24449968.4454
      2774.9474
 -19100858.75546 -10620855.28246  21028101.8004   21028101.8704
      1480.4324
 -14573234.64546 -10557808.96846  21937454.2484   21937454.9164
      1896.8024
  -6035741.25444  -2779419.77345  23304649.1614   23304650.2874
      2900.2624
  -8861566.73045  -6704779.71345  22882701.4654   22882702.6374
     -2782.4334
    460229.84242   2828233.65345  25310372.6354   25310373.2454
     -3633.9514
  -7549129.71545  -5653999.14845  23462389.7434   23462389.6724
     -2671.3724
 -22371793.09546 -15714871.29446  21055150.8684   21055150.3884
        23.1964
 08  5 27  0 24 30.0000000  0  9G31G18G16G 6G 3G24G30G29G21
 -11611632.50245  -8855393.22045  23087305.7884   23087305.1084
     -3071.0294
  -4773067.70043  -2214491.76145  24434139.9874   24434137.1154
      2770.3504
 -19145085.67146 -10655317.80446  21019685.6944   21019685.7414
      1468.0364
 -14630031.59346 -10602066.31746  21926646.0814   21926646.8664
      1889.6714
  -6122674.79745  -2847160.19545  23288105.9054   23288106.6094
      2895.2894
  -8777935.68945  -6639612.64645  22898615.4784   22898616.2404
     -2792.9564
    569285.93442   2913212.44245  25331126.1124   25331123.6854
     -3636.4754
  -7468945.48945  -5591517.95345  23477648.2074   23477648.9224
     -2674.2174
 -22372240.65546 -15715220.04246  21055065.5964   21055065.0104
         6.6464
 08  5 27  0 25  0.0000000  0  9G31G18G16G 6G 3G24G30G29G21
 -11519373.06745  -8783502.75245  23104862.8924   23104861.7904
     -3079.5754
  -4856107.09643  -2279197.88145  24418337.8784   24418333.4354
      2765.6174
 -19188940.21446 -10689490.17346  21011340.3424   21011339.9554
      1455.5904
 -14686614.20146 -10646156.64046  21915879.3694   21915879.8734
      1882.4954
  -6209459.21245  -2914784.37145  23271592.1744   23271593.1124
      2890.3564
  -8693990.66145  -6574200.94345  22914589.5634   22914591.2634
     -2803.3854
    678416.70141   2998249.23145  25351891.6224   25351892.0444
     -3638.9254
  -7388676.18245  -5528970.46745  23492922.6384   23492924.5604
     -2677.0694
 -22372191.85946 -15715182.02046  21055075.0554   21055074.6564
        -9.9014
 08  5 27  0 25 30.0000000  0  9G31G18G16G 6G 3G24G30G29G21
 -11426859.22845  -8711414.05345  23122467.1264   23122467.1034
     -3087.9994
  -4939003.73843  -2343792.61245  24402562.1374   24402562.3834
      2760.8264
 -19232420.57646 -10723370.97446  21003066.5724   21003066.1384
      1443.0954
 -14742982.20146 -10690079.75446  21905152.7854   21905153.8054
      1875.3534
  -6296094.47645  -2982292.33645  23255105.8114   23255104.9434
      2885.3704
  -8609734.10445  -6508546.48445  22930622.9064   22930624.5474
     -2813.7214
    787621.26143   3083343.73745  25372674.2044   25372667.6744
     -3641.3444
  -7308322.07745  -5466356.90345  23508213.2554   23508214.6264
     -2679.8724
 -22371647.46946 -15714757.81746  21055178.0774   21055177.4214
       -26.4034
 08  5 27  0 26  0.0000000  0  9G31G18G16G 6G 3G24G30G29G21
 -11334094.00445  -8639129.45545  23140120.2394   23140119.5244
     -3096.3354
  -5021754.76943  -2408273.84445  24386815.5444   24386818.0174
      2755.9054
 -19275524.99846 -10756958.82846  20994863.7404   20994863.6934
      1430.5344
 -14799135.18646 -10733835.31646  21894466.9204   21894468.1744
      1868.1774
  -6382579.13245  -3049682.96245  23238647.8934   23238646.8974
      2880.3034
  -8525168.55945  -6442651.24145  22946714.8154   22946716.6794
     -2823.9764
    896898.01542   3168494.54944  25393469.0844   25393467.3844
     -3643.7634
  -7227884.06045  -5403677.92345  23523519.3804   23523520.2364
     -2682.6704
 -22370607.57746 -15713947.50546  21055376.0874   21055375.4784
       -42.9214
 08  5 27  0 26 30.0000000  0  9G31G18G16G 6G 3G24G30G29G21
 -11241080.20745  -8566651.18546  23157819.9544   23157819.1694
     -3104.5944
  -5104357.08643  -2472639.32445  24371096.8204   24371094.4054
      2750.8744
 -19318251.99946 -10790252.58346  20986733.3914   20986733.1104
      1417.9034
 -14855072.90946 -10777423.14546  21883822.7034   21883823.2664
      1861.0024
  -6468913.06044  -3116956.13845  23222219.0874   23222220.7754
      2875.2404
  -8440296.45145  -6376517.14845  22962866.0594   22962868.0524
     -2834.1704
   1006245.31742   3253700.30844  25414277.1104   25414271.2134
     -3646.0844
  -7147363.23545  -5340934.44445  23538842.9024   23538844.6374
     -2685.4284
 -22369072.59346 -15712751.40846  21055668.4834   21055668.1904
       -59.4214
 08  5 27  0 27  0.0000000  0  9G31G18G16G 6G 3G24G30G29G21
 -11147820.56345  -8493981.37246  23175566.6544   23175565.4704
     -3112.7474
  -5186808.09443  -2536886.71045  24355406.4714   24355407.5494
      2745.8144
 -19360599.60747 -10823250.71846  20978674.7894   20978674.2744
      1405.2424
 -14910795.01646 -10820842.95846  21873218.8854   21873219.2494
      1853.8004
  -6555094.98445  -3184110.87045  23205818.3194   23205818.6834
      2870.1794
  -8355120.35245  -6310146.15345  22979074.6014   22979075.5744
     -2844.2414
   1115662.18542   3338960.30943  25435097.9164   25435105.3954
     -3648.3664
  -7066759.59145  -5278126.46045  23554181.0394   23554179.9254
     -2688.1644
 -22367043.38946 -15711170.20446  21056054.6164   21056054.1364
       -75.8884
 08  5 27  0 27 30.0000000  0  8G31G18G16G 6G 3G24G29G21
 -11054317.83545  -8421122.08745  23193360.2784   23193360.0554
     -3120.7654
  -5269104.90143  -2601014.12245  24339746.2534   24339742.7014
      2740.6564
 -19402566.10246 -10855951.87646  20970688.6994   20970688.2424
      1392.5104
 -14966301.21446 -10864094.54146  21862656.5544   21862657.4334
      1846.6114
  -6641124.52545  -3251146.81045  23189448.3564   23189448.8834
      2865.1184
  -8269643.13045  -6243540.53145  22995340.0314   22995341.0984
     -2854.2254
  -6986073.79945  -5215254.44045  23569534.9404   23569535.5384
     -2690.8824
 -22364520.08846 -15709203.98746  21056534.4004   21056533.8374
       -92.3434
 08  5 27  0 28  0.0000000  0  9G31G18G16G 6G 3G24G25G29G21
 -10960575.24045  -8348075.93245  23211197.8834   23211196.4184
     -3128.7254
  -5351244.82143  -2665019.24345  24324116.3214   24324118.5484
      2735.3674
 -19444149.73946 -10888354.71146  20962775.6134   20962775.4724
      1379.7144
 -15021591.16846 -10907177.60746  21852135.2234   21852136.3254
      1839.4004
  -6727001.03745  -3318063.59445  23173106.2404   23173105.9584
      2859.9834
  -8183867.01145  -6176701.99345  23011662.9354   23011665.3034
     -2864.1544
    -28286.10641                  25497465.2004
      2354.9534
  -6905306.76945  -5152319.12545  23584904.7094   23584905.1424
     -2693.5924
 -22361503.16646 -15706853.13246  21057108.9314   21057108.1924
      -108.7794
 08  5 27  0 28 30.0000000  0  9G31G18G16G 6G 3G24G25G29G21
 -10866595.69345  -8274845.14945  23229081.6074   23229081.8534
     -3136.5484
  -5433224.56843  -2728899.46945  24308514.2004   24308514.0834
      2729.9834
 -19485348.92946 -10920457.96046  20954935.8234   20954935.5654
      1366.8864
 -15076664.76246 -10950092.07946  21841654.7614   21841655.6414
      1832.1854
  -6812723.89244  -3384860.55645  23156793.0234   23156794.8754
      2854.8694
  -8097794.64345  -6109632.58845  23028041.9314   23028043.8414
     -2873.9844
    -98753.20242                  25484056.9564
      2342.8904
  -6824459.12545  -5089320.95845  23600289.6314   23600289.2794
     -2696.2584
 -22357993.31446 -15704118.17746  21057776.7124   21057776.3024
      -125.1964
 08  5 27  0 29  0.0000000  0  9G31G18G16G 6G 3G24G25G29G21
 -10772381.83345  -8201431.74745  23247010.9504   23247010.3644
     -3144.3534
  -5515041.36743  -2792652.77245  24292946.9764   24292949.2034
      2724.4984
 -19526161.91746 -10952260.28646  20947169.3844   20947168.9744
      1353.9934
 -15131521.47146 -10992837.57246  21831216.0294   21831216.4634
      1824.9494
  -6898291.78645  -3451536.78345  23140510.4774   23140511.9774
      2849.7034
  -8011428.13945  -6042334.04245  23044477.0694   23044479.0034
     -2883.7434
   -168858.21741                  25470716.0994
      2330.7684
  -6743531.23745  -5026260.27045  23615690.0484   23615690.7394
     -2698.8984
 -22353990.84346 -15700999.35646  21058538.3224   21058537.7944
      -141.6084
 08  5 27  0 29 30.0000000  0  9G31G18G16G 6G 3G24G25G29G21
 -10677936.49345  -8127838.01645  23264982.9644   23264981.9214
     -3151.9724
  -5596692.64244  -2856277.11145  24277408.5714   24277408.6774
      2718.9254
 -19566587.51846 -10983760.75146  20939476.7004   20939475.8804
      1341.0534
 -15186161.06946 -11035413.86246  21820818.3394   21820819.3244
      1817.6974
  -6983704.49245  -3518092.14145  23124256.6354   23124256.8344
      2844.4714
  -7924770.27145  -5974808.43445  23060967.1484   23060969.4334
     -2893.4034
   -238599.39541                  25457443.1994
      2318.6214
  -6662523.92545  -4963137.72045  23631105.2334   23631105.4214
     -2701.5564
 -22349496.50846 -15697497.26046  21059393.4804   21059392.9874
      -157.9894
 08  5 27  0 30  0.0000000  0  9G31G18G16G 6G 3G24G25G29G21
 -10583262.80145  -8054066.28445  23282998.7144   23282998.1754
     -3159.5624
  -5678175.66743  -2919770.33645  24261902.4184   24261898.0814
      2713.2594
 -19606623.73946 -11014957.79946  20931857.6254   20931857.1564
      1328.0154
 -15240583.47246 -11077820.91746  21810462.0594   21810462.5404
      1810.4344
  -7068961.37045  -3584526.06545  23108033.3584   23108033.4874
      2839.2704
  -7837823.90645  -5907058.00045  23077512.5774   23077514.5114
     -2903.0204
   -307974.50442    -17986.19444  25444243.7224   25444244.5084
      2306.3744
  -6581438.15845  -4899954.02845  23646534.6354   23646533.8974
     -2704.1464
 -22344511.47346 -15693612.80646  21060342.0094   21060341.3524
      -174.3544
 08  5 27  0 30 30.0000000  0  9G31G18G16G 6G 3G24G25G29G21
 -10488363.44945  -7980118.77145  23301057.5704   23301057.5114
     -3167.0594
  -5759487.06143  -2983129.82445  24246428.1914   24246427.6874
      2707.5114
 -19646268.57046 -11045849.87546  20924313.7774   20924313.6244
      1314.9504
 -15294788.04646 -11120058.22546  21800146.9894   21800147.7754
      1803.1944
  -7154061.48445  -3650837.83345  23091839.2234   23091840.8874
      2834.0544
  -7750591.14245  -5839084.41545  23094112.1504   23094112.8414
     -2912.5044
   -376981.32042    -71757.64745  25431111.8334   25431113.8504
      2294.0484
  -6500274.06945  -4836709.30045  23661980.2934   23661981.2554
     -2706.7644
 -22339035.59046 -15689345.87046  21061384.1224   21061383.3614
      -190.7134
 08  5 27  0 31  0.0000000  0  9G31G18G16G 6G 3G24G25G29G21
 -10393241.44845  -7905997.74545  23319158.7864   23319158.0244
     -3174.4134
  -5840624.27844  -3046353.65345  24230990.2704   24230989.7434
      2701.6304
 -19685520.70146 -11076435.94346  20916844.3764   20916844.1074
      1301.8354
 -15348774.63146 -11162125.67746  21789873.8254   21789874.8104
      1795.9364
  -7239004.36645  -3717027.03745  23075675.0594   23075676.3134
      2828.8084
  -7663074.70545  -5770889.80745  23110766.4784   23110768.6704
     -2921.9094
   -445618.09242   -125240.95545  25418049.7184   25418053.4934
      2281.7114
  -6419032.72645  -4773404.38445  23677439.5474   23677440.3794
     -2709.3374
 -22333069.67446 -15684697.09046  21062519.4294   21062518.8084
      -207.0354
 08  5 27  0 31 30.0000000  0  9G31G18G16G 6G 3G24G25G29G21
 -10297899.85145  -7831705.59845  23337301.8764   23337301.3254
     -3181.7054
  -5921584.11843  -3109439.28445  24215582.6894   24215586.6044
      2695.6794
 -19724378.19246 -11106714.50746  20909450.0434   20909449.4694
      1288.6424
 -15402542.87546 -11204023.00646  21779642.1234   21779643.0024
      1788.6324
  -7323789.19645  -3783093.10745  23059541.8784   23059540.7884
      2823.5144
  -7575277.34445  -5702476.27045  23127474.3374   23127475.8384
     -2931.2544
   -513882.47642   -178433.86044  25405060.0014   25405058.6414
      2269.2304
  -6337714.41045  -4710039.49545  23692914.4564   23692915.3584
     -2711.9024
 -22326614.10046 -15679666.76246  21063747.7164   21063747.3764
      -223.3504
 08  5 27  0 32  0.0000000  0  9G31G18G16G 6G 3G24G25G29G21
 -10202341.67045  -7757244.68845  23355486.0254   23355486.2714
     -3188.8704
  -6002364.24443  -3172384.76945  24200211.7354   24200214.5954
      2689.6384
 -19762839.55846 -11136684.39346  20902130.6894   20902130.2204
      1275.4204
 -15456092.72046 -11245750.15246  21769451.7714   21769452.5564
      1781.3514
  -7408415.46045  -3849035.62745  23043437.6734   23043437.7674
      2818.2114
  -7487201.40345  -5633845.69745  23144233.6904   23144235.8234
     -2940.4864
   -581772.71443   -231335.41645  25392141.5514   25392143.2154
      2256.7464
  -6256320.03145  -4646615.32445  23708402.6014   23708403.2234
     -2714.4234
 -22319670.02546 -15674255.77846  21065069.1874   21065068.5424
      -239.6134
 08  5 27  0 32 30.0000000  0  9G31G18G16G 6G 3G24G25G29G21
 -10106569.38045  -7682616.96845  23373710.4984   23373709.5374
     -3195.9534
  -6082961.63043  -3235187.94545  24184873.4894   24184874.4624
      2683.5364
 -19800903.15146 -11166344.33446  20894887.4034   20894887.0634
      1262.1394
 -15509423.52246 -11287306.60146  21759303.4034   21759303.8604
      1774.0434
  -7492882.04545  -3914853.75045  23027363.8004   23027364.9724
      2812.9034
  -7398849.02945  -5564999.67645  23161047.2824   23161048.7364
     -2949.6364
   -649286.52743   -283943.64844  25379293.3054   25379299.9394
      2244.1964
  -6174849.82045  -4583132.06045  23723906.8744   23723907.8594
     -2716.9244
 -22312237.94446 -15668464.54146  21066483.6384   21066483.0764
      -255.8634
 08  5 27  0 33  0.0000000  0  9G31G18G16G 6G 3G24G25G29G21
 -10010585.75545  -7607824.53545  23391975.6634   23391974.9594
     -3202.9374
  -6163373.23444  -3297846.25745  24169573.0654   24169572.1974
      2677.2444
 -19838567.20146 -11195692.94146  20887720.2354   20887720.1534
      1248.7874
 -15562534.97746 -11328692.14046  21749196.6994   21749197.7434
      1766.7494
  -7577188.88245  -3980547.35845  23011321.0604   23011323.4874
      2807.5454
  -7310223.07645  -5495940.50445  23177911.7704   23177914.6774
     -2958.7394
   -716422.01042   -336256.92045  25366518.1194   25366519.1984
      2231.5234
  -6093304.30545  -4519590.14345  23739424.4514   23739424.9314
     -2719.4324
 -22304318.28446 -15662293.35746  21067990.4064   21067989.8204
      -272.1074
 08  5 27  0 33 30.0000000  0  9G31G18G16G 6G 3G24G25G29G21
  -9914394.20045  -7532870.06945  23410280.3104   23410279.5954
     -3209.8454
  -6243596.43244  -3360357.83245  24154306.7854   24154304.1834
      2670.9094
 -19875830.09746 -11224728.96846  20880629.3854   20880629.2324
      1235.3954
 -15615427.11846 -11369906.79046  21739131.6914   21739132.3824
      1759.3964
  -7661334.72145  -4046115.51745  22995308.5114   22995309.0624
      2802.1674
  -7221326.19645  -5426670.20445  23194828.0284   23194829.2354
     -2967.7174
   -783177.14342   -388273.81045  25353814.7264   25353817.0474
      2218.7974
  -6011684.49445  -4455990.30845  23754955.2354   23754956.3484
     -2721.8994
 -22295911.86546 -15655742.89046  21069590.1264   21069589.4584
      -288.3204
 08  5 27  0 34  0.0000000  0  9G31G18G16G 6G 3G24G25G29G21
  -9817997.30345  -7457755.62045  23428624.0664   23428624.2894
     -3216.6474
  -6323628.21844  -3422720.25945  24139077.3924   24139078.5994
      2664.4864
 -19912690.30646 -11253451.20346  20873615.3334   20873615.0524
      1221.9344
 -15668099.36046 -11410950.10046  21729108.2804   21729109.0544
      1752.0644
  -7745318.76145  -4111557.58945  22979325.6554   22979326.9794
      2796.7624
  -7132160.64845  -5357190.58045  23211795.7524   23211797.8154
     -2976.6324
   -849549.90042   -439993.02143  25341184.4494   25341182.9374
      2206.0214
  -5929990.75945  -4392332.86145  23770501.0864   23770502.5874
     -2724.3484
 -22287019.54446 -15648813.80246  21071282.5534   21071281.9674
      -304.4974
 08  5 27  0 34 30.0000000  0  9G31G18G16G 6G 3G24G25G29G21
  -9721398.30645  -7382483.70145  23447006.3294   23447006.4584
     -3223.3204
  -6403465.85643  -3484931.36945  24123884.7474   24123884.8174
      2658.0014
 -19949146.28446 -11281858.46846  20866677.7064   20866677.6594
      1208.4534
 -15720551.50946 -11451821.88946  21719127.2614   21719128.1404
      1744.7414
  -7829140.64745  -4176873.31145  22963375.2474   22963375.5284
      2791.3634
  -7042729.10845  -5287503.67045  23228814.6184   23228814.8404
     -2985.4574
   -915538.31842   -491412.46745  25328627.0424   25328629.5044
      2193.2034
  -5848223.95144  -4328618.49345  23786060.5904   23786062.2664
     -2726.7804
 -22277642.04746 -15641506.64546  21073067.0134   21073066.3104
      -320.6654
 08  5 27  0 35  0.0000000  0  9G31G18G16G 6G 3G24G25G29G21
  -9624600.00545  -7307056.45745  23465426.5714   23465425.1764
     -3229.8914
  -6483106.50244  -3546989.03645  24108729.1504   24108730.3814
      2651.3614
 -19985196.50646 -11309949.54446  20859817.7734   20859817.8084
      1194.8924
 -15772783.15146 -11492521.85746  21709187.8514   21709188.2034
      1737.3704
  -7912799.61245  -4242062.09245  22947455.6214   22947458.4224
      2785.9214
  -6953033.99745  -5217611.38245  23245882.5564   23245884.4554
     -2994.1924
   -981140.42342   -542531.12344  25316144.2854   25316138.4834
      2180.3094
  -5766384.40044  -4264847.42445  23801634.6704   23801634.5294
     -2729.1814
 -22267780.28046 -15633822.13946  21074943.6274   21074942.9124
      -336.7944
 08  5 27  0 35 30.0000000  0  9G31G18G16G 6G 3G24G25G29G21
  -9527605.07945  -7231475.99345  23483884.1974   23483883.5644
     -3236.3964
  -6562547.06544  -3608890.68645  24093612.2854   24093611.8404
      2644.6454
 -20020838.94846 -11337722.88146  20853035.5754   20853035.5294
      1181.2554
 -15824793.93346 -11533049.72946  21699290.6194   21699291.1234
      1730.0154
  -7996295.15545  -4307123.54545  22931567.1064   22931567.9974
      2780.4484
  -6863077.87145  -5147515.71345  23263000.9244   23263002.6584
     -3002.8604
  -1046354.11742   -593346.95545  25303734.2604   25303734.3544
      2167.2694
  -5684472.61245  -4201020.10145  23817222.8694   23817223.4554
     -2731.5994
 -22257434.34446 -15625760.35046  21076912.1944   21076911.7614
      -352.9244
 08  5 27  0 36  0.0000000  0  9G31G18G16G 6G 3G24G25G29G21
  -9430416.47445  -7155744.63945  23502377.9864   23502377.4704
     -3242.7994
  -6641784.98944  -3670634.52745  24078534.1524   24078532.2774
      2637.8764
 -20056072.11646 -11365177.30046  20846330.6734   20846330.2514
      1167.6024
 -15876583.77646 -11573405.42946  21689435.2774   21689435.9804
      1722.6354
  -8079625.89145  -4372056.53645  22915709.9444   22915711.1994
      2774.9344
  -6772863.14945  -5077218.54345  23280167.7554   23280169.6784
     -3011.4394
  -1111177.55743   -643858.67145  25291397.9414   25291396.0664
      2154.2704
  -5602489.48645  -4137137.16445  23832823.1264   23832821.8254
     -2733.9714
 -22246605.40346 -15617322.18646  21078972.9374   21078972.5734
      -369.0074
 08  5 27  0 36 30.0000000  0  9G31G18G16G 6G 3G24G25G29G21
  -9333037.64345  -7079865.03645  23520908.9054   23520906.5494
     -3249.1114
  -6720817.37444  -3732218.17445  24063494.6874   24063496.0934
      2630.9284
 -20090894.42146 -11392311.56146  20839704.0284   20839703.3954
      1153.8704
 -15928152.01146 -11613588.45646  21679622.0604   21679622.2484
      1715.2474
  -8162791.47945  -4436860.86145  22899884.0174   22899885.3654
      2769.4134
  -6682392.28245  -5006721.76145  23297384.7274   23297386.4154
     -3019.9354
  -1175608.75742   -694064.85144  25279136.7904   25279132.9694
      2141.1574
  -5520435.40245  -4073198.91145  23848437.7044   23848437.9394
     -2736.3284
 -22235294.09946 -15608508.14646  21081125.2224   21081124.5184
      -385.0754
 08  5 27  0 37  0.0000000  0  9G31G18G16G 6G 3G24G25G29G21
  -9235471.10045  -7003839.16445  23539474.8114   23539474.4474
     -3255.3304
  -6799641.30144  -3793639.43945  24048494.9954   24048496.0384
      2623.9654
 -20125304.36146 -11419124.50146  20833156.2154   20833155.6754
      1140.0954
 -15979498.72746 -11653598.87546  21669851.0334   21669851.4194
      1707.8334
  -8245791.18145  -4501535.93945  22884090.2994   22884091.8234
      2763.8784
  -6591668.11345  -4936027.65845  23314647.9274   23314649.0174
     -3028.3444
  -1239645.81642   -743963.77745  25266952.2334   25266956.9924
      2127.9794
  -5438310.93945  -4009205.88145  23864065.2214   23864066.4174
     -2738.6604
 -22223501.63646 -15599319.17046  21083369.3014   21083368.5864
      -401.0844
 08  5 27  0 37 30.0000000  0  9G31G18G16G 6G 3G24G25G29G21
  -9137719.30645  -6927668.95845  23558076.7354   23558075.4934
     -3261.4314
  -6878253.81045  -3854895.93045  24033535.5154   24033535.1404
      2616.8594
 -20159300.08146 -11445614.67246  20826687.2204   20826687.1854
      1126.2674
 -16030623.17046 -11693436.09146  21660122.1104   21660122.4034
      1700.4564
  -8328624.10745  -4566081.04245  22868327.1824   22868329.7144
      2758.3114
  -6500692.83645  -4865137.79645  23331960.6504   23331962.0454
     -3036.6554
  -1303286.41442   -793553.75145  25254841.6704   25254840.7904
      2114.7284
  -5356116.42345  -3945158.23445  23879705.7044   23879707.6614
     -2740.9734
 -22211228.68646 -15589755.80746  21085705.0084   21085704.2114
      -417.1084
 08  5 27  0 38  0.0000000  0  9G31G18G16G 6G 3G24G25G29G21
  -9039785.74745  -6851357.11345  23576712.9974   23576712.7744
     -3267.4274
  -6956652.79144  -3915985.97345  24018616.7134   24018615.9514
      2609.6934
 -20192880.36846 -11471781.12346  20820296.6934   20820296.5644
      1112.4104
 -16081525.36446 -11733100.12146  21650436.4224   21650436.8914
      1693.0324
  -8411289.68645  -4630495.76345  22852596.1664   22852596.0374
      2752.7314
  -6409469.10045  -4794054.35845  23349319.7404   23349323.3624
     -3044.8924
  -1366529.14642   -842833.84145  25242806.2444   25242803.9234
      2101.4424
  -5273852.67945  -3881056.66545  23895360.5484   23895362.0254
     -2743.2724
 -22198475.79546 -15579818.46546  21088131.5214   21088131.0414
      -433.0804
 08  5 27  0 38 30.0000000  0  9G31G18G16G 6G 3G24G25G29G21
  -8941673.40945  -6774905.97745  23595383.8074   23595383.7954
     -3273.3434
  -7034834.21044  -3976906.54945  24003739.1334   24003738.0204
      2602.3974
 -20226043.36946 -11497622.42346  20813986.4094   20813985.9984
      1098.4644
 -16132204.88546 -11772590.65146  21640792.2554   21640792.6544
      1685.6054
  -8493787.01445  -4694779.36745  22836897.9514   22836898.7484
      2747.1174
  -6317999.04845  -4722779.02645  23366725.3564   23366727.3954
     -3053.0704
  -1429372.04842   -891802.31644  25230847.5734   25230846.7174
      2088.0414
  -5191520.31844  -3816901.56245  23911028.0704   23911028.1164
     -2745.5334
 -22185243.98246 -15569507.94646  21090649.6784   21090649.2804
      -449.0304
 08  5 27  0 39  0.0000000  0  9G31G18G16G 6G 3G24G25G29G21
  -8843384.99945  -6698317.61345  23614086.3144   23614086.4324
     -3279.1784
  -7112796.06844  -4037656.05145  23988903.2124   23988902.7904
      2595.0474
 -20258787.49146 -11523137.32446  20807755.1464   20807754.7834
      1084.4764
 -16182661.49546 -11811907.48046  21631190.2254   21631191.1754
      1678.1574
  -8576115.85645  -4758931.69945  22821231.1414   22821231.1534
      2741.4674
  -6226285.65145  -4651314.03245  23384178.2964   23384180.4764
     -3061.1384
  -1491813.07342   -940457.58444  25218964.9364   25218969.4844
      2074.6714
  -5109119.82444  -3752693.42645  23926707.6974   23926708.6704
     -2747.8274
 -22171534.16146 -15558824.96146  21093258.1804   21093257.3714
      -464.9554
 08  5 27  0 39 30.0000000  0  9G31G18G16G 6G 3G24G25G29G21
  -8744923.36245  -6621594.24345  23632822.8934   23632819.4824
     -3284.8844
  -7190535.17545  -4098231.91345  23974111.0974   23974111.3554
      2587.5844
 -20291111.36146 -11548324.75346  20801604.4574   20801604.1524
      1070.4484
 -16232894.73546 -11851050.23846  21621631.3584   21621631.7214
      1670.7274
  -8658275.15845  -4822951.86845  22805596.5364   22805597.2274
      2735.8234
  -6134331.03745  -4579661.09745  23401676.3624   23401677.7804
     -3069.1264
  -1553850.34242   -988798.27645  25207160.0414   25207158.3534
      2061.1834
  -5026651.72444  -3688432.59745  23942400.9294   23942402.2894
     -2750.0424
 -22157347.22046 -15547770.19746  21095957.9934   21095957.3604
      -480.8244
 08  5 27  0 40  0.0000000  0  9G31G18G16G 6G 3G24G25G29G21
  -8646291.59245  -6544738.35145  23651592.2934   23651591.3904
     -3290.5314
  -7268048.71744  -4158632.08445  23959358.9954   23959360.7424
      2580.0034
 -20323013.51146 -11573183.57846  20795533.2464   20795532.8354
      1056.3534
 -16282904.28846 -11890018.72046  21612115.0214   21612115.5024
      1663.2424
  -8740264.07045  -4886839.32245  22789994.6404   22789995.0864
      2730.1004
  -6042137.81745  -4507822.20045  23419220.5294   23419221.6664
     -3077.0614
  -1615481.91842  -1036822.88145  25195431.6214   25195433.3094
      2047.5924
  -4944116.40244  -3624119.39945  23958107.0144   23958109.3824
     -2752.3084
 -22142684.06946 -15536344.36546  21098748.5254   21098747.8694
      -496.7164
 08  5 27  0 40 30.0000000  0  9G31G18G16G 6G 3G24G25G29G21
  -8547492.50345  -6467752.08745  23670393.2284   23670392.6544
     -3296.0724
  -7345334.04444  -4218854.35045  23944652.3324   23944653.0244
      2572.3284
 -20354492.14646 -11597712.38346  20789543.1774   20789543.0954
      1042.2084
 -16332690.03946 -11928812.78646  21602640.7534   21602641.6914
      1655.7814
  -8822082.09245  -4950593.63045  22774425.4144   22774426.5874
      2724.4234
  -5949708.55145  -4435799.40545  23436808.9404   23436810.7924
     -3084.8894
  -1676706.22042  -1084530.06945  25183781.6854   25183788.0734
      2033.9944
  -4861514.63044  -3559754.39345  23973825.6894   23973826.6744
     -2754.5094
 -22127545.36446 -15524547.97146  21101629.2614   21101628.7924
      -512.5474
 08  5 27  0 41  0.0000000  0  9G31G18G16G 6G 3G24G25G29G21
  -8448529.11545  -6390637.75945  23689225.4414   23689225.0194
     -3301.4724
  -7422388.40245  -4278896.73745  23929989.6194   23929988.5644
      2564.6134
 -20385545.90846 -11621910.11146  20783634.0964   20783633.8144
      1028.0244
 -16382251.44146 -11967432.05346  21593209.8154   21593210.0734
      1648.3104
  -8903728.42545  -5014214.10045  22758888.3864   22758889.6054
      2718.6834
  -5857045.69945  -4363594.59845  23454443.0784   23454445.0354
     -3092.6284
  -1737521.20442  -1131918.33845  25172208.3044   25172211.1294
      2020.2954
  -4778846.73044  -3495337.86345  23989556.5924   23989559.8034
     -2756.7084
 -22111931.90646 -15512381.63746  21104600.2504   21104599.8164
      -528.3384
 08  5 27  0 41 30.0000000  0  9G31G18G16G 6G 3G24G25G29G21
  -8349404.14845  -6313397.56545  23708088.3914   23708087.7124
     -3306.8224
  -7499208.77845  -4338756.71545  23915372.1154   23915371.6114
      2556.7354
 -20416173.01946 -11645775.40246  20777805.7764   20777805.2134
      1013.7644
 -16431588.08246 -12005876.19146  21583821.3024   21583821.8534
      1640.7984
  -8985202.19745  -5077700.16345  22743384.3474   22743385.7774
      2712.9314
  -5764151.82145  -4291209.75545  23472119.1354   23472120.5894
     -3100.2904
  -1797924.85142  -1178986.09345  25160714.6164   25160715.8234
      2006.5914
  -4696113.51544  -3430870.43045  24005300.4514   24005301.0024
     -2758.8724
 -22095844.74846 -15499846.18246  21107661.3264   21107660.6464
      -544.1224
 08  5 27  0 42  0.0000000  0  9G31G18G16G 6G 3G24G25G29G21
  -8250120.89945  -6236033.99045  23726981.0594   23726980.3324
     -3312.0644
  -7575792.76345  -4398432.55445  23900797.9504   23900798.8294
      2548.8244
 -20446372.08146 -11669307.13746  20772059.1664   20772058.7444
       999.4794
 -16480699.93746 -12044145.15546  21574475.7094   21574476.1314
      1633.2984
  -9066502.95345  -5141051.36945  22727913.2174   22727914.1664
      2707.1254
  -5671029.55245  -4218646.95545  23489840.0514   23489841.5404
     -3107.8404
  -1857915.65442  -1225732.11245  25149299.0224   25149303.5704
      1992.7394
  -4613315.33244  -3366352.38945  24021057.3894   24021058.1984
     -2761.0084
 -22079284.96046 -15486942.43746  21110812.8834   21110812.2274
      -559.8674
 08  5 27  0 42 30.0000000  0  9G31G18G16G 6G 3G24G25G29G21
  -8150681.69645  -6158548.91345  23745903.8584   23745902.7214
     -3317.2024
  -7652137.11344  -4457921.60945  23886270.1434   23886268.9954
      2540.7734
 -20476141.54846 -11692504.12646  20766394.2024   20766393.8864
       985.1394
 -16529586.51346 -12082238.58146  21565172.8434   21565173.2654
      1625.7754
  -9147629.56345  -5204266.87145  22712475.1684   22712477.0794
      2701.3084
  -5577680.97745  -4145907.80745  23507603.7264   23507604.5234
     -3115.3724
  -1917491.53942  -1272154.88245  25137962.0904   25137965.5834
      1978.9414
  -4530452.21944  -3301783.76545  24036825.0604   24036826.4554
     -2763.1774
 -22062253.64146 -15473671.27046  21114053.8634   21114052.9724
      -575.5574
 08  5 27  0 43  0.0000000  0  9G31G18G16G 6G 3G24G25G29G21
  -8051089.94145  -6080944.95845  23764855.8004   23764855.4024
     -3322.2544
  -7728239.09245  -4517221.90345  23871788.2394   23871786.6574
      2532.6484
 -20505479.76746 -11715365.08346  20760811.3014   20760811.2664
       970.7294
 -16578247.36746 -12120156.12546  21555912.6574   21555913.1964
      1618.2724
  -9228581.63345  -5267346.39545  22697070.4434   22697070.8424
      2695.4764
  -5484108.26545  -4072994.01445  23525410.0864   23525411.1294
     -3122.7924
  -1976650.83342  -1318253.00445  25126704.2424   25126703.5624
      1965.0414
  -4447525.15144  -3237165.30945  24052605.4774   24052604.5514
     -2765.3094
 -22044751.60046 -15460033.30946  21117384.2834   21117383.6384
      -591.2524
 08  5 27  0 43 30.0000000  0  9G31G18G16G 6G 3G24G25G29G21
  -7951348.57345  -6003224.42045  23783836.3914   23783836.0394
     -3327.1514
  -7804095.99045  -4576331.17445  23857353.8984   23857355.1064
      2524.4504
 -20534385.65846 -11737889.14746  20755310.6724   20755310.4494
       956.3064
 -16626682.36746 -12157897.67646  21546695.7254   21546696.2654
      1610.7304
  -9309358.33345  -5330289.24845  22681699.2164   22681700.2364
      2689.6384
  -5390314.32345  -3999907.83345  23543258.3904   23543260.2894
     -3130.1034
  -2035391.64641  -1364025.04445  25115524.7124   25115526.9164
      1951.0344
  -4364535.09744  -3172497.74845  24068398.8654   24068400.4944
     -2767.3674
 -22026779.79746 -15446029.29646  21120804.2054   21120803.1974
      -606.8634
 08  5 27  0 44  0.0000000  0  9G31G18G16G 6G 3G24G25G29G21
  -7851460.44445  -5925389.53745  23802843.9574   23802843.7704
     -3332.0354
  -7879704.92545  -4635247.20145  23842965.6664   23842964.6584
      2516.1414
 -20562857.27546 -11760074.83346  20749892.7254   20749892.2794
       941.7884
 -16674891.18946 -12195462.99646  21537522.2684   21537523.0304
      1603.1584
  -9389958.78845  -5393094.77245  22666360.8134   22666360.7204
      2683.7104
  -5296301.57345  -3926651.14745  23561148.5854   23561151.3164
     -3137.3994
  -2093712.42642  -1409469.83545  25104427.8984   25104431.8144
      1936.9924
  -4281481.99343  -3107781.06245  24084202.0734   24084204.0544
     -2769.4804
 -22008339.09746 -15431659.91046  21124313.3314   21124312.6404
      -622.5124
 08  5 27  0 44 30.0000000  0  9G31G18G16G 6G 3G24G25G29G21
  -7751428.19745  -5847442.35045  23821879.5224   23821878.0804
     -3336.7944
  -7955063.02245  -4693967.76945  23828624.8064   23828622.0754
      2507.6954
 -20590893.47746 -11781921.22746  20744557.8404   20744557.3834
       927.2534
 -16722873.26746 -12232851.62346  21528391.3954   21528392.2274
      1595.6194
  -9470382.18445  -5455762.36245  22651057.6814   22651058.5254
      2677.8154
  -5202072.32945  -3853225.76845  23579079.0274   23579080.1174
     -3144.5634
  -2151611.03442  -1454585.56345  25093410.5824   25093412.2124
      1922.9044
  -4198366.27844  -3043015.59545  24100019.0614   24100017.8774
     -2771.5714
 -21989430.65046 -15416926.05346  21127911.6404   21127910.9954
      -638.0704
 08  5 27  0 45  0.0000000  0  9G31G18G16G 6G 3G24G25G29G21
  -7651255.05045  -5769385.37545  23840941.8884   23840940.1654
     -3341.4264
  -8030167.76645  -4752490.95845  23814332.8334   23814332.3644
      2499.2454
 -20618492.82746 -11803427.23046  20739305.6874   20739305.4174
       912.6614
 -16770628.57146 -12270063.56146  21519304.1284   21519304.9844
      1588.0534
  -9550628.19245  -5518291.69445  22635787.3794   22635787.8134
      2671.8874
  -5107629.16745  -3779633.70045  23597051.5994   23597053.4044
     -3151.6574
  -2209086.04842  -1499371.33445  25082471.7964   25082470.3544
      1908.7584
  -4115188.98743  -2978202.14745  24115846.8064   24115846.9354
     -2773.5884
 -21970055.51646 -15401828.53346  21131598.2444   21131597.5404
      -653.6194
 08  5 27  0 45 30.0000000  0  9G31G18G16G 6G 3G24G25G29G21
  -7550943.66145  -5691220.66745  23860030.5154   23860028.5924
     -3345.9814
  -8105016.05045  -4810814.27745  23800089.7644   23800088.7684
      2490.6584
 -20645653.34846 -11824591.26946  20734137.2514   20734136.5594
       898.0314
 -16818156.50646 -12307098.31346  21510259.4284   21510259.9324
      1580.5024
  -9630695.42645  -5580681.71645  22620551.2824   22620552.2444
      2665.9644
  -5012974.26645  -3705876.64045  23615064.0594   23615066.0404
     -3158.6594
  -2266135.55143  -1543825.54545  25071617.0814   25071619.0394
      1894.5564
  -4031950.09344  -2913340.71745  24131687.1824   24131687.8264
     -2775.6354
 -21950214.56646 -15386368.04946  21135373.9354   21135373.1624
      -669.1044
 08  5 27  0 46  0.0000000  0  9G31G18G16G 6G 3G24G25G29G21
  -7450497.11945  -5612950.65845  23879145.2434   23879144.0124
     -3350.4574
  -8179605.72045  -4868936.08045  23785895.7134   23785894.2254
      2481.9484
 -20672373.95146 -11845412.53146  20729052.1934   20729052.0284
       883.3264
 -16865456.92846 -12343955.77046  21501258.9044   21501259.4794
      1572.8634
  -9710583.83445  -5642932.40245  22605348.6454   22605348.5634
      2659.9284
  -4918110.28945  -3631956.65545  23633116.1274   23633117.3354
     -3165.5884
  -2322757.86843  -1587946.73645  25060841.7424   25060843.7234
      1880.2804
  -3948650.12944  -2848431.66645  24147538.5604   24147538.9944
     -2777.6874
 -21929909.07646 -15370545.58246  21139238.1114   21139237.3614
      -684.5914
 08  5 27  0 46 30.0000000  0  9G31G18G16G 6G 3G24G25G29G21
  -7349918.48245  -5534577.69445  23898284.6404   23898283.3864
     -3354.7974
  -8253933.64244  -4926853.93645  23771752.4804   23771752.2694
      2473.1844
 -20698653.01346 -11865889.72646  20724051.7874   20724051.5764
       868.5854
 -16912529.15046 -12380635.42746  21492301.0454   21492301.3504
      1565.2714
  -9790292.13845  -5705042.77645  22590181.1144   22590181.7354
      2653.9394
  -4823039.51945  -3557875.56545  23651207.5974   23651209.4964
     -3172.4454
  -2378951.30943  -1631733.82945  25050148.6404   25050148.5934
      1865.9284
  -3865289.66344  -2783475.49145  24163402.3314   24163402.7064
     -2779.6804
 -21909139.99146 -15354361.87146  21143190.1234   21143189.5254
      -700.0244
 08  5 27  0 47  0.0000000  0  9G31G18G16G 6G 3G24G25G29G21
  -7249210.47545  -5456103.97045  23917448.8034   23917447.7254
     -3359.0404
  -8327996.79845  -4984565.44945  23757658.3174   23757659.3134
      2464.3314
 -20724489.32246 -11886021.91946  20719135.1154   20719135.1034
       853.8254
 -16959373.19546 -12417137.27246  21483387.1714   21483387.6764
      1557.6684
  -9869819.98345  -5767012.50445  22575046.6754   22575047.3784
      2647.9084
  -4727764.54545  -3483635.32945  23669337.4984   23669340.4054
     -3179.2214
  -2434714.22444  -1675185.43545  25039537.4024   25039539.3014
      1851.5944
  -3781869.25743  -2718472.60145  24179275.3264   24179277.2954
     -2781.6714
 -21887908.40846 -15337817.78046  21147230.4844   21147229.7804
      -715.4064
 08  5 27  0 47 30.0000000  0  9G31G18G16G 6G 3G24G25G29G21
  -7148376.17545  -5377531.80745  23936637.1644   23936636.7074
     -3363.2094
  -8401792.52645  -5042068.60245  23743615.5264   23743616.5814
      2455.3444
 -20749881.45446 -11905808.00346  20714303.1484   20714302.8194
       838.9774
 -17005988.64146 -12453460.99746  21474516.2444   21474517.1824
      1550.0354
  -9949166.13345  -5828840.64745  22559947.3964   22559947.1974
      2641.8264
  -4632287.84745  -3409237.91445  23687506.4644   23687507.6364
     -3185.8994
  -2490044.96543  -1718300.27445  25029009.0154   25029010.3514
      1837.1594
  -3698389.53344  -2653423.48645  24195162.3594   24195164.0824
     -2783.6334
 -21866215.36846 -15320914.10346  21151358.4234   21151357.6844
      -730.7954
 08  5 27  0 48  0.0000000  0  9G31G18G16G 6G 3G24G25G29G21
  -7047417.85545  -5298863.01745  23955848.9354   23955847.3414
     -3367.3064
  -8475317.95945  -5099361.17245  23729623.8334   23729622.0284
      2446.3094
 -20774827.79046 -11925246.71146  20709555.9564   20709555.4284
       824.1014
 -17052375.10246 -12489606.28646  21465689.8164   21465690.4954
      1542.3944
 -10028329.78045  -5890526.58145  22544883.4794   22544884.8274
      2635.7424
  -4536611.39844  -3334684.82145  23705712.2304   23705713.2854
     -3192.5154
  -2544941.48643  -1761076.80045  25018561.1144   25018561.3724
      1822.6304
  -3614850.46044  -2588328.14445  24211059.0294   24211062.4994
     -2785.6164
 -21844061.76046 -15303651.54146  21155574.1984   21155573.5064
      -746.1134
 08  5 27  0 48 30.0000000  0  9G31G18G16G 6G 3G24G25G29G21
  -6946339.17345  -5220100.42745  23975083.1604   23975081.9534
     -3371.2554
  -8548570.69145  -5156441.18545  23715684.0814   23715684.0114
      2437.1704
 -20799327.16846 -11944337.13746  20704894.1094   20704893.7344
       809.1664
 -17098532.26346 -12525572.91446  21456906.0034   21456906.4014
      1534.7474
 -10107310.76045  -5952070.19545  22529853.8294   22529854.7554
      2629.6464
  -4440737.84445  -3259978.18845  23723956.9404   23723958.3704
     -3199.0574
  -2599402.52843  -1803513.93445  25008197.7364   25008198.1934
      1808.1224
  -3531253.00443  -2523187.28745  24226966.6844   24226969.1464
     -2787.5704
 -21821449.07746 -15286031.25746  21159877.3784   21159877.0614
      -761.4214
 08  5 27  0 49  0.0000000  0  9G31G18G16G 6G 3G24G25G29G21
  -6845142.81645  -5141246.13345  23994339.5464   23994337.0024
     -3375.1574
  -8621547.61745  -5213306.28845  23701797.1694   23701797.1344
      2427.9014
 -20823377.94046 -11963077.99746  20700317.4364   20700316.7564
       794.1844
 -17144459.79946 -12561360.59846  21448165.9314   21448166.7874
      1527.0764
 -10186108.28745  -6013470.87045  22514859.1444   22514860.0464
      2623.5004
  -4344669.83344  -3185119.98945  23742237.8014   23742239.6414
     -3205.4984
  -2653426.32243  -1845610.39245  24997917.9674   24997919.6674
      1793.4554
  -3447597.48443  -2458001.24245  24242885.7214   24242887.1864
     -2789.4954
 -21798378.26846 -15268053.99746  21164267.5014   21164266.9614
      -776.6534
 08  5 27  0 49 30.0000000  0  9G31G18G16G 6G 3G24G25G29G21
  -6743831.70945  -5062302.42845  24013619.4674   24013617.9314
     -3378.9224
  -8694246.14345  -5269954.46945  23687963.4284   23687964.6474
      2418.6254
 -20846978.67046 -11981468.18046  20695826.3164   20695825.9294
       779.1854
 -17190157.31746 -12596969.04946  21439470.1984   21439470.5384
      1519.4244
 -10264721.44245  -6074727.81845  22499899.5764   22499900.3854
      2617.3594
  -4248409.50744  -3110111.95045  23760555.7544   23760557.7594
     -3211.8484
  -2707011.13043  -1887364.72145  24987720.8104   24987717.6574
      1778.8504
  -3363884.14843  -2392770.06345  24258816.0444   24258816.7834
     -2791.4004
 -21774850.46846 -15249720.63746  21168744.2544   21168743.8204
      -791.8634
 08  5 27  0 50  0.0000000  0  9G31G18G16G 6G 3G24G25G29G21
  -6642408.74544  -4983271.59845  24032919.3114   24032919.2174
     -3382.6054
  -8766663.86645  -5326383.87045  23674181.9794   23674181.9094
      2409.2204
 -20870128.12346 -11999506.72446  20691421.1304   20691420.9424
       764.1034
 -17235624.60846 -12632398.12046  21430818.4374   21430819.0934
      1511.7074
 -10343149.10645  -6135840.30245  22484975.4474   22484975.8104
      2611.1594
  -4151959.34544  -3034955.96145  23778910.5164   23778910.8094
     -3218.1304
  -2760155.49643  -1928775.91945  24977607.4614   24977610.4394
      1764.0994
  -3280113.81644  -2327494.49845  24274757.9604   24274759.2734
     -2793.2824
 -21750866.90246 -15231032.14946  21173308.5304   21173308.0384
      -807.0434
 08  5 27  0 50 30.0000000  0  9G31G18G16G 6G 3G24G25G29G21
  -6540876.76444  -4904155.79845  24052239.9594   24052239.5844
     -3386.1834
  -8838797.50545  -5382591.87645  23660456.3654   23660456.3544
      2399.6984
 -20892824.74146 -12017192.39646  20687102.0224   20687101.7994
       748.9974
 -17280861.08946 -12667647.32546  21422209.7964   21422210.4524
      1504.0404
 -10421390.75945  -6196807.82245  22470086.1724   22470086.8054
      2604.9524
  -4055321.77044  -2959653.93645  23797299.0604   23797300.0924
     -3224.3384
  -2812857.77743  -1969842.63945  24967578.9554   24967583.1164
      1749.3494
  -3196286.65743  -2262174.67345  24290708.7794   24290708.5324
     -2795.1844
 -21726428.57746 -15211989.29546  21177958.8904   21177958.2924
      -822.1744
 08  5 27  0 51  0.0000000  0  9G31G18G16G 6G 3G24G25G29G21
  -6439238.95044  -4824957.52845  24071581.0454   24071581.9724
     -3389.6344
  -8910644.60545  -5438576.57845  23646783.5214   23646783.7324
      2390.1184
 -20915067.72646 -12034524.59746  20682869.2674   20682869.1964
       733.8594
 -17325866.65446 -12702716.60346  21413645.2574   21413646.2424
      1496.3444
 -10499445.52145  -6257629.71145  22455233.4374   22455233.4014
      2598.7214
  -3958499.25945  -2884207.84745  23815724.1044   23815726.8584
     -3230.4434
  -2865116.50843  -2010563.65945  24957633.9234   24957636.2094
      1734.5664
  -3112403.34044  -2196811.06845  24306671.3364   24306671.0314
     -2797.0304
 -21701536.98446 -15192593.24846  21182695.9504   21182695.0824
      -837.2384
 08  5 27  0 51 30.0000000  0  9G31G18G16G 6G 3G24G25G29G21
  -6337497.88544  -4745678.77445  24090941.4714   24090940.1354
     -3393.0734
  -8982202.42245  -5494335.89645  23633167.2254   23633167.4364
      2380.3974
 -20936855.23046 -12051501.87446  20678723.1444   20678722.7574
       718.6234
 -17370640.77446 -12737605.52346  21405125.3474   21405125.8514
      1488.5754
 -10577312.57945  -6318305.33045  22440415.8334   22440416.0094
      2592.4164
  -3861494.13944  -2808619.45545  23834183.2314   23834184.8024
     -3236.5174
  -2916929.89042  -2050937.67645  24947775.1524   24947777.1804
      1719.6594
  -3028464.12543  -2131403.93845  24322644.7164   24322646.3344
     -2798.9294
 -21676193.13746 -15172844.79046  21187518.5534   21187517.8504
      -852.3314
 08  5 27  0 52  0.0000000  0  9G31G18G16G 6G 3G24G25G29G21
  -6235656.41944  -4666321.84445  24110320.8804   24110320.8564
     -3396.3574
  -9053468.32145  -5549867.76245  23619605.1854   23619605.8064
      2370.6064
 -20958185.86346 -12068123.14646  20674664.3314   20674664.0274
       703.3774
 -17415183.02746 -12772313.78846  21396649.5744   21396649.9734
      1480.8704
 -10654991.36245  -6378834.23445  22425633.3694   22425634.9634
      2586.1594
  -3764308.87044  -2732890.67745  23852677.0484   23852675.5834
     -3242.5104
  -2968296.48642  -2090963.57545  24938000.6064   24938000.2424
      1704.7344
  -2944469.59443  -2065953.71445  24338628.8664   24338629.7454
     -2800.7544
 -21650397.95846 -15152744.65446  21192427.2254   21192426.4984
      -867.3604
 08  5 27  0 52 30.0000000  0  9G31G18G16G 6G 3G24G25G29G21
  -6133717.68144  -4586889.05745  24129720.0064   24129719.8534
     -3399.5584
  -9124439.57845  -5605169.99845  23606099.6734   23606099.3694
      2360.7794
 -20979058.50646 -12084387.54446  20670692.2834   20670691.9204
       688.1054
 -17459493.19046 -12806841.18246  21388217.4114   21388217.8454
      1473.1294
 -10732481.34945  -6439216.01945  22410887.2394   22410887.3684
      2579.8464
  -3666945.53144  -2657023.10345  23871204.3844   23871206.3424
     -3248.4014
  -3019214.58642                  24928309.4414
      1689.7914
  -2860420.21543  -2000460.66145  24354621.7484   24354623.9754
     -2802.5564
 -21624153.07846 -15132294.08646  21197421.2774   21197420.2804
      -882.3064
 08  5 27  0 53  0.0000000  0  9G31G18G16G 6G 3G24G25G29G21
  -6031684.25644  -4507382.54545  24149135.6644   24149137.1184
     -3402.6674
  -9195113.21745  -5660240.34945  23592651.3514   23592651.6214
      2350.7964
 -20999471.55946 -12100293.81146  20666807.7884   20666807.6834
       672.7554
 -17503570.78746 -12841187.35846  21379829.5524   21379830.4434
      1465.3754
 -10809781.10345  -6499449.57945  22396178.1264   22396178.5124
      2573.4944
  -3569406.19144  -2581018.46145  23889764.9474   23889766.2364
     -3254.2134
  -3069682.78642                  24918706.1344
      1674.7704
  -2776316.24443  -1934925.13245  24370627.5614   24370631.2894
     -2804.3694
 -21597459.30746 -15111493.74946  21202501.0084   21202500.3634
      -897.2564
 08  5 27  0 53 30.0000000  0  9G31G18G16G 6G 3G24G25G29G21
  -5929559.22843  -4427804.63045  24168570.0544   24168569.2104
     -3405.6194
  -9265486.62245  -5715076.78145  23579259.2894   23579258.7264
      2340.7614
 -21019424.10446 -12115841.25446  20663010.7894   20663010.8364
       657.4024
 -17547415.54446 -12875352.10646  21371486.5634   21371487.2314
      1457.6134
 -10886890.19545  -6559534.57045  22381504.2194   22381505.0744
      2567.1274
  -3471693.77743  -2504878.94645  23908359.2614   23908362.3914
     -3259.9344
  -3119699.67842     -6470.05644  24909188.9084   24909188.9674
      1659.7004
  -2692158.14343  -1869347.40745  24386642.2224   24386644.4854
     -2806.1674
 -21570318.11646 -15090344.76246  21207665.5934   21207665.0184
      -912.1354
 08  5 27  0 54  0.0000000  0  9G31G18G16G 6G 3G24G25G29G21
  -5827345.51743  -4348157.56645  24188020.2064   24188018.3544
     -3408.5854
  -9335557.32045  -5769677.31145  23565925.7804   23565925.4764
      2330.6114
 -21038914.64646 -12131028.69046  20659302.1064   20659301.8364
       641.9634
 -17591027.17046 -12909335.18446  21363187.4684   21363188.2774
      1449.8324
 -10963808.16845  -6619470.66145  22366867.9234   22366868.1114
      2560.7384
  -3373810.47943  -2428606.21245  23926986.5654   23926988.7224
     -3265.6064
  -3169263.62842    -45091.34445  24899755.7884   24899761.8724
      1644.5864
  -2607946.39443  -1803727.86545  24402665.9334   24402666.2024
     -2807.9684
 -21542730.80546 -15068848.15146  21212915.4174   21212914.8774
      -927.0104
 08  5 27  0 54 30.0000000  0  9G31G18G16G 6G 3G24G25G29G21
  -5725045.80043  -4268443.58845  24207487.3184   24207487.9044
     -3411.3944
  -9405322.31845  -5824039.62545  23552650.3934   23552650.2994
      2320.3864
 -21057941.89146 -12145855.11346  20655681.5784   20655681.3324
       626.5114
 -17634405.14046 -12943136.19446  21354932.8034   21354933.1904
      1442.0374
 -11040533.77345  -6679256.83645  22352267.4394   22352267.9554
      2554.2974
  -3275758.45743  -2352202.06745  23945645.1684   23945649.7404
     -3271.2054
  -3218373.02641    -83358.24544  24890410.0354   24890419.0384
      1629.3434
  -2523681.29543  -1738066.76945  24418701.1614   24418700.6684
     -2809.7414
 -21514698.45546 -15047004.76546  21218249.6354   21218249.0134
      -941.8254
 08  5 27  0 55  0.0000000  0  9G31G18G16G 6G 3G24G25G29G21
  -5622663.42644  -4188665.06545  24226969.6844   24226968.2074
     -3414.0904
  -9474779.40345  -5878162.04445  23539431.8244   23539431.7194
      2310.0714
 -21076504.80446 -12160319.72446  20652148.7774   20652148.5544
       611.0104
 -17677549.23946 -12976754.96246  21346722.8984   21346723.4954
      1434.2524
 -11117066.72245  -6738892.86345  22337704.1054   22337705.5004
      2547.8814
  -3177540.35644  -2275668.47645  23964335.7234   23964338.1854
     -3276.6834
  -3267026.72642   -121270.18345  24881152.5624   24881153.0544
      1614.2044
  -2439363.57543  -1672364.64645  24434747.3334   24434748.2364
     -2811.4404
 -21486222.34246 -15024815.58346  21223668.6204   21223668.1284
      -956.5854
 08  5 27  0 55 30.0000000  0  9G31G18G16G 6G 3G24G25G29G21
  -5520200.89744  -4108824.18845  24246468.3614   24246469.4514
     -3416.7224
  -9543925.52745  -5932042.09045  23526274.4644   23526274.8044
      2299.6784
 -21094601.72046 -12174421.21546  20648704.9064   20648704.2504
       595.4654
 -17720459.01346 -13010191.14046  21338557.2404   21338558.0844
      1426.4084
 -11193405.75245  -6798377.81845  22323176.5944   22323176.9344
      2541.4064
  -3079158.23043  -2199007.04145  23983055.8874   23983058.9594
     -3282.0944
  -3315223.03442   -158825.80844  24871980.8294   24871990.2414
      1598.9104
  -2354993.27643  -1606621.55145  24450801.5964   24450804.3744
     -2813.2114
 -21457303.66046 -15002281.54646  21229171.8224   21229171.4354
      -971.3114
 08  5 27  0 56  0.0000000  0  9G31G18G16G 6G 3G24G25G29G21
  -5417661.28943  -4028923.22545  24265981.1434   24265981.4954
     -3419.2384
  -9612757.95545  -5985677.71045  23513175.3094   23513175.1574
      2289.1654
 -21112231.66246 -12188158.83146  20645350.0344   20645349.6474
       579.8744
 -17763134.07746 -13043444.42346  21330436.5204   21330436.9424
      1418.6014
 -11269549.91545  -6857710.92145  22308686.7654   22308686.6954
      2534.9034
  -2980614.50644  -2122219.72245  24001808.7894   24001809.9854
     -3287.4354
  -3362960.55642   -196023.81145  24862896.4594   24862895.0414
      1583.6054
  -2270571.17342  -1540838.14245  24466865.3684   24466868.3224
     -2814.9384
 -21427943.88446 -14979403.79446  21234758.6344   21234757.8364
      -985.9874
 08  5 27  0 56 30.0000000  0  9G31G18G16G 6G 3G24G25G29G21
  -5315047.33643  -3948964.34145  24285507.5094   24285506.7944
     -3421.6794
  -9681274.37145  -6039067.13845  23500137.9854   23500138.2784
      2278.6144
 -21129392.91546 -12201531.23846  20642084.6604   20642084.3664
       564.2674
 -17805574.13246 -13076514.59646  21322360.5004   21322360.6994
      1410.7594
 -11345498.79145  -6916891.83345  22294234.3144   22294235.5564
      2528.3784
  -2881911.51244  -2045308.30045  24020591.3674   24020594.1924
     -3292.6774
  -3410237.92342   -232863.24145  24853902.1844   24853899.7584
      1568.2714
  -2186097.58743  -1475014.54545  24482941.4704   24482943.3804
     -2816.6104
 -21398144.16646 -14956183.23346  21240429.4704   21240429.0604
     -1000.6104
 08  5 27  0 57  0.0000000  0  9G31G18G16G 6G 3G24G25G29G21
  -5212361.85643  -3868949.67745  24305047.5364   24305047.0684
     -3424.0364
  -9749472.08645  -6092208.19745  23487160.2744   23487160.0164
      2267.8924
 -21146085.05746 -12214538.10146  20638907.9854   20638907.7634
       548.5514
 -17847778.82646 -13109401.36046  21314329.1384   21314329.5494
      1402.8964
 -11421251.49245  -6975919.87345  22279819.7594   22279820.2864
      2521.8004
  -2783051.88344  -1968274.88945  24039404.5664   24039407.8494
     -3297.9154
  -3457053.82942   -269343.09845  24844991.9344   24844995.6384
      1552.8464
  -2101572.84543  -1409151.11845  24499026.4454   24499028.2744
     -2818.3504
 -21367905.94246 -14932620.97946  21246183.6264   21246183.0054
     -1015.2494
 08  5 27  0 57 30.0000000  0  9G31G18G16G 6G 3G24G25G29G21
  -5109607.43543  -3788881.37345  24324602.1464   24324601.4904
     -3426.2274
  -9817348.38845  -6145098.80345  23474243.7044   23474243.9624
      2257.1514
 -21162306.42246 -12227178.13746  20635821.6744   20635821.4054
       532.8504
 -17889747.76946 -13142104.43446  21306342.7814   21306342.9214
      1395.0334
 -11496807.09745  -7034794.37445  22265441.5774   22265441.3194
      2515.2414
  -2684037.64144  -1891120.87045  24058245.9884   24058247.4304
     -3303.0274
  -3503406.72342   -305462.20045  24836171.4664   24836168.5714
      1537.3454
  -2016997.35843  -1343248.17945  24515120.4124   24515120.6234
     -2820.0364
 -21337230.74146 -14908718.22346  21252020.7904   21252020.1464
     -1029.7864
 08  5 27  0 58  0.0000000  0  9G31G18G16G 6G 3G24G25G29G21
  -5006787.80643  -3708762.19245  24344166.9804   24344165.4454
     -3428.3814
  -9884900.54445  -6197736.84845  23461389.6204   23461388.6004
      2246.3014
 -21178055.91246 -12239450.45946  20632824.1354   20632824.1474
       517.1084
 -17931480.55846 -13174623.49446  21298401.6804   21298402.0784
      1387.1704
 -11572165.24445  -7093514.98445  22251100.7694   22251101.0624
      2508.6574
  -2584870.99543  -1813848.17945  24077115.5784   24077119.7754
     -3308.0464
  -3549295.25342   -341219.56345  24827439.0504   24827443.2584
      1521.8464
  -1932371.61543  -1277306.04145  24531224.0574   24531224.1394
     -2821.6704
 -21306119.35846 -14884475.58446  21257941.1384   21257940.8924
     -1044.2854
 08  5 27  0 58 30.0000000  0  9G31G18G16G 6G 3G24G25G29G21
  -4903905.16043  -3628593.87945  24363744.6044   24363744.0534
     -3430.4774
  -9952125.94745  -6250120.25945  23448596.5934   23448597.2844
      2235.3524
 -21193332.28446 -12251354.13546  20629917.0444   20629916.7044
       501.2994
 -17972976.79946 -13206958.22346  21290504.8604   21290505.2704
      1379.2394
 -11647324.96045  -7152080.99045  22236798.3404   22236800.0524
      2501.9684
  -2485554.29944  -1736458.53945  24096015.4474   24096018.2484
     -3313.0644
  -3594718.09742   -376614.01745  24818796.6344   24818801.0654
      1506.3264
  -1847695.97543  -1211325.00945  24547336.7434   24547339.2634
     -2823.3734
 -21274573.39546 -14859894.31946  21263943.9484   21263943.2924
     -1058.7794
 08  5 27  0 59  0.0000000  0  9G31G18G16G 6G 3G24G25G29G21
  -4800962.45843  -3548378.83545  24383334.5734   24383335.5464
     -3432.4014
 -10019022.01645  -6302247.02945  23435866.4354   23435865.8844
      2224.3454
 -21208134.31246 -12262888.18346  20627100.6134   20627100.4844
       485.4834
 -18014236.06646 -13239108.29146  21282653.3384   21282653.8544
      1371.3634
 -11722285.19645  -7210491.54445  22222534.5524   22222535.2444
      2495.3314
  -2386089.74644  -1658953.69145  24114942.9784   24114945.0184
     -3317.9264
  -3639674.03643   -411644.50945  24810240.4944   24810237.0944
      1490.7494
  -1762970.89743  -1145305.47545  24563459.4404   24563459.7804
     -2824.9834
 -21242594.32346 -14834975.55746  21270029.5974   21270028.9404
     -1073.1904
 08  5 27  0 59 30.0000000  0  9G31G18G16G 6G 3G24G25G29G21
  -4697962.79142  -3468119.40445  24402934.2414   24402936.1284
     -3434.2354
 -10085586.48045  -6354115.42245  23423199.4624   23423199.0644
      2213.2404
 -21222460.77546 -12274051.66146  20624374.5674   20624374.4034
       469.6134
 -18055258.03546 -13271073.44846  21274847.3114   21274847.7104
      1363.4354
 -11797045.18845  -7268746.10145  22208307.2574   22208308.1364
      2488.6614
  -2286479.53543  -1581335.37545  24133898.8844   24133899.7874
     -3322.7334
  -3684161.55342   -446310.12445  24801774.9744   24801775.6894
      1475.1034
  -1678196.50443  -1079247.59745  24579591.3454   24579592.0134
     -2826.6334
 -21210183.20746 -14809720.13846  21276197.1344   21276196.4194
     -1087.5534
 08  5 27  1  0  0.0000000  0  9G31G18G16G 6G 3G24G25G29G21
  -4594908.96542  -3387817.77645  24422545.4844   24422545.5664
     -3435.9964
 -10151816.17445  -6405722.97045  23410596.1464   23410596.0644
      2202.0484
 -21236310.84446 -12284843.92646  20621738.7134   20621738.5494
       453.7004
 -18096042.55746 -13302853.59046  21267086.0444   21267086.5014
      1355.4924
 -11871604.26145  -7326844.06545  22194119.9904   22194121.0224
      2481.9394
  -2186726.50544  -1503605.75445  24152881.8984   24152882.9654
     -3327.4504
  -3728179.46642   -480609.72545  24793397.0064   24793394.8964
      1459.4114
  -1593373.63743  -1013151.86545  24595732.9224   24595733.7904
     -2828.2404
 -21177341.65746 -14784129.32446  21282446.4814   21282446.0364
     -1101.8874
 08  5 27  1  0 30.0000000  0  9G31G18G16G 6G 3G24G25G29G21
  -4491803.53842  -3307475.87045  24442165.6824   24442167.8974
     -3437.6994
 -10217708.76245  -6457067.81745  23398057.4324   23398056.5184
      2190.7684
 -21249683.01146 -12295263.79546  20619194.4104   20619194.0234
       437.7484
 -18136588.86246 -13334448.10346  21259370.4304   21259370.7234
      1347.5614
 -11945961.75145  -7384784.95046  22179969.7464   22179970.8714
      2475.1964
  -2086832.51643  -1425766.22345  24171889.4204   24171889.4794
     -3332.1294
  -3771726.37243   -514542.40345  24785111.5094   24785114.1814
      1443.6984
  -1508502.39243   -947018.46345  24611884.0244   24611884.6924
     -2829.8654
 -21144070.88846 -14758204.04246  21288777.9954   21288777.4904
     -1116.1854
 08  5 27  1  1  0.0000000  0  9G31G18G16G 6G 3G24G25G29G21
  -4388649.57942  -3227096.20045  24461795.3544   24461798.6484
     -3439.2334
 -10283261.86545  -6508148.13645  23385582.9894   23385582.8484
      2179.4194
 -21262576.27146 -12305310.49246  20616740.5654   20616740.2494
       421.7944
 -18176896.70146 -13365856.80046  21251700.2404   21251700.7914
      1339.6344
 -12020116.57545  -7442567.93245  22165858.9184   22165859.5984
      2468.4534
  -1986799.94144  -1347818.79745  24190926.0784   24190929.3024
     -3336.7014
  -3814801.06443   -548107.08845  24776916.1764   24776916.5274
      1427.9594
  -1423583.29343   -880847.75445  24628045.3724   24628045.9354
     -2831.4084
 -21110372.33346 -14731945.42746  21295190.5334   21295189.8064
     -1130.3864
 08  5 27  1  1 30.0000000  0  9G31G18G16G 6G 3G24G25G29G21
  -4285449.60742  -3146680.68745  24481434.6674   24481434.0704
     -3440.7344
 -10348472.59145  -6558961.68545  23373173.9514   23373174.6544
      2167.9624
 -21274989.46946 -12314983.11746  20614378.7184   20614378.5544
       405.7634
 -18216965.57746 -13397079.28846  21244075.0404   21244075.5684
      1331.6534
 -12094067.76845  -7500192.23746  22151786.2804   22151786.9954
      2461.6544
  -1886630.78444  -1269764.89345  24209988.7974   24209990.1804
     -3341.2134
  -3857402.11543   -581302.72945  24768808.4864   24768807.7594
      1412.1114
  -1338616.66943   -814639.98845  24644211.4514   24644212.5064
     -2833.0084
 -21076247.25046 -14705354.45746  21301684.7184   21301684.2614
     -1144.5884
 08  5 27  1  2  0.0000000  0  9G31G18G16G 6G 3G24G25G29G21
  -4182207.01543  -3066231.90845  24501080.5084   24501079.5124
     -3442.0784
 -10413338.86645  -6609506.78345  23360829.9334   23360830.2154
      2156.4364
 -21286921.77946 -12324281.01746  20612107.9104   20612107.7114
       389.7254
 -18256795.36846 -13428115.48946  21236496.0664   21236496.2064
      1323.6734
 -12167814.90745  -7557657.53446  22137752.9764   22137753.9734
      2454.8504
  -1786327.48343  -1191606.50945  24229074.0864   24229075.7394
     -3345.6384
  -3899528.66543   -614128.55445  24760792.5434   24760792.0274
      1396.2974
  -1253602.69343   -748395.30045  24660390.6254   24660388.7854
     -2834.5754
 -21041697.48646 -14678432.56446  21308259.0074   21308258.2104
     -1158.7194
 08  5 27  1  2 30.0000000  0  8G31G18G16G 6G 3G24G25G21
  -4078924.37243  -2985751.96445  24520734.5564   24520735.3184
     -3443.4174
 -10477857.46045  -6659781.01045  23348553.4714   23348553.2724
      2144.7624
 -21298371.64946 -12333202.99546  20609929.1114   20609928.9594
       373.5944
 -18296385.50446 -13458964.93346  21228961.9904   21228962.6004
      1315.6494
 -12241357.20145  -7614963.19646  22123758.2934   22123758.9024
      2447.9424
  -1685892.23144  -1113345.28045  24248186.9344   24248186.9224
     -3350.0274
  -3941179.12843   -646583.46545  24752866.1274   24752864.4044
      1380.3814
 -21006723.89446 -14651180.41246  21314914.1514   21314913.4714
     -1172.8404
 08  5 27  1  3  0.0000000  0  9G31G18G16G 6G 3G24G25G22G21
  -3975604.50442  -2905242.99545  24540395.5774   24540395.2254
     -3444.6044
 -10542026.01845  -6709782.47445  23336341.9414   23336342.3634
      2133.0994
 -21309338.33746 -12341748.46746  20607842.2854   20607842.1204
       357.4774
 -18335735.64446 -13489627.38146  21221473.7224   21221474.3554
      1307.6794
 -12314693.49845  -7672108.37145  22109803.1484   22109804.1324
      2441.1004
  -1585327.34844  -1034983.01945  24267323.7174   24267326.6484
     -3354.3094
  -3982352.49843   -678666.59245  24745031.4904   24745033.6354
      1364.4904
    -75797.66043                  24474061.0634
      3295.2374
 -20971328.13846 -14623599.30546  21321649.8324   21321649.2344
     -1186.8964
 08  5 27  1  3 30.0000000  0  9G31G18G16G 6G 3G24G25G22G21
  -3872249.87642  -2824706.97845  24560062.0834   24560061.6734
     -3445.6834
 -10605842.07645  -6759509.24345  23324198.9954   23324198.8784
      2121.3034
 -21319820.51546 -12349916.40346  20605847.2944   20605847.0834
       341.3294
 -18374845.28546 -13520102.41246  21214031.8104   21214032.0684
      1299.6404
 -12387823.10345  -7729092.47146  22095886.5574   22095887.3904
      2434.2074
  -1484634.88143   -956521.38545  24286483.6074   24286484.8384
     -3358.4964
  -4023047.35443   -710376.85045  24737286.5364   24737286.2324
      1348.5004
   -174636.98343                  24455253.0984
      3294.0814
 -20935511.65546 -14595690.35246  21328465.4354   21328464.7794
     -1200.8754
 08  5 27  1  4  0.0000000  0  9G31G18G16G 6G 3G24G25G22G21
  -3768863.73242  -2744146.34945  24579736.5334   24579736.5914
     -3446.6994
 -10669302.98545  -6808959.31645  23312121.9764   23312121.4614
      2109.4374
 -21329817.51946 -12357706.27546  20603945.1064   20603944.8014
       325.1384
 -18413714.12046 -13550389.80946  21206634.9154   21206635.5714
      1291.6154
 -12460745.28245  -7785914.94546  22082009.7774   22082009.8474
      2427.2704
  -1383817.06843   -877962.07945  24305669.8874   24305670.9784
     -3362.6584
  -4063262.52543   -741713.36145  24729634.6084   24729632.7564
      1332.5034
   -273439.37043                  24436450.8494
      3292.7684
 -20899275.78846 -14567454.60546  21335360.8564   21335360.3404
     -1214.8274
 08  5 27  1  4 30.0000000  0  9G31G18G16G 6G 3G24G25G22G21
  -3665448.84742  -2663563.36845  24599416.5644   24599417.6774
     -3447.6194
 -10732406.72045  -6858131.02445  23300114.2194   23300114.3244
      2097.4634
 -21339328.16546 -12365117.16446  20602135.2444   20602135.0684
       308.8974
 -18452341.85946 -13580489.33446  21199284.7764   21199285.1634
      1283.5724
 -12533459.31245  -7842575.23946  22068173.0594   22068174.0204
      2420.3274
  -1282876.39344   -799306.92045  24324878.8224   24324878.5644
     -3366.7214
  -4102997.13043   -772675.36345  24722072.6644   24722073.1574
      1316.4474
   -372202.07542                  24417657.1944
      3291.3824
 -20862622.24846 -14538893.41246  21342335.7604   21342335.1734
     -1228.7264
 08  5 27  1  5  0.0000000  0  9G31G18G16G 6G 3G24G25G22G21
  -3562008.03642  -2582960.17945  24619099.8064   24619097.8024
     -3448.4144
 -10795150.33845  -6907022.13345  23288173.7744   23288172.9544
      2085.4144
 -21348351.16446 -12372148.08246  20600418.6024   20600418.2274
       292.6214
 -18490727.97446 -13610400.58446  21191979.8014   21191980.4464
      1275.4904
 -12605964.25745  -7899072.58746  22054375.3504   22054376.4284
      2413.3164
  -1181814.89443   -720557.74645  24344108.2784   24344110.5644
     -3370.7244
  -4142249.98643   -803261.98845  24714603.6894   24714603.1504
      1300.3684
   -470922.16742    -38456.32645  24398871.1594   24398865.0164
      3289.9194
 -20825552.47946 -14510007.87146  21349389.7744   21349389.3174
     -1242.5904
 08  5 27  1  5 30.0000000  0  9G31G18G16G 6G 3G24G25G22G21
  -3458544.15942  -2502338.96745  24638787.5814   24638789.1984
     -3449.1114
 -10857531.32245  -6955630.67445  23276303.6724   23276304.6334
      2073.3114
 -21356885.61446 -12378798.30646  20598794.4004   20598794.0724
       276.3474
 -18528871.90246 -13640123.12546  21184721.3474   21184721.8984
      1267.4234
 -12678258.74745  -7955405.95346  22040618.1204   22040619.3044
      2406.3244
  -1080634.49143   -641715.84645  24363363.3284   24363363.8204
     -3374.6244
  -4181019.92543   -833472.31045  24707225.9154   24707225.2124
      1284.3014
   -569596.76842   -115345.54145  24380094.4074   24380096.7404
      3288.3814
 -20788067.57346 -14480798.84446  21356523.3524   21356522.4734
     -1256.3874
 08  5 27  1  6  0.0000000  0  9G31G18G16G 6G 3G24G25G22G21
  -3355060.08842  -2421702.11445  24658481.0654   24658480.8424
     -3449.7774
 -10919547.46245  -7003954.90245  23264501.8264   23264501.1234
      2061.0994
 -21364930.84546 -12385067.32146  20597263.1274   20597262.8114
       260.0084
 -18566773.64346 -13669656.93946  21177508.5524   21177509.0214
      1259.3604
 -12750342.86946  -8011575.38346  22026901.4694   22026902.3714
      2399.2944
   -979337.53243   -562783.16645  24382640.1804   24382643.1814
     -3378.4704
  -4219306.11143   -863305.72445  24699939.8064   24699940.1584
      1268.1234
   -668223.21142   -192197.38045  24361325.8834   24361329.0364
      3286.7054
 -20750169.49246 -14451267.87246  21363734.8614   21363734.0764
     -1270.1334
 08  5 27  1  6 30.0000000  0  9G31G18G16G 6G 3G24G25G22G21
  -3251558.31842  -2341051.32845  24678175.8994   24678176.3684
     -3450.3054
 -10981195.98645  -7051992.70545  23252770.7434   23252770.0404
      2048.7954
 -21372485.59246 -12390954.14546  20595825.8074   20595825.5024
       243.6424
 -18604432.48146 -13699001.48746  21170342.3574   21170343.0134
      1251.2484
 -12822215.02346  -8067579.65546  22013224.3204   22013224.1334
      2392.1904
   -877926.24744   -483761.35745  24401938.0314   24401940.2114
     -3382.2184
  -4257106.97243   -892760.94545  24692747.5524   24692746.1464
      1251.9044
   -766798.45242   -269009.23345  24342568.0384   24342565.7174
      3284.9684
 -20711859.32746 -14421415.78746  21371025.1154   21371024.6824
     -1283.8594
 08  5 27  1  7  0.0000000  0  9G19G18G16G 6G 3G24G25G22G21
    -48432.76743                  24544449.2214
      2848.3604
 -11042474.68845  -7099742.32745  23241109.9184   23241111.9464
      2036.4414
 -21379548.87246 -12396458.00146  20594481.7704   20594481.3834
       227.2444
 -18641848.07546 -13728156.48846  21163222.8484   21163223.3764
      1243.1254
 -12893874.81346  -8123418.44546  21999587.9714   21999588.7104
      2385.1334
   -776402.95343   -404652.32545  24421257.5334   24421257.2284
     -3385.9724
    -21084.67243                  24685646.1444
      1235.7144
   -865319.78042   -345779.18645  24323819.8614   24323816.8364
      3283.1334
 -20673138.66746 -14391243.84546  21378393.4274   21378392.5364
     -1297.5034
 08  5 27  1  7 30.0000000  0  9G19G18G16G 6G 3G24G25G22G21
   -133843.58243                  24528195.4854
      2845.6884
 -11103381.13545  -7147201.87145  23229519.6774   23229519.0804
      2023.9824
 -21386120.18446 -12401578.50746  20593231.1644   20593230.8714
       210.8194
 -18679020.10146 -13757121.69846  21156148.9884   21156149.6564
      1235.0064
 -12965321.62046  -8179091.29046  21985992.2044   21985992.5794
      2377.9874
   -674769.81143   -325457.67945  24440597.2934   24440593.7764
     -3389.5904
    -57912.12743                  24678637.6634
      1219.4644
   -963784.06943   -422504.57745  24305082.6134   24305078.9914
      3281.1574
 -20634009.11546 -14360753.28746  21385839.6254   21385839.0394
     -1311.1154
 08  5 27  1  8  0.0000000  0  9G19G18G16G 6G 3G24G25G22G21
   -219173.88943         2.04555  24511958.1974   24511957.3884
      2842.9924
 -11163912.44745  -7194369.14045  23218001.1284   23218000.6594
      2011.4274
 -21392197.99146 -12406314.46746  20592074.3814   20592074.1354
       194.3484
 -18715948.01746 -13785896.69246  21149121.7154   21149122.5244
      1226.8414
 -13036554.18346  -8234597.16846  21972436.9534   21972437.7744
      2370.8334
   -573028.67843   -246178.88745  24459957.4264   24459960.5214
     -3393.1434
    -94251.31943          .75255  24671723.9674   24671722.6664
      1203.1574
  -1062188.47943   -499183.28945  24286357.3784   24286354.2134
      3279.1144
 -20594472.19046 -14329945.28646  21393363.2264   21393362.2644
     -1324.6864
 08  5 27  1  8 30.0000000  0  9G19G18G16G 6G 3G24G25G22G21
   -304423.38543    -66426.07745  24495736.1604   24495735.8444
      2840.3104
 -11224066.45845  -7241242.35445  23206553.2354   23206553.0474
      1998.8234
 -21397781.44846 -12410665.22146  20591012.1504   20591011.8924
       177.8744
 -18752631.30246 -13814481.06346  21142141.1524   21142141.7854
      1218.7114
 -13107571.36546  -8289935.20746  21958922.9254   21958922.9604
      2363.6554
   -471181.70544   -166817.62245  24479338.8684   24479337.5554
     -3396.6404
   -130101.09943    -27934.08645  24664900.1254   24664902.1064
      1186.8434
  -1160530.21643   -575813.13445  24267644.2544   24267641.0314
      3276.9994
 -20554529.12046 -14298820.81646  21400964.1124   21400963.3854
     -1338.1854
 08  5 27  1  9  0.0000000  0  9G19G18G16G 6G 3G24G25G22G21
   -389591.84143   -132791.10145  24479529.5794   24479528.5594
      2837.5764
 -11283840.98245  -7287819.87945  23195179.1624   23195178.9864
      1986.1274
 -21402869.93246 -12414630.27646  20590043.7274   20590043.4694
       161.3514
 -18789069.83146 -13842874.72046  21135207.3624   21135207.8784
      1210.5434
 -13178373.10946  -8345105.39246  21945450.0294   21945450.4754
      2356.4634
   -369231.60642    -87375.90345  24498738.9664   24498737.3484
     -3400.0414
   -165460.89943    -55487.16345  24658172.6124   24658171.9914
      1170.5054
  -1258807.02944   -652392.41645  24248943.3654   24248940.6924
      3274.7804
 -20514181.65446 -14267381.23046  21408642.0584   21408641.6134
     -1351.6364
 08  5 27  1  9 30.0000000  0  9G19G18G16G 6G 3G24G25G22G21
   -474678.54243   -199092.39045  24463337.3404   24463335.8404
      2834.8624
 -11343233.38445  -7334099.65845  23183877.8304   23183877.5254
      1973.3684
 -21407462.23946 -12418208.69846  20589169.8444   20589169.3524
       144.8074
 -18825263.04746 -13871077.21846  21128319.9374   21128320.5234
      1202.3624
 -13248957.71446  -8400106.39446  21932018.0034   21932018.2024
      2349.2084
   -267180.05343     -7855.30545  24518158.9014   24518160.1094
     -3403.3734
   -200329.40443    -82657.38445  24651537.0284   24651537.6614
      1154.1024
  -1357015.16544   -728918.14445  24230253.4654   24230251.7074
      3272.4424
 -20473431.12346 -14235627.56146  21416396.4884   21416395.6564
     -1365.0434
 08  5 27  1 10  0.0000000  0  9G19G18G16G 6G 3G24G25G22G21
   -559683.09843   -265329.66745  24447161.2884   24447159.5774
      2832.1084
 -11402241.34145  -7380079.85545  23172648.1594   23172648.8504
      1960.5104
 -21411557.67146 -12421399.94847  20588390.7224   20588389.9834
       128.2204
 -18861210.54746 -13899088.25246  21121479.1394   21121479.6904
      1194.1534
 -13319325.08146  -8454938.08646  21918627.7424   21918628.0824
      2341.9354
   -165029.16043     71742.82445  24537597.0844   24537599.3354
     -3406.6734
   -234705.66543   -109444.12545  24644995.5654   24644994.4404
      1137.6464
  -1455152.03344   -805388.36945  24211578.5074   24211579.2224
      3270.0084
 -20432279.29246 -14203561.19846  21424227.2434   21424226.4234
     -1378.4074
 08  5 27  1 10 30.0000000  0  9G19G18G16G 6G 3G24G25G22G21
   -644605.53243   -331502.96245  24431000.9634   24430999.8264
      2829.3884
 -11460862.75845  -7425758.86545  23161492.9874   23161492.2254
      1947.5664
 -21415155.65946 -12424203.57446  20587705.8964   20587705.4744
       111.6294
 -18896912.07946 -13926907.62546  21114685.4664   21114686.0874
      1185.9444
 -13389474.13146  -8509599.68046  21905278.6434   21905278.7494
      2334.6584
    -62781.17643    151416.54045  24557055.0064   24557054.9594
     -3409.8514
   -268588.94443   -135846.68345  24638547.7094   24638546.9244
      1121.2194
  -1553215.17444   -881801.19945  24192918.0674   24192915.9574
      3267.5074
 -20390727.83046 -14171183.43846  21432134.4694   21432133.8014
     -1391.6884
 08  5 27  1 11  0.0000000  0  9G19G18G16G 6G 3G24G25G22G21
   -729445.24642   -397611.83645  24414856.1724   24414856.6064
      2826.6304
 -11519094.44945  -7471134.19345  23150411.9104   23150410.8204
      1934.5604
 -21418255.06046 -12426618.70047  20587115.9294   20587115.7064
        94.9894
 -18932366.88046 -13954534.74946  21107938.5544   21107939.4924
      1177.7204
 -13459403.55746  -8564090.13546  21891971.4954   21891972.4214
      2327.3454
     39561.94843    231164.36345  24576529.9294   24576528.2884
     -3412.9964
   -301978.05544   -161864.09645  24632194.2184   24632195.7074
      1104.7314
  -1651201.24644   -958154.01445  24174272.0324   24174270.5434
      3264.8994
 -20348777.88146 -14138495.17046  21440117.1274   21440116.0134
     -1404.9554
 08  5 27  1 11 30.0000000  0  9G19G18G16G 6G 3G24G25G22G21
   -814201.85942   -463655.90044  24398727.5034   24398720.5874
      2823.8064
 -11576934.47145  -7516204.32745  23139405.4034   23139405.7324
      1921.4444
 -21420854.86746 -12428644.52047  20586621.3524   20586621.1064
        78.3224
 -18967574.78146 -13981969.47246  21101238.7994   21101239.3734
      1169.4754
 -13529113.39746  -8618409.48446  21878706.0304   21878706.3704
      2319.9684
    141997.85843    310984.56045  24596022.7544   24596026.0954
     -3416.0794
   -334872.34744   -187496.01445  24625934.7014   24625935.6624
      1088.2184
  -1749107.52544  -1034444.59945  24155640.9114   24155639.4114
      3262.2024
 -20306431.30546 -14105497.84046  21448175.6554   21448174.8004
     -1418.1404
 08  5 27  1 12  0.0000000  0  9G19G18G16G 6G 3G24G25G22G21
   -898874.99641   -529635.00045  24382613.6874   24382612.7844
      2821.0334
 -11634380.21545  -7560967.24245  23128474.0914   23128473.5174
      1908.2634
 -21422954.24446 -12430280.40147  20586221.8884   20586221.3734
        61.6244
 -19002535.13146 -14009211.31246  21094586.1114   21094587.1194
      1161.2094
 -13598601.97846  -8672556.41046  21865482.7754   21865482.9974
      2312.5844
    244524.80842    390875.69045  24615533.3354   24615538.4814
     -3419.0764
   -367270.68843   -212741.50645  24619767.5064   24619768.1154
      1071.6454
  -1846931.03245  -1110670.72845  24137025.6134   24137023.3514
      3259.3674
 -20263689.41946 -14072192.46946  21456308.9394   21456308.2474
     -1431.3074
 08  5 27  1 12 30.0000000  0  9G19G18G16G 6G 3G24G25G22G21
   -983464.38541   -595548.76845  24366517.2774   24366520.3844
      2818.2294
 -11691430.03245  -7605421.64045  23117617.5404   23117617.3524
      1895.0324
 -21424552.71546 -12431525.96947  20585917.5864   20585917.1874
        44.9214
 -19037247.62046 -14036259.98646  21087980.6924   21087981.3604
      1152.9374
 -13667869.13546  -8726530.82046  21852301.7654   21852302.0344
      2305.1984
    347140.23643    470835.81145  24635060.8334   24635062.0994
     -3421.9654
   -399172.54242   -237600.13645  24613696.7874   24613699.7764
      1055.1104
  -1944669.09345  -1186830.29745  24118427.5074   24118424.6594
      3256.4624
 -20220553.97446 -14038580.43446  21464517.0084   21464516.3394
     -1444.3994
 08  5 27  1 13  0.0000000  0  9G19G18G16G 6G 3G24G25G22G21
  -1067969.57042   -661396.86945  24350436.7924   24350434.2964
      2815.4414
 -11748081.26345  -7649565.46945  23106836.8204   23106836.0234
      1881.6864
 -21425649.40246 -12432380.53047  20585709.0134   20585708.6504
        28.1714
 -19071711.86446 -14063115.23646  21081422.4214   21081423.3004
      1144.6624
 -13736913.53646  -8780331.63046  21839163.0664   21839163.9224
      2297.7624
    449842.33543    550863.33545  24654604.1974   24654598.9104
     -3424.8614
   -430576.93343   -262071.08145  24607721.6554   24607724.1054
      1038.5034
  -2042318.75944  -1262920.92845  24099845.2964   24099844.9334
      3253.4774
 -20177026.56846 -14004662.97046  21472800.4494   21472799.9214
     -1457.4324
 08  5 27  1 13 30.0000000  0  9G19G18G16G 6G 3G24G25G22G21
  -1152390.06542   -727178.96645  24334373.0274   24334376.3094
      2812.5964
 -11804331.29845  -7693396.64345  23096132.6964   23096133.4114
      1868.3054
 -21426243.60146 -12432843.54647  20585595.8584   20585595.4954
        11.4174
 -19105927.41446 -14089776.70146  21074911.3194   21074912.0224
      1136.3614
 -13805734.18546  -8833958.11346  21826067.0194   21826068.1914
      2290.2974
    552629.20642    630957.06845  24674161.8814   24674164.8004
     -3427.6074
   -461482.95243   -286153.66345  24601840.4914   24601839.6004
      1021.8814
  -2139876.90844  -1338940.28445  24081281.0204   24081280.3404
      3250.3684
 -20133108.81946 -13970441.34546  21481157.5904   21481157.1094
     -1470.4194
 08  5 27  1 14  0.0000000  0  9G19G18G16G 6G 3G24G25G22G21
  -1236725.54043   -792895.02345  24318324.0344   24318322.6164
      2809.7644
 -11860177.79045  -7736913.36445  23085505.5964   23085505.6194
      1854.7914
 -21426334.55346 -12432914.42047  20585578.7304   20585578.2264
        -5.3704
 -19139893.83246 -14116244.04246  21068447.9704   21068448.3454
      1128.0514
 -13874330.59546  -8887409.83946  21813013.9114   21813014.7674
      2282.7814
    655498.75542    711115.08845  24693738.3734   24693738.4084
     -3430.3544
   -491889.72843   -309847.20345  24596054.4064   24596056.6684
      1005.2274
  -2237340.65544  -1414886.04745  24062733.4984   24062732.3264
      3247.1984
 -20088802.05946 -13935916.59446  21489589.0844   21489588.2284
     -1483.3624
 08  5 27  1 14 30.0000000  0  9G19G18G16G 6G 3G24G25G22G21
  -1320975.36443   -858544.18845  24302291.4304   24302287.6674
      2806.9224
 -11915619.29745  -7780114.52445  23074955.6414   23074955.7584
      1841.2774
 -21425921.31646 -12432592.41947  20585657.5104   20585657.0644
       -22.1734
 -19173610.63246 -14142516.86546  21062031.5844   21062032.2524
      1119.7474
 -13942701.74046  -8940686.04946  21800002.9194   21800003.5874
      2275.2744
    758448.73143    791335.83145  24713330.5234   24713329.6794
     -3432.9584
   -521796.62143   -333151.31245  24590364.3444   24590365.9974
       988.5834
  -2334707.33143  -1490756.13745  24044204.6234   24044203.8844
      3243.9144
 -20044108.22446 -13901090.22746  21498093.7704   21498093.1144
     -1496.2074
 08  5 27  1 15  0.0000000  0  9G19G18G16G 6G 3G24G25G22G21
  -1405139.64443   -924126.68645  24286276.5734   24286273.2444
      2804.0224
 -11970652.79445  -7822997.77545  23064482.8434   23064482.1164
      1827.6174
 -21425003.34446 -12431877.11947  20585832.1344   20585831.8534
       -39.0334
 -19207077.45246 -14168594.90946  21055662.9394   21055663.1624
      1111.3634
 -14010846.93646  -8993786.19246  21787035.7414   21787036.3854
      2267.7234
    861477.00642    871617.60445  24732934.4994   24732935.6724
     -3435.5804
   -551203.03343   -356065.41845  24584768.0534   24584767.1624
       971.7964
  -2431973.81543  -1566548.23145  24025695.7674   24025694.7944
      3240.5134
 -19999028.94646 -13865963.51946  21506672.1514   21506671.5884
     -1509.0624
 08  5 27  1 15 30.0000000  0  9G19G18G16G 6G 3G24G25G22G21
  -1489217.88043   -989642.22545  24270275.7404   24270273.0794
      2801.1584
 -12025275.92045  -7865561.23245  23054088.7114   23054088.8404
      1813.9084
 -21423579.92046 -12430767.96347  20586102.9924   20586102.3714
       -55.8844
 -19240293.87446 -14194477.82346  21049342.0164   21049342.5674
      1103.0304
 -14078765.21446  -9046709.51646  21774110.6714   21774111.2224
      2260.1414
    964581.49643    951958.81545  24752556.1454   24752556.3924
     -3438.0834
   -580107.99643   -378588.70045  24579268.1504   24579271.2104
       955.1224
  -2529137.55943  -1642260.15745  24007206.1254   24007205.6214
      3237.0654
 -19953565.57646 -13830537.51346  21515323.5434   21515322.8874
     -1521.8294
 08  5 27  1 16  0.0000000  0  9G19G18G16G 6G 3G24G25G22G21
  -1573209.61843  -1055090.32145  24254293.4794   24254291.1464
      2798.2784
 -12079486.82545  -7907803.49045  23043772.5494   23043772.3504
      1800.1284
 -21421650.23246 -12429264.30847  20586470.0404   20586469.7124
       -72.7644
 -19273259.31546 -14220165.18546  21043069.2684   21043069.6434
      1094.6694
 -14146455.72846  -9099455.36946  21761229.4864   21761229.8494
      2252.5484
   1067760.48542   1032358.04745  24772189.1974   24772194.0854
     -3440.5314
   -608510.82443   -400720.79245  24573861.6424   24573862.1114
       938.3824
  -2626195.26743  -1717889.52145  23988736.6484   23988734.6794
      3233.4484
 -19907719.63946 -13794813.39546  21524047.7604   21524047.1984
     -1534.5604
 08  5 27  1 16 30.0000000  0  9G19G18G16G 6G 3G24G25G22G21
  -1657114.33143  -1120470.49945  24238326.8034   24238325.9364
      2795.3754
 -12133283.07145  -7949722.61845  23033535.3464   23033535.1114
      1786.2804
 -21419213.44046 -12427365.51747  20586933.6514   20586933.2174
       -89.6824
 -19305973.42446 -14245656.68846  21036843.6504   21036844.1774
      1086.2714
 -14213917.50346  -9152022.99046  21748392.3114   21748392.8514
      2244.9094
   1171011.93642   1112813.56245  24791838.7944   24791841.3964
     -3442.8774
   -636410.79343   -422461.03345  24568553.9684   24568552.4804
       921.6124
  -2723144.24144  -1793434.15745  23970287.7944   23970285.7314
      3229.7844
 -19861492.70846 -13758792.41046  21532844.0114   21532843.6604
     -1547.2224
 08  5 27  1 17  0.0000000  0  9G19G18G16G 6G 3G24G25G22G21
  -1740931.75444  -1185782.77745  24222376.8974   24222374.9984
      2792.4614
 -12186662.41845  -7991316.90045  23023378.2464   23023377.4844
      1772.3474
 -21416269.22046 -12425071.32347  20587494.2514   20587493.5354
      -106.6004
 -19338435.63346 -14270951.91246  21030666.4774   21030667.0744
      1077.8754
 -14281149.32246  -9204411.40146  21735598.5384   21735599.6984
      2237.2104
   1274333.46742   1193323.91845  24811498.1134   24811496.6594
     -3445.1954
   -663807.26343   -443808.90745  24563339.5004   24563338.7854
       904.8124
  -2819981.59744  -1868891.78645  23951860.6524   23951860.3364
      3226.0474
 -19814886.67746 -13722476.02646  21541713.2114   21541712.9774
     -1559.8154
 08  5 27  1 17 30.0000000  0  9G19G18G16G 6G 3G24G25G22G21
  -1824660.87744  -1251026.24245  24206443.2694   24206440.9844
      2789.5174
 -12239622.65545  -8032584.60145  23013299.4844   23013300.0814
      1758.3254
 -21412816.97846 -12422381.26647  20588150.8774   20588150.1384
      -123.5544
 -19370645.67446 -14296050.65046  21024536.9214   21024537.6364
      1069.4584
 -14348150.53946  -9256620.14846  21722848.4424   21722849.1464
      2229.5174
   1377723.36042   1273887.53745  24831174.0214   24831176.1084
     -3447.4274
   -690699.55243   -464763.96645  24558222.5904   24558222.7434
       887.9784
  -2916704.31144  -1944260.14345  23933454.7784   23933453.8284
      3222.1584
 -19767903.28646 -13685865.58746  21550653.7814   21550652.8554
     -1572.3964
 08  5 27  1 18  0.0000000  0  9G19G18G16G 6G 3G24G25G22G21
  -1908301.99344  -1316201.09845  24190527.8594   24190525.6554
      2786.5904
 -12292161.50045  -8073523.94745  23003301.5674   23003300.9934
      1744.2654
 -21408855.63146 -12419294.50747  20588904.8824   20588904.2614
      -140.5164
 -19402602.65146 -14320952.18846  21018455.8664   21018456.3474
      1061.0224
 -14414920.52846  -9308648.71746  21710142.5154   21710144.2154
      2221.8324
   1481179.65742   1354502.77544  24850861.2964   24850868.4354
     -3449.6194
   -717086.80343   -485325.45345  24553201.3144   24553200.7044
       871.1914
  -3013309.38944  -2019536.81345  23915071.1694   23915069.5984
      3218.1814
 -19720543.61246 -13648961.94346  21559666.0744   21559665.5464
     -1584.8864
 08  5 27  1 18 30.0000000  0  9G19G18G16G 6G 3G24G25G22G21
  -1991854.92444  -1381307.23145  24174628.1054   24174627.1904
      2783.6384
 -12344277.34145  -8114133.71445  22993384.5794   22993383.7824
      1730.1154
 -21404384.98346 -12415810.88647  20589755.4334   20589754.9294
      -157.5154
 -19434306.61246 -14345656.57346  21012422.8954   21012423.3054
      1052.5894
 -14481457.98246  -9360496.06546  21697480.5224   21697481.1904
      2214.0404
   1584700.20442   1435168.10444  24870559.7894   24870565.6744
     -3451.7284
   -742968.70144   -505493.15545  24548276.9244   24548275.7994
       854.3154
  -3109794.46044  -2094720.00345  23896710.9124   23896709.2124
      3214.1114
 -19672809.84446 -13611766.80046  21568749.5454   21568748.8654
     -1597.3534
 08  5 27  1 19  0.0000000  0  9G19G18G16G 6G 3G24G25G22G21
  -2075318.84045  -1446344.07445  24158745.6744   24158744.1384
      2780.6624
 -12395967.25445  -8154411.55045  22983548.3254   22983547.4814
      1715.8594
 -21399404.38546 -12411929.90447  20590703.3414   20590702.8964
      -174.5244
 -19465757.03546 -14370163.39246  21006437.8824   21006438.0814
      1044.1144
 -14547762.33646  -9412161.78546  21684863.5524   21684864.1264
      2206.2574
   1688283.16742   1515882.01045  24890270.9954   24890273.6914
     -3453.7614
   -768344.72443   -525266.71445  24543446.8514   24543445.2804
       837.4144
  -3206155.75545  -2169806.70945  23878373.8864   23878373.5354
      3209.9664
 -19624703.52846 -13574281.35846  21577903.5824   21577902.6684
     -1609.7394
 08  5 27  1 19 30.0000000  0  9G19G18G16G 6G 3G24G25G22G21
  -2158693.43445  -1511311.27645  24142880.0414   24142877.3104
      2777.6644
 -12447229.30845  -8194356.01645  22973793.9874   22973794.1284
      1701.5984
 -21393913.37346 -12407651.20447  20591748.2534   20591747.9134
      -191.5464
 -19496953.43546 -14394472.27746  21000501.4584   21000501.9274
      1035.6524
 -14613832.67146  -9463645.15246  21672290.9394   21672291.5254
      2198.4274
   1791926.46642   1596643.05445  24909993.1714   24909992.5854
     -3455.7314
   -793214.13243   -544645.46745  24538714.5364   24538716.1184
       820.5384
  -3302390.67944  -2244794.95045  23860061.1354   23860059.9164
      3205.7084
 -19576226.32246 -13536506.91746  21587128.4744   21587127.8064
     -1622.0654
 08  5 27  1 20  0.0000000  0  9G19G18G16G 6G 3G24G25G22G21
  -2241978.12044  -1576208.39845  24127030.7894   24127028.6674
      2774.6534
 -12498061.48345  -8233965.48445  22964119.8804   22964119.8454
      1687.2124
 -21387911.11946 -12402974.12447  20592890.6724   20592890.1924
      -208.5954
 -19527895.15946 -14418582.70746  20994613.2544   20994613.8294
      1027.1244
 -14679668.09846  -9514945.49546  21659762.7794   21659763.6584
      2190.5824
   1895628.58042   1677449.96745  24929727.5344   24929731.4844
     -3457.6924
   -817576.25444   -563628.94845  24534078.8304   24534076.4744
       803.5834
  -3398496.48945  -2319682.61845  23841773.1474   23841771.2364
      3201.3364
 -19527379.54446 -13498444.48446  21596424.0504   21596423.7344
     -1634.3724
 08  5 27  1 20 30.0000000  0  9G19G18G16G 6G 3G24G25G22G21
  -2325172.84444  -1641035.43845  24111199.9184   24111198.1484
      2771.6544
 -12548461.68545  -8273238.36046  22954529.5784   22954529.0034
      1672.7784
 -21381397.16946 -12397898.32047  20594129.8124   20594129.3674
      -225.6764
 -19558581.98946 -14442494.52146  20988773.8174   20988774.1804
      1018.6304
 -14745267.29946  -9566061.73546  21647279.5354   21647280.3794
      2182.6914
   1999386.86841   1758300.56545  24949471.8844   24949474.6394
     -3459.5524
   -841430.59644   -582216.77545  24529539.9024   24529539.1284
       786.6634
  -3494470.04645  -2394467.21645  23823509.2654   23823508.1404
      3196.9004
 -19478165.14046 -13460095.60546  21605788.8604   21605788.2154
     -1646.5884
 08  5 27  1 21  0.0000000  0  9G19G18G16G 6G 3G24G25G22G21
  -2408276.72244  -1705791.70745  24095385.0984   24095383.5864
      2768.6184
 -12598427.97245  -8312173.12545  22945021.0194   22945020.5504
      1658.2844
 -21374370.92646 -12392423.32647  20595466.9714   20595466.5734
      -242.7464
 -19589013.48146 -14466207.37646  20982983.0504   20982983.6014
      1010.1204
 -14810629.93046  -9616993.66446  21634841.7844   21634842.2654
      2174.8074
   2103199.49442   1839193.40645  24969227.3044   24969228.9454
     -3461.3014
   -864776.75643   -600408.56545  24525096.2854   24525094.8084
       769.7344
  -3590308.82445  -2469146.79445  23805272.4574   23805269.9844
      3192.3534
 -19428585.02046 -13421461.73646  21615223.8514   21615223.3234
     -1658.7504
 08  5 27  1 21 30.0000000  0  9G19G18G16G 6G 3G24G25G22G21
  -2491289.74444  -1770477.15545  24079587.3774   24079586.4514
      2765.5644
 -12647958.08845  -8350767.99046  22935596.1824   22935596.2294
      1643.6864
 -21366832.27446 -12386549.05447  20596901.7304   20596901.1214
      -259.8574
 -19619189.02246 -14489720.77646  20977240.4404   20977240.8624
      1001.5524
 -14875754.82246  -9667740.33646  21622448.7784   21622449.6464
      2166.8414
   2207064.60842   1920127.31345  24988992.1084   24988989.3074
     -3463.0584
   -887614.11943   -618203.92445  24520750.7494   24520747.6204
       752.7524
  -3686009.45745  -2543718.70645  23787060.2994   23787060.5684
      3187.6674
 -19378640.24946 -13382543.73346  21624728.2744   21624727.8404
     -1670.8914
 08  5 27  1 22  0.0000000  0  9G19G18G16G 6G 3G24G25G22G21
  -2574211.43444  -1835091.41145  24063808.6864   24063805.5214
      2762.5154
 -12697049.38645  -8389020.93945  22926253.9804   22926253.7234
      1629.0204
 -21358780.03946 -12380274.58947  20598434.0264   20598433.4054
      -276.9934
 -19649108.15446 -14513034.38346  20971547.3144   20971547.7484
       993.0174
 -14940641.24546  -9718301.19146  21610101.3944   21610101.7104
      2158.8894
   2310980.49441   2001100.85745  25008767.0064   25008769.3044
     -3464.7124
   -909942.34444   -635602.57345  24516503.1024   24516497.4994
       735.7574
  -3781569.28445  -2618180.87345  23768876.5484   23768876.6424
      3182.9274
 -19328333.11546 -13343343.37246  21634301.5464   21634301.0774
     -1682.9504
 08  5 27  1 22 30.0000000  0  9G19G18G16G 6G 3G24G25G22G21
  -2657041.23644  -1899634.12545  24048046.5474   24048045.8094
      2759.4544
 -12745700.15845  -8426930.61846  22916996.3084   22916996.0504
      1614.3384
 -21350214.04046 -12373599.78747  20600064.0524   20600063.7124
      -294.0904
 -19678770.35146 -14536147.78146  20965902.6914   20965902.7624
       984.4674
 -15005288.34046  -9768675.53346  21597799.2544   21597799.9804
      2150.8974
   2414945.08442   2082112.03645  25028549.2854   25028551.8644
     -3466.2824
   -931760.82944   -652603.94745  24512350.4714   24512351.1864
       718.7664
  -3876985.09245  -2692530.83045  23750718.5504   23750715.5034
      3178.1044
 -19277664.99746 -13303861.71246  21643943.3444   21643942.7224
     -1694.9344
 08  5 27  1 23  0.0000000  0  9G19G18G16G 6G 3G24G25G22G21
  -2739779.02144  -1964105.10345  24032302.0264   24032301.1944
      2756.3984
 -12793908.82046  -8464495.80646  22907822.4074   22907822.6534
      1599.5754
 -21341134.11446 -12366524.52847  20601791.7054   20601791.4594
      -311.2484
 -19708175.16946 -14559060.63846  20960307.4154   20960307.7554
       975.8634
 -15069694.84246  -9818862.41946  21585543.1534   21585543.9854
      2142.8784
   2518956.36542   2163159.83945  25048343.5604   25048345.5534
     -3467.7784
   -953069.06944   -669207.77245  24508295.3264   24508295.6434
       701.7694
  -3972254.23145  -2766766.47845  23732590.2434   23732588.3674
      3173.1664
 -19226637.56846 -13264100.08346  21653653.2154   21653652.5584
     -1706.8874
 08  5 27  1 23 30.0000000  0  9G19G18G16G 6G 3G24G25G22G21
  -2822424.12543  -2028503.87545  24016576.3614   24016575.1064
      2753.2984
 -12841673.04245  -8501714.66346  22898733.6864   22898733.6514
      1584.7244
 -21331539.52846 -12359048.23247  20603617.5864   20603617.0004
      -328.3904
 -19737322.29946 -14581772.68146  20954760.8544   20954761.5694
       967.2874
 -15133860.34646  -9868861.49246  21573332.5594   21573333.5434
      2134.8314
   2623012.60742                  25068144.0744
     -3469.2664
   -973866.66744   -685413.71145  24504337.5014   24504337.0554
       684.7424
  -4067373.55144  -2840885.38045  23714489.0504   23714487.5264
      3168.1184
 -19175252.57446 -13224059.82946  21663431.3204   21663430.7344
     -1718.7664
 08  5 27  1 24  0.0000000  0  9G19G18G16G 6G 3G24G25G22G21
  -2904975.97343  -2092829.91945  24000865.9754   24000863.9354
      2750.1684
 -12888990.62246  -8538585.49246  22889728.9394   22889728.2834
      1569.7694
 -21321430.03246 -12351170.71047  20605541.2364   20605540.8384
      -345.5854
 -19766211.11446 -14604283.45046  20949263.4744   20949263.9204
       958.6404
 -15197783.54346  -9918671.75946  21561168.8664   21561169.4524
      2126.7074
   2727111.82342                  25087952.8914
     -3470.7114
   -994153.44143   -701221.55645  24500477.3124   24500480.6534
       667.7124
  -4162340.31144  -2914885.42645  23696417.5824   23696416.3164
      3162.9704
 -19123511.68546 -13183742.25546  21673277.3094   21673277.1334
     -1730.6194
 08  5 27  1 24 30.0000000  0  9G19G18G16G 6G 3G24G25G22G21
  -2987434.15244  -2157083.07045  23985175.1094   23985175.2034
      2747.0504
 -12935859.51745  -8575106.69046  22880810.4654   22880810.1484
      1554.8084
 -21310805.01946 -12342891.48247  20607563.4354   20607562.8374
      -362.7624
 -19794841.18546 -14626592.59446  20943815.3754   20943815.9264
       949.9894
 -15261463.71646  -9968292.66646  21549051.0884   21549052.0024
      2118.6214
   2831252.34741                  25107769.6634
     -3472.0294
  -1013928.79143   -716630.89445  24496713.3944   24496714.4134
       650.6674
  -4257151.34745  -2988764.09045  23678375.7574   23678375.7224
      3157.7424
 -19071416.37846 -13143148.50946  21683191.1974   21683190.4114
     -1742.3924
 08  5 27  1 25  0.0000000  0  9G19G18G16G 6G 3G24G25G22G21
  -3069798.68944  -2221263.21745  23969501.7644   23969500.6394
      2743.9144
 -12982277.90546  -8611276.85746  22871977.3384   22871976.5764
      1539.7494
 -21299664.15846 -12334210.29146  20609683.4434   20609682.6574
      -379.9604
 -19823211.98746 -14648699.71246  20938416.3664   20938416.7534
       941.3874
 -15324899.95446 -10017723.48246  21536979.2274   21536980.2004
      2110.4664
   2935431.97941                  25127595.2724
     -3473.2874
  -1033192.44043   -731641.55845  24493047.9934   24493049.0604
       633.6124
  -4351804.01345  -3062519.41445  23660364.3694   23660361.8024
      3152.4334
 -19018968.90146 -13102280.34046  21693171.5504   21693171.0924
     -1754.0954
 08  5 27  1 25 30.0000000  0  9G19G18G16G 6G 3G24G25G22G21
  -3152069.04643  -2285369.96945  23953846.2314   23953847.4624
      2740.7484
 -13028243.78746  -8647094.40446  22863230.2024   22863229.9914
      1524.6364
 -21288007.07946 -12325126.86047  20611901.6124   20611901.1434
      -397.1694
 -19851323.08546 -14670604.46246  20933067.0824   20933067.6334
       932.6934
 -15388090.74646 -10066963.06546  21524954.7964   21524955.8984
      2102.2724
   3039648.98241        -2.76255  25147426.0974   25147429.5674
     -3474.5014
  -1051944.17343   -746253.30345  24489479.6834   24489479.5194
       616.4984
  -4446295.38845  -3136149.05045  23642383.0084   23642381.6364
      3147.0014
 -18966170.44446 -13061138.68146  21703218.2444   21703217.7634
     -1765.7804
 08  5 27  1 26  0.0000000  0  8G19G18G16G 6G 3G25G22G21
  -3234244.32743  -2349402.63045  23938209.0314   23938207.3324
      2737.6044
 -13073755.07146  -8682557.71646  22854569.5144   22854569.4444
      1509.4564
 -21275833.66746 -12315641.09446  20614217.7544   20614217.2274
      -414.3824
 -19879173.99746 -14692306.47446  20927767.2224   20927767.6214
       924.0384
 -15451035.98746 -10116011.29246  21512976.0234   21512976.7734
      2094.0904
  -1070183.29343   -760465.58745  24486009.4744   24486009.6624
       599.4484
  -4540622.51145  -3209650.66445  23624432.8504   23624430.7634
      3141.4794
 -18913023.22446 -13019725.26346  21713331.9754   21713331.3074
     -1777.3574
 08  5 27  1 26 30.0000000  0  9G19G18G16G 6G 3G 7G25G22G21
  -3316324.42143  -2413361.10245  23922589.4334   23922587.6514
      2734.4414
 -13118809.80146  -8717665.27546  22845996.1734   22845995.9974
      1494.1894
 -21263143.29546 -12305752.50246  20616632.9624   20616632.7394
      -431.6344
 -19906764.18046 -14713805.31246  20922517.1264   20922517.7244
       915.3154
 -15513734.35546 -10164867.15246  21501045.1694   21501045.7084
      2085.8354
    -43594.80742                  24927155.0794
      1889.3074
  -1087909.92343   -774278.55945  24482636.1634   24482635.6704
       582.3484
  -4634782.17645  -3283021.84645  23606515.1874   23606514.8944
      3135.8484
 -18859528.36946 -12978040.95546  21723511.7524   21723511.2604
     -1788.9404
 08  5 27  1 27  0.0000000  0  9G19G18G16G 6G 3G 7G25G22G21
  -3398309.35843  -2477245.44045  23906987.8184   23906988.7914
      2731.2514
 -13163406.35246  -8752415.84646  22837509.3704   22837509.3114
      1478.9174
 -21249935.77846 -12295460.93346  20619146.3324   20619146.0274
      -448.8724
 -19934093.35046 -14735100.76746  20917316.3884   20917316.7874
       906.6304
 -15576185.37546 -10213530.27546  21489161.2404   21489161.9784
      2077.5864
   -100032.71242                  24916415.7974
      1873.1904
  -1105123.63943   -787691.85545  24479360.8434   24479360.6914
       565.2644
  -4728771.65645  -3356260.35945  23588629.3384   23588628.5994
      3130.1104
 -18805687.56346 -12936087.07746  21733757.5374   21733756.6934
     -1800.4384
 08  5 27  1 27 30.0000000  0  9G19G18G16G 6G 3G 7G25G22G21
  -3480197.94644  -2541054.67945  23891405.2914   23891403.2404
      2728.0124
 -13207542.52446  -8786807.63946  22829110.5924   22829110.2414
      1463.4954
 -21236210.56346 -12284765.96247  20621758.0984   20621757.9114
      -466.1464
 -19961160.78546 -14756192.27846  20912165.7094   20912166.0374
       897.8724
 -15638387.48546 -10261999.44346  21477324.2884   21477325.5424
      2069.2354
   -155986.63442     -8689.08344  24905767.8214   24905771.7244
      1857.0484
  -1121824.19243   -800705.25545  24476182.0794   24476182.6664
       548.0874
  -4822587.97745  -3429363.98245  23570776.5204   23570775.8754
      3124.2764
 -18751502.84446 -12893865.21846  21744068.6824   21744067.8974
     -1811.8724
 08  5 27  1 28  0.0000000  0  9G19G18G16G 6G 3G 7G25G22G21
  -3561990.27744  -2604788.95045  23875840.7004   23875838.4374
      2724.8044
 -13251216.55646  -8820839.35846  22820799.6874   22820799.4294
      1448.0824
 -21221967.79046 -12273667.70547  20624468.5364   20624468.1964
      -483.3854
 -19987966.26046 -14777079.66146  20907064.9054   20907065.3394
       889.1474
 -15700339.96646 -10310274.10146  21465535.3854   21465535.5614
      2060.9214
   -211454.96042    -51911.10945  24895212.5234   24895212.8284
      1840.8074
  -1138011.30643   -813318.58745  24473101.3374   24473103.9164
       531.0044
  -4916228.42045  -3502330.54745  23552957.4964   23552955.1634
      3118.3874
 -18696976.14746 -12851376.88946  21754444.4324   21754443.9634
     -1823.2354
 08  5 27  1 28 30.0000000  0  9G19G18G16G 6G 3G 7G25G22G21
  -3643685.58444  -2668447.62245  23860293.9334   23860292.3864
      2721.5454
 -13294426.76146  -8854509.62646  22812577.0384   22812577.0034
      1432.5824
 -21207207.16646 -12262165.92546  20627277.1344   20627277.0284
      -500.6784
 -20014508.96346 -14797762.28546  20902013.7054   20902014.2444
       880.3844
 -15762041.85946 -10358353.48446  21453793.8324   21453794.4534
      2052.5394
   -266435.67342    -94753.27545  24884749.7024   24884750.8284
      1824.5314
  -1153684.92543   -825531.79945  24470118.9974   24470118.5174
       513.8954
  -5009689.51345  -3575157.38245  23535172.7254   23535170.3924
      3112.3434
 -18642108.97546 -12808623.24046  21764885.6154   21764884.9704
     -1834.5884
 08  5 27  1 29  0.0000000  0  9G19G18G16G 6G 3G 7G25G22G21
  -3725283.52644  -2732030.39145  23844767.1034   23844764.9694
      2718.3174
 -13337170.82346  -8887816.67846  22804442.7774   22804442.2964
      1417.0344
 -21191927.93846 -12250260.03746  20630185.0034   20630184.6054
      -517.9344
 -20040788.54246 -14818239.87646  20897012.9814   20897013.4974
       871.5934
 -15823492.33446 -10406236.97646  21442100.0684   21442100.9474
      2044.1594
   -320926.97842   -137214.01845  24874381.1954   24874379.0144
      1808.1984
  -1168844.48343   -837344.49645  24467234.7854   24467234.4924
       496.7704
  -5102968.63045  -3647842.43745  23517422.6354   23517420.6664
      3106.2354
 -18586902.76146 -12765605.40446  21775390.7844   21775390.5384
     -1845.8194
 08  5 27  1 29 30.0000000  0  9G19G18G16G 6G 3G 7G25G22G21
  -3806783.93945  -2795537.17845  23829257.9244   23829256.2944
      2715.0454
 -13379447.15546  -8920759.25546  22796398.0204   22796398.0674
      1401.3904
 -21176130.31246 -12237950.20346  20633191.1854   20633191.0214
      -535.2464
 -20066804.57746 -14838512.10546  20892062.4844   20892062.8474
       862.7974
 -15884690.39746 -10453923.76746  21430454.5074   21430455.5514
      2035.7224
   -374927.43942   -179292.17644  24864106.1044   24864104.3464
      1791.8104
  -1183490.26243   -848756.81045  24464447.1334   24464445.6914
       479.6234
  -5196062.81045  -3720383.28245  23499706.8554   23499705.2024
      3100.0244
 -18531359.70146 -12722325.09846  21785960.5434   21785959.8514
     -1857.0514
 08  5 27  1 30  0.0000000  0  9G19G18G16G 6G 3G 7G25G22G21
  -3888186.06244  -2858967.39645  23813767.1984   23813765.0534
      2711.7804
 -13421253.98546  -8953336.00946  22788442.4464   22788442.6224
      1385.7284
 -21159813.70646 -12225235.96946  20636295.9384   20636295.5864
      -552.5134
 -20092556.53446 -14858578.57946  20887162.1884   20887162.4464
       854.0054
 -15945635.58846 -10501413.52246  21418856.9444   21418858.2804
      2027.2724
   -428434.82941   -220986.30845  24853923.1814   24853921.8804
      1775.3834
  -1197621.92943   -859768.47745  24461757.8734   24461760.6514
       462.5034
  -5288969.52645  -3792778.14645  23482027.5734   23482025.0294
      3093.7394
 -18475481.27046 -12678783.46846  21796593.7304   21796593.1914
     -1868.1704
 08  5 27  1 30 30.0000000  0  9G19G18G16G 6G 3G 7G25G22G21
  -3969489.40245  -2922320.57945  23798296.0154   23798294.4684
      2708.4874
 -13462589.27046  -8985545.28446  22780576.5404   22780576.2124
      1369.9634
 -21142978.34346 -12212117.50646  20639499.6124   20639499.4484
      -569.8244
 -20118043.92846 -14878438.88546  20882311.8894   20882312.3584
       845.1734
 -16006326.21046 -10548704.91346  21407308.0834   21407309.2084
      2018.7884
   -481447.80641   -262295.18145  24843834.2914   24843834.6084
      1758.8594
  -1211239.29843   -870379.41545  24459166.6784   24459167.8274
       445.3564
  -5381685.19145  -3865024.13545  23464384.2574   23464382.5224
      3087.3194
 -18419269.33846 -12634981.96246  21807290.6364   21807290.1084
     -1879.2674
 08  5 27  1 31  0.0000000  0  9G19G18G16G 6G 3G 7G25G22G21
  -4050693.52845  -2985596.51345  23782844.5274   23782842.1364
      2705.1644
 -13503451.35446  -9017385.86946  22772801.0554   22772801.3364
      1354.1654
 -21125623.90646 -12198594.57246  20642802.1384   20642801.6344
      -587.1424
 -20143266.24246 -14898092.64146  20877512.4554   20877513.0884
       836.3324
 -16066761.93646 -10595797.67546  21395807.1744   21395807.7374
      2010.2724
   -533964.70841   -303217.37245  24833840.3504   24833841.2644
      1742.3194
  -1224342.30243   -880589.56545  24456672.9854   24456672.1414
       428.2224
  -5474207.18945  -3937119.16345  23446777.3334   23446776.6414
      3080.8064
 -18362725.76846 -12590922.04046  21818050.4224   21818049.8714
     -1890.2904
 08  5 27  1 31 30.0000000  0  8G19G18G16G 6G 3G25G22G21
  -4131798.17345  -3048794.88945  23767409.9664   23767407.2234
      2701.8104
 -13543838.53746  -9048856.40246  22765115.5244   22765115.4894
      1338.2954
 -21107750.29446 -12184667.08447  20646202.8744   20646202.4644
      -604.4654
 -20168222.89446 -14917539.38946  20872763.1874   20872763.5974
       827.4434
 -16126941.60846 -10642690.91546  21384355.6444   21384356.5584
      2001.6884
  -1236930.89843   -890398.88845  24454278.2894   24454278.2424
       411.0494
  -5566532.73045  -4009061.15545  23429208.9404   23429207.7914
      3074.1974
 -18305851.83946 -12546604.69346  21828873.2374   21828872.6634
     -1901.3004
 08  5 27  1 32  0.0000000  0  8G19G18G16G 6G 3G25G22G21
  -4212802.95245  -3111915.48545  23751994.7794   23751992.9154
      2698.4804
 -13583748.93446  -9079955.39146  22757521.1224   22757520.8414
      1322.3634
 -21089357.14646 -12170334.76646  20649703.5934   20649703.3474
      -621.7834
 -20192913.44446 -14936778.77446  20868064.6504   20868065.1664
       818.5584
 -16186864.06446 -10689383.73146  21372952.9044   21372954.1704
      1993.1214
  -1249004.92743   -899807.20545  24451980.8024   24451978.6104
       393.8694
  -5658658.55145  -4080847.48445  23411677.7124   23411675.1444
      3067.4914
 -18248649.43146 -12502031.38446  21839758.6654   21839757.4814
     -1912.2234
 08  5 27  1 32 30.0000000  0  9G19G18G16G 6G 3G 7G25G22G21
  -4293707.15045  -3174957.70545  23736599.5234   23736598.4684
      2695.1154
 -13623180.71846  -9110681.44446  22750017.6384   22750017.1574
      1306.4004
 -21070444.37546 -12155597.55146  20653302.4824   20653302.0254
      -639.0924
 -20217337.23946 -14955810.30546  20863417.3104   20863417.8734
       809.6884
 -16246528.40746 -10735875.40246  21361599.1904   21361600.0814
      1984.5004
    -42479.25241                  24804429.4094
      1692.2344
  -1260564.25743   -908814.51945  24449781.0784   24449778.9564
       376.7264
  -5750582.26645  -4152476.33345  23394184.8344   23394182.7954
      3060.7114
 -18191120.63246 -12457203.74946  21850705.7574   21850705.1124
     -1923.0514
 08  5 27  1 33  0.0000000  0  9G19G18G16G 6G 3G 7G25G22G21
  -4374510.23445  -3237921.12345  23721223.4544   23721221.0864
      2691.7314
 -13662132.27646  -9141033.30746  22742604.8744   22742603.7844
      1290.3544
 -21051011.91246 -12140455.36846  20657000.2004   20656999.9184
      -656.4174
 -20241494.03646 -14974633.78346  20858820.0444   20858820.5954
       800.7694
 -16305933.86346 -10782165.37846  21350294.3464   21350295.2024
      1975.8484
    -92995.31341                  24794815.6424
      1675.4624
  -1271609.14443   -917420.97245  24447679.4244   24447678.7674
       359.5504
  -5842300.11045  -4223944.79445  23376731.9684   23376730.4214
      3053.8114
 -18133267.15746 -12412123.11446  21861715.0004   21861714.1804
     -1933.8564
 08  5 27  1 33 30.0000000  0  9G19G18G16G 6G 3G 7G25G22G21
  -4455212.24944  -3300805.82745  23705865.4904   23705865.7364
      2688.3684
 -13700601.87546  -9171009.60146  22735284.2844   22735283.9914
      1274.2714
 -21031059.79846 -12124908.27246  20660797.1494   20660796.9964
      -673.7374
 -20265383.28846 -14993248.78046  20854274.0164   20854274.6254
       791.8434
 -16365079.41046 -10828252.81946  21339039.5954   21339040.4394
      1967.1664
   -143007.14041    -27237.06245  24785299.1384   24785299.4544
      1658.6454
  -1282139.33243   -925626.27345  24445675.0494   24445675.0724
       342.4074
  -5933809.60945  -4295250.90245  23359317.8024   23359316.3954
      3046.8274
 -18075090.41046 -12366790.58146  21872785.5574   21872784.7834
     -1944.5994
 08  5 27  1 34  0.0000000  0  9G19G18G16G 6G 3G 7G25G22G21
  -4535812.27645  -3363611.02745  23690528.6584   23690527.9204
      2684.9554
 -13738587.73346  -9200608.94046  22728055.8844   22728055.4974
      1258.1184
 -21010587.84446 -12108956.10646  20664692.6024   20664692.4264
      -691.0704
 -20289004.30246 -15011654.76246  20849779.1504   20849779.6544
       782.8944
 -16423964.02546 -10874136.92446  21327834.0784   21327834.6174
      1958.4774
   -192513.15441    -65813.17845  24775877.8534   24775874.6304
      1641.7424
  -1292154.97043   -933430.66945  24443769.6574   24443770.9464
       325.3234
  -6025107.88145  -4366392.35845  23341944.4644   23341944.6054
      3039.7384
 -18016591.92446 -12321207.34446  21883917.3104   21883917.2044
     -1955.2874
 08  5 27  1 34 30.0000000  0  9G19G18G16G 6G 3G 7G25G22G21
  -4616309.77144  -3426336.37045  23675209.9754   23675208.8964
      2681.5284
 -13776088.38446  -9229830.23146  22720919.7514   22720918.9774
      1241.9094
 -20989596.24746 -12092599.02746  20668687.1994   20668686.8354
      -708.3844
 -20312356.74646 -15029851.48646  20845335.1314   20845335.8584
       773.9324
 -16482587.14446 -10919817.27246  21316678.5404   21316678.9274
      1949.7264
   -241511.84041   -103993.96745  24766555.0714   24766555.6344
      1624.8024
  -1301656.10943   -940834.09945  24441959.9614   24441961.5674
       308.1364
  -6116192.13345  -4437367.10145  23324611.8344   23324610.2524
      3032.5524
 -17957773.83346 -12275375.06746  21895109.9274   21895109.5634
     -1965.9204
 08  5 27  1 35  0.0000000  0  9G19G18G16G 6G 3G 7G25G22G21
  -4696704.53344  -3488981.61845  23659911.8484   23659910.9684
      2678.1254
 -13813101.98846  -9258671.99346  22713876.3374   22713876.7014
      1225.6614
 -20968084.79246 -12075836.86046  20672780.5734   20672780.4914
      -725.7044
 -20335440.01846 -15047838.44446  20840942.8794   20840943.6764
       764.9544
 -16540947.39546 -10965292.79546  21305572.8664   21305573.5704
      1940.9484
   -290001.62142   -141778.26545  24757327.1784   24757328.2104
      1607.8054
  -1310642.82142   -947836.74845  24440251.2344   24440252.1964
       290.9924
  -6207059.28945  -4508172.69845  23307319.8734   23307317.8804
      3025.2414
 -17898637.94546 -12229295.15246  21906363.0764   21906362.5604
     -1976.4574
 08  5 27  1 35 30.0000000  0  9G19G18G16G 6G 3G 7G25G22G21
  -4776996.24244  -3551546.56945  23644632.6484   23644630.1394
      2674.6544
 -13849627.11846  -9287133.09846  22706925.2934   22706925.2704
      1209.3564
 -20946053.45646 -12058669.59146  20676972.9214   20676973.0274
      -743.0534
 -20358253.67146 -15065615.31946  20836601.5374   20836601.9834
       755.9664
 -16599044.01046 -11010562.87446  21294517.6464   21294518.4904
      1932.1514
   -337980.96342   -179164.68345  24748196.9704   24748195.2824
      1590.7734
  -1319115.16643   -954438.58945  24438640.0434   24438639.6564
       273.8444
  -6297706.47945  -4578806.84245  23290070.4094   23290068.1934
      3017.8864
 -17839186.10646 -12182969.03546  21917676.7014   21917676.3504
     -1986.9774
 08  5 27  1 36  0.0000000  0  9G19G18G16G 6G 3G 7G25G22G21
  -4857184.18744  -3614030.66045  23629373.0494   23629370.6114
      2671.1734
 -13885662.10246  -9315212.30746  22700068.8294   22700068.7824
      1192.9554
 -20923502.22446 -12041097.21046  20681264.5144   20681264.4084
      -760.3894
 -20380797.18746 -15083181.69046  20832311.4024   20832312.0464
       746.9234
 -16656875.82846 -11055626.63846  21283512.5094   21283513.3184
      1923.2874
   -385448.56142   -216152.41945  24739164.7474   24739164.7594
      1573.6754
  -1327073.31043   -960639.78545  24437124.4024   24437125.1994
       256.6684
  -6388130.77845  -4649267.32745  23272862.9704   23272862.1384
      3010.3704
 -17779419.93546 -12136397.99646  21929049.4674   21929048.7054
     -1997.4424
 08  5 27  1 36 30.0000000  0  9G19G18G16G 6G 3G 7G25G22G21
  -4937268.03545  -3676433.65145  23614133.8784   23614132.6594
      2667.7234
 -13921205.24346  -9342908.23846  22693305.4194   22693305.0794
      1176.5534
 -20900431.31546 -12023119.87946  20685654.8884   20685654.8064
      -777.6964
 -20403069.98546 -15100537.11046  20828073.0984   20828073.7544
       737.9094
 -16714441.97946 -11100483.36046  21272558.2594   21272559.0454
      1914.4414
   -432402.44043   -252739.87745  24730229.1834   24730230.2384
      1556.5544
  -1334517.30942   -966440.28545  24435708.4724   24435708.0864
       239.5414
  -6478329.11845  -4719551.73045  23255700.0364   23255698.1134
      3002.8174
 -17719341.31746 -12089583.47846  21940482.3474   21940481.3864
     -2007.8114
 08  5 27  1 37  0.0000000  0  9G19G18G16G 6G 3G 7G25G22G21
  -5017247.08645  -3738754.96145  23598913.3834   23598912.4454
      2664.2134
 -13956254.87946  -9370219.62646  22686635.6134   22686635.1204
      1160.0824
 -20876840.34746 -12004737.31446  20690143.9104   20690143.5354
      -795.0284
 -20425071.56346 -15117681.20146  20823886.4914   20823886.7844
       728.8674
 -16771741.73046 -11145132.51946  21261654.4744   21261655.1194
      1905.5374
   -478841.74343   -288926.32845  24721393.6614   24721393.6734
      1539.3764
  -1341447.28942   -971840.27345  24434388.1254   24434389.4034
       222.4454
  -6568298.62145  -4789657.83345  23238578.8764   23238577.6804
      2995.1404
 -17658951.43246 -12042526.42346  21951973.6894   21951973.4314
     -2018.1604
 08  5 27  1 37 30.0000000  0  9G19G18G16G 6G 3G 7G25G22G21
  -5097120.98744  -3800994.31445  23583713.9484   23583712.4474
      2660.7244
 -13990809.68546  -9397145.45446  22680059.3194   22680058.2284
      1143.5474
 -20852729.65846 -11985949.77546  20694732.1134   20694732.0664
      -812.3644
 -20446801.36046 -15134613.51046  20819751.1844   20819751.6774
       719.7774
 -16828773.85746 -11189573.14646  21250801.2634   21250802.2594
      1896.5754
   -524764.85243   -324710.52045  24712653.9404   24712655.1474
      1522.1404
  -1347863.47642   -976839.84645  24433167.1884   24433168.9114
       205.2994
  -6658036.56345  -4859583.49345  23221502.2164   23221501.3724
      2987.4074
 -17598252.49446 -11995228.55946  21963524.3464   21963523.5964
     -2028.4394
 08  5 27  1 38  0.0000000  0  9G19G18G16G 6G 3G 7G25G22G21
  -5176889.52145  -3863151.57645  23568534.6914   23568532.9804
      2657.1784
 -14024867.81846  -9423684.25746  22673578.5504   22673578.1874
      1126.9574
 -20828099.48146 -11966757.43146  20699418.9444   20699418.8734
      -829.6694
 -20468259.04046 -15151333.77946  20815667.8714   20815668.5394
       710.7094
 -16885537.53546 -11233804.58046  21239999.7764   21240000.4444
      1887.6314
   -570170.58143   -360091.59945  24704013.6444   24704013.6444
      1504.8644
  -1353766.10542   -981439.34145  24432045.0994   24432043.3534
       188.1884
  -6747540.31645  -4929326.65745  23204470.4224   23204468.7224
      2979.4924
 -17537246.48046 -11947691.40346  21975133.5504   21975133.0464
     -2038.6344
 08  5 27  1 38 30.0000000  0  9G19G18G16G 6G 3G 7G25G22G21
  -5256551.58745  -3925225.86845  23553375.5214   23553373.5874
      2653.6234
 -14058428.08446  -9449835.09546  22667192.4974   22667192.4854
      1110.3314
 -20802949.73446 -11947160.23746  20704205.2974   20704205.1224
      -846.9974
 -20489444.03046 -15167841.56646  20811636.7414   20811637.1164
       701.5884
 -16942031.85546 -11277826.13646  21229249.1174   21229249.1294
      1878.6224
   -615057.23243   -395068.23545  24695471.4354   24695469.3374
      1487.5374
  -1359155.44242   -985638.86145  24431018.4184   24431016.6954
       171.0574
  -6836806.29045  -4998884.57145  23187483.1054   23187482.3314
      2971.5204
 -17475934.91546 -11899916.15146  21986800.8094   21986800.3984
     -2048.8084
 08  5 27  1 39  0.0000000  0  9G19G18G16G 6G 3G 7G25G22G21
  -5336107.09245  -3987217.14045  23538236.8114   23538235.5224
      2650.0924
 -14091488.54846  -9475596.47946  22660900.8704   22660900.1324
      1093.6804
 -20777280.25746 -11927158.04546  20709089.7914   20709089.5094
      -864.2984
 -20510355.59946 -15184136.29546  20807657.6534   20807658.1694
       692.4994
 -16998255.68346 -11321636.91046  21218550.0834   21218550.5984
      1869.6324
   -659423.46743   -429639.27445  24687028.1834   24687027.9254
      1470.1934
  -1364031.50942   -989438.38945  24430091.1644   24430092.5714
       153.9864
  -6925831.82345  -5068255.08945  23170542.7634   23170540.7704
      2963.4884
 -17414319.47646 -11851904.11246  21998525.8034   21998525.4634
     -2058.8884
 08  5 27  1 39 30.0000000  0  9G19G18G16G 6G 3G 7G25G22G21
  -5415555.42745  -4049124.88145  23523118.7204   23523117.1844
      2646.4714
 -14124048.19446  -9500967.62946  22654705.1554   22654704.7804
      1076.9514
 -20751091.64146 -11906751.33946  20714073.1364   20714072.8314
      -881.6134
 -20530993.37746 -15200217.66746  20803730.2344   20803730.8214
       683.3274
 -17054207.99546 -11365236.10246  21207902.8554   21207903.0544
      1860.5364
   -703267.69843   -463803.61245  24678685.5114   24678685.4294
      1452.7594
  -1368394.71142   -992838.16045  24429261.7664   24429257.5694
       136.8804
  -7014614.05145  -5137436.02745  23153648.1124   23153647.7614
      2955.3094
 -17352401.84446 -11803656.61546  22010308.3634   22010307.7424
     -2068.9614
 08  5 27  1 40  0.0000000  0  9G19G18G16G 6G 3G 7G25G22G21
  -5494896.06545  -4110948.72645  23508020.3994   23508019.2504
      2642.8754
 -14156105.30446  -9525947.18646  22648604.9204   22648605.2014
      1060.1794
 -20724383.77846 -11885940.02446  20719155.7424   20719155.7314
      -898.9194
 -20551356.68946 -15216085.19046  20799855.3614   20799855.9124
       674.1934
 -17109887.89046 -11408623.02946  21197307.2924   21197307.5964
      1851.4514
   -746588.72443   -497560.29245  24670442.5014   24670442.7834
      1435.2834
  -1372245.18642   -995838.60645  24428529.3434   24428524.0924
       119.8104
  -7103150.03645  -5206425.09045  23136800.0324   23136799.3644
      2947.0654
 -17290184.10246 -11755175.24746  22022148.0364   22022147.2984
     -2078.9164
 08  5 27  1 40 30.0000000  0  9G19G18G16G 6G 3G 7G25G22G21
  -5574128.69145  -4172688.41345  23492942.8634   23492942.1134
      2639.2734
 -14187658.17846  -9550533.82046  22642600.7954   22642600.4434
      1043.3544
 -20697156.89446 -11864724.27146  20724336.3024   20724336.1274
      -916.2064
 -20571445.17346 -15231738.55646  20796032.7764   20796033.3034
       665.0324
 -17165294.43946 -11451796.96146  21186763.6194   21186764.5694
      1842.3334
   -789385.31642   -530908.26845  24662296.4284   24662296.2524
      1417.8074
  -1375583.25143   -998439.68845  24427894.7894   24427892.5614
       102.7474
  -7191436.92745  -5275220.07545  23119999.1784   23119996.2604
      2938.7204
 -17227667.44346 -11706460.96246  22034044.8414   22034044.4194
     -2088.8464
 08  5 27  1 41  0.0000000  0  9G19G18G16G 6G 3G 7G25G22G21
  -5653252.70045  -4234343.42945  23477885.8784   23477885.4564
      2635.6434
 -14218705.59246  -9574726.60946  22636692.4054   22636691.6434
      1026.4654
 -20669411.37946 -11843104.40346  20729616.6024   20729616.4154
      -933.5054
 -20591258.25146 -15247177.31746  20792262.1264   20792262.4654
       655.8624
 -17220426.88446 -11494757.30646  21176272.4104   21176272.6454
      1833.1564
   -831656.31043   -563846.67045  24654253.8314   24654252.9174
      1400.2374
  -1378409.52742  -1000641.99245  24427355.0264   24427354.6634
        85.6614
  -7279471.97145  -5343818.79445  23103247.7854   23103245.1474
      2930.2634
 -17164854.22446 -11657515.59346  22045997.4854   22045997.2514
     -2098.6704
 08  5 27  1 41 30.0000000  0  9G19G18G16G 6G 3G 7G25G22G21
  -5732267.68245  -4295913.53245  23462850.0424   23462848.3194
      2632.0284
 -14249246.59946  -9598524.76546  22630880.2984   22630880.4164
      1009.5744
 -20641147.28146 -11821080.42946  20734994.6914   20734994.4454
      -950.7724
 -20610795.47846 -15262401.12846  20788544.0924   20788544.6904
       646.6414
 -17275283.99746 -11537503.09946  21165833.4744   21165834.5294
      1823.9804
   -873400.34243   -596374.46245  24646309.6274   24646309.6514
      1382.6694
  -1380723.96643  -1002445.44645  24426915.8594   24426915.6954
        68.6634
  -7367252.20145  -5412218.95645  23086543.2954   23086540.7994
      2921.7304
 -17101746.54946 -11608340.78346  22058006.8504   22058006.0764
     -2108.4784
 08  5 27  1 42  0.0000000  0  9G19G18G16G 6G 3G 7G25G22G21
  -5811173.14545  -4357398.30345  23447835.3164   23447833.4534
      2628.3624
 -14279279.33546  -9621926.88746  22625165.3654   22625165.0134
       992.6104
 -20612364.72546 -11798652.47046  20740471.7974   20740471.6104
      -968.0454
 -20630056.26546 -15277409.53146  20784878.9694   20784879.1104
       637.4194
 -17329864.71846 -11580033.51746  21155447.1754   21155447.7854
      1814.7554
   -914616.02543   -628490.61445  24638466.8484   24638468.3254
      1365.0334
  -1382527.24142  -1003850.71645  24426571.1034   24426570.4944
        51.5914
  -7454774.68245  -5480418.27745  23069887.4714   23069886.6274
      2913.0924
 -17038345.31746 -11558937.21946  22070071.4764   22070070.2224
     -2118.2384
 08  5 27  1 42 30.0000000  0  9G19G18G16G 6G 3G 7G25G22G21
  -5889968.38945  -4418797.18845  23432841.0144   23432838.7404
      2624.6534
 -14308802.54346  -9644931.95846  22619547.3804   22619547.1694
       975.5944
 -20583064.23846 -11775820.93346  20746047.6294   20746047.3824
      -985.3224
 -20649040.08146 -15292202.11746  20781266.6404   20781267.0854
       628.1814
 -17384168.26646 -11622347.97046  21145113.5484   21145114.2404
      1805.4704
   -955302.19243   -660194.06445  24630724.8404   24630724.5944
      1347.3334
  -1383819.67742  -1004857.67845  24426323.6694   24426323.9034
        34.5664
  -7542036.69045  -5548414.64245  23053282.4914   23053280.6744
      2904.3454
 -16974652.52346 -11509306.47046  22082191.9034   22082191.1064
     -2127.9434
 08  5 27  1 43  0.0000000  0  9G19G18G16G 6G 3G 7G25G22G21
  -5968653.04045  -4480109.91645  23417867.0884   23417865.6814
      2620.9914
 -14337814.95446  -9667539.03546  22614026.8464   22614026.9874
       958.5684
 -20553245.79946 -11752585.78746  20751722.0994   20751721.8764
     -1002.5754
 -20667746.32646 -15306778.40846  20777707.0834   20777707.6924
       618.9134
 -17438193.31646 -11664445.40446  21134832.8064   21134833.4744
      1796.1924
   -995457.55543   -691484.02145  24623083.3834   24623084.8484
      1329.6284
  -1384601.42443  -1005466.85445  24426176.8964   24426178.2914
        17.5974
  -7629035.05745  -5616205.57145  23036727.6234   23036725.3264
      2895.5244
 -16910669.78446 -11459449.79546  22094367.2784   22094366.2234
     -2137.5564
 08  5 27  1 43 30.0000000  0  9G19G18G16G 6G 3G 7G25G22G21
  -6047226.31845  -4541335.82645  23402915.3814   23402913.1654
      2617.2504
 -14366315.15846  -9689746.96446  22608602.9924   22608602.3004
       941.4614
 -20522909.83046 -11728947.37146  20757494.6374   20757494.5434
     -1019.8074
 -20686174.50646 -15321138.03146  20774200.2364   20774200.4834
       609.6534
 -17491939.13246 -11706325.25346  21124605.1144   21124605.6774
      1786.8724
  -1035081.20743   -722359.57545  24615543.8654   24615539.4104
      1311.9304
  -1384873.08243  -1005678.45945  24426125.9694   24426125.7464
          .5974
  -7715767.34645  -5683789.15845  23020222.3724   23020220.8834
      2886.6104
 -16846399.32446 -11409368.92646  22106597.3824   22106596.9714
     -2147.1314
 08  5 27  1 44  0.0000000  0  9G19G18G16G 6G 3G 7G25G22G21
  -6125688.02645  -4602474.80745  23387984.5944   23387983.9144
      2613.5014
 -14394301.64046  -9711554.60946  22603277.4884   22603277.3124
       924.3074
 -20492056.61846 -11704905.91146  20763365.9594   20763365.6544
     -1037.0814
 -20704324.18546 -15335280.63946  20770746.6244   20770747.0004
       600.3374
 -17545404.92246 -11747986.90346  21114430.9204   21114431.4714
      1777.5094
  -1074171.94443   -752819.82645  24608104.9614   24608104.1174
      1294.1304
  -1384635.22342  -1005493.14445  24426170.0304   24426170.1824
       -16.4164
  -7802230.37945  -5751162.94545  23003768.9154   23003767.0624
      2877.5724
 -16781842.42346 -11359064.84346  22118882.3384   22118881.8464
     -2156.6514
 08  5 27  1 44 30.0000000  0  9G19G18G16G 6G 3G 7G25G22G21
  -6204037.78245  -4663526.59045  23373075.0854   23373073.6324
      2609.7914
 -14421773.32046  -9732961.08946  22598049.7444   22598048.9944
       907.1364
 -20460686.30846 -11680461.52346  20769335.6604   20769335.6254
     -1054.2744
 -20722194.70046 -15349205.72146  20767345.7374   20767346.3004
       591.0404
 -17598589.17646 -11789429.18246  21104310.3914   21104310.9534
      1768.1104
  -1112728.26343   -782863.80545  24600767.8454   24600765.3964
      1276.3174
  -1383888.02943  -1004910.92645  24426313.3364   24426312.4804
       -33.3674
  -7888421.25745  -5818324.65145  22987367.8184   22987366.3884
      2868.4704
 -16717001.02146 -11308539.08146  22131221.3354   22131220.7614
     -2166.0964
 08  5 27  1 45  0.0000000  0  9G19G18G16G 6G 3G 7G25G22G21
  -6282274.83945  -4724490.48845  23358185.9474   23358186.5104
      2606.0024
 -14448728.97946  -9753965.49946  22592920.2564   22592920.4204
       889.9054
 -20428799.63146 -11655614.75746  20775403.5304   20775403.0734
     -1071.5024
 -20739785.51346 -15362912.84746  20763998.3244   20763998.8874
       581.6924
 -17651491.36346 -11830651.65546  21094243.0424   21094243.3934
      1758.6894
  -1150749.27444   -812490.47945  24593533.2944   24593532.5204
      1258.4224
  -1382632.35342  -1003932.47545  24426552.0624   24426552.1094
       -50.3524
  -7974337.20345  -5885272.09645  22971018.7794   22971017.3734
      2859.2564
 -16651877.12946 -11257793.17946  22143614.2454   22143613.4244
     -2175.4924
 08  5 27  1 45 30.0000000  0  9G19G18G16G 6G 3G 7G25G22G21
  -6360398.50845  -4785366.09145  23343320.3254   23343319.4924
      2602.2384
 -14475167.42146  -9774566.88046  22587889.2494   22587888.8044
       872.6544
 -20396396.69146 -11630365.71946  20781569.4184   20781569.1254
     -1088.6964
 -20757096.21346 -15376401.71146  20760704.4574   20760704.8444
       572.3624
 -17704110.35846 -11871653.46746  21084230.4874   21084231.0384
      1749.2434
  -1188233.78343   -841699.19645  24586400.1934   24586399.3024
      1240.5294
  -1380868.39143  -1002558.00945  24426888.7014   24426886.2054
       -67.2534
  -8059975.43345  -5952003.18445  22954721.7674   22954720.1034
      2849.9544
 -16586472.19546 -11206828.30146  22156060.2664   22156059.9964
     -2184.8034
 08  5 27  1 46  0.0000000  0  9G19G18G16G 6G 3G 7G25G22G21
  -6438408.37645  -4846153.00045  23328475.9664   23328474.1264
      2598.4194
 -14501087.15246  -9794764.05746  22582956.7914   22582956.4744
       855.3334
 -20363477.81746 -11604714.65046  20787833.4334   20787833.2684
     -1105.8864
 -20774126.16146 -15389671.80046  20757463.2874   20757463.9784
       563.0014
 -17756445.11046 -11912433.78546  21074271.3824   21074272.0504
      1739.7664
  -1225180.96743   -870489.29945  24579368.1914   24579364.5694
      1222.6104
  -1378596.92943  -1000788.04045  24427319.9924   24427322.3604
       -84.1394
  -8145332.93645  -6018515.52945  22938478.6814   22938477.6504
      2840.5464
 -16520788.40646 -11155646.13546  22168559.3624   22168559.2804
     -2194.0854
 08  5 27  1 46 30.0000000  0  9G19G18G16G 6G 3G 7G25G22G21
  -6516303.85645  -4906850.76745  23313653.2594   23313651.9234
      2594.5924
 -14526487.15846  -9814556.26946  22578123.3444   22578123.2974
       837.9784
 -20330043.49246 -11578661.92946  20794196.0634   20794195.4774
     -1123.0674
 -20790874.88046 -15402722.75546  20754276.3874   20754276.8804
       553.5954
 -17808494.96746 -11952992.11446  21064366.6544   21064367.8744
      1730.2214
  -1261589.55543   -898859.55745  24572439.6624   24572438.4904
      1204.6384
  -1375818.33043   -998622.88745  24427849.3594   24427849.6524
      -101.0704
  -8230406.95645  -6084806.94145  22922290.1124   22922289.7134
      2831.0424
 -16454827.43846 -11104247.97846  22181110.8834   22181110.6604
     -2203.2784
 08  5 27  1 47  0.0000000  0  9G19G18G16G 6G 3G 7G25G22G21
  -6594084.47245  -4967459.03645  23298851.1294   23298849.5464
      2590.7824
 -14551366.13646  -9833942.46646  22573389.0334   22573388.5884
       820.6144
 -20296094.25246 -11552207.98146  20800656.3684   20800656.3334
     -1140.2104
 -20807341.64246 -15415554.00946  20751142.8014   20751143.4224
       544.2094
 -17860258.79546 -11993327.56046  21054516.2534   21054517.6244
      1720.7024
  -1297458.56643   -926809.43045  24565614.8784   24565614.0104
      1186.6284
  -1372533.29143   -996063.12945  24428474.2164   24428471.8834
      -117.9444
  -8315194.71945  -6150875.33545  22906155.2864   22906154.1254
      2821.4824
 -16388590.88646 -11052635.08646  22193715.6324   22193714.9524
     -2212.4484
 08  5 27  1 47 30.0000000  0  9G19G18G16G 6G 3G 7G25G22G21
  -6671749.87845  -5027977.51945  23284072.2454   23284071.2264
      2586.9354
 -14575722.98046  -9852921.81646  22568754.0904   22568753.4114
       803.1874
 -20261630.32546 -11525352.97646  20807214.5604   20807214.4204
     -1157.3584
 -20823526.03746 -15428165.21846  20748063.0874   20748063.3334
       534.7684
 -17911735.44246 -12033439.22546  21044720.5864   21044721.3724
      1711.1014
  -1332786.64243   -954337.83545  24558892.3404   24558895.9394
      1168.6054
  -1368742.39143   -993109.17345  24429195.2454   24429196.4054
      -134.7874
  -8399693.37145  -6216718.41245  22890075.9364   22890075.2334
      2811.7714
 -16322080.41346 -11000808.75146  22206372.0194   22206372.1134
     -2221.5454
 08  5 27  1 48  0.0000000  0  9G19G18G16G 6G 3G 7G25G22G21
  -6749299.29845  -5088405.65645  23269315.1994   23269314.5664
      2583.0284
 -14599556.60846  -9871493.47346  22564218.4324   22564218.6084
       785.7104
 -20226652.22946 -11498097.32146  20813870.5784   20813870.1674
     -1174.5084
 -20839427.61746 -15440556.06946  20745037.1694   20745037.5204
       525.3464
 -17962923.84746 -12073326.28546  21034980.0194   21034980.7814
      1701.4724
  -1367573.05343   -981444.12345  24552272.4334   24552272.1404
      1150.5084
  -1364446.19543   -989761.48845  24430013.4814   24430010.7264
      -151.6384
  -8483899.89545  -6282333.88345  22874051.5114   22874050.4564
      2801.9764
 -16255298.01546 -10948770.52046  22219080.3924   22219079.3144
     -2230.6064
 08  5 27  1 48 30.0000000  0  9G19G18G16G 6G 3G 7G25G22G21
  -6826732.16345  -5148742.92645  23254579.1114   23254578.6194
      2579.1334
 -14622865.55346  -9889656.27546  22559783.0054   22559782.3374
       768.2164
 -20191160.37546 -11470441.33446  20820624.8724   20820624.6384
     -1191.6284
 -20855045.69246 -15452725.99746  20742065.0334   20742065.6544
       515.8764
 -18013822.96346 -12112987.92846  21025294.1954   21025295.0514
      1691.8124
  -1401816.86943  -1008127.63345  24545755.2504   24545752.3554
      1132.3974
  -1359645.36943   -986020.55545  24430927.2054   24430928.9404
      -168.4164
  -8567811.66045  -6347719.65945  22858083.7834   22858082.4944
      2792.1124
 -16188245.30246 -10896521.65346  22231839.9964   22231840.0314
     -2239.5754
 08  5 27  1 49  0.0000000  0  9G19G18G16G 6G 3G 7G25G22G21
  -6904048.00545  -5208989.01645  23239867.6454   23239866.2854
      2575.2444
 -14645649.12446  -9907409.70546  22555447.6754   22555447.2184
       750.6764
 -20155155.49946 -11442385.59546  20827475.9664   20827475.6034
     -1208.7054
 -20870379.81846 -15464674.66946  20739147.2224   20739147.7264
       506.4134
 -18064432.08946 -12152423.60146  21015663.4194   21015664.3574
      1682.1254
  -1435517.27943  -1034387.68445  24539342.2574   24539342.6444
      1114.2894
  -1354340.64243   -981887.02845  24431936.1394   24431935.8574
      -185.2114
  -8651426.13645  -6412873.79545  22842172.9304   22842171.1494
      2782.1844
 -16120923.96446 -10844063.47846  22244651.0884   22244651.0294
     -2248.4874
 08  5 27  1 49 30.0000000  0  9G19G18G16G 6G 3G 7G25G22G21
  -6981246.26045  -5269143.52145  23225177.9954   23225176.6704
      2571.2864
 -14667905.95346  -9924752.67746  22551211.9684   22551212.6714
       733.0984
 -20118637.75846 -11413930.21446  20834425.2234   20834424.9774
     -1225.8004
 -20885429.31746 -15476401.55846  20736283.6814   20736284.0914
       496.8904
 -18114749.94846 -12191632.32446  21006088.1504   21006088.8064
      1672.4054
  -1468673.16243  -1060223.58645  24533033.3224   24533034.2604
      1096.1094
  -1348532.56943   -977361.25545  24433041.4554   24433042.9084
      -201.9774
  -8734740.42545  -6477794.02845  22826318.8774   22826316.3454
      2772.0824
 -16053335.59946 -10791397.22446  22257512.3304   22257511.4044
     -2257.3824
 08  5 27  1 50  0.0000000  0  9G19G18G16G 6G 3G 7G25G22G21
  -7058326.17345  -5329205.77745  23210509.8834   23210508.8984
      2567.3604
 -14689635.19346  -9941684.54046  22547077.1394   22547076.3074
       715.5084
 -20081607.86846 -11385075.76246  20841472.0464   20841471.8234
     -1242.8674
 -20900193.70346 -15487906.27346  20733473.9254   20733474.5704
       487.3824
 -18164776.01746 -12230613.66846  20996568.4404   20996569.4364
      1662.6564
  -1501283.53443  -1085634.19745  24526828.1124   24526825.4274
      1077.9054
  -1342221.94442   -972443.90445  24434241.3754   24434240.2734
      -218.7104
  -8817750.90645  -6542477.49546  22810522.0124   22810519.9144
      2761.9324
 -15985481.97246 -10738524.27346  22270424.6584   22270424.5764
     -2266.1894
 08  5 27  1 50 30.0000000  0  9G19G18G16G 6G 3G 7G25G22G21
  -7135287.41045  -5389175.55745  23195864.1704   23195862.6464
      2563.4144
 -14710835.73046  -9958204.42846  22543043.0264   22543042.5344
       697.8814
 -20044066.26646 -11355822.55746  20848615.8894   20848615.7724
     -1259.8884
 -20914672.48846 -15499188.45046  20730718.5814   20730719.1914
       477.8724
 -18214508.80446 -12269366.47746  20987104.7634   20987105.7134
      1652.8954
  -1533347.52943  -1110619.03445  24520726.8714   24520724.9484
      1059.7044
  -1335409.23843   -967135.31345  24435538.7544   24435537.3954
      -235.4134
  -8900455.28746  -6606922.46246  22794784.6554   22794783.0964
      2751.6904
 -15917364.85046 -10685446.00346  22283386.8574   22283386.1074
     -2274.9144
 08  5 27  1 51  0.0000000  0  9G19G18G16G 6G 3G 7G25G22G21
  -7212129.32145  -5449052.38245  23181241.8504   23181240.6784
      2559.3954
 -14731506.60146  -9974311.57946  22539109.3594   22539108.7494
       680.1904
 -20006013.70746 -11326171.21746  20855856.7674   20855856.6384
     -1276.9314
 -20928865.08046 -15510247.60946  20728017.8104   20728018.3734
       468.3034
 -18263947.71546 -12307890.29546  20977696.9974   20977697.3604
      1643.0494
  -1564864.38143  -1135177.74345  24514729.5144   24514728.9864
      1041.4204
  -1328095.52343   -961436.33545  24436930.0844   24436929.2404
      -252.1494
  -8982850.84346  -6671126.76645  22779105.0164   22779102.4024
      2741.3434
 -15848986.38946 -10632164.07846  22296399.2404   22296399.6274
     -2283.6164
 08  5 27  1 51 30.0000000  0  9G19G18G16G 6G 3G 7G25G22G21
  -7288851.34745  -5508835.76945  23166642.1244   23166641.6324
      2555.4114
 -14751646.85446  -9990005.27146  22535276.3274   22535275.3544
       662.4914
 -19967450.72746 -11296122.14546  20863195.2174   20863194.9124
     -1293.9344
 -20942770.88646 -15521083.30746  20725371.6614   20725372.2234
       458.7514
 -18313091.57746 -12346184.20446  20968344.8594   20968345.4334
      1633.1944
  -1595833.04443  -1159309.11645  24508836.0744   24508832.3464
      1023.1414
  -1320281.53442   -955347.56845  24438417.1554   24438417.4604
      -268.7774
  -9064934.86046  -6735088.35245  22763484.1724   22763482.6134
      2730.9104
 -15780347.96346 -10578679.60546  22309460.2484   22309459.6504
     -2292.2634
 08  5 27  1 52  0.0000000  0  9G19G18G16G 6G 3G 7G25G22G21
  -7365453.01845  -5568525.37145  23152064.8654   23152063.7404
      2551.3754
 -14771255.03046 -10005284.36846  22531545.5684   22531545.6034
       644.7124
 -19928377.72846 -11265675.65246  20870630.0974   20870630.0384
     -1310.9274
 -20956389.38346 -15531695.12146  20722779.9924   20722780.5084
       449.1674
 -18361939.22946 -12384247.31246  20959049.8354   20959050.4334
      1623.3144
  -1626253.09042  -1183013.06145  24503046.4884   24503043.0424
      1004.8704
  -1311967.98742   -948869.46245  24439997.8374   24440000.1584
      -285.4134
  -9146704.48846  -6798804.92746  22747924.3174   22747922.9334
      2720.3834
 -15711451.53346 -10524994.08246  22322571.2124   22322570.6374
     -2300.8314
 08  5 27  1 52 30.0000000  0  9G19G18G16G 6G 3G 7G25G22G21
  -7441933.65845  -5628120.66445  23137511.6834   23137511.2844
      2547.3224
 -14790330.53646 -10020148.38446  22527915.8904   22527915.6204
       626.9674
 -19888795.69746 -11234832.51646  20878162.7534   20878162.6824
     -1327.8854
 -20969720.25646 -15542082.81546  20720243.6114   20720244.1274
       439.5494
 -18410489.63746 -12422078.78846  20949811.0234   20949811.3984
      1613.3924
  -1656123.59042  -1206288.77045  24497362.3144   24497362.8544
       986.5004
  -1303155.64942   -942002.68945  24441675.7584   24441676.1094
      -302.0684
  -9228156.99346  -6862274.38546  22732424.6834   22732422.9714
      2709.7574
 -15642298.95046 -10471108.95846  22335730.6984   22335729.5964
     -2309.3444
 08  5 27  1 53  0.0000000  0  9G19G18G16G 6G 3G 7G25G22G21
  -7518292.71745  -5687621.24745  23122981.0484   23122980.1694
      2543.2814
 -14808872.69646 -10034596.81046  22524386.7004   22524386.6414
       609.1734
 -19848705.00346 -11203593.01446  20885791.6034   20885791.6864
     -1344.8174
 -20982762.66946 -15552245.73346  20717761.2794   20717761.6664
       429.9434
 -18458741.91246 -12459677.96346  20940628.9694   20940629.6734
      1603.4204
  -1685443.66742  -1229135.51945  24491783.4494   24491783.9184
       968.1424
  -1293845.44343   -934747.90445  24443449.0384   24443456.1774
      -318.6204
  -9309289.64945  -6925494.62146  22716986.0454   22716984.4974
      2699.0574
 -15572892.27646 -10417025.85846  22348938.4074   22348937.4694
     -2317.7784
 08  5 27  1 53 30.0000000  0  9G19G18G16G 6G 3G 7G25G22G21
  -7594529.44245  -5747026.47046  23108473.3604   23108472.0234
      2539.1854
 -14826880.39046 -10048628.78046  22520959.8344   22520959.4364
       591.3324
 -19808106.35846 -11171957.71446  20893517.0064   20893517.1244
     -1361.7384
 -20995516.15346 -15562183.52046  20715334.6954   20715335.1524
       420.3004
 -18506695.17546 -12497044.13246  20931503.5804   20931504.1314
      1593.4554
  -1714212.41842  -1251552.68245  24486308.7704   24486304.6444
       949.7794
  -1284038.08242   -927105.91545  24445313.5404   24445316.4594
      -335.1814
  -9390099.49145  -6988463.31746  22701607.2404   22701605.9044
      2688.2614
 -15503232.58346 -10362745.57546  22362193.7874   22362193.2244
     -2326.1664
 08  5 27  1 54  0.0000000  0  9G19G18G16G 6G 3G 7G25G22G21
  -7670643.41845  -5806336.06446  23093989.2304   23093988.4444
      2535.0734
 -14844352.36146 -10062243.29046  22517635.2134   22517634.9204
       573.4704
 -19767000.38346 -11139927.09546  20901339.6944   20901339.5414
     -1378.6504
 -21007980.17446 -15571895.73946  20712962.4984   20712962.8974
       410.6464
 -18554348.22746 -12534176.37646  20922435.5044   20922436.3014
      1583.4224
  -1742429.19742  -1273539.79845  24480938.9914   24480941.8984
       931.3534
  -1273734.46042   -919077.12545  24447274.8344   24447275.6314
      -351.7074
  -9470583.97545  -7051178.48946  22686291.2034   22686289.4454
      2677.3544
 -15433321.66546 -10308269.53946  22375497.3134   22375496.3754
     -2334.5124
 08  5 27  1 54 30.0000000  0  9G19G18G16G 6G 3G 7G25G22G21
  -7746634.19045  -5865549.65745  23079528.7044   23079527.7904
      2530.9714
 -14861288.32846 -10075440.12546  22514412.8334   22514412.5174
       555.5794
 -19725387.57646 -11107501.53546  20909258.1124   20909257.8774
     -1395.5224
 -21020154.13746 -15581381.95546  20710646.5144   20710647.0534
       400.9574
 -18601700.13446 -12571073.95646  20913424.5744   20913425.3954
      1573.3674
  -1770093.40242  -1295096.30245  24475674.2894   24475676.0594
       912.9184
  -1262935.68742   -910662.54445  24449328.4324   24449327.3534
      -368.2024
  -9550740.06445  -7113637.78046  22671038.7134   22671037.2014
      2666.3624
 -15363161.88546 -10253599.60246  22388848.3394   22388847.9294
     -2342.8144
 08  5 27  1 55  0.0000000  0  9G19G18G16G 6G 3G 7G25G22G21
  -7822500.86845  -5924666.54545  23065091.6064   23065090.3994
      2526.8024
 -14877687.12246 -10088218.39946  22511292.1464   22511292.3574
       537.6504
 -19683269.00946 -11074681.87946  20917273.1134   20917272.9964
     -1412.3954
 -21032037.48946 -15590641.70946  20708384.7094   20708384.8504
       391.2544
 -18648749.91446 -12607736.11746  20904471.2024   20904471.7884
      1563.2654
  -1797204.39842  -1316221.72545  24470516.3924   24470515.9464
       894.4474
  -1251642.38242   -901862.49145  24451478.9584   24451476.4144
      -384.7054
  -9630565.34445  -7175839.28146  22655848.8514   22655847.4674
      2655.2734
 -15292754.17446 -10198736.45646  22402246.8294   22402246.3374
     -2351.0534
 08  5 27  1 55 30.0000000  0  9G19G18G16G 6G 3G 7G25G22G21
  -7898243.13945  -5983686.46446  23050678.4444   23050678.2444
      2522.6694
 -14893547.94246 -10100577.47446  22508273.8164   22508273.9334
       519.7254
 -19640645.36946 -11041468.65546  20925384.3364   20925384.2894
     -1429.2074
 -21043629.67046 -15599674.57346  20706178.8364   20706179.5624
       381.5454
 -18695496.40446 -12644161.95946  20895575.6474   20895576.4444
      1553.1674
  -1823761.30242  -1336915.41945  24465461.9774   24465462.4234
       875.9764
  -1239855.71342   -892678.14645  24453721.7384   24453718.6554
      -401.0844
  -9710057.10446  -7237780.90446  22640721.6124   22640719.3974
      2644.1264
 -15222100.35146 -10143681.53346  22415691.1394   22415690.6824
     -2359.2034
 08  5 27  1 56  0.0000000  0  9G19G18G16G 6G 3G 7G25G22G21
  -7973860.19545  -6042608.85646  23036289.5254   23036287.7914
      2518.4834
 -14908870.05646 -10112516.77346  22505358.1694   22505357.9584
       501.7614
 -19597517.10346 -11007862.21046  20933591.2474   20933590.8714
     -1445.9924
 -21054930.05346 -15608480.06646  20704028.7264   20704029.3484
       371.8234
 -18741938.85646 -12680350.87946  20886738.0564   20886739.1934
      1543.0184
  -1849763.56642  -1357176.90745  24460513.5954   24460512.3064
       857.4984
  -1227576.38943   -883109.85045  24456059.2624   24456058.7944
      -417.4734
  -9789212.31046  -7299460.28246  22625659.0924   22625657.3104
      2632.8834
 -15151202.11346 -10088436.15746  22429182.4414   22429181.7374
     -2367.3014
 08  5 27  1 56 30.0000000  0  9G19G18G16G 6G 3G 7G25G22G21
  -8049351.47345  -6101433.22445  23021923.1344   23021921.2594
      2514.2594
 -14923652.18646 -10124035.29846  22502545.2414   22502545.1714
       483.7284
 -19553885.33846 -10973863.41946  20941893.9404   20941893.6824
     -1462.7674
 -21065938.36146 -15617057.96546  20701933.6884   20701933.9224
       362.0704
 -18788076.33646 -12716302.16946  20877958.5034   20877958.9254
      1532.8094
  -1875210.67442  -1377005.76045  24455673.8004   24455668.6424
       838.9554
  -1214805.54742   -873158.55545  24458487.9854   24458486.8954
      -433.8664
  -9868028.27246  -7360875.29746  22610661.2794   22610659.2634
      2621.5134
 -15080062.08546 -10033002.39346  22442720.5204   22442719.5474
     -2375.3564
 08  5 27  1 57  0.0000000  0  9G19G18G16G 6G 3G 7G25G22G21
  -8124716.07545  -6160158.90045  23007581.9934   23007580.7864
      2510.0494
 -14937894.18246 -10135132.95746  22499835.0474   22499834.7664
       465.7274
 -19509750.62546 -10939472.73046  20950292.4644   20950292.0664
     -1479.5234
 -21076653.77946 -15625407.63746  20699894.5054   20699895.2204
       352.2854
 -18833907.37646 -12752014.66846  20869237.0494   20869238.1274
      1522.5614
  -1900101.90942  -1396401.44445  24450934.5214   24450928.6604
       820.4164
  -1201544.08242   -862824.96445  24461011.6924   24461014.1894
      -450.2294
  -9946502.46146  -7422024.00746  22595727.5564   22595726.1144
      2610.0744
 -15008681.69346  -9977381.31046  22456303.7434   22456303.0284
     -2383.3484
 08  5 27  1 57 30.0000000  0  9G19G18G16G 6G 3G 7G25G22G21
  -8199953.78145  -6218785.65746  22993264.5534   22993263.0064
      2505.8124
 -14951595.19746 -10145809.06246  22497227.8784   22497227.6314
       447.6854
 -19465113.70346 -10904690.71046  20958786.6444   20958786.1634
     -1496.2604
 -21087075.70546 -15633528.61846  20697911.2204   20697911.8534
       342.5014
 -18879431.35946 -12787487.89346  20860574.3524   20860574.9264
      1512.3494
  -1924436.54742  -1415363.57645  24446304.4204   24446300.5864
       801.8494
  -1187793.00642   -852109.83045  24463628.5734   24463628.7024
      -466.5054
 -10024632.04146  -7482904.19046  22580859.7264   22580857.8624
      2598.5384
 -14937062.04546  -9921573.79846  22469932.6334   22469932.3864
     -2391.2884
 08  5 27  1 58  0.0000000  0  9G19G18G16G 6G 3G 7G25G22G21
  -8275063.79345  -6277312.94746  22978971.7114   22978969.8594
      2501.5374
 -14964754.37746 -10156062.96846  22494723.6834   22494723.0154
       429.5894
 -19419975.51746 -10869518.10246  20967376.3884   20967375.9074
     -1512.9494
 -21097203.76346 -15641420.61346  20695984.0514   20695984.7434
       332.6984
 -18924647.13846 -12822720.96846  20851969.9674   20851970.6934
      1502.0404
  -1948214.67542  -1433892.00845  24441779.5464   24441778.0934
       783.3144
  -1173553.33443   -841013.95645  24466339.6164   24466341.0234
      -482.7864
 -10102414.44146  -7543513.84746  22566058.7194   22566056.7494
      2586.9434
 -14865205.17046  -9865581.42946  22483606.4734   22483607.3174
     -2399.1774
 08  5 27  1 58 30.0000000  0  9G19G18G16G 6G 3G 7G25G22G21
  -8350045.55545  -6335740.27145  22964703.2274   22964701.4814
      2497.2124
 -14977371.10546 -10165894.16646  22492322.9664   22492322.6154
       411.4954
 -19374337.26246 -10833955.83446  20976061.0304   20976060.6434
     -1529.6164
 -21107037.56646 -15649083.31746  20694112.2304   20694112.5934
       322.8674
 -18969553.54546 -12857712.98046  20843424.5984   20843425.3844
      1491.7214
  -1971435.25242  -1451985.92145  24437361.2274   24437361.0164
       764.7274
  -1158826.38442   -829538.48545  24469140.5854   24469138.8744
      -498.9844
 -10179847.04746  -7603850.92446  22551323.3034   22551321.6164
      2575.2134
 -14793112.93246  -9809405.65946  22497324.9044   22497324.3884
     -2406.9724
 08  5 27  1 59  0.0000000  0  9G19G18G16G 6G 3G 7G25G22G21
  -8424898.57445  -6394067.29245  22950458.8504   22950457.5024
      2492.9444
 -14989444.90646 -10175302.31446  22490025.3894   22490025.3894
       393.4064
 -19328199.39146 -10798004.25446  20984840.8064   20984840.3494
     -1546.2584
 -21116576.37246 -15656516.16046  20692297.2494   20692297.9404
       313.0334
 -19014149.92046 -12892463.39846  20834937.9874   20834938.5144
      1481.3564
  -1994098.06542  -1469645.20945  24433048.0514   24433041.2644
       746.0974
  -1143612.99942   -817683.82945  24472036.2904   24472034.9544
      -515.1854
 -10256926.94446  -7663913.14546  22536655.5304   22536653.9594
      2563.4184
 -14720787.01646  -9753047.81946  22511088.7014   22511088.5264
     -2414.7504
 08  5 27  1 59 30.0000000  0  9G19G18G16G 6G 3G 7G25G22G21
  -8499622.08145  -6452293.40246  22936240.0774   22936238.4134
      2488.6084
 -15000974.66946 -10184286.53846  22487830.8424   22487831.1004
       375.2384
 -19281562.72546 -10761664.00546  20993715.6074   20993715.2794
     -1562.8504
 -21125819.45746 -15663718.56446  20690538.3454   20690538.9664
       303.1754
 -19058435.37646 -12926971.55046  20826510.6874   20826511.2384
      1470.9904
  -2016202.56242  -1486869.52845  24428842.1774   24428836.0234
       727.5284
  -1127914.37543   -805451.20145  24475023.4944   24475024.1514
      -531.3424
 -10333651.60746  -7723698.60446  22522055.3324   22522053.5624
      2551.5454
 -14648228.51246  -9696508.72446  22524895.6234   22524894.5564
     -2422.4784
 08  5 27  2  0  0.0000000  0  9G19G18G16G 6G 3G 7G25G22G21
  -8574215.50145  -6510418.12446  22922044.8044   22922044.0194
      2484.2624
 -15011960.11446 -10192846.59846  22485740.8664   22485740.9834
       357.0914
 -19234428.39846 -10724935.95046  21002684.9394   21002684.5644
     -1579.4494
 -21134766.56846 -15670690.33946  20688836.0744   20688836.7424
       293.2854
 -19102408.89646 -12961236.62546  20818142.8644   20818143.5444
      1460.5584
  -2037748.07742  -1503658.24545  24424742.4854   24424744.0554
       708.8594
  -1111731.51842   -792841.19345  24478102.4924   24478103.5944
      -547.4784
 -10410018.45746  -7783205.22546  22507523.4884   22507521.6254
      2539.5614
 -14575440.14646  -9639790.53446  22538747.0374   22538747.0954
     -2430.1034
 08  5 27  2  0 30.0000000  0  9G19G18G16G 6G 3G 7G25G22G21
  -8648678.12545  -6568440.94446  22907875.8444   22907874.4964
      2479.9074
 -15022400.34846 -10200981.85946  22483754.1114   22483753.7124
       338.9164
 -19186797.01046 -10687820.58746  21011748.9874   21011748.6014
     -1595.9814
 -21143416.88146 -15677430.83946  20687189.8054   20687190.4854
       283.4094
 -19146069.01646 -12995257.49846  20809834.3384   20809834.8074
      1450.1144
  -2058734.15242  -1520011.07245  24420747.9924   24420750.6064
       690.2324
  -1095065.48643   -779854.68845  24481275.2114   24481276.5484
      -563.5664
 -10486024.55346  -7842430.73946  22493060.1014   22493057.7224
      2527.5144
 -14502423.32546  -9582894.30246  22552641.4504   22552641.3334
     -2437.7044
 08  5 27  2  1  0.0000000  0  9G19G18G16G 6G 3G 7G25G22G21
  -8723009.35445  -6626361.38046  22893730.0804   22893728.6854
      2475.4914
 -15032295.24446 -10208692.14846  22481870.9774   22481871.1764
       320.7114
 -19138669.74046 -10650318.81946  21020907.4024   21020907.0164
     -1612.5044
 -21151770.01646 -15683939.78946  20685600.2554   20685600.8654
       273.4564
 -19189414.57646 -13029033.25946  20801586.2754   20801587.1084
      1439.5914
  -2079160.87542  -1535927.95945  24416859.8934   24416860.3504
       671.5454
  -1077917.60042   -766492.67245  24484536.5944   24484532.6674
      -579.6334
 -10561667.56246  -7901373.34946  22478665.6504   22478663.7754
      2515.3344
 -14429179.11246  -9525820.91046  22566579.8664   22566579.3384
     -2445.2334
 08  5 27  2  1 30.0000000  0  9G19G18G16G 6G 3G 7G25G22G21
  -8797208.30845  -6684178.71046  22879610.8154   22879609.5144
      2471.0984
 -15041643.43446 -10215976.45246  22480092.3434   22480091.9914
       302.5104
 -19090047.34446 -10612431.24646  21030159.6944   21030159.0494
     -1628.9864
 -21159825.29146 -15690216.62946  20684067.3454   20684067.7204
       263.5394
 -19232444.94846 -13062563.41846  20793397.9344   20793398.4384
      1429.1064
  -2099027.49042  -1551408.46145  24413080.9454   24413080.7464
       652.8944
  -1060288.83843   -752755.94345  24487891.7494   24487891.2684
      -595.6244
 -10636944.79846  -7960030.92146  22464340.6874   22464338.8244
      2503.1214
 -14355709.62646  -9468571.95546  22580560.2034   22580559.2304
     -2452.7094
 08  5 27  2  2  0.0000000  0  9G19G18G16G 6G 3G 7G25G22G21
  -8871274.58645  -6741892.68846  22865516.3464   22865515.3964
      2466.6524
 -15050445.35546 -10222835.07346  22478417.4374   22478416.8154
       284.2854
 -19040930.93146 -10574158.72546  21039506.2164   21039506.0054
     -1645.4254
 -21167582.23146 -15696261.00346  20682591.1524   20682591.6214
       253.5914
 -19275159.26446 -13095847.29746  20785270.0124   20785270.6564
      1418.5464
  -2118333.67642  -1566452.23845  24409407.5104   24409407.2994
       634.1854
  -1042180.61743   -738645.67445  24491338.3564   24491339.0014
      -611.5974
 -10711853.48446  -8018401.31346  22450086.1554   22450083.6234
      2490.7904
 -14282016.71846  -9411148.91846  22594583.8664   22594583.3384
     -2460.1264
 08  5 27  2  2 30.0000000  0  9G19G18G16G 6G 3G 7G25G22G21
  -8945207.32845  -6799502.62746  22851447.8634   22851445.8584
      2462.1964
 -15058699.97746 -10229267.23846  22476846.6914   22476845.9764
       266.0234
 -18991321.73646 -10535502.22846  21048946.5514   21048946.3644
     -1661.8614
 -21175040.29846 -15702072.48146  20681171.9164   20681172.4084
       243.6034
 -19317556.59346 -13128884.17646  20777201.9834   20777202.7804
      1407.9324
  -2137079.02042  -1581059.02645  24405840.2994   24405842.5974
       615.4754
  -1023593.92643   -724162.52945  24494875.4644   24494876.8244
      -627.5294
 -10786391.25746  -8076482.69346  22435902.0314   22435900.6134
      2478.3854
 -14208102.00845  -9353553.06146  22608648.9564   22608648.4524
     -2467.5044
 08  5 27  2  3  0.0000000  0  9G19G18G16G 6G 3G 7G25G22G21
  -9019006.08545  -6857008.14846  22837403.9914   22837403.0064
      2457.7094
 -15066406.86246 -10235272.60146  22475379.9254   22475379.5614
       247.7444
 -18941220.11146 -10496462.00846  21058480.4614   21058480.0504
     -1678.2544
 -21182199.05546 -15707650.74746  20679809.7514   20679810.2904
       233.6194
 -19359635.65846 -13161673.06946  20769194.1964   20769194.7584
      1397.3274
  -2155263.42741  -1595228.68645  24402378.6144   24402378.8604
       596.7994
  -1004530.25143   -709307.77345  24498502.8304   24498505.5264
      -643.4024
 -10860555.42846  -8134272.93046  22421789.2074   22421787.0034
      2465.8654
 -14133967.11745  -9295785.61646  22622756.1444   22622755.5694
     -2474.8144
 08  5 27  2  3 30.0000000  0  9G19G18G16G 6G 3G 7G25G22G21
  -9092670.21745  -6914408.77446  22823386.5154   22823386.7024
      2453.2354
 -15073565.37746 -10240850.66646  22474017.6984   22474017.3224
       229.4944
 -18890627.39546 -10457039.11946  21068107.7894   21068107.3204
     -1694.5924
 -21189057.70646 -15712995.15146  20678504.7384   20678505.5004
       223.6204
 -19401395.72846 -13194213.37846  20761247.7284   20761248.4314
      1386.6864
  -2172886.52642  -1608961.02445  24399025.4804   24399023.5224
       578.0734
   -984990.65543   -694082.10745  24502221.5224   24502218.2284
      -659.2344
 -10934343.23346  -8191769.89646  22407747.9364   22407745.8264
      2453.3004
 -14059613.78645  -9237847.95946  22636905.6144   22636904.5364
     -2482.0594
 08  5 27  2  4  0.0000000  0  9G19G18G16G 6G 3G 7G25G22G21
  -9166199.29445  -6971704.13446  22809394.4724   22809393.5584
      2448.7154
 -15080175.30646                  22472759.9004
       211.1804
 -18839544.52546 -10417234.28546  21077828.7464   21077828.0894
     -1710.9184
 -21195615.79246 -15718105.35846  20677256.6794   20677257.0664
       213.6014
 -19442835.26446 -13226503.92146  20753361.9614   20753362.6644
      1375.9714
  -2189948.28542  -1622255.85245  24395779.7664   24395784.1034
       559.3634
   -964976.39143   -678486.58845  24506030.5974   24506032.0864
      -675.0274
 -11007752.37946  -8248971.82546  22393778.8204   22393777.3674
      2440.6354
 -13985043.75346  -9179741.46046  22651095.9324   22651095.9684
     -2489.2554
 08  5 27  2  4 30.0000000  0  9G19G18G16G 6G 3G 7G25G22G21
  -9239592.36745  -7028893.52246  22795428.1894   22795426.7594
      2444.1774
 -15086235.94846                  22471606.8044
       192.8814
 -18787972.64946 -10377048.40446  21087642.7034   21087642.6094
     -1727.1934
 -21201872.77446 -15722980.92446  20676066.2494   20676067.0344
       203.5554
 -19483953.20846 -13258543.87646  20745537.5854   20745538.1954
      1365.2464
  -2206448.21942  -1635112.93645  24392639.2654   24392641.0354
       540.6444
   -944488.88743   -662522.30145  24509928.8624   24509926.4594
      -690.7704
 -11080779.96946  -8305876.42546  22379881.9694   22379880.3284
      2427.8764
 -13910258.34545  -9121467.09446  22665327.4144   22665326.3244
     -2496.4124
 08  5 27  2  5  0.0000000  0  9G19G18G16G 6G 3G 7G25G22G21
  -9312848.52545  -7085976.22546  22781487.9714   22781486.5534
      2439.5874
 -15091747.31046     -1666.37046  22470557.4984   22470557.1464
       174.5574
 -18735913.11146 -10336482.52346  21097549.2604   21097549.1084
     -1743.4294
 -21207827.90146 -15727621.28346  20674932.7064   20674933.2454
       193.4824
 -19524748.78346 -13290332.63646  20737774.1344   20737774.3804
      1354.4904
  -2222386.16442  -1647532.11945  24389606.2394   24389606.4504
       521.8924
   -923529.17243   -646189.99845  24513917.5024   24513920.6674
      -706.4824
 -11153423.47246  -8362481.73446  22366058.2334   22366056.7094
      2415.0254
 -13835260.01645  -9063026.86446  22679598.4924   22679599.0204
     -2503.4764
 08  5 27  2  5 30.0000000  0  9G19G18G16G 6G 3G 7G25G22G21
  -9385967.07745  -7142951.70546  22767573.8444   22767572.0634
      2434.9574
 -15096708.67546     -5532.36246  22469613.4554   22469612.9984
       156.1844
 -18683366.61346 -10295537.19946  21107548.4664   21107548.1974
     -1759.6604
 -21213481.07346 -15732026.34946  20673857.1794   20673857.7884
       183.3824
 -19565221.28346 -13321869.64846  20730073.0064   20730073.7684
      1343.6804
  -2237761.75342  -1659513.08145  24386680.9164   24386680.5404
       503.1264
   -902098.77243   -629491.02145  24517993.9604   24517992.5884
      -722.1584
 -11225680.51046  -8418785.90446  22352308.2764   22352306.8344
      2402.0704
 -13760049.75645  -9004421.47245  22693910.5854   22693909.6014
     -2510.5224
 08  5 27  2  6  0.0000000  0  9G19G18G16G 6G 3G 7G25G22G21
  -9458947.56345  -7199819.61546  22753686.1204   22753684.1504
      2430.3734
 -15101119.77246     -8969.57546  22468773.9894   22468774.1894
       137.8644
 -18630334.45146 -10254213.43346  21117639.9584   21117639.7944
     -1775.8244
 -21218831.37546 -15736195.41646  20672839.1034   20672839.6194
       173.3004
 -19605369.34846 -13353153.85546  20722432.7874   20722433.4794
      1332.8434
  -2252574.89142  -1671055.81645  24383861.9074   24383861.3684
       484.4104
   -880199.02843   -612426.24445  24522163.4524   24522166.3594
      -737.7994
 -11297548.17046  -8474786.65846  22338632.4914   22338630.5564
      2389.0864
 -13684629.87245  -8945652.71845  22708262.9714   22708261.4484
     -2517.4734
 08  5 27  2  6 30.0000000  0  9G19G18G16G 6G 3G 7G25G22G21
  -9531788.97145  -7256579.15146  22739824.5754   22739823.4384
      2425.7394
 -15104980.16746    -11977.66146  22468039.6074   22468039.3734
       119.5014
 -18576817.67546 -10212512.03546  21127823.6614   21127823.0284
     -1791.9584
 -21223878.40646 -15740128.16346  20671878.0774   20671878.8984
       163.1594
 -19645192.39046 -13384184.79546  20714854.5594   20714855.2154
      1322.0104
  -2266825.69042  -1682160.27345  24381150.0914   24381149.8214
       465.6624
   -857831.52043   -594997.03645  24526417.7264   24526416.9874
      -753.3894
 -11369024.53746  -8530482.51646  22325030.9284   22325029.5804
      2375.9964
 -13609001.36045  -8886721.42846  22722654.2634   22722654.1114
     -2524.3914
 08  5 27  2  7  0.0000000  0  9G19G18G16G 6G 3G 7G25G22G21
  -9604491.11345  -7313230.15346  22725990.1124   22725988.8704
      2421.0394
 -15108289.65746    -14556.48246  22467409.9794   22467409.0994
       101.1264
 -18522817.35846 -10170433.87746  21138099.4174   21138099.1244
     -1808.0654
 -21228621.61646 -15743824.16146  20670975.7874   20670976.8424
       153.0324
 -19684689.12346 -13414961.46146  20707338.7584   20707339.3324
      1311.0914
  -2280513.67142  -1692826.30245  24378545.5244   24378546.0754
       446.8884
   -834997.24443   -577204.10345  24530764.1574   24530763.5954
      -768.9084
 -11440106.50346  -8585871.05146  22311504.2904   22311502.3914
      2362.7874
 -13533166.50245  -8827629.34046  22737085.1034   22737084.6464
     -2531.2474
 08  5 27  2  7 30.0000000  0  9G19G18G16G 6G 3G 7G25G22G21
  -9677052.76945  -7369771.67546  22712181.8134   22712181.0754
      2416.3804
 -15111048.09946    -16705.91946  22466885.0734   22466884.5814
        82.7474
 -18468334.66846 -10127979.83346  21148467.3504   21148466.9634
     -1824.1284
 -21233060.28046 -15747282.84946  20670131.1794   20670131.9524
       142.8874
 -19723858.32646 -13445482.92446  20699885.2914   20699885.8074
      1300.1824
  -2293638.90643  -1703053.75445  24376047.6594   24376050.0274
       428.1414
   -811697.92944   -559048.77945  24535198.0914   24535196.6024
      -784.3874
 -11510791.72946  -8640950.44646  22298053.1124   22298051.5064
      2349.5404
 -13457126.69945  -8768377.53945  22751555.1454   22751554.7824
     -2538.0634
 08  5 27  2  8  0.0000000  0  9G19G18G16G 6G 3G 7G25G22G21
  -9749473.77645  -7426203.62346  22698400.5964   22698399.1434
      2411.6594
 -15113254.95746    -18425.53546  22466465.0544   22466465.0774
        64.3714
 -18413370.69746 -10085150.76746  21158926.9454   21158927.0044
     -1840.1314
 -21237194.08846 -15750503.99846  20669344.7614   20669345.3944
       132.7054
 -19762699.58446 -13475748.83546  20692493.8964   20692494.3294
      1289.2264
  -2306201.74642  -1712843.00145  24373656.4974   24373656.5804
       409.4504
   -787934.79143   -540532.07845  24539720.1924   24539720.7434
      -799.8124
 -11581078.27846  -8695719.17146  22284678.0844   22284676.7954
      2336.2074
 -13380883.56045  -8708967.30645  22766063.3294   22766062.3684
     -2544.8244
 08  5 27  2  8 30.0000000  0  9G19G18G16G 6G 3G 7G25G22G21
  -9821753.22245  -7482525.25746  22684646.3724   22684645.4814
      2406.9484
 -15114910.02646    -19715.17746  22466149.6314   22466148.9284
        45.9594
 -18357926.91746 -10041947.83946  21169477.4394   21169476.9944
     -1856.1174
 -21241022.43346 -15753487.11246  20668616.0094   20668616.7244
       122.5294
 -19801211.46946 -13505758.09246  20685165.1304   20685165.6934
      1278.2204
  -2318201.68143  -1722193.57745  24371373.8144   24371376.7104
       390.5834
   -763709.22944   -521654.98845  24544329.3594   24544330.3444
      -815.2134
 -11650962.87046  -8750174.68746  22271379.1524   22271376.6204
      2322.7614
 -13304438.22945  -8649399.51845  22780610.6384   22780610.2284
     -2551.5444
 08  5 27  2  9  0.0000000  0  9G19G18G16G 6G 3G 7G25G22G21
  -9893890.41445  -7538736.04446  22670919.2954   22670918.1814
      2402.1984
 -15116012.97646    -20574.61846  22465940.2384   22465939.7814
        27.5624
 -18302004.43946  -9998371.90446  21180119.3744   21180119.0234
     -1872.0334
 -21244544.68446 -15756231.71946  20667945.7114   20667946.3444
       112.3034
 -19839393.17846 -13535510.07346  20677899.5954   20677900.3454
      1267.2014
  -2329638.72743  -1731105.58045  24369196.5884   24369196.7994
       371.8764
   -739022.82444   -502418.82145  24549026.9694   24549027.4384
      -830.5494
 -11720443.56146  -8804315.48546  22258157.8964   22258156.4194
      2309.2514
 -13227792.94645  -8589675.94245  22795195.4834   22795194.3464
     -2558.1824
 08  5 27  2  9 30.0000000  0  9G19G18G16G 6G 3G 7G25G22G21
  -9965884.55845  -7594835.35546  22657218.9234   22657217.6344
      2397.4104
 -15116563.86146    -21003.87146  22465834.6394   22465834.9914
         9.1684
 -18245604.35946  -9954423.80146  21190851.8024   21190851.6264
     -1887.9484
 -21247760.28946 -15758737.38346  20667333.7854   20667334.2074
       102.0894
 -19877243.58546 -13565003.89746  20670696.7654   20670696.9644
      1256.1464
  -2340513.31443  -1739579.33645  24367129.0444   24367127.8844
       353.1054
   -713876.97443   -482824.68645  24553812.3304   24553812.3184
      -845.8414
 -11789517.66146  -8858139.43346  22245013.4734   22245012.3484
      2295.6784
 -13150949.07145  -8529797.60045  22809818.5134   22809817.7514
     -2564.7534
 08  5 27  2 10  0.0000000  0  9G19G18G16G 6G 3G 7G25G22G21
 -10037734.99245  -7650822.69246  22643546.6394   22643545.7724
      2392.5994
 -15116562.57046    -21002.84846  22465835.2364   22465835.2834
        -9.2514
 -18188727.76446  -9910104.39246  21201674.8834   21201674.5194
     -1903.8094
 -21250668.73446 -15761003.70146  20666780.6264   20666781.3534
        91.8334
 -19914761.30146 -13594238.48146  20663557.6354   20663558.1624
      1245.0384
  -2350825.05443  -1747614.43945  24365166.3814   24365166.0174
       334.3264
   -688273.13044   -462873.64245  24558684.9174   24558685.9604
      -861.0774
 -11858182.92346  -8911644.82546  22231946.9394   22231945.2744
      2282.0164
 -13073908.64045  -8469766.09145  22824478.8504   22824477.5954
     -2571.2634
 08  5 27  2 10 30.0000000  0  9G19G18G16G 6G 3G 7G25G22G21
 -10109441.17045  -7706697.62946  22629901.6404   22629900.6914
      2387.7984
 -15116008.64746    -20571.22446  22465940.9224   22465940.4894
       -27.6684
 -18131376.01646  -9865414.74146  21212589.0094   21212588.9854
     -1919.6204
 -21253269.48646 -15763030.24946  20666285.5764   20666286.2334
        81.5784
 -19951945.69347 -13623213.32946  20656481.5264   20656482.1714
      1233.9284
  -2360573.84043  -1755210.93345  24363311.0144   24363310.7214
       315.6124
   -662212.90844   -442566.98645  24563644.0664   24563643.7854
      -876.2564
 -11926436.88446  -8964829.72546  22218958.3824   22218956.3544
      2268.2434
 -12996673.29545  -8409582.73045  22839176.3224   22839176.5334
     -2577.7564
 08  5 27  2 11  0.0000000  0  9G19G18G16G 6G 3G 7G25G22G21
 -10181002.13045  -7762459.40946  22616283.7004   22616282.2464
      2382.9454
 -15114902.35346    -19709.15846  22466151.4054   22466151.3234
       -46.1014
 -18073550.43146  -9820355.81246  21223592.6524   21223592.3594
     -1935.4054
 -21255562.07446 -15764816.67646  20665849.2114   20665849.6684
        71.2834
 -19988796.20046 -13651928.00046  20649468.9114   20649469.6034
      1222.7594
  -2369760.08843  -1762369.05145  24361561.4164   24361563.1284
       296.8084
   -635697.82844   -421905.89145  24568689.2954   24568688.6384
      -891.3864
 -11994276.62146  -9017691.84446  22206049.1574   22206047.6574
      2254.3864
 -12919244.04945  -8349248.26045  22853910.1114   22853909.8184
     -2584.1574
 08  5 27  2 11 30.0000000  0  9G19G18G16G 6G 3G 7G25G22G21
 -10252417.05245  -7818107.38446  22602694.0134   22602693.0874
      2378.0494
 -15113243.30046    -18416.36846  22466467.2364   22466466.7794
       -64.5204
 -18015252.36646  -9774928.75846  21234686.5204   21234686.0514
     -1951.1314
 -21257545.96346 -15766362.56246  20665471.9764   20665472.4104
        60.9744
 -20025311.26947 -13680381.30146  20642520.5124   20642521.0514
      1211.5714
  -2378383.88044  -1769088.87645  24359921.9494   24359920.8944
       278.1184
   -608729.49644   -400891.63345  24573821.3864   24573820.4484
      -906.4834
 -12061699.99246  -9070229.51846  22193218.7694   22193216.9754
      2240.4784
 -12841623.48445  -8288764.69545  22868681.2904   22868680.4934
     -2590.5164
 08  5 27  2 12  0.0000000  0  9G19G18G16G 6G 3G 7G25G22G21
 -10323685.18445  -7873640.98746  22589131.9864   22589130.0284
      2373.1514
 -15111031.25346    -16692.70346  22466887.7984   22466887.4584
       -82.9524
 -17956483.08846  -9729134.51046  21245869.6704   21245869.0134
     -1966.8274
 -21259220.43746 -15767667.35146  20665153.2824   20665153.8684
        50.6634
 -20061489.85246 -13708572.40046  20635635.8044   20635636.6594
      1200.3224
  -2386445.49843  -1775370.69645  24358387.2044   24358385.5514
       259.3304
   -581309.20844   -379525.18845  24579038.7924   24579039.4134
      -921.4944
 -12128704.73846  -9122441.00946  22180468.5414   22180466.9354
      2226.4814
 -12763812.63545  -8228132.88645  22883488.5154   22883487.2494
     -2596.8684
 08  5 27  2 12 30.0000000  0  9G19G18G16G 6G 3G 7G25G22G21
 -10394805.79845  -7929059.63246  22575597.8794   22575596.5664
      2368.2404
 -15108266.16646    -14538.07246  22467413.9294   22467413.7764
      -101.3834
 -17897243.96546  -9682974.15646  21257142.4534   21257142.2664
     -1982.4514
 -21260584.95446 -15768730.61446  20664893.5894   20664894.1984
        40.3244
 -20097330.75047 -13736500.36746  20628815.5764   20628816.3154
      1189.0564
  -2393944.91943  -1781214.39145  24356960.6334   24356960.5744
       240.5904
   -553438.74944   -357807.94345  24584342.9144   24584342.7034
      -936.5074
 -12195288.32146  -9174324.30346  22167797.7144   22167796.0264
      2212.4204
 -12685812.70645  -8167353.73545  22898330.7784   22898330.9544
     -2603.1264
 08  5 27  2 13  0.0000000  0  9G19G18G16G 6G 3G 7G25G22G21
 -10465778.50845  -7984363.03146  22562092.5874   22562090.6644
      2363.2744
 -15104948.11546    -11952.56746  22468045.5974   22468045.1874
      -119.8284
 -17837536.34346  -9636448.73146  21268504.5104   21268504.5574
     -1998.0594
 -21261639.13246 -15769552.04546  20664692.8224   20664693.5484
        29.9494
 -20132833.66047 -13764164.97446  20622059.6574   20622060.3494
      1177.7794
  -2400882.08043  -1786619.98445  24355640.2024   24355641.3164
       221.8744
   -525119.75044   -335741.22445  24589732.0094   24589731.9514
      -951.4294
 -12261448.61346  -9225877.77046  22155207.8734   22155206.1154
      2198.2664
 -12607626.19045  -8106429.19745  22913209.3254   22913208.4224
     -2609.3064
 08  5 27  2 13 30.0000000  0  9G19G18G16G 6G 3G 7G25G22G21
 -10536602.26145  -8039550.35446  22548614.8324   22548613.2154
      2358.2934
 -15101076.81146     -8935.96246  22468782.2304   22468781.8904
      -138.2524
 -17777361.59446  -9589559.32646  21279955.3834   21279954.7624
     -2013.5964
 -21262382.33846 -15770131.16446  20664551.2454   20664551.7614
        19.5894
 -20167997.00247 -13791564.98346  20615368.2524   20615368.7094
      1166.4564
  -2407257.47743  -1791587.83145  24354427.2944   24354424.6914
       203.1514
   -496353.60744   -313326.06045  24595206.5484   24595205.0244
      -966.2984
 -12327183.16746  -9277099.48246  22142698.6364   22142696.9834
      2184.0324
 -12529254.37245  -8045360.24945  22928123.6204   22928122.7064
     -2615.4724
 08  5 27  2 14  0.0000000  0  9G19G18G16G 6G 3G 7G25G22G21
 -10607276.37645  -8094621.09246  22535166.1254   22535164.5774
      2353.3024
 -15096652.94946     -5488.78046  22469623.7254   22469623.0574
      -156.6744
 -17716720.82746  -9542306.79546  21291494.9414   21291494.7304
     -2029.1204
 -21262814.11546 -15770467.61946  20664469.2684   20664470.0184
         9.1884
 -20202819.92747 -13818699.73146  20608741.6324   20608742.3944
      1155.0804
  -2413071.37243  -1796118.16545  24353320.7984   24353321.4204
       184.4494
   -467142.25944   -290563.95045  24600765.2234   24600764.7074
      -981.1174
 -12392489.42946  -9327987.48046  22130271.6394   22130269.8924
      2169.7074
 -12450698.80545  -7984148.13045  22943071.7684   22943071.5694
     -2621.5614
 08  5 27  2 14 30.0000000  0  9G19G18G16G 6G 3G 7G25G22G21
 -10677799.99545  -8149574.56046  22521745.6784   22521744.4364
      2348.2764
 -15091675.95946     -1610.60046  22470571.2624   22470570.3714
      -175.1144
 -17655615.61746  -9494692.35446  21303123.1524   21303122.7664
     -2044.5624
 -21262933.83946 -15770560.90546  20664446.5844   20664447.1704
        -1.1964
 -20237301.83047 -13845568.74946  20602180.0144   20602180.6474
      1143.7084
  -2418323.86943  -1800211.03745  24352321.2534   24352320.3974
       165.7464
   -437487.16144   -267456.12645  24606407.8204   24606407.7384
      -995.8994
 -12457365.11646  -9378539.94146  22117926.5194   22117925.1134
      2155.3254
 -12371960.93545  -7922793.94045  22958055.5594   22958054.5154
     -2627.5904
 08  5 27  2 15  0.0000000  0  9G19G18G16G 6G 3G 7G25G22G21
 -10748172.47245  -8204410.23446  22508354.0954   22508352.4424
      2343.2064
 -15086145.86446      2698.57946  22471623.6794   22471623.3514
      -193.5674
 -17594046.99046  -9446716.78546  21314839.0204   21314838.7394
     -2060.0114
 -21262740.91946 -15770410.57446  20664483.3284   20664483.9144
       -11.6564
 -20271441.66546 -13872171.21846  20595683.4064   20595684.0394
      1132.2504
  -2423015.23743  -1803866.65345  24351428.7584   24351426.9654
       146.9954
   -407389.91244   -244003.72645  24612134.5134   24612135.4744
     -1010.6204
 -12521807.85746  -9428755.05246  22105663.1774   22105661.9584
      2140.8354
 -12293042.75745  -7861299.28545  22973073.0014   22973072.7784
     -2633.5994
 08  5 27  2 15 30.0000000  0  9G19G18G16G 6G 3G 7G25G22G21
 -10818393.17446  -8259127.65746  22494991.8914   22494990.6954
      2338.1444
 -15080062.95246      7438.51946  22472780.8604   22472780.7894
      -211.9834
 -17532017.09746  -9398381.82446  21326643.0654   21326643.0064
     -2075.3354
 -21262235.08046 -15770016.42146  20664579.7234   20664580.3914
       -22.0664
 -20305238.08347 -13898506.09246  20589252.2904   20589253.0294
      1120.8254
  -2427146.05343  -1807085.47845  24350643.1464   24350640.9074
       128.3444
   -376852.34244   -220208.26345  24617945.7344   24617944.4214
     -1025.2264
 -12585815.83346  -9478631.39046  22093482.8384   22093480.9744
      2126.3264
 -12213945.55845  -7799665.10345  22988124.7934   22988123.7034
     -2639.5424
 08  5 27  2 16  0.0000000  0  9G19G18G16G 6G 3G 7G25G22G21
 -10888460.93745  -8313725.90946  22481658.3884   22481656.1964
      2333.0184
 -15073427.18146     12609.26046  22474043.7504   22474043.0344
      -230.4094
 -17469526.86846  -9349688.14446  21338534.3754   21338534.2704
     -2090.6764
 -21261415.51446 -15769377.78446  20664735.4724   20664735.9884
       -32.5674
 -20338690.53647 -13924572.93546  20582886.5324   20582887.0364
      1109.3194
  -2430716.39443  -1809867.54845  24349962.7864   24349959.6684
       109.6384
   -345876.12244   -196070.93045  24623841.0304   24623840.7844
     -1039.8464
 -12649386.30346  -9528166.80446  22081386.2094   22081384.4854
      2111.6804
 -12134670.68745  -7737892.48345  23003210.1714   23003210.6404
     -2645.4494
 08  5 27  2 16 30.0000000  0  9G19G18G16G 6G 3G 7G25G22G21
 -10958375.14945  -8368204.50746  22468354.1654   22468352.3954
      2327.9054
 -15066238.94846     18210.48246  22475412.0694   22475411.5304
      -248.8154
 -17406577.55246  -9300636.74146  21350513.5644   21350513.2244
     -2105.9414
 -21260281.83846 -15768494.39546  20664951.2874   20664952.1314
       -43.0134
 -20371797.66946 -13950370.69746  20576585.9014   20576586.4174
      1097.8104
  -2433726.77943  -1812213.31445  24349391.2114   24349387.9524
        91.0104
   -314462.94344   -171593.17345  24629818.2734   24629819.5624
     -1054.3514
 -12712516.80646  -9577359.39246  22069372.7994   22069371.0524
      2096.9834
 -12055220.28445  -7675983.10445  23018329.7154   23018328.9774
     -2651.2474
 08  5 27  2 17  0.0000000  0  9G19G18G16G 6G 3G 7G25G22G21
 -11028134.92946  -8422562.76446  22455079.5724   22455078.6234
      2322.7474
 -15058498.14346     24242.29546  22476884.4044   22476884.5564
      -267.2364
 -17343171.10546  -9251229.11246  21362578.9724   21362578.4564
     -2121.1444
 -21258833.44046 -15767365.77046  20665226.9664   20665227.5524
       -53.5284
 -20404558.61447 -13975898.70346  20570351.9184   20570352.3994
      1086.2474
  -2436177.50143  -1814122.92645  24348923.6484   24348921.9374
        72.3464
   -282614.43643   -146776.16645  24635879.1654   24635879.2364
     -1068.8624
 -12775205.25346  -9626207.51046  22057443.5154   22057441.6514
      2082.2214
 -11975595.65145  -7613937.91945  23033480.7904   23033479.2204
     -2657.0324
 08  5 27  2 17 30.0000000  0  9G19G18G16G 6G 3G 7G25G22G21
 -11097739.88046  -8476800.38646  22441833.8184   22441832.2594
      2317.5834
 -15050204.88746     30704.57246  22478462.7484   22478462.2554
      -285.6514
 -17279308.68446  -9201466.19046  21374731.7674   21374731.5684
     -2136.3294
 -21257069.76646 -15765991.47446  20665562.3914   20665562.9654
       -64.0454
 -20436972.03546 -14001155.91146  20564184.1624   20564184.4674
      1074.6714
  -2438069.15843  -1815597.00745  24348563.1214   24348561.7624
        53.7734
   -250332.65644   -121621.50145  24642023.1614   24642021.9884
     -1083.2504
 -12837449.75146  -9674709.70746  22045598.2064   22045596.1904
      2067.3844
 -11895798.69245  -7551758.49245  23048666.0334   23048665.5754
     -2662.7724
 08  5 27  2 18  0.0000000  0  9G19G18G16G 6G 3G 7G25G22G21
 -11167188.83746  -8530916.45646  22428618.0244   22428616.5474
      2312.3734
 -15041359.27146     37597.27846  22480146.1094   22480145.8164
      -304.0494
 -17214991.73346  -9151349.07346  21386970.4444   21386969.9754
     -2151.4494
 -21254990.46746 -15764371.23446  20665958.1674   20665958.8354
       -74.5674
 -20469037.40046 -14026141.90746  20558082.3044   20558082.9374
      1063.0284
  -2439401.98442  -1816635.50145  24348310.5884   24348312.0544
        35.1094
   -217619.02843    -96130.41345  24648246.9434   24648247.4244
     -1097.6004
 -12899247.58746  -9722863.84946  22033838.5314   22033836.9484
      2052.4584
 -11815830.41845  -7489445.56045  23063883.6054   23063881.9754
     -2668.4274
 08  5 27  2 18 30.0000000  0  9G19G18G16G 6G 3G 7G25G22G21
 -11236481.09846  -8584910.42046  22415432.3004   22415430.9874
      2307.1224
 -15031961.55446     44920.18646  22481934.0154   22481932.9964
      -322.4514
 -17150222.01046  -9100879.16846  21399296.0944   21399296.2344
     -2166.5184
 -21252594.80646 -15762504.48346  20666413.9804   20666414.7074
       -85.1204
 -20500753.57547 -14050855.80946  20552046.9164   20552047.4204
      1051.3834
  -2440176.17142  -1817238.80345  24348162.8404   24348162.1254
        16.5354
   -184475.47043    -70304.28345  24654553.8504   24654557.8834
     -1111.9444
 -12960597.16546  -9770668.70446  22022164.3634   22022162.6054
      2037.5044
 -11735692.76245  -7427000.62945  23079133.2824   23079132.5434
     -2674.0554
 08  5 27  2 19  0.0000000  0  9G19G18G16G 6G 3G 7G25G22G21
 -11305615.91646  -8638781.71146  22402276.7204   22402275.3024
      2301.8634
 -15022012.00846     52673.08346  22483827.5144   22483827.0214
      -340.8404
 -17085000.97146  -9050057.58446  21411707.1654   21411706.8374
     -2181.5454
 -21249882.45846 -15760390.96146  20666930.1954   20666930.8874
       -95.6944
 -20532119.65346 -14075296.90046  20546078.3464   20546079.1084
      1039.6984
  -2440392.49142  -1817407.29645  24348121.6194   24348122.3574
        -2.0914
   -150903.74943    -44144.47645  24660942.8974   24660944.0454
     -1126.2124
 -13021495.66946  -9818122.07746  22010575.6974   22010573.8454
      2022.3954
 -11655387.17645  -7364424.86445  23094415.0714   23094414.1344
     -2679.6354
 08  5 27  2 19 30.0000000  0  9G19G18G16G 6G 3G 7G25G22G21
 -11374592.60246  -8692529.76246  22389150.4974   22389149.8174
      2296.5654
 -15011511.17046     60855.55946  22485825.9784   22485825.3694
      -359.2174
 -17019330.07846  -8998885.46946  21424203.8934   21424203.7644
     -2196.5194
 -21246852.82846 -15758030.20846  20667506.4984   20667506.9674
      -106.2894
 -20563134.87947 -14099464.60846  20540176.1154   20540176.5254
      1027.9824
  -2440051.68242  -1817141.77745  24348186.7384   24348187.5004
       -20.6144
   -116905.78443    -17652.58145  24667412.1174   24667408.1434
     -1140.3604
 -13081940.94746  -9865222.28446  21999073.2744   21999071.4804
      2007.2654
 -11574915.59445  -7301719.73745  23109728.0244   23109727.6734
     -2685.1514
 08  5 27  2 20  0.0000000  0  9G19G18G16G 6G 3G 7G25G22G21
 -11443410.26046  -8746153.89346  22376054.9134   22376053.7294
      2291.2774
 -15000459.10646     69467.57646  22487929.3664   22487928.7804
      -377.5724
 -16953210.83646  -8947363.98746  21436786.1274   21436785.8694
     -2211.4084
 -21243505.38046 -15755421.80146  20668143.6304   20668144.2514
      -116.8814
 -20593798.06247 -14123357.99646  20534341.0454   20534341.6664
      1016.2494
  -2439153.98143  -1816442.25945  24348357.3064   24348355.2784
       -39.1654
    -82483.37643      9170.06045  24673962.3264   24673960.7204
     -1154.4434
 -13141930.89146  -9911967.66946  21987657.2654   21987655.8354
      1992.0774
 -11494279.05245  -7238886.07645  23125072.9234   23125072.2324
     -2690.5824
 08  5 27  2 20 30.0000000  0  9G19G18G16G 6G 3G 7G25G22G21
 -11512067.90346  -8799653.37146  22362989.9994   22362988.3464
      2285.9084
 -14988855.90746     78509.03146  22490136.9164   22490137.0804
      -395.9574
 -16886644.95946  -8895494.48046  21449453.2304   21449453.0904
     -2226.2914
 -21239839.53446 -15752565.29846  20668841.1574   20668841.5904
      -127.5074
 -20624107.95447 -14146976.09246  20528573.4954   20528573.9994
      1004.4284
  -2437699.93743  -1815309.17145  24348634.8554   24348632.4404
       -57.7364
    -47638.45442     36321.94145  24680593.0804   24680591.6624
     -1168.5124
 -13201463.45746  -9958356.67146  21976328.7884   21976326.7604
      1976.7694
 -11413479.48645  -7175925.35445  23140448.2704   23140446.9454
     -2696.0284
 08  5 27  2 21  0.0000000  0  9G19G18G16G 6G 3G 7G25G22G21
 -11580564.80446  -8853027.55846  22349955.5014   22349954.4934
      2280.5444
 -14976701.92346     87979.66046  22492450.0864   22492449.5124
      -414.3174
 -16819633.82746  -8843277.99746  21462205.0254   21462204.3924
     -2241.1134
 -21235854.82146 -15749460.32146  20669599.5084   20669599.8714
      -138.1344
 -20654063.74647 -14170318.26146  20522872.9884   20522873.5044
       992.6154
  -2435690.14843  -1813743.15745  24349017.2924   24349016.4484
       -76.2564
    -12372.82543     63801.68445  24687305.2954   24687304.1934
     -1182.5304
 -13260536.51846 -10004387.62546  21965087.6624   21965086.2794
      1961.4164
 -11332518.06745  -7112838.57045  23155854.4394   23155853.8654
     -2701.4094
 08  5 27  2 21 30.0000000  0  9G19G18G16G 6G 3G 7G25G22G21
 -11648900.19846  -8906275.91346  22336951.8474   22336951.0624
      2275.1354
 -14963997.52446     97879.20646  22494867.4504   22494867.2394
      -432.6504
 -16752179.26946  -8790716.00746  21475041.1574   21475041.2394
     -2255.8724
 -21231550.78946 -15746106.52846  20670418.3634   20670419.1724
      -148.8044
 -20683664.93347 -14193384.11446  20517240.1504   20517240.8064
       980.7724
  -2433125.22843  -1811744.49745  24349504.9154   24349504.3404
       -94.7694
     23311.75642     91607.83945  24694095.0764   24694098.7214
     -1196.4324
 -13319147.77346 -10050058.72146  21953934.0454   21953932.6034
      1945.9864
 -11251396.59545  -7049627.02645  23171291.7834   23171291.8064
     -2706.7004
 08  5 27  2 22  0.0000000  0  9G19G18G16G 6G 3G 7G25G22G21
 -11717072.94446  -8959397.53646  22323978.9604   22323977.3784
      2269.7194
 -14950743.21346    108207.25246  22497389.7434   22497389.4034
      -450.9804
 -16684282.67746  -8737809.57646  21487961.2954   21487961.1664
     -2270.5664
 -21226926.77046 -15742503.39546  20671298.4054   20671298.9684
      -159.4664
 -20712910.23847 -14216172.66246  20511674.8044   20511675.1674
       968.8984
  -2430005.65743  -1809313.68045  24350098.3104   24350097.1614
      -113.2064
     59413.36242    119738.96045  24700964.3574   24700965.8694
     -1210.3264
 -13377295.19846 -10095368.38546  21942868.7804   21942867.3274
      1930.4934
 -11170116.43145  -6986291.83545  23186759.1764   23186758.6014
     -2711.9614
 08  5 27  2 22 30.0000000  0  9G19G18G16G 6G 3G 7G25G22G21
 -11785082.76846  -9012392.19846  22311036.5804   22311035.1034
      2264.2844
 -14936939.02546    118963.74246  22500016.6454   22500015.9764
      -469.2774
 -16615945.95246  -8684560.20046  21500965.0464   21500965.0464
     -2285.1914
 -21221982.53046 -15738650.73546  20672239.3644   20672239.9144
      -170.1224
 -20741798.51847 -14238683.00546  20506177.4244   20506177.9874
       957.0014
  -2426332.34143  -1806451.32045  24350797.2894   24350795.5544
      -131.6384
     95929.93942    148193.43645  24707913.0014   24707917.2444
     -1224.1024
 -13434976.68646 -10140315.00146  21931892.7804   21931890.4474
      1914.9414
 -11088679.41245  -6922834.42745  23202255.5504   23202255.1754
     -2717.1424
 08  5 27  2 23  0.0000000  0  9G19G18G16G 6G 3G 7G25G22G21
 -11852928.27746  -9065258.81646  22298126.5184   22298124.9364
      2258.7734
 -14922585.40346    130148.42246  22502748.0334   22502747.8464
      -487.6164
 -16547170.49346  -8630968.93846  21514052.9294   21514052.4964
     -2299.8244
 -21216717.28546 -15734547.95046  20673241.1864   20673241.7494
      -180.8644
 -20770328.90647 -14260914.47846  20500748.3564   20500749.0594
       945.0204
  -2422105.78643  -1803157.91645  24351602.4874   24351601.6324
      -150.0964
    132859.71242    176969.88645  24714940.0474   24714942.3454
     -1237.8904
 -13492190.01846 -10184896.79846  21921005.5914   21921003.5754
      1899.2874
 -11007086.94845  -6859255.87745  23217782.9274   23217782.4934
     -2722.3324
 08  5 27  2 23 30.0000000  0  9G19G18G16G 6G 3G 7G25G22G21
 -11920608.95346  -9117997.00646  22285247.0674   22285245.4144
      2253.2574
 -14907682.87546    141760.78146  22505583.2334   22505583.4444
      -505.8994
 -16477957.76446  -8577036.94746  21527223.7374   21527223.4674
     -2314.3584
 -21211130.60746 -15730194.69446  20674304.6994   20674305.2274
      -191.5754
 -20798500.21847 -14282866.13946  20495387.6094   20495388.3254
       933.0744
  -2417326.63743  -1799433.87345  24352511.2304   24352511.7114
      -168.4894
    170200.76142    206066.85645  24722045.5434   24722049.0014
     -1251.5344
 -13548933.18046 -10229112.22646  21910207.4914   21910205.8854
      1883.5914
 -10925340.21645  -6795557.13845  23233337.9084   23233336.6664
     -2727.4454
 08  5 27  2 24  0.0000000  0  9G19G18G16G 6G 3G 7G25G22G21
 -11988123.86346  -9170606.01446  22272399.4544   22272398.5864
      2247.7364
 -14892232.07846    153800.36046  22508523.8034   22508523.6394
      -524.1574
 -16408309.67646  -8522765.71346  21540477.4634   21540476.9714
     -2328.8374
 -21205222.20446 -15725590.74246  20675428.5794   20675429.0954
      -202.3194
 -20826311.98147 -14304537.64346  20490094.9944   20490095.7804
       921.0564
  -2411995.87743  -1795280.04745  24353525.1844   24353526.2514
      -186.8584
    207951.00642    235482.61545  24729230.2114   24729228.1484
     -1265.1284
 -13605204.27646 -10272959.83246  21899499.3134   21899497.6964
      1867.8224
 -10843441.04045  -6731739.59145  23248922.6804   23248920.8284
     -2732.4894
 08  5 27  2 24 30.0000000  0  9G19G18G16G 6G 3G 7G25G22G21
 -12055472.29046  -9223085.29446  22259583.7654   22259582.8154
      2242.1474
 -14876233.31546    166266.94246  22511568.0464   22511567.4604
      -542.4304
 -16338228.07046  -8468156.65546  21553813.4654   21553813.3594
     -2343.2794
 -21198991.32246 -15720735.50746  20676614.1574   20676614.9314
      -213.0744
 -20853762.69247 -14325927.80046  20484871.2814   20484871.7854
       908.9934
  -2406114.03843  -1790696.75745  24354644.5014   24354644.5484
      -205.2454
    246108.62141    265215.78745  24736491.0344   24736486.5684
     -1278.7344
 -13661001.31146 -10316438.01546  21888881.4054   21888879.9984
      1851.9654
 -10761390.93245  -6667804.46345  23264536.0514   23264536.3804
     -2737.5004
 08  5 27  2 25  0.0000000  0  8G19G18G16G 6G 3G25G22G21
 -12122652.94346  -9275433.86146  22246799.4204   22246798.1314
      2236.5524
 -14859687.02646    179160.15646  22514716.8004   22514716.6364
      -560.6654
 -16267714.14846  -8413210.78046  21567231.7744   21567231.4584
     -2357.6434
 -21192437.46546 -15715628.60946  20677861.7054   20677862.5614
      -223.8474
 -20880851.82146 -14347036.21546  20479716.5314   20479717.0934
       896.9364
    284671.57042    295264.91645  24743830.6394   24743830.5694
     -1292.1694
 -13716322.03446 -10359545.06546  21878354.4444   21878352.5344
      1836.0684
 -10679191.30945  -6603752.78145  23280178.8364   23280178.2384
     -2742.4724
 08  5 27  2 25 30.0000000  0  9G19G18G16G 6G 3G 7G25G22G21
 -12189665.34546  -9327651.30446  22234047.4824   22234046.2514
      2230.9374
 -14842593.90346    192479.48746  22517969.6384   22517969.3224
      -578.8804
 -16196769.95046  -8357929.61546  21580732.2474   21580732.0954
     -2371.9464
 -21185560.12646 -15710269.63946  20679170.2244   20679170.7174
      -234.6244
 -20907578.29447 -14367862.03546  20474630.6224   20474631.3134
       884.8464
      4022.78943                  24357198.0114
      -241.8444
    323637.85442    325628.15044  24751244.4284   24751241.2514
     -1305.5894
 -13771164.50246 -10402279.45746  21867918.5214   21867917.0674
      1820.0954
 -10596843.55745  -6539585.71245  23295849.2374   23295848.9204
     -2747.3734
 08  5 27  2 26  0.0000000  0  8G19G18G16G 6G 3G 7G22G21
 -12256508.83946  -9379737.13946  22221327.3744   22221326.1784
      2225.2854
 -14824954.52446    206224.45946  22521326.5344   22521326.3704
      -597.0764
 -16125397.57146  -8302314.73446  21594313.7264   21594313.6564
     -2386.2064
 -21178359.08046 -15704658.42746  20680540.7554   20680541.2714
      -245.4324
 -20933941.80947 -14388405.03246  20469613.4624   20469614.3884
       872.7204
     11552.69343                  24358629.7664
      -260.1434
 -13825526.86246 -10444639.71346  21857573.3514   21857571.7224
      1804.0474
 -10514349.34345  -6475304.52845  23311547.3144   23311546.9624
     -2752.2204
 08  5 27  2 26 30.0000000  0  9G19G18G16G 6G 3G 7G25G22G21
 -12323182.18946  -9431690.39846  22208639.8994   22208638.7734
      2219.6024
 -14806768.92746    220395.05546  22524786.9444   22524786.9794
      -615.2784
 -16053598.07146  -8246367.04946  21607976.7434   21607976.7434
     -2400.4064
 -21170833.60646 -15698794.42146  20681972.7234   20681973.5084
      -256.2674
 -20959940.79647 -14408663.97746  20464666.1634   20464666.6434
       860.5624
     19630.58243         -.51855  24360167.9684   24360167.0664
      -278.4014
     21257.08642                  24766302.4454
     -1332.2394
 -13879406.85246 -10486624.12146  21847320.1564   21847318.0464
      1787.9344
 -10431710.05545  -6410910.28745  23327273.1944   23327272.0104
     -2757.0524
 08  5 27  2 27  0.0000000  0  9G19G18G16G 6G 3G 7G25G22G21
 -12389684.62846  -9483510.47946  22195984.9674   22195983.5374
      2213.8844
 -14788038.01146    234990.59846  22528351.4824   22528351.2604
      -633.4574
 -15981373.46846  -8190088.14046  21621720.5554   21621720.1914
     -2414.5584
 -21162983.30846 -15692677.29946  20683466.3504   20683466.8894
      -267.1104
 -20985574.39347 -14428638.21046  20459788.4704   20459788.7524
       848.3244
     28255.48543      6720.18445  24361808.2494   24361806.9254
      -296.6134
     61421.09842                  24773946.9684
     -1345.4104
 -13932802.72946 -10528231.29146  21837159.7314   21837157.4804
      1771.7624
 -10348927.34045  -6346404.25445  23343025.4064   23343024.2814
     -2761.7994
 08  5 27  2 27 30.0000000  0  9G19G18G16G 6G 3G 7G25G22G21
 -12456015.31646  -9535196.74046  22183362.5514   22183361.2974
      2208.1474
 -14768762.39646    250010.55246  22532019.3784   22532019.5894
      -651.6084
 -15908725.54446  -8133479.38446  21635545.0474   21635545.0354
     -2428.6444
 -21154807.68746 -15686306.69646  20685022.5044   20685023.0314
      -277.9534
 -21010841.33247 -14448326.73146  20454980.3784   20454980.8704
       836.1024
     37426.33743     13866.29245  24363553.4454   24363553.7384
      -314.7804
    101980.15342      2115.28944  24781665.5884   24781670.6404
     -1358.5194
 -13985712.70246 -10569459.82746  21827090.9524   21827089.5104
      1755.5284
 -10266002.58345  -6281787.56445  23358805.3394   23358803.3004
     -2766.5184
 08  5 27  2 28  0.0000000  0  9G19G18G16G 6G 3G 7G25G22G21
 -12522173.19146  -9586748.32946  22170773.1514   22170772.2484
      2202.3704
 -14748942.50546    265454.63846  22535791.2694   22535790.9764
      -669.7184
 -15835656.16646  -8076542.23346  21649449.5474   21649449.6414
     -2442.6534
 -21146306.11146 -15679682.09446  20686640.0644   20686640.8384
      -288.8244
 -21035740.94647 -14467729.02746  20450242.0844   20450242.3544
       823.8744
     47142.28943     21437.19945  24365402.2534   24365402.7334
      -332.9214
    142932.30342     34025.95745  24789458.2624   24789462.2954
     -1371.5954
 -14038134.61346 -10610308.06146  21817115.3564   21817114.0084
      1739.2504
 -10182937.13345  -6217061.27145  23374613.0734   23374612.2884
     -2771.1624
 08  5 27  2 28 30.0000000  0  9G19G18G16G 6G 3G 7G25G22G21
 -12588157.31246  -9638164.51146  22158216.9054   22158215.5804
      2196.5534
 -14728579.07046    281322.24346  22539666.1114   22539665.5604
      -687.8384
 -15762166.94446  -8019277.93046  21663434.4754   21663434.2294
     -2456.6244
 -21137478.26746 -15672803.25246  20688319.9994   20688320.4794
      -299.7144
 -21060272.66147 -14486844.65146  20445574.0574   20445574.6554
       811.5654
     57402.51943     29432.16945  24367355.4504   24367355.6734
      -351.0834
    184275.52942     66241.49245  24797325.3924   24797328.6154
     -1384.6144
 -14090066.63746 -10650774.57346  21807233.0164   21807231.5864
      1722.8834
 -10099732.49845  -6152226.48345  23390446.0084   23390444.6484
     -2775.7834
 08  5 27  2 29  0.0000000  0  9G19G18G16G 6G 3G 7G25G22G21
 -12653966.82746  -9689444.65046  22145693.8364   22145692.6994
      2190.7384
 -14707672.70546    297612.92346  22543644.3224   22543644.2994
      -705.9244
 -15688259.93146  -7961688.04446  21677498.3324   21677498.1214
     -2470.5054
 -21128323.53346 -15665669.70046  20690061.8804   20690062.4894
      -310.6154
 -21084434.94347 -14505672.40646  20440975.9964   20440976.4414
       799.2464
     68206.15342     37850.71045  24369411.5664   24369411.7074
      -369.1814
    226007.74542     98760.13645  24805265.4234   24805274.6494
     -1397.5164
 -14141506.83046 -10690857.83246  21797444.3154   21797442.6854
      1706.4694
 -10016390.40445  -6087284.61745  23406306.0854   23406304.4914
     -2780.3484
 08  5 27  2 29 30.0000000  0  9G19G18G16G 6G 3G 7G25G22G21
 -12719601.03946  -9740588.18546  22133204.0184   22133202.8804
      2184.8864
 -14686224.19546    314326.05646  22547725.9984   22547725.3894
      -723.9624
 -15613936.45146  -7903773.66346  21691641.5814   21691641.5464
     -2484.3564
 -21118841.61646 -15658281.19746  20691866.7224   20691867.5784
      -321.5214
 -21108227.03547 -14524211.70246  20436448.7244   20436449.4154
       786.9044
     79552.24642     46691.71745  24371570.5244   24371571.4744
      -387.2084
    268126.73742    131580.00745  24813281.4394   24813283.3024
     -1410.3454
 -14192453.40046 -10730556.44546  21787749.5274   21787747.6284
      1689.9724
  -9932911.96345  -6022236.48445  23422191.5994   23422191.4474
     -2784.8644
 08  5 27  2 30  0.0000000  0  9G19G18G16G 6G 3G 7G25G22G21
 -12785059.25846  -9791594.58446  22120747.5474   22120745.6364
      2179.0074
 -14664234.27446    331461.07146  22551910.1434   22551909.8974
      -741.9984
 -15539199.07246  -7845536.74446  21705863.4974   21705863.1694
     -2498.1274
 -21109032.11846 -15650637.42946  20693733.1974   20693733.6894
      -332.4374
 -21131648.52647 -14542462.21446  20431991.5134   20431992.2524
       774.5254
     91439.20842     55954.28445  24373831.8414   24373832.2754
      -405.2374
    310630.23242    164699.64045  24821368.0754   24821371.2404
     -1423.1264
 -14242904.59746 -10769869.06446  21778149.0234   21778147.4294
      1673.4444
  -9849298.75745  -5957083.36545  23438101.8764   23438102.1804
     -2789.3244
 08  5 27  2 30 30.0000000  0  9G19G18G16G 6G 3G 7G25G22G21
 -12850339.98446  -9842462.67946  22108325.1124   22108323.5534
      2173.0784
 -14641703.50446    349017.51546  22556197.5024   22556197.5254
      -760.0264
 -15464048.54646  -7786977.87046  21720164.4594   21720164.3654
     -2511.8554
 -21098894.27646 -15642737.81846  20695662.3894   20695662.9524
      -343.3904
 -21154698.03547 -14560422.87946  20427605.3214   20427605.8144
       762.1294
    103867.00442     65638.22245  24376196.4724   24376199.3094
      -423.2234
    353516.44442    198117.47145  24829530.4254   24829531.6804
     -1435.8734
 -14292858.36946 -10808794.07046  21768643.2294   21768641.1904
      1656.8494
  -9765552.22145  -5891826.29745  23454039.1024   23454038.0124
     -2793.7274
 08  5 27  2 31  0.0000000  0  9G19G18G16G 6G 3G 7G25G22G21
 -12915442.82046  -9893192.15046  22095936.5214   22095935.5014
      2167.1194
 -14618632.68846    366994.79146  22560588.1994   22560587.5314
      -778.0174
 -15388487.61746  -7728099.22146  21734543.1864   21734542.9994
     -2525.5194
 -21088427.84146 -15634582.16146  20697653.7964   20697654.3474
      -354.3514
 -21177375.00447 -14578093.25046  20423289.9764   20423290.9024
       749.6684
    116833.44242     75741.97345  24378663.0474   24378662.8244
      -441.1864
    396782.84942    231831.48145  24837764.2074   24837764.8054
     -1448.5204
 -14342313.15746 -10847330.25946  21759232.0024   21759230.4194
      1640.1454
  -9681674.12045  -5826466.72145  23469998.9384   23469998.3294
     -2798.1224
 08  5 27  2 31 30.0000000  0  9G19G18G16G 6G 3G 7G25G22G21
 -12980366.24146  -9943781.82746  22083582.4524   22083581.1754
      2161.1214
 -14595022.48046    385392.36646  22565080.9784   22565080.5794
      -795.9684
 -15312517.90446  -7668902.06246  21748999.3944   21748999.6524
     -2539.1074
 -21077632.21146 -15626169.98246  20699708.1754   20699708.5744
      -365.3364
 -21199677.90747 -14595472.13446  20419046.1944   20419046.7564
       737.2004
    130338.06042     86265.05445  24381235.3174   24381235.3994
      -459.1224
    440427.58843    265840.31645  24846068.1014   24846073.9504
     -1461.0804
 -14391266.84146 -10885475.97846  21749916.4404   21749915.1164
      1623.4284
  -9597665.34845  -5761005.37145  23485986.2044   23485986.1694
     -2802.4264
 08  5 27  2 32  0.0000000  0  9G19G18G16G 6G 3G 7G25G22G21
 -13045109.86746  -9994231.40846  22071261.7094   22071259.9624
      2155.1294
 -14570873.59446    404209.67646  22569676.1284   22569675.7994
      -813.9224
 -15236141.41646  -7609387.92346  21763533.5654   21763533.4364
     -2552.6414
 -21066507.00646 -15617500.99146  20701825.1954   20701825.9334
      -376.3454
 -21221606.02647 -14612558.98846  20414873.3714   20414873.9224
       724.6834
    144379.76342     97206.63245  24383906.6984   24383905.2214
      -476.9794
    484448.35043    300142.23845  24854445.8654   24854447.5184
     -1473.6134
 -14439717.71946 -10923229.89546  21740696.9434   21740695.4194
      1606.6214
  -9513527.84945  -5695443.66745  23501996.8464   23501997.8784
     -2806.7164
 08  5 27  2 32 30.0000000  0  9G19G18G16G 6G 3G 7G25G22G21
 -13109672.78346 -10044540.16746  22058975.8204   22058974.6244
      2149.0844
 -14546187.05546    423445.94846  22574373.8664   22574373.3274
      -831.8264
 -15159359.89546  -7549558.15646  21778144.5874   21778144.5644
     -2566.0984
 -21055051.89046 -15608574.93846  20704005.1544   20704005.7164
      -387.3264
 -21243158.80447 -14629353.36546  20410771.8724   20410772.6344
       712.1884
    158957.30043    108565.74345  24386680.6104   24386684.8774
      -494.8204
    528842.86142    334735.43845  24862894.7204   24862893.7244
     -1486.0274
 -14487664.03346 -10960590.65946  21731572.6444   21731570.6634
      1589.8034
  -9429262.58845  -5629782.48245  23518031.7354   23518029.3444
     -2810.9404
 08  5 27  2 33  0.0000000  0  9G19G18G16G 6G 3G 7G25G22G21
 -13174053.83946 -10094707.22646  22046724.7284   22046723.2634
      2143.0014
 -14520963.58946    443100.59746  22579173.7194   22579173.3554
      -849.7044
 -15082175.28946  -7489414.29846  21792832.2714   21792832.2254
     -2579.5034
 -21043266.07946 -15599391.19046  20706248.2174   20706248.7334
      -398.3434
 -21264335.67547 -14645854.83246  20406742.0054   20406742.7674
       699.6254
    174069.65143    120341.60345  24389554.8984   24389555.4734
      -512.6294
    573609.07942    369618.26245  24871413.4284   24871416.9564
     -1498.3874
 -14535104.24446 -10997557.04746  21722545.3634   21722543.5234
      1572.8964
  -9344870.96145  -5564022.75245  23534091.5514   23534091.6104
     -2815.1184
 08  5 27  2 33 30.0000000  0  9G19G18G16G 6G 3G 7G25G22G21
 -13238252.08846 -10144731.82446  22034507.8044   22034506.6914
      2136.9014
 -14495204.12746    463172.92246  22584075.6634   22584075.4874
      -867.5764
 -15004589.72746  -7428957.98446  21807596.4604   21807596.2734
     -2592.8384
 -21031149.54146 -15589949.73946  20708553.7174   20708554.3154
      -409.4044
 -21285135.37447 -14662062.38946  20402783.8394   20402784.2374
       687.0284
    189715.44843    132533.12745  24392533.1234   24392532.4794
      -530.4084
    618744.65943    404788.74845  24880002.6824   24880005.7534
     -1510.6374
 -14582036.73346 -11034127.81846  21713614.1504   21713612.0054
      1555.9254
  -9260354.91145  -5498166.12245  23550173.7814   23550173.3474
     -2819.2424
 08  5 27  2 34  0.0000000  0  9G19G18G16G 6G 3G 7G25G22G21
 -13302266.60446 -10194613.26246  22022326.2514   22022325.0434
      2130.7464
 -14468909.29446    483662.40046  22589079.4924   22589078.8364
      -885.4034
 -14926604.59046  -7368190.33846  21822436.4064   21822435.7374
     -2606.1384
 -21018701.58546 -15580250.03946  20710922.5104   20710922.9444
      -420.4404
 -21305556.78347 -14677975.18346  20398897.9754   20398898.5264
       674.4144
    205893.84543    145139.63445  24395611.8254   24395612.4814
      -548.1524
    664247.54543    440245.46345  24888661.6484   24888664.2504
     -1522.8544
 -14628459.49546 -11070301.38446  21704779.8614   21704777.8924
      1538.9214
  -9175715.43145  -5432213.29645  23566281.0734   23566278.3534
     -2823.3584
 08  5 27  2 34 30.0000000  0  9G19G18G16G 6G 3G 7G25G22G21
 -13366096.60246 -10244350.91646  22010180.3154   22010179.0254
      2124.5744
 -14442080.16446    504568.23146  22594184.7064   22594184.1784
      -903.2104
 -14848221.94846  -7307112.94546  21837351.9084   21837351.4394
     -2619.3594
 -21005921.81946 -15570291.79246  20713354.4784   20713355.0404
      -431.5304
 -21325599.51747 -14693592.89846  20395084.0154   20395084.4844
       661.7564
    222603.25943    158159.95945  24398792.0464   24398791.1674
      -565.8324
    710115.17743    475986.48745  24897390.6504   24897391.2134
     -1534.9834
 -14674370.90346 -11106076.50246  21696043.4614   21696041.7964
      1521.8384
  -9090953.98544  -5366165.44245  23582409.8654   23582409.9004
     -2827.3944
 08  5 27  2 35  0.0000000  0  9G19G18G16G 6G 3G 7G25G22G21
 -13429740.83346 -10293943.81546  21998069.4394   21998067.6584
      2118.3834
 -14414717.18046    525890.03846  22599391.9144   22599391.5154
      -920.9824
 -14769443.78446  -7245727.35946  21852343.0234   21852342.9414
     -2632.5034
 -20992809.57246 -15560074.46346  20715849.6994   20715850.2734
      -442.6164
 -21345261.72147 -14708914.09946  20391342.2904   20391342.7474
       649.0594
    239842.93143    171593.43845  24402072.1424   24402073.0564
      -583.4704
    756345.80843    512010.41345  24906187.5864   24906189.5444
     -1547.0274
 -14719769.25846 -11141451.83746  21687404.5924   21687402.7514
      1504.7164
  -9006071.73045  -5300023.39345  23598563.3754   23598560.5034
     -2831.3874
 08  5 27  2 35 30.0000000  0  9G19G18G16G 6G 3G 7G25G22G21
 -13493198.62846 -10343391.45046  21985993.7054   21985992.0294
      2112.1344
 -14386821.85046    547626.67646  22604699.8604   22604700.1774
      -938.7014
 -14690272.49446  -7184035.43546  21867409.1104   21867409.2274
     -2645.5894
 -20979364.63646 -15549597.89046  20718408.1944   20718408.5454
      -453.7174
 -21364543.14647 -14723938.58846  20387673.4374   20387673.9414
       636.3474
    257611.28042    185438.93545  24405452.8854   24405452.6394
      -601.0894
    802936.69642    548314.96645  24915052.2834   24915054.2644
     -1558.9944
 -14764653.18046 -11176426.31746  21678863.5244   21678861.8594
      1487.5394
  -8921070.22944  -5233788.50145  23614738.1354   23614738.7214
     -2835.3684
 08  5 27  2 36  0.0000000  0  9G19G18G16G 6G 3G 7G25G22G21
 -13556468.92246 -10392692.96846  21973953.3424   21973951.4314
      2105.8684
 -14358394.96946    569777.49846  22610109.6934   22610109.2954
      -956.4164
 -14610709.72346  -7122038.49046  21882549.3714   21882549.0204
     -2658.6074
 -20965586.62046 -15538861.78346  20721029.9824   20721030.2164
      -464.8094
 -21383442.71447 -14738665.53146  20384076.6024   20384077.0474
       623.6014
    275907.27743    199695.50845  24408934.5454   24408931.7784
      -618.6674
    849885.78943    584898.59245  24923986.3964   24923990.1474
     -1570.9164
 -14809020.90046 -11210998.55146  21670420.4734   21670419.0074
      1470.2934
  -8835951.11345  -5167461.90445  23630935.7264   23630934.5424
     -2839.2594
 08  5 27  2 36 30.0000000  0  9G19G18G16G 6G 3G 7G25G22G21
 -13619550.67246 -10441847.57746  21961949.1024   21961947.1684
      2099.5554
 -14329437.20046    592341.99546  22615619.6874   22615619.3124
      -974.1034
 -14530757.33946  -7059737.94646  21897763.5944   21897763.0784
     -2671.5534
 -20951474.97046 -15527865.70446  20723715.4504   20723715.9894
      -475.9514
 -21401959.78947 -14753094.42246  20380553.0454   20380553.4444
       610.8524
    294729.20342    214361.95245  24412517.1154   24412515.0414
      -636.1384
    897190.86843    621759.63945  24932988.0804   24932985.5954
     -1582.7404
 -14852870.65546 -11245167.17446  21662076.3804   21662074.3284
      1453.0154
  -8750715.59344  -5101044.67345  23647154.9824   23647156.1314
     -2843.0944
 08  5 27  2 37  0.0000000  0  9G19G18G16G 6G 3G 7G25G22G21
 -13682442.86046 -10490854.46646  21949981.0814   21949979.6274
      2093.2544
 -14299949.74446    615319.24246  22621231.2844   22621231.3194
      -991.7324
 -14450417.62446  -6997135.59146  21913052.0734   21913051.5814
     -2684.4204
 -20937029.32746 -15516609.36846  20726464.0274   20726464.7544
      -487.0924
 -21420093.40647 -14767224.51646  20377102.3394   20377102.9484
       598.0484
    314075.67843    229437.13745  24416197.7794   24416196.8304
      -653.6024
    944849.42343    658896.20345  24942057.8854   24942060.8514
     -1594.4874
 -14896200.97446 -11278931.06746  21653831.1024   21653829.4374
      1435.6674
  -8665365.01445  -5034537.72645  23663396.4444   23663396.7964
     -2846.9384
 08  5 27  2 37 30.0000000  0  9G19G18G16G 6G 3G 7G25G22G21
 -13745144.83146 -10539713.13046  21938049.3734   21938047.9204
      2086.8854
 -14269933.44646    638708.58546  22626942.9584   22626942.5134
     -1009.3414
 -14369692.51446  -6934232.92946  21928413.1604   21928412.8564
     -2697.2394
 -20922249.30246 -15505092.46846  20729276.7074   20729277.3754
      -498.2294
 -21437842.66347 -14781055.10846  20373724.5044   20373725.1374
       585.2394
    333945.60443    244920.18945  24419979.7304   24419977.8314
      -671.0554
    992859.21243    696306.39645  24951194.0684   24951191.4074
     -1606.1384
 -14939010.27346 -11312288.95146  21645684.4174   21645682.9994
      1418.2774
  -8579900.57644  -4967942.07945  23679660.3534   23679660.7404
     -2850.6894
 08  5 27  2 38  0.0000000  0  9G19G18G16G 6G 3G 7G25G22G21
 -13807655.22846 -10588422.52946  21926154.4524   21926152.7284
      2080.4754
 -14239389.48245    662509.07346  22632755.1314   22632754.9204
     -1026.9034
 -14288584.05846  -6871031.56846  21943847.7614   21943847.5744
     -2710.0024
 -20907134.47546 -15493314.68646  20732153.2364   20732153.7524
      -509.4284
 -21455207.32547 -14794586.02246  20370420.0894   20370420.5934
       572.4004
    354337.93643    260810.32845  24423860.1464   24423857.7784
      -688.4414
   1041218.05843    733988.56045  24960396.1984   24960396.8314
     -1617.7454
 -14981297.08446 -11345239.69846  21637637.3514   21637635.1714
      1400.8314
  -8494323.96044  -4901258.96945  23695944.7774   23695945.1644
     -2854.3994
 08  5 27  2 38 30.0000000  0  9G19G18G16G 6G 3G 7G25G22G21
 -13869973.12746 -10636981.91546  21914295.6304   21914294.7634
      2074.0464
 -14208318.91646    686719.91246  22638668.2044   22638668.4504
     -1044.4444
 -14207093.66346  -6807532.57246  21959354.9864   21959354.8574
     -2722.6754
 -20891684.23046 -15481275.53746  20735093.0044   20735093.3564
      -520.5984
 -21472185.80347 -14807816.01046  20367189.5324   20367190.2944
       559.4964
    375251.15442    277106.32845  24427839.6164   24427836.5214
      -705.7964
   1089923.55642    771940.93845  24969663.6244   24969665.6874
     -1629.2654
 -15023059.74946 -11377782.03046  21629690.4664   21629688.9184
      1383.3424
  -8408636.26744  -4834489.36545  23712251.2084   23712252.4744
     -2858.0954
 08  5 27  2 39  0.0000000  0  9G19G18G16G 6G 3G 7G25G22G21
 -13932097.69746 -10685390.65946  21902473.1944   21902472.1864
      2067.5794
 -14176722.61546    711340.39846  22644680.6004   22644679.8144
     -1061.9584
 -14125223.94846  -6743738.00246  21974934.2234   21974934.2234
     -2735.2954
 -20875898.51946 -15468974.98946  20738097.2424   20738097.7114
      -531.7864
 -21488777.60447 -14820744.68646  20364032.1474   20364032.9324
       546.5904
    396683.52643    293806.83345  24431918.6984   24431921.0544
      -723.0584
   1138973.19743    810161.40045  24978998.8584   24978998.7414
     -1640.7124
 -15064296.86746 -11409914.83446  21621843.3644   21621841.7694
      1365.7884
  -8322838.85644  -4767634.26645  23728577.7074   23728576.7224
     -2861.7104
 08  5 27  2 39 30.0000000  0  9G19G18G16G 6G 3G 7G25G22G21
 -13994027.91646 -10733647.97446  21890688.2234   21890687.0864
      2061.0954
 -14144601.87045    736369.57646  22650792.8224   22650792.3184
     -1079.4224
 -14042976.89846  -6679649.38346  21990585.5594   21990585.3834
     -2747.8334
 -20859776.65946 -15456412.50546  20741164.7704   20741165.4854
      -542.9964
 -21504981.66747 -14833371.23346  20360948.6264   20360949.2124
       533.6704
    418633.55643    310910.76145  24436095.2704   24436093.1844
      -740.2804
   1188364.96342    848648.40245  24988397.5744   24988394.4324
     -1652.0794
 -15105006.82946 -11441636.87446  21614096.4154   21614094.4804
      1348.2104
  -8236933.33644  -4700694.89245  23744925.3374   23744924.9384
     -2865.3144
 08  5 27  2 40  0.0000000  0  9G19G18G16G 6G 3G 7G25G22G21
 -14055762.90946 -10781753.15746  21878940.4274   21878939.1144
      2054.5824
 -14111957.58546    761806.66846  22657005.5054   22657004.9074
     -1096.8594
 -13960354.71946  -6615268.47546  22006307.8364   22006307.8594
     -2760.2854
 -20843318.34746 -15443587.85846  20744296.8284   20744297.4734
      -554.2184
 -21520797.22747 -14845695.04846  20357939.1554   20357939.7414
       520.7174
    441099.90943    328416.93545  24440369.6604   24440368.1014
      -757.4554
   1238096.14842    887400.05845  24997860.1124   24997860.8394
     -1663.3164
 -15145188.44946 -11472947.21846  21606450.0474   21606448.5934
      1330.5704
  -8150920.58644  -4633671.96145  23761292.9684   23761291.7374
     -2868.8434
 08  5 27  2 40 30.0000000  0  9G19G18G16G 6G 3G 7G25G22G21
 -14117301.37046 -10829705.19646  21867230.4644   21867229.6314
      2048.0124
 -14078790.72746    787650.97746  22663316.5934   22663316.2654
     -1114.2574
 -13877359.11546  -6550596.57246  22022101.4334   22022100.8944
     -2772.7264
 -20826523.19146 -15430500.72346  20747492.6644   20747493.3564
      -565.4464
 -21536223.56047 -14857715.57246  20355003.2324   20355003.9474
       507.7134
    464081.05642    346324.37045  24444743.0664   24444745.1054
      -774.6064
   1288164.58242    926414.36045  25007389.6694   25007391.1934
     -1674.5454
 -15184839.87946 -11503844.44046  21598904.7014   21598903.2014
      1312.8744
  -8064802.28743  -4566566.84745  23777679.4874   23777679.8274
     -2872.3734
 08  5 27  2 41  0.0000000  0  9G19G18G16G 6G 3G 7G25G22G21
 -14178642.78046 -10877503.68246  21855557.6214   21855556.7654
      2041.4234
 -14045102.55346    813901.51046  22669727.1174   22669726.3324
     -1131.6174
 -13793992.33046  -6485635.43946  22037965.2444   22037965.1394
     -2785.0564
 -20809390.69246 -15417150.73846  20750753.0984   20750753.7194
      -576.7194
 -21551259.88047 -14869432.18546  20352142.0724   20352142.9054
       494.7004
    487575.68742    364631.86045  24449214.2904   24449211.1254
      -791.6864
   1338567.72543    965689.51645  25016980.7854   25016981.3124
     -1685.6354
 -15223959.98146 -11534327.62446  21591460.3654   21591458.4554
      1295.1294
  -7978579.64544  -4499380.40445  23794088.2794   23794086.3104
     -2875.8014
 08  5 27  2 41 30.0000000  0  9G19G18G16G 6G 3G 7G25G22G21
 -14239785.55346 -10925147.40246  21843921.9854   21843921.1764
      2034.7814
 -14010894.17846    840557.38646  22676236.6124   22676236.1324
     -1148.9194
 -13710256.47546  -6420386.72046  22053900.1464   22053900.2994
     -2797.3154
 -20791920.40346 -15403537.52146  20754077.6534   20754078.2394
      -587.9714
 -21565905.09747 -14880844.04946  20349355.3924   20349356.0604
       481.6574
    511582.61142    383338.59145  24453783.0474   24453783.6334
      -808.7494
   1389303.33142   1005223.76645  25026635.0114   25026632.1164
     -1696.6834
 -15262547.14246 -11564395.53046  21584117.4644   21584115.9174
      1277.3424
  -7892253.78044  -4432113.40445  23810515.4524   23810511.8774
     -2879.2074
 08  5 27  2 42  0.0000000  0  9G19G18G16G 6G 3G 7G25G22G21
 -14300728.75646 -10972635.61046  21832325.1264   21832323.7424
      2028.1054
 -13976167.02945    867617.51946  22682844.4944   22682844.6114
     -1166.2164
 -13626153.82746  -6354852.17846  22069904.1644   22069903.4964
     -2809.5154
 -20774112.19046 -15389660.99046  20757466.3124   20757466.9924
      -599.2524
 -21580158.70247 -14891950.75746  20346642.8004   20346643.9134
       468.5714
    536099.78942    402442.84745  24458447.1784   24458444.6704
      -825.7434
   1440368.87342   1045014.92045  25036352.7514   25036354.1224
     -1707.6154
 -15300600.04346 -11594047.13046  21576876.2014   21576874.6304
      1259.5054
  -7805826.32743  -4364767.40545  23826961.2774   23826962.9884
     -2882.6074
 08  5 27  2 42 30.0000000  0  8G19G18G16G 6G 3G 7G22G21
 -14361471.76446 -11019967.81746  21820766.2534   21820765.0344
      2021.4144
 -13940922.26946    895080.96246  22689551.9214   22689551.8984
     -1183.4564
 -13541686.36846  -6289033.37146  22085977.9394   22085977.8454
     -2821.6474
 -20755965.64646 -15375520.82746  20760919.7234   20760920.6024
      -610.5234
 -21594020.12847 -14902751.86746  20344005.3344   20344006.2484
       455.4984
    561125.60842    421943.49645  24463212.1304   24463211.0164
      -842.6744
 -15338117.53746 -11623281.52946  21569737.0924   21569735.4624
      1241.6354
  -7719298.54144  -4297343.17845  23843428.0884   23843426.0014
     -2885.9144
 08  5 27  2 43  0.0000000  0  8G19G18G16G 6G 3G 7G22G21
 -14422013.19846 -11067142.94946  21809245.5264   21809244.6474
      2014.6934
 -13905160.61445    922947.19846  22696357.1184   22696356.7554
     -1200.6464
 -13456855.91546  -6222931.73246  22102120.5644   22102120.6704
     -2833.7074
 -20737480.24146 -15361116.61646  20764437.2984   20764437.8024
      -621.8304
 -21607487.55447 -14913245.96346  20341442.3884   20341443.0914
       442.3694
    586659.04842    441839.63645  24468068.5444   24468064.0074
      -859.5924
 -15375098.03646 -11652097.49546  21562699.5684   21562697.8454
      1223.7184
  -7632671.47144  -4229841.56945  23859912.8394   23859908.9474
     -2889.1924
 08  5 27  2 43 30.0000000  0  8G19G18G16G 6G 3G 7G22G21
 -14482352.24746 -11114160.40146  21797763.2214   21797762.2014
      2007.8874
 -13868883.71345    951214.91846  22703260.4874   22703260.5574
     -1217.8284
 -13371664.94146  -6156549.16446  22118331.6754   22118331.8754
     -2845.6944
 -20718655.74947 -15346448.18746  20768019.3884   20768019.8224
      -633.1604
 -21620561.01147 -14923433.07146  20338954.5374   20338955.4044
       429.2064
    612697.97242    462129.69445  24473023.5254   24473021.5324
      -876.3924
 -15411540.56846 -11680494.26346  21555764.9154   21555763.3094
      1205.7814
  -7545946.79343  -4162263.91545  23876414.7544   23876416.3954
     -2892.4224
 08  5 27  2 44  0.0000000  0  8G19G18G16G 6G 3G 7G22G21
 -14542487.77946 -11161019.24646  21786319.5794   21786318.2194
      2001.1174
 -13832092.60145    979883.32346  22710261.8994   22710262.2044
     -1234.9184
 -13286115.52946  -6089887.29046  22134611.1584   22134610.9824
     -2857.5844
 -20699491.76046 -15331515.20246  20771666.1014   20771666.5584
      -644.4454
 -21633239.39947 -14933312.33246  20336541.9514   20336542.5954
       416.0294
    639240.82842    482812.44745  24478075.3974   24478069.4894
      -893.1414
 -15447443.64346 -11708470.67946  21548932.9474   21548931.1074
      1187.7734
  -7459125.67944  -4094611.13645  23892937.2994   23892937.5104
     -2895.6264
 08  5 27  2 44 30.0000000  0  8G19G18G16G 6G 3G 7G22G21
 -14602418.83446 -11207718.76446  21774915.8874   21774914.4694
      1994.2934
 -13794788.76245   1008951.25246  22717360.0914   22717359.7514
     -1251.9854
 -13200209.77946  -6022947.75646  22150958.5764   22150958.0604
     -2869.4334
 -20679987.71246 -15316317.24346  20775377.5234   20775377.9104
      -655.7984
 -21645522.00147 -14942883.19046  20334204.5754   20334205.3134
       402.8224
    666286.11442    503886.68245  24483221.3474   24483224.6884
      -909.8644
 -15482806.08646 -11736025.81946  21542203.7194   21542201.6684
      1169.7224
  -7372209.07744  -4026883.91845  23909477.2494   23909473.2634
     -2898.7994
 08  5 27  2 45  0.0000000  0  9G19G18G16G 6G 3G 7G27G22G21
 -14662144.22746 -11254258.02946  21763550.0064   21763549.3144
      1987.3964
 -13756973.24545   1038417.87946  22724556.2504   22724556.1104
     -1269.0354
 -13113949.89946  -5955732.26746  22167373.3874   22167373.2004
     -2881.2104
 -20660143.37346 -15300854.12446  20779153.8434   20779154.2184
      -667.1514
 -21657408.07447 -14952145.06546  20331942.8594   20331943.3404
       389.5814
    693831.94342    525351.00145  24488463.7634   24488467.2104
      -926.5354
      7149.54541                  25137686.6664
      -401.8094
 -15517626.21546 -11763158.37846  21535577.5374   21535575.3574
      1151.5984
  -7285198.33044  -3959083.34545  23926035.0844   23926037.4404
     -2901.8834
 08  5 27  2 45 30.0000000  0  9G19G18G16G 6G 3G 7G27G22G21
 -14721663.20946 -11300636.45746  21752224.2124   21752222.5474
      1980.5164
 -13718647.14845   1068282.39146  22731849.5364   22731849.3844
     -1286.0354
 -13027338.18946  -5888242.62946  22183855.0194   22183854.6794
     -2892.8984
 -20639958.54546 -15285125.69346  20782994.9734   20782995.3134
      -678.4974
 -21668896.87347 -14961097.37346  20329756.7114   20329757.4504
       376.3264
    721876.74942    547204.04544  24493799.8164   24493803.6964
      -943.0884
     19426.52941                  25140021.0924
      -416.6914
 -15551903.11546 -11789867.64346  21529054.5604   21529052.5434
      1133.4964
  -7198095.08844  -3891210.71745  23942609.4464   23942608.5794
     -2904.9714
 08  5 27  2 46  0.0000000  0  8G19G18G16G 6G 3G 7G22G21
 -14780974.22946 -11346852.83346  21740937.4274   21740936.3954
      1973.5574
 -13679812.30945   1098543.32346  22739239.4484   22739239.3664
     -1302.9604
 -12940376.66946  -5820480.40546  22200403.2994   22200403.1704
     -2904.5194
 -20619432.67646 -15269131.51046  20786901.0134   20786901.5524
      -689.8844
 -21679987.63947 -14969739.52746  20327646.3934   20327646.8504
       363.0524
    750418.90942    569444.68345  24499232.1014   24499233.1564
      -959.7214
 -15585635.51546 -11816152.61746  21522635.9134   21522634.2254
      1115.3314
  -7110900.50143  -3823266.87345  23959202.7454   23959202.8744
     -2908.0094
 08  5 27  2 46 30.0000000  0  8G19G18G16G 6G 3G 7G22G21
 -14840076.60646 -11392906.63046  21729690.7394   21729689.4264
      1966.5964
 -13640469.68745   1129199.89345  22746725.9154   22746725.2234
     -1319.8674
 -12853067.54346  -5752447.31346  22217017.5714   22217018.2514
     -2916.0724
 -20598565.64346 -15252871.47946  20790871.8004   20790872.2574
      -701.2634
 -21690679.58847 -14978070.91246  20325611.5034   20325612.1824
       349.7444
    779456.77942    592071.64145  24504757.5134   24504751.4414
      -976.1324
 -15618822.52446 -11842012.61746  21516320.9164   21516319.2284
      1097.1354
     14550.38443                  23975811.1694
     -2910.9974
 08  5 27  2 47  0.0000000  0  8G19G18G16G 6G 3G 7G22G21
 -14898969.20646 -11438796.97446  21718483.5034   21718482.0964
      1959.5684
 -13600620.46945   1160251.24245  22754308.9194   22754308.7444
     -1336.7364
 -12765412.98546  -5684145.07246  22233697.5974   22233697.7374
     -2927.5424
 -20577356.99946 -15236345.27446  20794907.6244   20794908.1164
      -712.6564
 -21700972.15047 -14986091.08846  20323653.1274   20323653.6904
       336.4264
    808988.40942    615083.34745  24510377.5174   24510381.1624
      -992.5814
 -15651462.55546 -11867446.40046  21510109.2274   21510107.2344
      1078.8774
    101924.12744                  23992439.5714
     -2913.9204
 08  5 27  2 47 30.0000000  0  8G19G18G16G 6G 3G 7G22G21
 -14957650.77446 -11484522.86846  21707317.2314   21707315.8474
      1952.5454
 -13560266.09545   1191696.20446  22761988.0034   22761987.8504
     -1353.5434
 -12677415.11946  -5615575.31346  22250443.4904   22250443.4554
     -2938.9404
 -20555806.18146 -15219552.42346  20799008.5084   20799008.9774
      -724.0514
 -21710864.30447 -14993799.25646  20321770.4514   20321771.1314
       323.0664
    839012.11042    638478.34745  24516090.9954   24516097.9114
     -1008.9304
 -15683554.41146 -11892453.02946  21504002.1554   21504000.6084
      1060.5834
    189385.84544                  24009082.7354
     -2916.8424
 08  5 27  2 48  0.0000000  0  8G19G18G16G 6G 3G 7G22G21
 -15016120.57746 -11530083.75446  21696190.5804   21696189.3964
      1945.4394
 -13519408.15645   1223533.57045  22769763.2164   22769762.3374
     -1370.3174
 -12589076.16046  -5546739.77546  22267253.4344   22267253.5514
     -2950.3074
 -20533912.99646 -15202492.80446  20803174.9564   20803175.4024
      -735.4864
 -21720355.14847 -15001194.72146  20319964.5134   20319965.0064
       309.6604
    869526.39442    662255.64845  24521896.8644   24521898.5764
     -1025.3134
 -15715096.96346 -11917031.62346  21497999.9464   21497998.2464
      1042.2454
    276934.05243     40937.01245  24025742.3214   24025739.5664
     -2919.6974
 08  5 27  2 48 30.0000000  0  8G19G18G16G 6G 3G 7G22G21
 -15074377.52746 -11575478.77346  21685104.7034   21685103.6714
      1938.3384
 -13478047.77145   1255762.44246  22777633.4284   22777633.5684
     -1387.0314
 -12500398.44046  -5477640.25146  22284128.0924   22284127.6124
     -2961.5354
 -20511677.28246 -15185166.27346  20807405.9864   20807406.4554
      -746.9064
 -21729444.29347 -15008277.16946  20318235.1114   20318235.6504
       296.2744
    900528.90742    686413.50245  24527797.8114   24527797.3424
     -1041.5444
 -15746089.73146 -11941181.81546  21492102.2454   21492100.6984
      1023.9154
    364567.35243    109222.68345  24042418.5664   24042418.8944
     -2922.5074
 08  5 27  2 49  0.0000000  0  8G19G18G16G 6G 3G 7G22G21
 -15132420.13446 -11620706.77146  21674059.7864   21674058.5434
      1931.1874
 -13436186.66845   1288381.47146  22785600.2604   22785600.2134
     -1403.6994
 -12411383.98146  -5408278.34246  22301067.2384   22301067.3794
     -2972.7224
 -20489098.60146 -15167572.49746  20811702.6944   20811703.2694
      -758.3324
 -21738130.77147 -15015045.85646  20316581.8134   20316582.3174
       282.8274
    932018.36642    710950.70145  24533789.9334   24533789.8744
     -1057.7184
 -15776531.00546 -11964902.28846  21486309.5644   21486307.9234
      1005.5124
    452284.84844    177573.90745  24059110.4194   24059108.9654
     -2925.3054
 08  5 27  2 49 30.0000000  0  8G19G18G16G 6G 3G 7G22G21
 -15190247.84546 -11665767.32646  21663055.7344   21663054.1284
      1924.0024
 -13393826.17445   1321389.66745  22793660.6974   22793659.8994
     -1420.3124
 -12322035.44846  -5338656.11146  22318069.7784   22318069.8724
     -2983.8294
 -20466176.57046 -15149711.17646  20816064.5294   20816065.0564
      -769.7874
 -21746413.92147 -15021500.25746  20315005.7534   20315006.2934
       269.3914
    963992.58643    735865.69945  24539873.6094   24539873.6794
     -1073.8764
 -15806419.93246 -11988192.35146  21480621.8634   21480620.0114
       987.0854
    540085.01343    245989.66345  24075816.9444   24075819.5584
     -2928.0364
 08  5 27  2 50  0.0000000  0  8G19G18G16G 6G 3G 7G22G21
 -15247859.26746 -11710659.34446  21652092.1904   21652090.5964
      1916.7474
 -13350967.78445   1354785.81946  22801816.4914   22801815.6234
     -1436.9104
 -12232355.09146  -5268775.33046  22335135.1894   22335135.1894
     -2994.8654
 -20442911.02046 -15131582.17146  20820491.6684   20820492.3134
      -781.2734
 -21754293.32247 -15027640.05046  20313506.1084   20313506.8344
       255.8914
    996449.75043    761156.99345  24546049.4134   24546048.4754
     -1089.9524
 -15835755.42446 -12011051.16946  21475039.3724   21475037.5204
       968.6104
    627966.71943    314468.86545  24092540.5084   24092540.8604
     -2930.7434
 08  5 27  2 50 30.0000000  0  8G19G18G16G 6G 3G 7G22G21
 -15305253.29746 -11755381.96646  21641170.7334   21641169.3974
      1909.5014
 -13307612.60945   1388569.06445  22810066.6144   22810066.1924
     -1453.4374
 -12142344.78746  -5198637.43946  22352263.6844   22352263.6374
     -3005.8184
 -20419301.60746 -15113185.22346  20824984.2414   20824984.7454
      -792.7184
 -21761767.54647 -15033464.12246  20312083.8684   20312084.3144
       242.3804
   1029387.96143    786823.03445  24552318.9054   24552313.2904
     -1105.9454
 -15864536.49346 -12033477.96146  21469562.4724   21469560.7014
       950.1154
    715928.99643    383010.86145  24109280.0784   24109278.6834
     -2933.4144
 08  5 27  2 51  0.0000000  0  8G19G18G16G 6G 3G 7G22G21
 -15362428.97346 -11799934.44046  21630290.6124   21630288.8894
      1902.2114
 -13263762.29345   1422738.14245  22818410.8554   22818411.5244
     -1469.9014
 -12052006.70546  -5128244.12746  22369453.9744   22369454.2784
     -3016.6974
 -20395347.80346 -15094519.92046  20829542.7864   20829543.5954
      -804.1744
 -21768836.12347 -15038972.10446  20310739.0654   20310739.7924
       228.8534
   1062805.57143    812862.70845  24558676.4184   24558677.9184
     -1121.8964
 -15892762.09646 -12055471.93146  21464191.4524   21464189.5304
       931.5954
    803970.47544    451614.55545  24126033.8724   24126033.2864
     -2936.0024
 08  5 27  2 51 30.0000000  0  8G19G18G16G 6G 3G 7G22G21
 -15419385.07546 -11844315.81146  21619451.9924   21619450.7384
      1894.8594
 -13219418.37645   1457291.85546  22826849.3314   22826848.2064
     -1486.3524
 -11961343.20145  -5057597.25246  22386706.8704   22386706.4944
     -3027.5154
 -20371049.60446 -15075586.25046  20834166.6014   20834167.1994
      -815.6964
 -21775498.68547 -15044163.70946  20309470.9384   20309471.4774
       215.3194
   1096700.32643    839274.25945  24565126.8894   24565125.8454
     -1137.7744
 -15920431.24546 -12077032.29046  21458925.8204   21458924.0744
       913.0154
    892089.92343    520279.09845  24142802.1594   24142801.8544
     -2938.5924
 08  5 27  2 52  0.0000000  0  8G19G18G16G 6G 3G 7G22G21
 -15476120.52946 -11888525.25046  21608655.9144   21608654.8594
      1887.4814
 -13174582.45345   1492228.92645  22835381.3634   22835380.8244
     -1502.7144
 -11870357.11345  -4986699.01146  22404020.9494   22404020.7624
     -3038.2254
 -20346406.76646 -15056384.04046  20838856.0154   20838856.3904
      -827.1814
 -21781754.62647 -15049038.46846  20308280.4604   20308280.7534
       201.7434
   1131070.33243    866056.02645  24571667.5424   24571667.6714
     -1153.5774
 -15947543.23446 -12098158.49746  21453767.1624   21453765.4164
       894.4194
    980286.12443    589003.32745  24159586.1994   24159588.4264
     -2941.1614
 08  5 27  2 52 30.0000000  0  9G19G18G16G 6G 3G 7G27G22G21
 -15532634.29546 -11932561.95346  21597901.3074   21597899.9124
      1880.0774
 -13129256.00645   1527548.23746  22844006.5354   22844005.9724
     -1519.0434
 -11779050.30146  -4915550.85246  22421395.9004   22421395.5954
     -3048.8874
 -20321418.87446 -15036912.95646  20843610.8794   20843611.4414
      -838.6904
 -21787603.35647 -15053595.93146  20307167.5984   20307168.0674
       188.1494
   1165913.77643    893206.75145  24578298.1174   24578295.4684
     -1169.2944
     16007.40741                  25181577.0334
      -621.9644
 -15974096.97846 -12118849.71846  21448713.9574   21448711.9644
       875.8324
   1068558.33343    657786.75345  24176383.6214   24176376.9514
     -2943.6604
 08  5 27  2 53  0.0000000  0  9G19G18G16G 6G 3G 7G27G22G21
 -15588925.35646 -11976425.11046  21587189.8044   21587188.7964
      1872.6474
 -13083440.37945   1563248.73245  22852724.9324   22852725.2494
     -1535.3054
 -11687424.87945  -4844154.42646  22438831.7604   22438831.4554
     -3059.4574
 -20296085.55246 -15017172.70746  20848431.5024   20848432.0894
      -850.1944
 -21793043.47447 -15057834.98346  20306132.3704   20306132.9794
       174.5224
   1201228.74143    920724.92045  24585018.3554   24585017.1834
     -1184.9944
     34881.76741                  25185168.4474
      -636.3484
 -16000091.68546 -12139105.31546  21443767.4004   21443765.7944
       857.1514
   1156904.80443    726628.22445  24193194.6684   24193193.6834
     -2946.1074
 08  5 27  2 53 30.0000000  0  9G19G18G16G 6G 3G 7G27G22G21
 -15644992.49446 -12020113.78246  21576520.3664   21576519.4634
      1865.1554
 -13037137.41545   1599328.96745  22861536.5834   22861535.8334
     -1551.5554
 -11595483.37545  -4772511.71646  22456327.4544   22456327.6654
     -3069.9704
 -20270406.74346 -14997163.25046  20853317.9564   20853318.4724
      -861.7414
 -21798074.69447 -15061755.42146  20305174.7284   20305175.1034
       160.8744
   1237013.07644    948608.77745  24591828.7204   24591826.7154
     -1200.6124
     54186.19341                  25188841.2494
      -650.6324
 -16025526.25146 -12158924.45546  21438927.1384   21438925.4034
       838.4734
   1245324.55843    795526.65445  24210020.5264   24210017.4554
     -2948.5754
 08  5 27  2 54  0.0000000  0  9G19G18G16G 6G 3G 7G27G22G21
 -15700834.41446 -12063626.96946  21565894.2734   21565892.9964
      1857.6254
 -12990348.26045   1635788.04845  22870440.1774   22870440.2824
     -1567.7264
 -11503227.99946  -4700624.40446  22473883.7034   22473883.3164
     -3080.3794
 -20244381.88146 -14976884.12446  20858269.9864   20858270.6194
      -873.2784
 -21802696.56147 -15065356.87646  20304295.3824   20304295.7344
       147.2264
   1273264.70143    976856.79545  24598726.1814   24598724.1304
     -1216.1504
     73919.94741                  25192599.4204
      -664.9464
 -16050399.71946 -12178306.36346  21434193.9064   21434192.1124
       819.7444
   1333816.61243    864481.54245  24226860.6164   24226861.0034
     -2950.9334
 08  5 27  2 54 30.0000000  0  9G19G18G16G 6G 3G 7G27G22G21
 -15756450.38446 -12106964.09146  21555311.1074   21555309.3734
      1850.0684
 -12943074.73745   1672624.57045  22879435.7944   22879434.9154
     -1583.8534
 -11410661.06245  -4628494.33945  22491498.6974   22491497.7704
     -3090.7424
 -20218010.99346 -14956335.37546  20863288.8464   20863289.4564
      -884.8054
 -21806908.11747 -15068638.61946  20303494.0544   20303494.3474
       133.5234
   1309982.05343   1005467.66845  24605713.5814   24605714.4844
     -1231.6944
     94081.08341                  25196433.8524
      -679.1494
 -16074711.49746 -12197250.59546  21429567.2314   21429565.4964
       801.0104
   1422379.43442    933491.43445  24243713.3174   24243715.4864
     -2953.2744
 08  5 27  2 55  0.0000000  0  9G19G18G16G 6G 3G 7G27G22G21
 -15811838.94246 -12150123.99146  21544770.4254   21544769.0414
      1842.4674
 -12895318.45245   1709837.27945  22888523.4194   22888523.4424
     -1599.9104
 -11317785.04345  -4556123.42146  22509171.8324   22509171.6454
     -3101.0174
 -20191293.59646 -14935516.62146  20868372.8654   20868373.4754
      -896.3664
 -21810708.68847 -15071600.10646  20302770.8654   20302771.4514
       119.8264
   1347162.97643   1034439.81645  24612788.7014   24612791.0344
     -1247.0834
    114668.40141                  25200351.9104
      -693.3474
 -16098460.92946 -12215756.63846  21425048.1584   21425046.4934
       782.2454
   1511012.09043   1002555.87045  24260579.4064   24260578.2924
     -2955.6044
 08  5 27  2 55 30.0000000  0  9G19G18G16G 6G 3G 7G27G22G21
 -15866999.12146 -12193105.94746  21534274.1734   21534272.9664
      1834.8524
 -12847081.10445   1747424.81245  22897702.8854   22897703.1544
     -1615.9094
 -11224602.40546  -4483513.56946  22526904.5594   22526904.1014
     -3111.1754
 -20164229.62246 -14914427.81046  20873522.8924   20873523.5134
      -907.9144
 -21814098.06647 -15074241.18546  20302125.9454   20302126.6714
       106.1214
   1384804.94944   1063771.20845  24619952.1634   24619951.6474
     -1262.3904
    135680.54441                  25204349.4454
      -707.4804
 -16121647.02546 -12233823.71246  21420635.7274   21420633.9804
       763.4824
   1599713.43042   1071673.73445  24277459.5174   24277457.5834
     -2957.8374
 08  5 27  2 56  0.0000000  0  9G19G18G16G 6G 3G 7G27G22G21
 -15921929.81346 -12235909.07546  21523820.9044   21523819.8854
      1827.1934
 -12798364.03945   1785386.15645  22906973.2244   22906973.5414
     -1631.8604
 -11131115.44845  -4410666.59046  22544694.2214   22544694.1274
     -3121.2864
 -20136818.67946 -14893068.62846  20878739.4764   20878739.9104
      -919.4744
 -21817075.29247 -15076561.11346  20301559.5534   20301560.1154
        92.3744
   1422906.08243   1093460.49645  24627202.4874   24627202.0294
     -1277.6534
    157116.31942                  25208430.1694
      -721.5724
 -16144268.95046 -12251451.17246  21416330.8384   21416329.0104
       744.6604
   1688482.44643   1140844.36345  24294351.5734   24294350.9294
     -2960.1144
 08  5 27  2 56 30.0000000  0  9G19G18G16G 6G 3G 7G27G22G21
 -15976629.80046 -12278532.44146  21513411.8184   21513410.0484
      1819.4564
 -12749168.85745   1823720.05245  22916335.2194   22916334.7384
     -1647.8014
 -11037326.00946  -4337583.91146  22562541.9524   22562542.1284
     -3131.3354
 -20109060.73346 -14871439.06546  20884021.2634   20884021.8144
      -931.0514
 -21819639.74047 -15078559.38946  20301071.3344   20301071.8274
        78.5794
   1461464.39143   1123505.87345  24634539.9274   24634538.6144
     -1292.8704
    178974.51942                  25212589.9014
      -735.6354
 -16166326.03746 -12268638.49846  21412133.4874   21412131.3304
       725.7914
   1777317.84042   1210066.75245  24311256.2254   24311256.0374
     -2962.2794
 08  5 27  2 57  0.0000000  0  9G19G18G16G 6G 3G 7G27G22G21
 -16031097.87546 -12320975.08146  21503046.7184   21503045.8164
      1811.7304
 -12699497.40445   1862425.10045  22925786.9774   22925787.5754
     -1663.6294
 -10943236.92845  -4264267.74746  22580446.2034   22580446.3794
     -3141.2784
 -20080955.32846 -14849538.74846  20889369.7274   20889370.0314
      -942.6204
 -21821790.49547 -15080235.30746  20300662.0334   20300662.6314
        64.8104
   1500477.69043   1153905.82245  24641963.8374   24641963.9784
     -1307.9744
    201253.69242                  25216828.8464
      -749.6254
 -16187817.59546 -12285385.15546  21408044.1194   21408042.3954
       706.9734
   1866218.34743   1279339.79645  24328173.6684   24328173.0714
     -2964.4514
 08  5 27  2 57 30.0000000  0  9G19G18G16G 6G 3G 7G27G22G21
 -16085333.06346 -12363236.26546  21492725.8984   21492724.7264
      1803.9494
 -12649351.34045   1901499.96045  22935329.5104   22935328.8774
     -1679.4334
 -10848850.38645  -4190719.79046  22598407.2784   22598407.3364
     -3151.1394
 -20052502.33846 -14827367.57746  20894784.1994   20894784.3054
      -954.2344
 -21823527.15147 -15081588.55746  20300331.5434   20300332.0824
        50.9874
   1539943.79843   1184658.61445  24649474.0704   24649472.7454
     -1323.0514
    223952.26142      9472.44744  25221147.9594   25221151.1714
      -763.5924
 -16208742.89946 -12301690.57846  21404062.2234   21404060.2424
       688.0704
   1955183.28943   1348663.17245  24345102.3304   24345103.8904
     -2966.5524
 08  5 27  2 58  0.0000000  0  9G19G18G16G 6G 3G 7G27G22G21
 -16139334.11646 -12405315.00846  21482450.0084   21482448.7194
      1796.1134
 -12598732.39245   1940943.29045  22944962.2584   22944961.2614
     -1695.1614
 -10754168.74745  -4116941.90946  22616424.6124   22616424.6704
     -3160.9454
 -20023701.50246 -14804925.36546  20900264.7494   20900265.4404
      -965.8124
 -21824849.28847 -15082618.79546  20300079.9774   20300080.3054
        37.1384
   1579860.91943   1215762.90645  24657069.3074   24657068.9794
     -1338.0724
    247068.71742     27485.29544  25225547.2274   25225550.5334
      -777.5094
 -16229101.19946 -12317554.18246  21400187.9994   21400186.3234
       669.1484
   2044211.23542   1418035.55345  24362044.4844   24362044.0394
     -2968.6384
 08  5 27  2 58 30.0000000  0  9G19G18G16G 6G 3G 7G27G22G21
 -16193099.97946 -12447210.47746  21472218.8464   21472217.5804
      1788.2614
 -12547642.41245   1980753.67145  22954683.8834   22954683.4384
     -1710.8294
 -10659194.63745  -4042936.11246  22634497.8344   22634497.7284
     -3170.6504
 -19994552.76446 -14782212.06546  20905811.0254   20905811.3184
      -977.4214
 -21825756.05647 -15083325.37146  20299907.4554   20299907.9354
        23.2944
   1620226.46443   1247216.52745  24664751.2324   24664750.5054
     -1352.9624
    270601.56942                  25230024.2564
      -791.3594
 -16248891.97546 -12332975.55146  21396421.9094   21396420.0334
       650.2224
   2133301.22642   1487456.19145  24378996.7964   24378998.8834
     -2970.7064
 08  5 27  2 59  0.0000000  0  9G19G18G16G 6G 3G 7G27G22G21
 -16246629.34346 -12488921.66346  21462032.6014   21462031.4764
      1780.3524
 -12496082.80845   2020929.97445  22964495.8824   22964496.6094
     -1726.4714
 -10563929.90945  -3968703.87346  22652626.0254   22652625.6974
     -3180.2984
 -19965055.60846 -14759227.26746  20911424.7044   20911425.1504
      -989.0424
 -21826246.81347 -15083707.78646  20299814.2254   20299814.7644
         9.4234
   1661038.29543   1279017.96545  24672518.0514   24672517.9464
     -1367.7874
    294549.58942                  25234582.7264
      -805.1464
 -16268114.39346 -12347954.05546  21392764.2004   21392762.3244
       631.2694
   2222452.07142   1556924.33645  24395962.3844   24395962.2434
     -2972.7084
 08  5 27  2 59 30.0000000  0  9G19G18G16G 6G 3G 7G27G22G21
 -16299921.18546 -12530447.75546  21451891.4904   21451890.3894
      1772.4294
 -12444055.32145   2061470.87445  22974396.0074   22974395.6794
     -1742.0444
 -10468377.21645  -3894247.23946  22670808.8374   22670808.7434
     -3189.8834
 -19935209.95946 -14735970.91346  20917104.1774   20917104.7634
     -1000.6574
 -21826321.33247 -15083765.84746  20299799.7274   20299800.3024
        -4.4694
   1702294.49543   1311165.62945  24680367.8534   24680367.9474
     -1382.6024
    318911.16342                  25239216.6354
      -818.9344
 -16286767.99446 -12362489.31546  21389214.4254   21389212.4204
       612.2924
   2311662.66343   1626439.04145  24412939.3084   24412938.0544
     -2974.6754
 08  5 27  3  0  0.0000000  0  9G19G18G16G 6G 3G 7G27G22G21
 -16352974.40346 -12571787.91846  21441795.9264   21441795.0004
      1764.4294
 -12391561.65145   2102375.03445  22984385.8054   22984384.7974
     -1757.5704
 -10372538.91445  -3819568.06545  22689046.4844   22689046.6254
     -3199.3624
 -19905015.77046 -14712442.97846  20922849.8294   20922850.2744
     -1012.2984
 -21825978.85747 -15083498.98446  20299865.1164   20299865.6324
       -18.3894
   1743992.71243   1343657.74045  24688302.6924   24688300.9104
     -1397.2774
    343684.84742                  25243933.6924
      -832.6244
 -16304852.26046 -12376580.94546  21385772.9544   21385771.2894
       593.2864
   2400932.29642   1695999.84445  24429925.7564   24429924.6424
     -2976.6554
 08  5 27  3  0 30.0000000  0  9G19G18G16G 6G 3G 7G27G22G21
 -16405787.60946 -12612941.06446  21431745.6574   21431744.0054
      1756.4354
 -12338603.76245   2143640.92945  22994463.0634   22994462.1024
     -1772.9904
 -10276417.60645  -3744668.36745  22707337.6464   22707337.9274
     -3208.7344
 -19874472.71746 -14688643.19446  20928662.0084   20928662.3834
     -1023.9224
 -21825218.91747 -15082906.81646  20300009.7964   20300010.3824
       -32.2844
   1786130.78943   1376492.55145  24696321.1054   24696321.4224
     -1411.9004
    368869.13942                  25248724.8364
      -846.3014
 -16322366.68246 -12390228.53246  21382439.7054   21382438.0874
       574.3094
   2490259.42442   1765605.42245  24446924.7484   24446923.2834
     -2978.5004
 08  5 27  3  1  0.0000000  0  9G19G18G16G 6G 3G 7G27G22G21
 -16458359.74946 -12653906.36146  21421741.3594   21421740.1524
      1748.3714
 -12285183.10345   2185267.39645  23004628.5864   23004627.4144
     -1788.3734
 -10180015.78045  -3669550.07946  22725682.7014   22725682.3614
     -3218.0484
 -19843580.74646 -14664571.53246  20934540.4404   20934540.8394
     -1035.5604
 -21824040.88747 -15081988.86746  20300233.8094   20300234.1844
       -46.2574
   1828706.22343   1409668.18745  24704423.3324   24704421.7734
     -1426.4514
    394462.47842                  25253594.4394
      -859.9044
 -16339310.53446 -12403431.52046  21379215.5534   21379213.7714
       555.2744
   2579643.10742   1835254.89045  24463933.8864   24463937.7774
     -2980.3824
 08  5 27  3  1 30.0000000  0  9G19G18G16G 6G 3G 7G27G22G21
 -16510689.87646 -12694683.07446  21411783.1584   21411781.8814
      1740.2844
 -12231301.85045   2227252.77145  23014881.6794   23014881.5974
     -1803.7154
 -10083335.72445  -3594214.96945  22744079.6594   22744079.2964
     -3227.3004
 -19812339.45146 -14640227.66846  20940485.4854   20940485.7784
     -1047.2044
 -21822444.09547 -15080744.60846  20300537.6154   20300538.0724
       -60.2454
   1871717.18242   1443183.22745  24712608.4804   24712614.8564
     -1440.9324
    420463.12142                  25258542.3864
      -873.4674
 -16355683.36046 -12416189.56146  21376100.4334   21376098.7574
       536.2234
   2669082.09242   1904947.66945  24480952.4884   24480955.7244
     -2982.2284
 08  5 27  3  2  0.0000000  0  9G19G18G16G 6G 3G 7G27G22G21
 -16562776.44646 -12735270.00546  21401871.4354   21401870.2634
      1732.1394
 -12176961.46045   2269595.95845  23025222.1604   23025221.2224
     -1819.0064
  -9986379.73845  -3518664.86945  22762530.4754   22762530.4164
     -3236.4534
 -19780748.76746 -14615611.55746  20946496.9444   20946497.5774
     -1058.8654
 -21820428.01047 -15079173.62646  20300921.3924   20300921.9084
       -74.1904
   1915160.77942   1477035.30545  24720875.2944   24720875.9034
     -1455.2934
    446869.77742                  25263568.6254
      -887.0044
 -16371484.62846 -12428502.22146  21373093.3964   21373091.8134
       517.1734
   2758575.59442   1974682.80945  24497983.2894   24497985.3874
     -2983.9994
 08  5 27  3  2 30.0000000  0  9G19G18G16G 6G 3G 7G32G22G21
 -16614618.54646 -12775666.44246  21392006.6294   21392005.3284
      1723.9864
 -12122163.97045   2312295.26545  23035649.9244   23035648.6114
     -1834.1834
  -9889149.98345  -3442901.42845  22781032.8404   22781032.4534
     -3245.5144
 -19748808.68746 -14590723.17946  20952574.8004   20952574.9994
     -1070.4914
 -21817992.25347 -15077275.63946  20301384.9194   20301385.6694
       -88.1964
   1959034.96842   1511222.99745  24729224.4954   24729223.4634
     -1469.6164
    -18666.89742                  24557798.5634
      3733.8044
 -16386714.16646 -12440369.38646  21370195.5404   21370193.7474
       498.1204
   2848122.42942   2044459.49845  24515024.5474   24515025.0514
     -2985.7784
 08  5 27  3  3  0.0000000  0  9G19G18G16G 6G 3G 7G32G22G21
 -16666214.85446 -12815871.34346  21382187.8324   21382186.4844
      1715.7694
 -12066911.07545   2355349.47145  23046164.3304   23046163.7444
     -1849.3224
  -9791649.05845  -3366926.69245  22799585.8014   22799586.0594
     -3254.5124
 -19716518.80246 -14565562.24246  20958719.4224   20958719.9854
     -1082.1724
 -21815135.50947 -15075049.60746  20301928.2934   20301928.7734
      -102.2344
   2003337.76342   1545744.63745  24737654.3854   24737655.9214
     -1483.8754
   -130651.78642                  24536488.1904
      3731.8724
 -16401371.22146 -12451790.44746  21367406.3174   21367404.1494
       479.0154
   2937721.63642   2114277.11445  24532074.0834   24532077.8694
     -2987.4984
 08  5 27  3  3 30.0000000  0  9G19G18G16G 6G 3G 7G32G22G21
 -16717564.25146 -12855883.85346  21372416.6194   21372415.2124
      1707.5234
 -12011204.70445   2398757.04545  23056764.7994   23056765.9594
     -1864.4114
  -9693879.59945  -3290742.70145  22818190.8094   22818190.4464
     -3263.4084
 -19683879.00046 -14540128.62646  20964930.7044   20964931.4424
     -1093.8104
 -21811858.17647 -15072495.83946  20302552.2104   20302552.8554
      -116.2514
   2048066.72942   1580598.38245  24746164.7174   24746167.2024
     -1498.0204
   -242576.17542                  24515189.0244
      3729.7954
 -16415455.27246 -12462765.02946  21364726.1124   21364724.0964
       459.9194
   3027372.17942   2184134.58545  24549133.5494   24549134.5104
     -2989.1884
 08  5 27  3  4  0.0000000  0  9G19G18G16G 6G 3G 7G32G22G21
 -16768665.52846 -12895703.01846  21362692.4694   21362691.1914
      1699.2264
 -11955046.39245   2442516.75345  23067451.0354   23067451.0594
     -1879.4484
  -9595844.02345  -3214351.35645  22836846.8114   22836846.8234
     -3272.2564
 -19650889.04046 -14514422.15946  20971208.5874   20971209.1504
     -1105.4964
 -21808159.43047 -15069613.69846  20303255.8594   20303256.3044
      -130.3324
   2093219.45742   1615782.26445  24754757.6864   24754758.2024
     -1512.1484
   -354437.39242    -52290.35145  24493903.6264   24493901.1644
      3727.6264
 -16428966.10146 -12473292.93546  21362155.1724   21362153.1914
       440.8014
   3117072.88442   2254031.06244  24566201.9734   24566211.3044
     -2990.8624
 08  5 27  3  4 30.0000000  0  9G19G18G16G 6G 3G 7G32G22G21
 -16819517.39546 -12935327.83746  21353015.3714   21353013.9534
      1690.9024
 -11898438.23745   2486626.99545  23078224.1304   23078224.2714
     -1894.4204
  -9497544.66145  -3137754.44945  22855553.2994   22855553.6394
     -3281.0184
 -19617548.96846 -14488442.88546  20977552.8234   20977553.3514
     -1117.1494
 -21804038.33347 -15066402.44846  20304040.3274   20304040.9374
      -144.3994
   2138793.47242   1651294.47245  24763431.2834   24763426.1954
     -1526.1334
   -466232.70042   -139403.61845  24472629.3674   24472632.1104
      3725.3434
 -16441903.50246 -12483374.01546  21359692.7694   21359691.0454
       421.6964
   3206822.76742   2323966.05044  24583282.9134   24583285.7264
     -2992.4784
 08  5 27  3  5  0.0000000  0  9G19G18G16G 6G 3G 7G32G22G21
 -16870118.66446 -12974757.39946  21343386.8604   21343385.3254
      1682.5174
 -11841381.88745   2531086.47645  23089081.0554   23089082.8144
     -1909.3284
  -9398983.84145  -3060953.80545  22874308.3534   22874306.9944
     -3289.6884
 -19583858.65046 -14462190.68946  20983963.8654   20983964.1464
     -1128.8544
 -21799494.77447 -15062862.01346  20304904.6614   20304905.1544
      -158.4944
   2184786.74441   1687133.41045  24772182.5884   24772180.3024
     -1540.0584
   -577959.60542   -226463.45945  24451368.5934   24451372.2034
      3723.0494
 -16454266.92446 -12493007.83646  21357340.3954   21357338.8714
       402.5464
   3296620.88042   2393938.59144  24600370.4034   24600368.8564
     -2994.0544
 08  5 27  3  5 30.0000000  0  9G19G18G16G 6G 3G 7G32G22G21
 -16920468.28746 -13013990.85746  21333805.1124   21333803.5414
      1674.1134
 -11783879.37445   2575893.64245  23100023.8494   23100023.0294
     -1924.1724
  -9300164.07845  -2983951.39845  22893113.1004   22893112.5854
     -3298.2734
 -19549817.88246 -14435665.40646  20990441.7674   20990442.1894
     -1140.5304
 -21794528.53547 -15058992.21046  20305849.7324   20305850.3654
      -172.6014
   2231196.52541   1723296.82145  24781014.7764   24781015.7844
     -1553.9014
   -689615.55842   -313468.16145  24430121.3604   24430120.6684
      3720.6594
 -16466055.93246 -12502194.06446  21355097.0254   21355095.2324
       383.3824
   3386466.29442   2463947.93245  24617467.7344   24617468.6024
     -2995.6044
 08  5 27  3  6  0.0000000  0  8G19G18G16G 6G 3G32G22G21
 -16970565.36246 -13053027.53346  21324272.2604   21324270.6074
      1665.6844
 -11725932.40345   2621047.11145  23111050.2494   23111049.6864
     -1938.9344
  -9201088.26645  -2906749.47845  22911966.7384   22911966.7854
     -3306.7764
 -19515426.65346 -14408867.05046  20996986.4174   20996986.6754
     -1152.2124
 -21789139.07547 -15054792.63246  20306875.4224   20306876.2194
      -186.6964
   -801198.04842   -400415.45945  24408887.2704   24408891.5604
      3718.1264
 -16477270.49146 -12510932.67146  21352962.7374   21352961.0144
       364.2484
   3476357.70942   2533993.27145  24634572.7464   24634568.2684
     -2997.1274
 08  5 27  3  6 30.0000000  0  8G19G18G16G 6G 3G32G22G21
 -17020408.21746 -13091866.10946  21314787.2574   21314785.8154
      1657.1634
 -11667543.14145   2666545.23245  23122161.1804   23122161.0864
     -1953.6734
  -9101758.12845  -2829349.36745  22930868.7644   22930868.5174
     -3315.2224
 -19480684.74446 -14381795.44146  21003597.2914   21003597.5374
     -1163.9174
 -21783325.53947 -15050262.60446  20307981.5644   20307982.0454
      -200.8704
   -912704.21842   -487303.41245  24387668.2114   24387672.4074
      3715.5774
 -16487910.28946 -12519223.40646  21350938.1024   21350936.4264
       345.0724
   3566294.89742   2604074.18445  24651686.9134   24651692.1184
     -2998.6474
 08  5 27  3  7  0.0000000  0  9G19G18G16G 6G 3G 7G32G22G21
 -17069995.61246 -13130505.63046  21305351.0824   21305349.3714
      1648.6554
 -11608713.58245   2712386.44145  23133356.4834   23133356.7414
     -1968.2764
  -9002176.60645  -2751753.36445  22949817.8194   22949817.4204
     -3323.5264
 -19445592.16746 -14354450.57746  21010275.2574   21010275.6564
     -1175.5814
 -21777087.51747 -15045401.80846  20309168.7994   20309169.4204
      -215.0164
     34977.57041                  24807981.5344
     -1594.9524
  -1024131.74243   -574130.01745  24366463.2164   24366464.0604
      3712.9174
 -16497975.14646 -12527066.14946  21349022.8354   21349020.8194
       325.9134
   3656275.80141   2674188.94844  24668809.1444   24668813.5874
     -3000.0944
 08  5 27  3  7 30.0000000  0  9G19G18G16G 6G 3G 7G32G22G21
 -17119326.46846 -13168945.25046  21295963.9094   21295962.3854
      1640.0804
 -11549445.37245   2758569.47245  23144634.6064   23144633.9144
     -1982.8724
  -8902346.31345  -2673963.53145  22968814.5954   22968814.1734
     -3331.8034
 -19410148.64646 -14326832.25146  21017019.7354   21017020.1924
     -1187.2854
 -21770424.70647 -15040210.00646  20310436.6454   20310437.0914
      -229.1524
     83030.06942                  24817124.8714
     -1608.5114
  -1135477.76043   -660893.14345  24345276.2074   24345275.8444
      3710.1524
 -16507464.56546 -12534460.49146  21347217.2514   21347215.0244
       306.7394
   3746299.68442   2744337.56645  24685942.6344   24685949.1634
     -3001.4934
 08  5 27  3  8  0.0000000  0  9G19G18G16G 6G 3G 7G32G22G21
 -17168399.63146 -13207184.07146  21286625.4274   21286624.0564
      1631.4534
 -11489740.33845   2805092.85545  23155996.5334   23155995.7724
     -1997.4314
  -8802269.05945  -2595981.26745  22987858.7394   22987859.4314
     -3339.9974
 -19374354.08746 -14298940.39046  21023831.4474   21023831.8114
     -1199.0174
 -21763337.00047 -15034687.11446  20311785.4004   20311785.9164
      -243.3654
    131487.01942     22691.44345  24826345.8294   24826340.9884
     -1621.9634
  -1246739.75543   -747590.80645  24324104.0324   24324106.8464
      3707.3024
 -16516378.46246 -12541406.37746  21345520.8934   21345518.8074
       287.5254
   3836365.88142   2814518.97945  24703081.3774   24703085.4574
     -3002.9234
 08  5 27  3  8 30.0000000  0  9G19G18G16G 6G 3G 7G32G22G21
 -17217213.94246 -13245221.18946  21277336.5014   21277334.7434
      1622.8004
 -11429600.63245   2851954.96645  23167440.3504   23167440.4904
     -2011.8954
  -8701947.58745  -2517808.71745  23006950.2604   23006949.3694
     -3348.0994
 -19338208.56046 -14270775.04346  21030709.6074   21030709.9594
     -1210.7204
 -21755823.19447 -15028832.20146  20313215.3004   20313215.8284
      -257.5554
    180346.08442     60763.42545  24835643.8344   24835641.6894
     -1635.3184
  -1357915.13143   -834220.98045  24302947.1684   24302947.6604
      3704.3754
 -16524716.57246 -12547903.60046  21343934.2804   21343932.4164
       268.3394
   3926473.24341   2884732.34345  24720227.3724   24720225.4734
     -3004.2704
 08  5 27  3  9  0.0000000  0  9G19G18G16G 6G 3G 7G32G22G21
 -17265768.01446 -13283055.53146  21268097.0254   21268095.6664
      1614.1254
 -11369028.16345   2899154.28445  23178966.8524   23178967.2034
     -2026.2634
  -8601384.95745  -2439448.21045  23026086.2244   23026086.8694
     -3356.0744
 -19301711.88846 -14242336.08246  21037654.8364   21037655.2114
     -1222.4144
 -21747883.48547 -15022645.40446  20314726.2934   20314726.7744
      -271.7664
    229604.71742     99146.71045  24845018.1784   24845020.9794
     -1648.5824
  -1469001.39142   -920781.73345  24281808.4644   24281811.8284
      3701.3094
 -16532478.88946 -12553952.14946  21342457.2094   21342455.0994
       249.1474
   4016620.61942   2954977.06945  24737381.4614   24737388.0494
     -3005.5934
 08  5 27  3  9 30.0000000  0  9G19G18G16G 6G 3G 7G32G22G21
 -17314060.78946 -13320686.25646  21258906.9594   21258905.7284
      1605.3864
 -11308025.04145   2946689.19845  23190575.9574   23190576.0394
     -2040.6244
  -8500583.09945  -2360901.32745  23045267.6004   23045268.1044
     -3364.0324
 -19264863.96146 -14213623.41446  21044666.6004   21044667.1274
     -1234.1214
 -21739517.06647 -15016126.11646  20316317.9904   20316318.5884
      -285.9864
    279260.28542    137839.25345  24854465.3494   24854465.9004
     -1661.7914
  -1579995.74942  -1007270.83145  24260687.5884   24260685.0804
      3698.2294
 -16539665.22446 -12559551.88346  21341089.6894   21341087.5914
       229.9354
   4106807.50442   3025252.55544  24754543.9694   24754543.9574
     -3006.8874
 08  5 27  3 10  0.0000000  0  9G19G18G16G 6G 3G 7G32G22G21
 -17362091.00946 -13358112.39346  21249767.4034   21249765.9034
      1596.6274
 -11246592.99445   2994558.29945  23202265.7264   23202265.9374
     -2054.8514
  -8399544.78445  -2282170.19145  23064494.6584   23064494.2014
     -3371.8664
 -19227664.88146 -14184637.12446  21051745.1944   21051745.7454
     -1245.8134
 -21730723.92347 -15009274.31546  20317991.4054   20317991.8744
      -300.2004
    329310.46542    176839.44045  24863990.3734   24863991.1354
     -1674.8644
  -1690895.72942  -1093686.36744  24239583.2554   24239583.8884
      3695.0454
 -16546275.22746 -12564702.52646  21339831.6954   21339829.7264
       210.7344
   4197032.92143   3095557.93845  24771714.6884   24771712.3914
     -3008.1414
 08  5 27  3 10 30.0000000  0  9G19G18G16G 6G 3G 7G32G22G21
 -17409857.28546 -13395332.87246  21240677.5834   21240675.8254
      1587.7954
 -11184734.03045   3042760.06945  23214037.5164   23214036.4494
     -2069.0514
  -8298272.14845  -2203256.46245  23083766.1854   23083765.9394
     -3379.6344
 -19190114.33046 -14155376.95346  21058891.0284   21058891.6844
     -1257.5584
 -21721503.76247 -15002089.77046  20319746.0574   20319746.5614
      -314.4744
    379752.84642    216145.16645  24873589.2804   24873587.8504
     -1687.8994
  -1801698.60542  -1180026.31745  24218498.3224   24218500.2444
      3691.8104
 -16552309.24946 -12569404.35146  21338683.4884   21338681.2844
       191.5284
   4287295.50641   3165892.51045  24788890.6054   24788894.3094
     -3009.3504
 08  5 27  3 11  0.0000000  0  9G19G18G16G 6G 3G 7G32G22G21
 -17457358.55046 -13432346.83946  21231638.0664   21231636.5774
      1578.9284
 -11122450.23345   3091292.91645  23225889.8464   23225890.5034
     -2083.2054
  -8196767.77845  -2124162.17245  23103081.6324   23103081.2214
     -3387.3114
 -19152212.45846 -14125843.03046  21066103.2754   21066103.8494
     -1269.2604
 -21711855.57547 -14994571.69946  20321581.8924   20321582.4784
      -328.7694
    430584.62642    255754.39345  24883261.5464   24883259.5414
     -1700.8604
  -1912401.91842  -1266288.57745  24197432.6534   24197432.8174
      3688.4264
 -16557767.00346 -12573657.13246  21337644.9314   21337643.1844
       172.3084
   4377594.24342   3236255.07145  24806073.7024   24806072.2374
     -3010.5874
 08  5 27  3 11 30.0000000  0  9G19G18G16G 6G 3G 7G32G22G21
 -17504593.64846 -13469153.40346  21222649.6834   21222648.1824
      1570.0734
 -11059743.49245   3140155.28645  23237821.9154   23237822.6544
     -2097.2514
  -8095034.22245  -2044889.29945  23122441.0804   23122442.2404
     -3394.9104
 -19113959.13046 -14096035.23446  21073382.8264   21073383.3774
     -1280.9664
 -21701779.17047 -14986719.94846  20323499.5594   20323500.0054
      -343.0014
    481803.56242    295665.30445  24893008.8894   24893007.3064
     -1713.7274
  -2023002.89642  -1352471.18445  24176384.9664   24176385.4004
      3685.0284
 -16562648.27946 -12577460.71946  21336715.8654   21336714.0014
       153.1154
   4467928.70442   3306645.42345  24823263.3964   24823263.5604
     -3011.6874
 08  5 27  3 12  0.0000000  0  8G19G18G16G 6G 3G 7G32G22
 -17551561.64046 -13505751.84546  21213712.3364   21213710.8124
      1561.1234
 -10996615.58245   3189345.86445  23249835.4944   23249833.7004
     -2111.2404
  -7993074.64045  -1965440.27545  23141844.0664   23141842.9994
     -3402.4104
 -19075354.46746 -14065953.68846  21080728.8714   21080729.4464
     -1292.6654
 -21691274.44947 -14978534.46046  20325498.3914   20325498.7554
      -357.3104
    533406.95642    335875.69745  24902827.6184   24902825.7194
     -1726.4544
  -2133499.16943  -1438572.21845  24155358.7894   24155362.6694
      3681.4424
 -16566953.27046 -12580815.25146  21335896.8884   21335895.0244
       133.8924
