     2.10           OBSERVATION DATA    G (GPS)             RINEX VERSION / TYPE
teqc  2002Mar14                         20050121 01:02:50UTCPGM / RUN BY / DATE
HP-UX 10.20|PA-RISC|cc A.10.32.03|=+|=|                     COMMENT
teqc  2002Mar14     GRD/NGS/NOAA        20050121 00:54:28UTCCOMMENT
teqc  2002Mar14     GRD/NGS/NOAA        20050120 01:02:11UTCCOMMENT
BIT 2 OF LLI FLAGS DATA COLLECTED UNDER A/S CONDITION       COMMENT
USNO                                                        MARKER NAME
40451S003                                                   MARKER NUMBER
USNO                USNO                                    OBSERVER / AGENCY
RT919994503         ASHTECH Z-XII3T     1L01-1D04           REC # / TYPE / VERS
309                 AOAD/M_T        NONE                    ANT # / TYPE
  1112189.9031 -4842955.0319  3985352.2376                  APPROX POSITION XYZ
        0.0000        0.0000        0.0000                  ANTENNA: DELTA H/E/N
     1     1                                                WAVELENGTH FACT L1/2
     7    C1    L1    L2    P1    P2    D1    D2            # / TYPES OF OBSERV
    30.0000                                                 INTERVAL
 SNR is mapped to RINEX snr flag value [1-9]                COMMENT
  L1: 1 -> 1;  90 -> 5; 210 -> 9                            COMMENT
  L2: 1 -> 1; 150 -> 5; 250 -> 9                            COMMENT
Forced Modulo Decimation to 30 seconds                      COMMENT
  2005     1    20     0     0    0.0000000     GPS         TIME OF FIRST OBS
                                                            END OF HEADER
 05  1 20  0  0  0.0000000  0 10G30G 6G17G27G 2G 8G26G29G21G10
  25128562.1364    4545549.90249   3555415.16945  25128562.4674   25128572.0884
     -2694.6624      -2099.7404
  21453377.6314  -18821415.41049 -14641666.63648  21453377.6524   21453383.0924
       957.0514        745.7544
  20636631.4414  -26210159.33049 -20402628.01248  20636630.9184   20636636.8604
      -408.5724       -318.3724
  25422813.4284    -876260.55548     -1490.04444
        54.5964         43.7264
  21945656.4674  -18794404.52949 -14605938.86647  21945656.1254   21945659.2064
     -2359.6874      -1838.7184
  25014611.6624    -968730.01649   -746502.64445  25014611.9784   25014620.4564
      1484.7814       1156.9704
  21348900.4714  -17227655.33549 -13115418.92547  21348900.4884   21348906.2674
      3206.9014       2498.8814
  20957557.7284  -22996005.41749 -17868683.97948  20957557.6194   20957563.4264
      1898.3654       1479.2414
  24252299.8924   -3196525.12049  -2237654.61945  24252299.1474   24252302.6724
      3062.2034       2386.1264
  20823923.9814  -20246470.93149 -15754394.42648  20823923.0264   20823928.7234
     -1734.9424      -1351.9034
 05  1 20  0  0 30.0000000  0 10G30G 6G17G27G 2G 8G26G29G21G10
  25143943.7494    4626385.90149   3618404.29145  25143943.3214   25143951.7164
     -2694.2904      -2099.4444
  21447964.9034  -18849859.79749 -14663831.05848  21447964.7404   21447970.4584
       938.9424        731.6344
  20638993.7034  -26197744.17149 -20392953.85048  20638993.6344   20638999.4084
      -419.1724       -326.6314
  25422542.9034    -877690.81848     -2639.37244
        40.4914         32.6874
  21959152.5244  -18723478.40049 -14550671.77347  21959152.7364   21959155.7834
     -2368.7294      -1845.7704
  25006175.7094   -1013080.15249   -781061.21245  25006175.0964   25006180.9664
      1471.9004       1146.9364
  21330633.0034  -17323651.59649 -13190221.15647  21330633.3854   21330638.7594
      3192.7784       2487.8754
  20946769.7454  -23052698.53049 -17912860.39548  20946769.6254   20946774.9974
      1881.1984       1465.8664
  24234812.1924   -3288402.16149  -2309246.95145  24234812.6744   24234819.3444
      3062.8464       2386.6284
  20833852.0714  -20194295.18649 -15713737.98848  20833851.6734   20833857.3044
     -1743.4564      -1358.5424
 05  1 20  0  1  0.0000000  0 10G30G 6G17G27G 2G 8G26G29G21G10
  25159327.3604    4707205.96849   3681381.06645  25159326.0824   25159331.8434
     -2693.6624      -2098.9634
  21442654.9974  -18877760.05749 -14685571.49148  21442655.3104   21442661.3054
       920.7884        717.4974
  20641417.4924  -26185010.00349 -20383031.10748  20641416.7324   20641422.4204
      -429.8264       -334.9294
  25422350.090

  21972701.4744  -18652281.02849 -14495193.29747  21972701.0314   21972703.6634
     -2377.7674      -1852.8104
  24997810.2244   -1057043.49349   -815318.30845  24997808.6354   24997811.8904
      1458.9824       1136.8714
  21312446.6474  -17419222.47849 -13264691.92047  21312446.5964   21312452.0364
      3178.5754       2476.8114
  20936079.9524  -23108876.56449 -17956635.44948  20936079.3374   20936084.3104
      1864.0624       1452.5154
  24217326.5464   -3380297.61749  -2380853.67145  24217325.3814   24217331.5554
      3063.4764       2387.1124
  20843829.6864  -20141864.50849 -15672882.88748  20843828.8334   20843834.6284
     -1751.9084      -1365.1224
 05  1 20  0  1 30.0000000  0  9G30G 6G17G 2G 8G26G29G21G10
  25174704.7344    4788007.24449   3744343.19045  25174703.1574   25174710.6634
     -2693.0334      -2098.4654
  21437451.1684  -18905115.12149 -14706887.09348  21437450.3964   21437455.8114
       902.5984        703.3224
  20643901.3154  -26171955.85349 -20372859.03148  20643900.6494   20643906.9254
      -440.4804       -343.2344
  21986299.9444  -18580813.20049 -14439504.08947  21986300.2784   21986303.9624
     -2386.7724      -1859.8234
  24989518.1184   -1100617.63349   -849272.19245  24989518.0374   24989522.4094
      1445.9484       1126.7194
  21294341.2904  -17514364.80549 -13338828.74147  21294341.4714   21294347.0244
      3164.2284       2465.6244
  20925487.6564  -23164538.08449 -18000008.03348  20925487.8344   20925492.5754
      1846.7734       1439.0394
  24199835.0654   -3472210.24849  -2452473.81045  24199836.2154   24199841.0304
      3064.0244       2387.5524
  20853854.8404  -20089180.27949 -15631830.23048  20853854.2144   20853860.0764
     -1760.3404      -1371.7014
 05  1 20  0  2  0.0000000  0  9G30G 6G17G 2G 8G26G29G21G10
  25190072.7374    4868786.93849   3807288.42345  25190072.9564   25190080.2984
     -2692.1854      -2097.8094
  21432348.9774  -18931924.02549 -14727777.12548  21432348.7364   21432354.2404
       884.3914        689.1404
  20646446.9574  -26158581.04149 -20362437.09048  20646446.3214   20646451.8964
      -451.2014       -351.5864
  21999951.7424  -18509075.20349 -14383604.34847  21999951.5334   21999955.8124
     -2395.7564      -1866.8234
  24981301.6494   -1143800.55549   -882921.24945  24981300.9274   24981306.1804
      1432.8924       1116.5394
  21276318.3334  -17609075.53849 -13412629.25647  21276318.6784   21276323.8144
      3149.7874       2454.3804
  20914994.3994  -23219681.18949 -18042976.64948  20914994.0954   20914998.9414
      1829.5034       1425.5864
  24182343.6274   -3564139.35149  -2524106.80045  24182342.7274   24182347.3334
      3064.5824       2387.9824
  20863929.0634  -20036244.37349 -15590581.45948  20863927.7424   20863933.0844
     -1768.6984      -1378.2074
 05  1 20  0  2 30.0000000  0  9G30G 6G17G 2G 8G26G29G21G10
  25205441.3774    4949542.18649   3870214.61345  25205439.9744   25205447.6374
     -2691.4474      -2097.2304
  21427351.0734  -18958185.44149 -14748240.53448  21427351.1054   21427356.5594
       866.1114        674.8854
  20649052.6334  -26144884.58749 -20351764.51848  20649052.0884   20649057.9254
      -461.9494       -359.9624
  22013655.4084  -18437067.25249 -14327494.27147  22013654.7224   22013658.2594
     -2404.7744      -1873.8524
  24973157.6574   -1186589.31949   -916263.07245  24973156.5824   24973162.1274
      1419.6764       1106.2394
  21258378.6264  -17703351.62549 -13486091.09747  21258378.3414   21258383.9074
      3135.2504       2443.0504
  20904600.1264  -23274304.28349 -18085540.06348  20904599.4684   20904604.4544
      1812.1394       1412.0534
  24164846.7984   -3656084.19949  -2595751.99245  24164845.5664   24164850.3194
      3065.0744       2388.3654
  20874049.3424  -19983058.48849 -15549137.89848  20874048.7904   20874054.5494
     -1777.0284      -1384.6964
 05  1 20  0  3  0.0000000  0  9G30G 6G17G 2G 8G26G29G21G10
  25220802.6194    5030270.05949   3933119.47445  25220800.6164   25220810.6214
     -2690.3364      -2096.3764
  21422458.4034  -18983898.46749 -14768276.62648  21422458.3094   21422463.5664
       847.8044        660.6254
  20651720.3964  -26130865.72349 -20340840.71748  20651720.1124   20651725.3384
      -472.7214       -368.3594
  22027408.9624  -18364789.96749 -14271174.32447  22027408.8874   22027411.8954
     -2413.7294      -1880.8204
  24965089.4714   -1228982.00449   -949296.29745  24965089.5334   24965094.8654
      1406.4584       1095.9414
  21240520.3624  -17797190.10749 -13559211.92947  21240521.1974   21240527.4544
      3120.6394       2431.6564
  20894304.2164  -23328405.94949 -18127697.17048  20894304.2014   20894309.3714
      1794.6894       1398.4534
  24147348.2894   -3748043.81849  -2667408.73345  24147347.2594   24147352.4984
      3065.4994       2388.6994
  20884217.6824  -19929624.31349 -15507500.86348  20884217.0604   20884222.7554
     -1785.2694      -1391.1234
 05  1 20  0  3 30.0000000  0  8G 6G17G 2G 8G26G29G21G10
  21417669.9294  -19009062.10749 -14787884.62748  21417670.0394   21417675.1894
       829.4754        646.3434
  20654450.1834  -26116523.47949 -20329664.93048  20654449.3944   20654454.8554
      -483.4974       -376.7534
  22041214.6734  -18292243.95949 -14214644.94947  22041213.8874   22041217.3804
     -2422.6924      -1887.8144
  24957099.6524   -1270976.21849   -982019.02645  24957099.0394   24957103.4834
      1393.2094       1085.6204
  21222748.5304  -17890587.78649 -13631989.29647  21222748.4084   21222753.5354
      3105.8644       2420.1554
  20884109.2094  -23381984.46649 -18169446.63848  20884108.6384   20884113.6044
      1777.2414       1384.8604
  24129843.2834   -3840017.29549  -2739076.24545  24129843.2794   24129849.4554
      3065.9414       2389.0404
  20894432.6974  -19875943.56449 -15465671.68648  20894432.2314   20894437.6834
     -1793.4614      -1397.5014
 05  1 20  0  4  0.0000000  0  8G 6G17G 2G 8G26G29G21G10
  21412986.6064  -19033675.24949 -14807063.66848  21412985.9944   21412991.2974
       811.0984        632.0224
  20657239.9504  -26101856.97449 -20318236.46948  20657239.6674   20657246.1164
      -494.3374       -385.1974
  22055070.8174  -18219429.42449 -14157906.35647  22055070.6064   22055073.1064
     -2431.6274      -1894.7734
  24949184.7934   -1312569.15949  -1014429.07945  24949184.0874   24949190.1954
      1379.6294       1075.0344
  21205060.2124  -17983541.87849 -13704421.01147  21205060.2804   21205065.6294
      3091.0234       2408.5834
  20874012.5184  -23435038.35849 -18210787.29648  20874012.5924   20874018.1114
      1759.7414       1371.2224
  24112340.2534   -3932003.63749  -2810753.81345  24112340.2014   24112344.7104
      3066.3984       2389.3964
  20904694.3144  -19822017.56649 -15423651.40848  20904693.5664   20904699.5904
     -1801.6184      -1403.8604
 05  1 20  0  4 30.0000000  0  9G18G 6G17G 2G 8G26G29G21G10
  25402857.2904    -346075.98649   -251487.40745  25402860.7434   25402870.9874
      2921.4434       2276.4394
  21408406.9384  -19057736.72649 -14825812.83748  21408407.0394   21408412.3914
       792.7094        617.6894
  20660093.5194  -26086865.15149 -20306554.51948  20660092.8294   20660098.6274
      -505.1674       -393.6404
  22068978.1134  -18146346.97649 -14100958.99447  22068977.8254   22068980.5214
     -2440.5474      -1901.7314
  24941347.2074   -1353759.08449  -1046525.09645  24941346.0564   24941351.4384
      1366.2844       1064.6384
  21187456.9634  -18076049.19749 -13776504.58447  21187456.8644   21187461.8254
      3076.1184       2396.9714
  20864017.0914  -23487565.92149 -18251717.83148  20864017.1594   20864022.0944
      1742.1814       1357.5424
  24094832.1314   -4024001.95949  -2882440.69545  24094833.5014   24094837.5724
      3066.7354       2389.6564
  20915002.4634  -19767848.16349 -15381441.47248  20915002.0004   20915007.1994
     -1809.6694      -1410.1384
 05  1 20  0  5  0.0000000  0  9G18G 6G17G 2G 8G26G29G21G10
  25386194.3774    -433672.77349   -319744.48445  25386194.2904   25386202.8694
      2918.3054       2273.9934
  21403933.8324  -19081245.88749 -14844131.63048  21403933.3564   21403938.7034
       774.3144        603.3604
  20663008.3634  -26071547.45449 -20294618.63548  20663007.6274   20663013.8114
      -516.0634       -402.1294
  22082935.4174  -18072997.20549 -14043803.31147  22082935.3014   22082939.1794
     -2449.4294      -1908.6474
  24933584.2534   -1394543.94749  -1078305.52245  24933583.5704   24933589.5534
      1352.7844       1054.1164
  21169938.5564  -18168106.84749 -13848237.76547  21169938.6694   21169943.5374
      3061.0584       2385.2354
  20854121.5804  -23539565.62249 -18292237.04548  20854122.0134   20854126.9894
      1724.5224       1343.7784
  24077324.2904   -4116011.08249  -2954136.01745  24077324.2834   24077329.9494
      3067.1604       2389.9834
  20925356.1964  -19713437.15149 -15339043.25748  20925355.4594   20925361.5154
     -1817.7064      -1416.3954
 05  1 20  0  5 30.0000000  0  9G18G 6G17G 2G 8G26G29G21G10
  25369546.0834    -521175.75049   -387928.40545  25369541.8814   25369551.8354
      2915.2364       2271.5994
  21399565.4144  -19104201.44549 -14862019.05448  21399565.1394   21399570.4694
       755.8284        588.9574
  20665985.2524  -26055903.08449 -20282428.20548  20665984.5924   20665990.6634
      -526.9704       -410.6284
  22096943.2944  -17999380.51149 -13986439.67447  22096943.7364   22096946.4344
     -2458.3304      -1915.5824
  24925900.9084   -1434920.70849  -1109767.88845  24925901.1974   24925905.2624
      1339.0924       1043.4494
  21152506.8594  -18259711.73249 -13919618.14947  21152506.3124   21152511.8154
      3045.9264       2373.4464
  20844327.5394  -23591036.02149 -18332343.81848  20844327.1644   20844332.4094
      1706.8634       1330.0224
  24059816.3904   -4208030.24849  -3025839.13845  24059813.9024   24059818.3354
      3067.4064       2390.1884
  20935756.6374  -19658786.27949 -15296458.15348  20935755.6834   20935761.1664
     -1825.6734      -1422.6024
 05  1 20  0  6  0.0000000  0  9G18G 6G17G 2G 8G26G29G21G10
  25352911.0734    -608584.24349   -456038.67245  25352909.9854   25352919.9274
      2912.0434       2269.1184
  21395302.1304  -19126602.61649 -14879474.48148  21395301.9884   21395307.7164
       737.3314        574.5424
  20669024.8044  -26039930.87349 -20269982.31648  20669024.1004   20669029.9364
      -537.9024       -419.1474
  22111003.8644  -17925497.43149 -13928868.46347  22111003.7134   22111007.1674
     -2467.2014      -1922.4904
  24918298.2954   -1474887.61249  -1140910.94945  24918296.7764   24918301.8144
      1325.3904       1032.7704
  21135160.3274  -18350861.01749 -13990643.51247  21135160.9384   21135166.4074
      3030.6954       2361.5784
  20834633.5524  -23641975.67849 -18372037.03048  20834633.6134   20834638.8544
      1689.1744       1316.2394
  24042301.6234   -4300058.67549  -3097549.48345  24042300.8024   24042306.0584
      3067.7414       2390.4404
  20946201.3264  -19603896.98049 -15253687.25248  20946200.4894   20946206.2274
     -1833.6024      -1428.7834
 05  1 20  0  6 30.0000000  0  9G18G 6G17G 2G 8G26G29G21G10
  25336296.7684    -695897.63749   -524074.94745  25336296.4064   25336303.4714
      2908.7984       2266.5944
  21391145.4794  -19148448.40249 -14896497.13948  21391145.0764   21391150.7074
       718.7804        560.0884
  20672126.0054  -26023630.35649 -20257280.60048  20672125.6564   20672131.8794
      -548.8494       -427.6774
  22125114.4274  -17851348.55449 -13871090.13347  22125114.1474   22125116.4464
     -2476.0714      -1929.4034
  24910766.2514   -1514442.26348  -1171732.70445  24910767.0464   24910773.8614
      1311.5314       1021.9694
  21117903.6694  -18441551.78549 -14061311.60347  21117903.3064   21117908.3574
      3015.3554       2349.6274
  20825042.2464  -23692383.00149 -18411315.43148  20825041.8854   20825046.6964
      1671.3854       1302.3754
  24024788.2454   -4392095.04549  -3169265.99845  24024786.3934   24024791.1804
      3067.9244       2390.5864
  20956691.5204  -19548771.08349 -15210731.98448  20956690.5734   20956696.2294
     -1841.4574      -1434.9024
 05  1 20  0  7  0.0000000  0  9G18G 6G17G 2G 8G26G29G21G10
  25319700.1754    -783115.13449   -592036.48245  25319699.8214   25319705.9324
      2905.6514       2264.1414
  21387093.1714  -19169737.93749 -14913086.35848  21387093.4614   21387099.4594
       700.2104        545.6134
  20675291.3084  -26007000.42149 -20244322.19748  20675290.6724   20675296.7044
      -559.8544       -436.2524
  22139274.0464  -17776934.24349 -13813104.98147  22139274.3014   22139277.9524
     -2484.9134      -1936.3014
  24903323.6674   -1553582.29449  -1202231.42245  24903323.0134   24903327.1614
      1297.7354       1011.2264
  21100733.7284  -18531780.85749 -14131619.91647  21100733.4204   21100738.9264
      2999.9184       2337.5924
  20815551.3864  -23742256.67449 -18450178.00948  20815550.8424   20815556.1244
      1653.6014       1288.5164
  24007271.8714   -4484138.19149  -3240987.81645  24007271.7784   24007276.8404
      3068.1884       2390.7854
  20967226.0294  -19493410.06049 -15167593.50848  20967225.2244   20967231.0364
     -1849.2694      -1440.9944
 05  1 20  0  7 30.0000000  0  9G18G 6G17G 2G 8G26G29G21G10
  25303120.8504    -870236.66249   -659923.24145  25303119.3534   25303126.6394
      2902.5024       2261.6844
  21383148.9264  -19190470.35349 -14929241.44948  21383148.3654   21383154.1504
       681.6604        531.1644
  20678518.3594  -25990040.26949 -20231106.48148  20678518.1754   20678523.7734
      -570.8764       -444.8404
  22153485.6674  -17702255.02349 -13754913.37747  22153485.3714   22153488.2874
     -2493.7154      -1943.1554
  24895951.5304   -1592306.05149  -1232405.75945  24895951.1774   24895956.7504
      1283.8204       1000.3834
  21083651.0564  -18621545.42749 -14201566.29247  21083651.7754   21083657.0494
      2984.3744       2325.4884
  20806162.1014  -23791595.35049 -18488623.70348  20806161.9424   20806167.0024
      1635.7244       1274.5904
  23989754.2844   -4576187.49849  -3312714.43645  23989754.5204   23989760.5494
      3068.3814       2390.9444
  20977805.6064  -19437815.62149 -15124273.15048  20977804.7624   20977810.5334
     -1857.0004      -1447.0104
 05  1 20  0  8  0.0000000  0  9G18G 6G17G 2G 8G26G29G21G10
  25286559.6674    -957261.65049   -727734.83545  25286560.9914   25286565.2374
      2899.2344       2259.1414
  21379308.9444  -19210644.84949 -14944961.81148  21379309.0644   21379315.0694
       663.0224        516.6404
  20681808.8964  -25972749.05649 -20217632.79748  20681808.3224   20681814.4054
      -581.9414       -453.4604
  22167746.6784  -17627311.37249 -13696515.72347  22167746.4264   22167749.8574
     -2502.5384      -1950.0324
  24888659.4504   -1630610.99849  -1262253.77245  24888659.3864   24888667.9924
      1269.8054        989.4554
  21066658.8334  -18710842.43049 -14271148.32047  21066658.8074   21066664.4214
      2968.7364       2313.2934
  20796875.1704  -23840397.48249 -18526651.31248  20796875.0524   20796880.3914
      1617.7914       1260.6144
  23972238.7734   -4668241.71449  -3384444.84745  23972237.2604   23972242.7664
      3068.5114       2391.0424
  20988428.6214  -19381989.46549 -15080772.22748  20988427.9194   20988433.6234
     -1864.7244      -1453.0294
 05  1 20  0  8 30.0000000  0  9G18G 6G17G 2G 8G26G29G21G10
  25270014.6584   -1044189.74249   -795470.90245  25270015.0884   25270020.8494
      2896.0054       2256.6214
  21375577.4534  -19230260.56549 -14960246.75348  21375576.7094   21375582.2224
       644.3984        502.1304
  20685162.5784  -25955125.93349 -20203900.48248  20685161.9524   20685167.3864
      -593.0244       -462.1004
  22182059.4314  -17552103.82849 -13637912.43847  22182058.2424   22182060.9024
     -2511.3194      -1956.8674
  24881454.4154   -1668494.77849  -1291773.59645  24881452.8124   24881459.4504
      1255.7394        978.5024
  21049755.3984  -18799669.18049 -14340363.92047  21049755.7984   21049760.8674
      2953.0104       2301.0464
  20787691.1054  -23888661.65249 -18564259.72848  20787690.9014   20787695.4794
      1599.8384       1246.6244
  23954719.0804   -4760300.04649  -3456178.50945  23954719.8704   23954725.6894
      3068.6324       2391.1404
  20999095.9744  -19325933.08349 -15037091.91448  20999095.4374   20999100.6354
     -1872.3634      -1458.9834
 05  1 20  0  9  0.0000000  0  9G18G 6G17G 2G 8G26G29G21G10
  25253492.9954   -1131020.22349   -863130.83945  25253492.2684   25253500.5334
      2892.7394       2254.0784
  21371950.5524  -19249316.63349 -14975095.61548  21371950.7844   21371955.8084
       625.7304        487.5834
  20688579.1704  -25937170.16749 -20189908.96048  20688578.8204   20688584.7794
      -604.1114       -470.7334
  22196419.9394  -17476632.90849 -13579103.92547  22196419.9654   22196423.2384
     -2520.0784      -1963.6934
  24874326.5984   -1705955.41049  -1320963.67145  24874326.5024   24874327.1374
      1241.6244        967.4954
  21032942.7874  -18888022.71749 -14409210.79247  21032942.9834   21032947.8474
      2937.1814       2288.7104
  20778609.1344  -23936386.64049 -18601447.99948  20778608.9694   20778614.2734
      1581.8434       1232.6004
  23937200.5424   -4852361.29249  -3527914.42945  23937200.8244   23937205.3134
      3068.7994       2391.2604
  21009806.6544  -19269648.16349 -14993233.51348  21009805.7644   21009811.7904
     -1879.9724      -1464.9124
 05  1 20  0  9 30.0000000  0  9G18G 6G17G 2G 8G26G29G21G10
  25236987.3924   -1217752.81849   -930714.49845  25236988.3324   25236995.7934
      2889.4554       2251.5194
  21368431.1624  -19267812.20449 -14989507.72748  21368431.1174   21368436.3854
       607.0234        473.0084
  20692060.1174  -25918880.88449 -20175657.55948  20692059.2334   20692064.8344
      -615.2464       -479.4094
  22210830.9204  -17400899.33049 -13520090.74647  22210831.0334   22210834.3864
     -2528.8214      -1970.5054
  24867279.5034   -1742990.84949  -1349822.37045  24867277.9964   24867282.6774
      1227.3794        956.3994
  21016220.0454  -18975900.06549 -14477686.59847  21016220.0314   21016225.0064
      2921.2794       2276.3264
  20769630.6344  -23983570.97449 -18638214.98948  20769630.5604   20769635.0574
      1563.7964       1218.5424
  23919682.3604   -4944424.34149  -3599651.80145  23919682.1854   23919685.7744
      3068.7704       2391.2474
  21020560.4134  -19213136.13149 -14949198.15248  21020559.4784   21020565.1604
     -1887.5034      -1470.7794
 05  1 20  0 10  0.0000000  0  9G18G 6G17G 2G 8G26G29G21G10
  25220501.4604   -1304387.05849   -998221.54145  25220499.2334   25220506.2164
      2886.1484       2248.9384
  21365017.6964  -19285746.64549 -15003482.58648  21365017.9574   21365023.6024
       588.3284        458.4344
  20695603.7694  -25900257.27349 -20161145.64348  20695603.2644   20695608.7614
      -626.4004       -488.1064
  22225292.8704  -17324903.73749 -13460873.40147  22225292.6504   22225295.5284
     -2537.5564      -1977.3174
  24860310.8604   -1779598.66249  -1378347.97345  24860311.6204   24860317.0954
      1213.1164        945.2844
  20999588.5054  -19063298.45549 -14545789.19047  20999588.6454   20999594.3044
      2905.2654       2263.8424
  20760754.5904  -24030213.46549 -18674559.75148  20760754.5604   20760759.3024
      1545.7574       1204.4864
  23902161.6134   -5036488.63549  -3671390.07845  23902161.6164   23902167.0474
      3068.8234       2391.2934
  21031357.1884  -19156398.93949 -14904987.33248  21031356.7774   21031361.9524
     -1894.9704      -1476.6014
 05  1 20  0 10 30.0000000  0  9G18G 6G17G 2G 8G26G29G21G10
  25204035.1184   -1390922.19549  -1065651.29645  25204037.0344   25204040.1514
      2882.8694       2246.3764
  21361712.8724  -19303119.23249 -15017019.63648  21361711.8814   21361717.8254
       569.5744        443.8274
  20699211.4114  -25881298.55649 -20146372.60848  20699210.7744   20699216.6094
      -637.5754       -496.8104
  22239805.7214  -17248646.39249 -13401452.10347  22239804.2774   22239807.4264
     -2546.2464      -1984.0894
  24853429.1814   -1815776.85849  -1406538.73145  24853427.0254   24853431.5554
      1198.7594        934.1024
  20983049.0694  -19150214.92949 -14613516.26447  20983049.0994   20983054.0684
      2889.1624       2251.2984
  20751982.0624  -24076312.71849 -18710481.22448  20751982.0524   20751987.1724
      1527.6134       1190.3494
  23884645.3064   -5128552.73049  -3743128.26145  23884643.5624   23884646.7674
      3068.7924       2391.2754
  21042197.0844  -19099438.02349 -14860602.18548  21042195.9404   21042201.2674
     -1902.3934      -1482.3854
 05  1 20  0 11  0.0000000  0  9G18G 6G17G 2G 8G26G29G21G10
  25187585.6024   -1477358.09349  -1133003.76145  25187585.9774   25187592.2634
      2879.5084       2243.7594
  21358513.0974  -19319929.19649 -15030118.27548  21358513.3574   21358518.9414
       550.7954        429.1904
  20702883.1624  -25862003.87849 -20131337.77848  20702882.4014   20702888.2104
      -648.8014       -505.5544
  22254365.4534  -17172128.02949 -13341827.41547  22254364.9554   22254368.4594
     -2555.0024      -1990.9024
  24846624.3784   -1851523.42349  -1434393.17945  24846622.8614   24846630.4874
      1184.3164        922.8414
  20966601.5764  -19236646.83849 -14680865.74547  20966601.8624   20966606.4694
      2872.9404       2238.6554
  20743313.2134  -24121867.53649 -18745978.45048  20743312.9694   20743318.3744
      1509.4544       1176.1964
  23867125.5984   -5220615.64749  -3814865.52646  23867124.7554   23867127.8504
      3068.7584       2391.2274
  21053078.5224  -19042255.09049 -14816044.03948  21053077.4454   21053082.7574
     -1909.7984      -1488.1564
 05  1 20  0 11 30.0000000  0  9G18G 6G17G 2G 8G26G29G21G10
  25171159.1154   -1563694.23649  -1200278.40545  25171157.4314   25171165.6984
      2876.1984       2241.1814
  21355422.4864  -19336175.70849 -15042777.86448  21355421.8454   21355427.0294
       531.9994        414.5474
  20706618.4364  -25842372.66249 -20116040.71748  20706617.7804   20706623.7024
      -660.0334       -514.3104
  22268975.6404  -17095349.09449 -13281999.67647  22268975.4004   22268978.9914
     -2563.6464      -1997.6474
  24839902.5134   -1886836.48549  -1461909.81545  24839903.8024   24839909.4614
      1169.9064        911.6194
  20950246.8524  -19322591.22649 -14747835.35247  20950247.0684   20950251.9874
      2856.6574       2225.9664
  20734748.4154  -24166876.48049 -18781050.32948  20734748.2944   20734753.2994
      1491.2014       1161.9764
  23849606.5584   -5312676.37649  -3886601.07446  23849605.4144   23849610.6614
      3068.6474       2391.1534
  21064001.2154  -18984851.65549 -14771314.07248  21064001.0324   21064006.5134
     -1917.1064      -1493.8484
 05  1 20  0 12  0.0000000  0  9G18G 6G17G 2G 8G26G29G21G10
  25154748.8104   -1649930.13849  -1267474.98745  25154748.4254   25154756.5454
      2872.9364       2238.6464
  21352438.0924  -19351858.22049 -15054997.98748  21352437.6104   21352442.4954
       513.2094        399.9054
  20710418.3194  -25822403.80649 -20100480.55448  20710417.9604   20710424.0074
      -671.2684       -523.0624
  22283635.9164  -17018310.37149 -13221969.50947  22283635.6634   22283639.0434
     -2572.3234      -2004.4084
  24833268.1134   -1921713.62549  -1489086.85045  24833267.5664   24833272.6144
      1155.3184        900.2544
  20933985.2104  -19408045.29649 -14814422.89347  20933985.0614   20933990.8564
      2840.2504       2213.1804
  20726287.7814  -24211338.62549 -18815696.12348  20726287.6184   20726292.4884
      1472.9564       1147.7594
  23832089.2974   -5404733.69549  -3958333.97946  23832088.6054   23832092.6834
      3068.4764       2391.0184
  21074967.0644  -18927229.47749 -14726413.65548  21074965.9954   21074971.5304
     -1924.3664      -1499.5014
 05  1 20  0 12 30.0000000  0  9G18G 6G17G 2G 8G26G29G21G10
  25138358.5294   -1736065.81649  -1334593.49945  25138357.2614   25138363.1194
      2869.5004       2235.9664
  21349560.3804  -19366975.98249 -15066778.02648  21349560.4324   21349565.6934
       494.3814        385.2294
  20714283.2244  -25802096.73649 -20084656.85048  20714282.6834   20714288.5734
      -682.5684       -531.8694
  22298345.9114  -16941012.21449 -13161737.18947  22298345.1274   22298348.2264
     -2580.9154      -2011.1024
  24826713.3614   -1956153.18149  -1515922.82245  24826711.8154   24826715.2524
      1140.7434        888.8844
  20917817.2764  -19493006.25349 -14880626.18347  20917817.4974   20917823.2334
      2823.7954       2200.3574
  20717930.6604  -24255252.55849 -18849914.74048  20717930.5754   20717935.5184
      1454.7094       1133.5344
  23814570.5664   -5496786.45049  -4030063.32246  23814570.7784   23814576.3724
      3068.3534       2390.9214
  21085973.3214  -18869389.83849 -14681343.78948  21085972.4184   21085978.2084
     -1931.5694      -1505.1194
 05  1 20  0 13  0.0000000  0  9G18G 6G17G 2G 8G26G29G21G10
  25121984.4664   -1822100.32149  -1401633.11445  25121984.6104   25121990.9534
      2866.1854       2233.3834
  21346791.4574  -19381528.42849 -15078117.57448  21346791.3564   21346796.7114
       475.5254        370.5374
  20718211.6694  -25781450.58949 -20068568.93248  20718211.3324   20718217.1454
      -693.8764       -540.6814
  22313104.1254  -16863455.24649 -13101303.20547  22313103.5444   22313106.2774
     -2589.5544      -2017.8314
  24820244.3004   -1990152.61149  -1542415.85445  24820244.2204   24820249.6414
      1125.9494        877.3614
  20901743.9204  -19577471.29449 -14946443.04747  20901744.2614   20901749.9614
      2807.2064       2187.4334
  20709679.0794  -24298617.24149 -18883705.37548  20709679.0404   20709683.7394
      1436.3944       1119.2704
  23797055.6424   -5588833.64349  -4101788.37246  23797054.6494   23797058.3834
      3068.1574       2390.7734
  21097021.5084  -18811334.55949 -14636105.89548  21097020.1934   21097025.8524
     -1938.7524      -1510.7164
 05  1 20  0 13 30.0000000  0  9G18G 6G17G 2G 8G26G29G21G10
  25105631.8074   -1908033.24949  -1468593.64645  25105631.1444   25105637.6974
      2862.7424       2230.7024
  21344128.8444  -19395514.97449 -15089016.14748  21344129.2614   21344135.1534
       456.6264        355.8144
  20722204.9964  -25760464.62249 -20052216.21748  20722204.5484   20722210.4314
      -705.2574       -549.5504
  22327910.7664  -16785640.14649 -13040668.03747  22327911.1434   22327914.2474
     -2598.1394      -2024.5194
  24813858.1674   -2023710.21149  -1568564.64445  24813856.9754   24813863.4414
      1111.1824        865.8604
  20885766.2284  -19661437.75249 -15011871.40848  20885766.2874   20885771.1524
      2790.5214       2174.4274
  20701531.4084  -24341431.60949 -18917067.19048  20701531.4224   20701536.4894
      1417.9844       1104.9214
  23779542.7594   -5680874.24049  -4173508.25246  23779540.2634   23779544.9224
      3067.8944       2390.5744
  21108108.6754  -18753065.18349 -14590701.17448  21108108.2804   21108113.6614
     -1945.8614      -1516.2514
 05  1 20  0 14  0.0000000  0  9G18G 6G17G 2G 8G26G29G21G10
  25089302.0954   -1993864.23649  -1535474.67145  25089299.7214   25089305.4974
      2859.3114       2228.0264
  21341576.2324  -19408935.00149 -15099473.28548  21341576.1824   21341581.4944
       437.7424        341.1044
  20726263.7104  -25739137.94549 -20035598.02148  20726263.1294   20726268.9604
      -716.5824       -558.3734
  22342768.6614  -16707567.55549 -12979832.26447  22342768.3364   22342771.6794
     -2606.7054      -2031.1964
  24807556.0744   -2056823.59849  -1594367.25545  24807556.9014   24807563.2094
      1096.3164        854.2764
  20869883.9204  -19744902.74849 -15076909.02348  20869883.8434   20869888.5834
      2773.7574       2161.3744
  20693489.4344  -24383694.21349 -18949999.06948  20693489.0404   20693494.1224
      1399.5754       1090.5834
  23762026.1804   -5772906.84049  -4245221.88846  23762026.5044   23762031.5654
      3067.6084       2390.3504
  21119238.6674  -18694583.20949 -14545130.78848  21119237.5444   21119242.8964
     -1952.9224      -1521.7594
 05  1 20  0 14 30.0000000  0  9G18G 6G17G 2G 8G26G29G21G10
  25072985.0454   -2079592.85549  -1602275.96745  25072983.2624   25072991.8694
      2855.8904       2225.3714
  21339130.3404  -19421787.95249 -15109488.54148  21339130.0074   21339135.2554
       418.8274        326.3594
  20730386.7994  -25717470.12349 -20018713.98648  20730386.1834   20730392.0314
      -727.9844       -567.2634
  22357674.8744  -16629237.85549 -12918796.14647  22357674.2084   22357676.4844
     -2615.2564      -2037.8624
  24801340.6554   -2089491.27949  -1619822.62045  24801340.0784   24801343.9614
      1081.4684        842.7024
  20854096.6034  -19827863.61549 -15141553.80448  20854096.3944   20854101.4074
      2756.8934       2148.2284
  20685551.6994  -24425404.06349 -18982500.22248  20685551.6534   20685556.8974
      1381.0944       1076.1774
  23744515.9694   -5864930.65649  -4316928.73046  23744514.8764   23744518.7054
      3067.2964       2390.0974
  21130406.5654  -18635890.21349 -14499395.97248  21130405.9664   21130411.4374
     -1959.9634      -1527.2444
 05  1 20  0 15  0.0000000  0  9G18G 6G17G 2G 8G26G29G21G10
  25056687.8734   -2165218.52149  -1668997.15745  25056689.0214   25056696.6394
      2852.4324       2222.6694
  21336791.9424  -19434073.23349 -15119061.45948  21336792.1424   21336797.7104
       399.8754        311.5884
  20734575.1034  -25695459.95549 -20001563.19348  20734574.6674   20734580.4874
      -739.4144       -576.1704
  22372629.3974  -16550651.71649 -12857560.20247  22372628.8174   22372630.9304
     -2623.8064      -2044.5294
  24795210.0884   -2121710.63649  -1644928.58445  24795210.5444   24795214.4904
      1066.4684        831.0124
  20838405.5214  -19910317.66949 -15205803.66848  20838406.0904   20838411.0174
      2739.9814       2135.0494
  20677720.8144  -24466560.00749 -19014569.76048  20677720.2524   20677725.0624
      1362.6674       1061.8214
  23727004.5854   -5956944.76549  -4388627.94246  23727004.3494   23727009.9404
      3067.0324       2389.8834
  21141616.1594  -18576987.57649 -14453497.79348  21141614.6654   21141620.5954
     -1966.9054      -1532.6524
 05  1 20  0 15 30.0000000  0  9G18G 6G17G 2G 8G26G29G21G10
  25040414.5794   -2250741.17749  -1735637.99545  25040413.9764   25040421.1784
      2849.0444       2220.0234
  21334562.3384  -19445790.27149 -15128191.59148  21334562.3034   21334567.8064
       380.9524        296.8454
  20738828.9954  -25673106.96249 -19984145.26348  20738828.2714   20738834.1554
      -750.8564       -585.0814
  22387632.0754  -16471809.89849 -12796125.01847  22387631.7734   22387633.8644
     -2632.3444      -2051.1694
  24789164.1044   -2153480.49549  -1669684.29545  24789164.1794   24789169.4924
      1051.4534        819.3144
  20822812.0834  -19992262.09849 -15269656.42748  20822812.2594   20822817.3084
      2722.9494       2121.7774
  20669993.9244  -24507161.31349 -19046207.11248  20669994.1304   20669999.0064
      1344.1244       1047.3704
  23709498.3734   -6048947.52049  -4460318.33946  23709498.1504   23709501.7994
      3066.5924       2389.5594
  21152864.3064  -18517876.92349 -14407437.53148  21152863.2154   21152868.6974
     -1973.8044      -1538.0254
 05  1 20  0 16  0.0000000  0  9G18G 6G17G 2G 8G26G29G21G10
  25024163.3144   -2336160.12649  -1802198.02945  25024161.5714   25024166.5784
      2845.5594       2217.3124
  21332441.5634  -19456938.65649 -15136878.62248  21332441.1724   21332446.3584
       361.9834        282.0654
  20743147.8324  -25650410.44749 -19966459.65248  20743147.3744   20743153.4544
      -762.3264       -594.0194
  22402683.7364  -16392712.89449 -12734490.99447  22402683.2074   22402686.3194
     -2640.7924      -2057.7674
  24783204.8304   -2184798.71849  -1694088.12545  24783204.7924   24783208.6424
      1036.4704        807.6354
  20807316.3654  -20073694.34749 -15333110.07648  20807316.1994   20807321.6614
      2705.8364       2108.4474
  20662373.3624  -24547206.56049 -19077411.17348  20662373.4514   20662378.5544
      1325.5784       1032.9194
  23691993.1554   -6140938.04549  -4531999.20546  23691992.4674   23691996.1724
      3066.1814       2389.2284
  21164151.5294  -18458560.11849 -14361216.62648  21164150.6344   21164156.2544
     -1980.6494      -1543.3604
 05  1 20  0 16 30.0000000  0  9G18G 6G17G 2G 8G26G29G21G10
  25007925.9604   -2421474.83249  -1868676.82545  25007926.5674   25007931.3314
      2842.1354       2214.6454
  21330427.6404  -19467517.94449 -15145122.20748  21330427.9374   21330433.0424
       343.0254        267.2964
  20747532.0774  -25627369.56049 -19948505.70448  20747531.5664   20747537.4304
      -773.8084       -602.9654
  22417782.7434  -16313361.29849 -12672658.59947  22417782.3844   22417785.8894
     -2649.3144      -2064.3984
  24777331.6294   -2215662.98749  -1718138.16645  24777330.4404   24777336.5314
      1021.2704        795.7934
  20791917.4964  -20154611.69449 -15396162.51348  20791917.7654   20791923.6854
      2688.6324       2095.0394
  20654859.4794  -24586694.84449 -19108181.24148  20654859.1464   20654864.0874
      1306.9974       1018.4404
  23674490.4654   -6232914.84249  -4603669.38646  23674488.6104   23674493.8324
      3065.6294       2388.7984
  21175478.0434  -18399038.55549 -14314836.17048  21175476.9864   21175482.8414
     -1987.4634      -1548.6684
 05  1 20  0 17  0.0000000  0  9G18G 6G17G 2G 8G26G29G21G10
  24991711.8124   -2506685.24649  -1935074.43845  24991710.0794   24991716.1944
      2838.6434       2211.9294
  21328522.7124  -19477527.62149 -15152921.92448  21328523.0454   21328528.3994
       324.0294        252.4924
  20751982.8734  -25603983.44349 -19930282.74748  20751982.1374   20751987.7784
      -785.3334       -611.9464
  22432932.1424  -16233755.81249 -12610628.35447  22432930.7774   22432934.6134
     -2657.7644      -2070.9884
  24771543.5414   -2246072.04949  -1741833.50845  24771543.1854   24771548.4174
      1006.0194        783.9084
  20776618.5844  -20235011.35249 -15458811.55748  20776618.6584   20776623.8474
      2671.3044       2081.5404
  20647451.3514  -24625625.23949 -19138516.58448  20647451.2984   20647455.9984
      1288.4054       1003.9564
  23656988.9134   -6324876.84049  -4675328.00846  23656989.9244   23656994.7094
      3065.1364       2388.4124
  21186843.2264  -18339313.63649 -14268297.26848  21186842.6444   21186848.3254
     -1994.2134      -1553.9314
 05  1 20  0 17 30.0000000  0  9G18G 6G17G 2G 8G26G29G21G10
  24975516.4814   -2591790.96349  -2001390.43745  24975516.0344   24975521.2254
      2835.1284       2209.1854
  21326727.0224  -19486967.31449 -15160277.50448  21326726.6524   21326732.1994
       305.0064        237.6694
  20756498.9174  -25580251.54749 -19911790.34948  20756498.3794   20756503.8854
      -796.8514       -620.9214
  22448128.3124  -16153897.03649 -12548400.75547  22448127.9424   22448131.0074
     -2666.1814      -2077.5464
  24765842.8964   -2276023.50449  -1765172.30145  24765844.1094   24765849.7644
       990.7654        772.0294
  20761418.1064  -20314890.84449 -15521055.26948  20761418.1014   20761422.8194
      2653.9334       2068.0044
  20640149.5914  -24663996.76449 -19168416.44648  20640149.5104   20640154.1864
      1269.7754        989.4354
  23639494.4044   -6416823.07849  -4746974.38346  23639493.3754   23639496.8174
      3064.5954       2387.9974
  21198246.5104  -18279387.01949 -14221601.18748  21198246.1574   21198251.3284
     -2000.8954      -1559.1344
 05  1 20  0 18  0.0000000  0  9G18G 6G17G 2G 8G26G29G21G10
  24959342.2254   -2676791.42249  -2067624.43245  24959342.2034   24959348.2234
      2831.6124       2206.4494
  21325038.7484  -19495836.67749 -15167188.67348  21325039.0384   21325044.5184
       285.9664        222.8314
  20761080.6144  -25556173.20549 -19893027.99948  20761080.0914   20761085.8264
      -808.4334       -629.9494
  22463372.4114  -16073785.65449 -12485976.25447  22463372.2884   22463375.9954
     -2674.5804      -2084.0904
  24760234.8264   -2305515.37849  -1788153.05345  24760233.0364   24760237.6874
       975.3684        760.0264
  20746316.7074  -20394247.66449 -15582891.70848  20746316.6454   20746321.8194
      2636.4864       2054.4044
  20632954.1394  -24701808.34749 -19197879.99048  20632953.8684   20632958.7884
      1251.0904        974.8734
  23622000.9574   -6508752.16549  -4818607.36646  23621999.6804   23622003.9404
      3064.0134       2387.5444
  21209689.1144  -18219260.34849 -14174749.21748  21209688.3534   21209693.4714
     -2007.5274      -1564.3114
 05  1 20  0 18 30.0000000  0  9G18G 6G17G 2G 8G26G29G21G10
  24943185.5034   -2761686.30049  -2133776.12445  24943185.4484   24943191.2114
      2828.1154       2203.7214
  21323459.2524  -19504135.13049 -15173654.97548  21323459.3004   21323465.1724
       266.9464        208.0124
  20765728.4574  -25531747.44249 -19873994.92848  20765728.0644   20765733.6594
      -820.0244       -638.9744
  22478666.5094  -15993422.24949 -12423355.43847  22478666.1284   22478669.1984
     -2682.9814      -2090.6364
  24754709.8364   -2334546.22449  -1810774.36845  24754709.1954   24754711.5294
       959.9914        748.0384
  20731315.6594  -20473079.06749 -15644318.73048  20731315.9644   20731320.7484
      2618.9314       2040.7284
  20625865.3474  -24739059.01649 -19226906.46248  20625865.0814   20625870.4514
      1232.3944        960.3094
  23604509.7214   -6600663.07049  -4890226.19146  23604509.1264   23604513.1594
      3063.3714       2387.0414
  21221168.5204  -18158934.82849 -14127742.30848  21221167.3804   21221173.3054
     -2014.1374      -1569.4564
 05  1 20  0 19  0.0000000  0  9G18G 6G17G 2G 8G26G29G21G10
  24927051.9554   -2846475.10049  -2199845.17145  24927051.2474   24927056.2764
      2824.5594       2200.9534
  21321989.2434  -19511862.52749 -15179676.30248  21321989.2204   21321994.4594
       247.9174        193.1834
  20770443.1514  -25506973.74449 -19854690.73948  20770442.5074   20770448.1534
      -831.6294       -648.0204
  22494006.0594  -15912807.60949 -12360538.86147  22494005.8024   22494008.8174
     -2691.3284      -2097.1384
  24749270.4704   -2363113.87749  -1833034.87745  24749269.7554   24749278.6424
       944.5194        735.9894
  20716415.1004  -20551382.38749 -15705334.26648  20716415.1824   20716419.9494
      2601.2884       2026.9794
  20618883.4154  -24775748.14849 -19255495.36948  20618883.5984   20618888.1784
      1213.6354        945.6924
  23587023.9474   -6692554.32749  -4961829.69146  23587022.6934   23587026.6674
      3062.7164       2386.5324
  21232685.2384  -18098411.94149 -14080581.61248  21232684.7084   21232690.1294
     -2020.6934      -1574.5654
 05  1 20  0 19 30.0000000  0  9G18G 6G17G 2G 8G26G29G21G10
  24910935.7194   -2931157.75849  -2265831.59245  24910935.3674   24910939.8604
      2820.9744       2198.1604
  21320627.5824  -19519018.32249 -15185252.22548  21320627.3744   21320632.3124
       228.8634        178.3374
  20775223.5234  -25481851.41249 -19835114.89148  20775222.9854   20775228.5914
      -843.2464       -657.0724
  22509394.6864  -15831942.34349 -12297527.00347  22509394.0954   22509396.6574
     -2699.6904      -2103.6584
  24743923.5504   -2391216.72249  -1854933.16445  24743922.7374   24743928.2184
       928.9794        723.8794
  20701615.3164  -20629155.27249 -15765936.46448  20701615.5374   20701620.5314
      2583.5554       2013.1564
  20612009.2194  -24811874.68949 -19283645.89648  20612008.9054   20612013.8454
      1194.8774        931.0754
  23569540.3604   -6784425.09149  -5033417.24046  23569540.4204   23569544.9334
      3062.0374       2386.0024
  21244239.4884  -18037693.25849 -14033268.33247  21244238.8434   21244244.0944
     -2027.2064      -1579.6414
 05  1 20  0 20  0.0000000  0  9G18G 6G17G 2G 8G26G29G21G10
  24894841.8254   -3015733.61149  -2331734.67445  24894841.2954   24894848.2904
      2817.4304       2195.3934
  21319374.7324  -19525602.44149 -15190382.67948  21319374.3264   21319379.6434
       209.8014        163.4844
  20780071.1034  -25456379.63849 -19815266.74348  20780070.4674   20780075.6024
      -854.9294       -666.1774
  22524829.9414  -15750827.16149 -12234320.35147  22524829.5134   22524832.7354
     -2708.0044      -2110.1234
  24738666.1864   -2418852.95449  -1876467.88345  24738664.8964   24738671.5564
       913.4274        711.7634
  20686917.1824  -20706394.91449 -15826123.16348  20686917.3114   20686922.0114
      2565.7314       1999.2714
  20605241.5234  -24847437.79849 -19311357.38048  20605241.4174   20605246.0264
      1176.0834        916.4314
  23552063.7984   -6876274.03949  -5104987.77646  23552061.7874   23552066.4744
      3061.2474       2385.3934
  21255831.3854  -17976780.37749 -13985803.72848  21255830.4174   21255835.6944
     -2033.6524      -1584.6614
 05  1 20  0 20 30.0000000  0  9G18G 6G17G 2G 8G26G29G21G10
  24878765.9984   -3100202.45449  -2397554.42445  24878766.3664   24878773.9094
      2813.8214       2192.5804
  21318230.0854  -19531614.40949 -15195067.30948  21318230.4634   21318235.8844
       190.7184        148.6074
  20784984.3134  -25430557.73749 -19795145.77148  20784983.9254   20784989.8144
      -866.5734       -675.2514
  22540312.8174  -15669462.62249 -12170919.43247  22540312.7224   22540316.4074
     -2716.3104      -2116.6044
  24733493.2214   -2446021.12949  -1897637.87945  24733492.7934   24733500.7524
       897.7984        699.5874
  20672320.6614  -20783099.14449 -15885892.65448  20672320.7464   20672325.6914
      2547.8264       1985.3164
  20598581.0664  -24882436.66749 -19338629.20348  20598581.1224   20598586.1414
      1157.2524        901.7544
  23534587.0204   -6968099.67349  -5176540.15946  23534587.3424   23534591.9464
      3060.4384       2384.7434
  21267459.3714  -17915674.57249 -13938188.80147  21267458.1654   21267463.7704
     -2040.0474      -1589.6484
 05  1 20  0 21  0.0000000  0  9G18G 6G17G 2G 8G26G29G21G10
  24862715.8794   -3184563.59549  -2463290.28545  24862715.5374   24862719.7144
      2810.2374       2189.7864
  21317195.8884  -19537054.15849 -15199306.04948  21317195.6164   21317200.5204
       171.6334        133.7414
  20789964.9884  -25404385.15849 -19774751.54948  20789964.4464   20789970.1934
      -878.3164       -684.4014
  22555843.6274  -15587849.39149 -12107324.68547  22555843.3084   22555846.8844
     -2724.5804      -2123.0594
  24728414.9434   -2472719.13749  -1918441.52845  24728413.4244   24728417.0164
       882.0574        687.3184
  20657826.6764  -20859264.97249 -15945242.61348  20657827.0264   20657831.9964
      2529.8514       1971.3114
  20592029.1144  -24916870.32749 -19365460.59748  20592028.8364   20592033.6844
      1138.3814        887.0564
  23517120.3394   -7059900.62849  -5248073.30846  23517118.8644   23517124.0144
      3059.6154       2384.1174
  21279122.7974  -17854377.37049 -13890424.73147  21279122.3424   21279128.2444
     -2046.4094      -1594.6044
 05  1 20  0 21 30.0000000  0  9G18G 6G17G 2G 8G26G29G21G10
  24846679.4774   -3268816.94449  -2528942.12945  24846679.9054   24846685.7914
      2806.6334       2186.9774
  21316269.3544  -19541921.27549 -15203098.58648  21316269.0594   21316274.3214
       152.5494        118.8724
  20795012.3684  -25377861.26949 -19754083.57548  20795011.8654   20795017.2374
      -890.0304       -693.5314
  22571421.0904  -15505988.37649 -12043536.91047  22571421.3014   22571423.9384
     -2732.8294      -2129.4734
  24723423.5134   -2498945.17349  -1938877.34745  24723424.0774   24723428.4724
       866.3034        675.0404
  20643435.5934  -20934890.47749 -16004171.54448  20643435.5304   20643441.1164
      2511.8024       1957.2514
  20585584.2044  -24950738.19249 -19391851.11248  20585583.7834   20585588.8614
      1119.5244        872.3554
  23499654.8624   -7151676.07249  -5319586.56046  23499654.3234   23499659.5164
      3058.7224       2383.4234
  21290824.3784  -17792890.59449 -13842512.94247  21290823.2524   21290828.6864
     -2052.7114      -1599.5164
 05  1 20  0 22  0.0000000  0  9G18G 6G17G 2G 8G26G29G21G10
  24830670.4834   -3352962.02949  -2594509.54845  24830669.7994   24830672.9394
      2803.0474       2184.1864
  21315451.7904  -19546215.59949 -15206444.79848  21315452.1174   21315457.2554
       133.4414        103.9834
  20800126.8984  -25350985.20949 -19733141.18948  20800125.9384   20800131.8054
      -901.7874       -702.6904
  22587046.9224  -15423880.12349 -11979556.45847  22587046.2584   22587048.7204
     -2741.0794      -2135.9064
  24718522.1714   -2524697.71249  -1958944.24945  24718521.3464   24718529.2744
       850.4624        662.6974
  20629148.0344  -21009972.69349 -16062677.13848  20629148.0024   20629152.9734
      2493.6454       1943.1004
  20579246.4814  -24984039.55349 -19417800.20848  20579246.8264   20579251.7064
      1100.6334        857.6384
  23482196.7734   -7243424.43849  -5391078.74546  23482195.3924   23482199.5804
      3057.8074       2382.7034
  21302560.8104  -17731215.66849 -13794454.54147  21302560.0404   21302564.6994
     -2058.9464      -1604.3754
 05  1 20  0 22 30.0000000  0  9G18G 6G17G 2G 8G26G29G21G10
  24814678.4994   -3436998.37149  -2659992.23945  24814677.2264   24814683.0694
      2799.3574       2181.3134
  21314744.1334  -19549936.98649 -15209344.54748  21314743.7794   21314748.9164
       114.3724         89.1154
  20805308.0604  -25323756.48149 -19711923.99348  20805307.5304   20805313.1244
      -913.5564       -711.8644
  22602717.3494  -15341525.34749 -11915383.90347  22602717.3754   22602720.3974
     -2749.2844      -2142.2974
  24713713.5354   -2549975.02049  -1978640.86045  24713713.3264   24713717.9214
       834.6614        650.3764
  20614964.6424  -21084509.18249 -16120757.48748  20614964.4204   20614969.0284
      2475.4254       1928.9024
  20573017.7744  -25016773.53049 -19443307.17448  20573017.6774   20573022.5534
      1081.7014        842.8834
  23464741.4034   -7335145.00649  -5462549.25846  23464741.6184   23464745.9914
      3056.9104       2382.0084
  21314332.5774  -17669353.65149 -13746250.36247  21314331.7174   21314336.9984
     -2065.1764      -1609.2344
 05  1 20  0 23  0.0000000  0  9G18G 6G17G 2G 8G26G29G21G10
  24798705.0974   -3520925.82349  -2725390.08845  24798705.7134   24798711.6594
      2795.7874       2178.5354
  21314144.9344  -19553085.26549 -15211797.73348  21314144.6494   21314150.1814
        95.2564         74.2274
  20810556.0174  -25296174.41849 -19690431.46848  20810555.7684   20810561.9334
      -925.3054       -721.0134
  22618435.8364  -15258924.64449 -11851019.71147  22618435.1594   22618439.1284
     -2757.4254      -2148.6434
  24708993.7894   -2574775.60949  -1997965.95245  24708992.5104   24708998.0404
       818.6584        637.9164
  20600884.3564  -21158497.91549 -16178411.01348  20600884.4494   20600889.5944
      2457.1514       1914.6644
  20566896.5624  -25048939.39049 -19468371.45548  20566896.5154   20566901.7324
      1062.7804        828.1454
  23447294.1864   -7426836.14849  -5533996.84846  23447292.8474   23447297.3984
      3055.8534       2381.1834
  21326139.4334  -17607306.20149 -13697901.68747  21326138.9034   21326144.1494
     -2071.3104      -1614.0044
 05  1 20  0 23 30.0000000  0  9G18G 6G17G 2G 8G26G29G21G10
  24782758.5434   -3604744.10949  -2790702.87445  24782758.1054   24782760.3574
      2792.1244       2175.6764
  21313654.3714  -19555660.26949 -15213804.20648  21313654.5404   21313659.7374
        76.1384         59.3294
  20815872.6664  -25268238.27749 -19668663.04648  20815872.4424   20815877.8674
      -937.1034       -730.2074
  22634200.5364  -15176078.45349 -11786464.14947  22634199.9114   22634203.6104
     -2765.6064      -2155.0174
  24704367.7874   -2599097.44449  -2016917.98845  24704366.0514   24704370.3134
       802.6824        625.4654
  20586910.0354  -21231936.31449 -16235635.71048  20586909.8484   20586914.6324
      2438.7274       1900.3124
  20560884.3584  -25080536.61649 -19492992.64848  20560884.2544   20560888.9004
      1043.7464        813.3134
  23429850.8524   -7518496.20649  -5605420.19546  23429850.4024   23429854.8514
      3054.8114       2380.3604
  21337981.9954  -17545074.80549 -13649409.67747  21337981.2054   21337986.2644
     -2077.4264      -1618.7754
 05  1 20  0 24  0.0000000  0  9G18G 6G17G 2G 8G26G29G21G10
  24766826.7974   -3688452.56749  -2855930.03145  24766826.9034   24766832.6664
      2788.4644       2172.8274
  21313274.3904  -19557661.80649 -15215363.82248  21313273.7414   21313279.1644
        57.0214         44.4344
  20821255.9004  -25239947.42549 -19646618.21448  20821255.5794   20821261.6474
      -948.9964       -739.4784
  22650012.2904  -15092987.82449 -11721718.10547  22650011.7864   22650016.1554
     -2773.7494      -2161.3664
  24699826.2394   -2622938.79149  -2035495.65845  24699827.4364   24699832.9144
       786.6324        612.9564
  20573040.0514  -21304821.73549 -16292429.50848  20573040.1584   20573045.2644
      2420.2544       1885.9214
  20554979.5974  -25111564.31949 -19517170.05448  20554979.7914   20554984.6264
      1024.7734        798.5294
  23412414.8894   -7610124.11449  -5676818.54046  23412414.7784   23412419.0704
      3053.7914       2379.5744
  21349859.3054  -17482661.07849 -13600775.58447  21349858.3144   21349863.5724
     -2083.4744      -1623.4864
 05  1 20  0 24 30.0000000  0  9G18G 6G17G 2G 8G26G29G21G10
  24750917.1134   -3772050.93249  -2921071.42745  24750918.2074   24750925.1084
      2784.7904       2169.9634
  21313002.3784  -19559089.79149 -15216476.51848  21313002.2094   21313007.4864
        37.8944         29.5284
  20826707.8414  -25211301.35949 -19624296.59848  20826707.0814   20826712.7744
      -960.8304       -748.6934
  22665869.7034  -15009653.66249 -11656782.30547  22665869.6044   22665873.8434
     -2781.8834      -2167.7014
  24695386.1554   -2646298.20749  -2053697.81245  24695384.2104   24695388.7634
       770.6184        600.4854
  20559276.0484  -21377152.06849 -16348790.78048  20559275.9704   20559280.8614
      2401.7184       1871.4704
  20549183.7594  -25142022.08349 -19540903.34948  20549183.5994   20549188.6694
      1005.7954        783.7374
  23394982.4374   -7701718.70349  -5748190.89746  23394984.4364   23394989.7334
      3052.5724       2378.6304
  21361770.0074  -17420066.23949 -13552000.37747  21361768.8344   21361775.0414
     -2089.4954      -1628.1704
 05  1 20  0 25  0.0000000  0  9G18G 6G17G 2G 8G26G29G21G10
  24735031.3164   -3855539.50749  -2986127.23945  24735029.7124   24735036.0044
      2781.1314       2167.1084
  21312839.8624  -19559944.25549 -15217142.32048  21312839.6214   21312844.8274
        18.8094         14.6594
  20832225.8884  -25182299.36449 -19601697.63248  20832225.6494   20832231.5244
      -972.6984       -757.9434
  22681774.3474  -14926076.53849 -11591657.23247  22681774.5444   22681777.1744
     -2789.9764      -2174.0134
  24691030.3134   -2669174.48549  -2071523.42945  24691029.5104   24691033.4474
       754.4904        587.9124
  20545618.3804  -21448924.96649 -16404717.68348  20545618.3194   20545622.8404
      2383.1094       1856.9694
  20543496.5864  -25171909.12649 -19564191.93548  20543496.5554   20543501.2594
       986.7464        768.8964
  23377561.4784   -7793278.78549  -5819536.37246  23377561.1964   23377565.9894
      3051.4324       2377.7364
  21373715.4714  -17357291.87349 -13503085.28347  21373714.7454   21373720.1004
     -2095.4624      -1632.8284
 05  1 20  0 25 30.0000000  0  9G18G 6G17G 2G 8G26G29G21G10
  24719162.1974   -3938917.25949  -3051096.78945  24719162.8134   24719169.5364
      2777.4184       2164.2264
  21312785.5134  -19560225.19849 -15217361.20748  21312785.3154   21312791.0814
         -.3404          -.2654
  20837813.2074  -25152940.78849 -19578820.81248  20837812.2874   20837818.0694
      -984.5914       -767.2194
  22697724.0624  -14842257.29549 -11526343.49447  22697724.3614   22697727.4014
     -2798.0134      -2180.2654
  24686767.5514   -2691565.81449  -2088971.20645  24686768.1264   24686774.1574
       738.2384        575.2514
  20532066.8264  -21520137.91049 -16460208.26248  20532067.1404   20532071.2404
      2364.3864       1842.3754
  20537917.6804  -25201224.93149 -19587035.39248  20537917.5974   20537922.7394
       967.7054        754.0544
  23360145.6654   -7884802.61349  -5890853.59946  23360144.9544   23360148.4824
      3050.1804       2376.7594
  21385695.3824  -17294339.15349 -13454031.20347  21385694.2794   21385699.8514
     -2101.3774      -1637.4404
 05  1 20  0 26  0.0000000  0  9G18G 6G17G 2G 8G26G29G21G10
  24703318.4214   -4022184.19949  -3115979.86445  24703317.9974   24703323.0784
      2773.6664       2161.2894
  21312841.9904  -19559932.43149 -15217133.06148  21312841.8764   21312846.3724
       -19.4574        -15.1624
  20843467.5234  -25123225.09549 -19555665.72148  20843467.0034   20843472.8254
      -996.5114       -776.5024
  22713720.8424  -14758196.60749 -11460841.63247  22713720.4304   22713724.0614
     -2806.0344      -2186.5234
  24682599.7754   -2713470.18249  -2106039.52945  24682600.2914   24682606.0594
       722.0124        562.6084
  20518621.4594  -21590788.69349 -16515260.79148  20518622.0274   20518627.1764
      2345.6294       1827.7634
  20532447.4664  -25229968.82149 -19609433.21248  20532447.8054   20532452.5894
       948.6414        739.1984
  23342737.0394   -7976289.02449  -5962141.66346  23342735.4564   23342740.0314
      3048.9064       2375.7564
  21397707.9154  -17231209.59549 -13404839.33347  21397707.5854   21397712.9954
     -2107.2514      -1642.0154
 05  1 20  0 26 30.0000000  0  9G18G 6G17G 2G 8G26G29G21G10
  24687493.3694   -4105339.88649  -3180776.34545  24687492.8154   24687498.3344
      2769.9914       2158.4304
  21313007.7724  -19559066.10249 -15216457.99248  21313007.0444   21313011.7484
       -38.5864        -30.0694
  20849190.0794  -25093151.52649 -19532231.77248  20849189.9044   20849195.6194
     -1008.4374       -785.7954
  22729764.2954  -14673895.11749 -11395152.14847  22729762.8244   22729765.5414
     -2814.0574      -2192.7744
  24678527.1444   -2734886.36749  -2122727.48945  24678525.7294   24678531.2844
       705.7614        549.9454
  20505285.4444  -21660875.08049 -16569873.54548  20505285.3864   20505290.1564
      2326.7794       1813.0734
  20527087.3024  -25258140.31749 -19631385.00848  20527087.0694   20527091.6194
       929.5314        724.3064
  23325333.5564   -8067736.62949  -6033399.49346  23325334.0174   23325337.5084
      3047.5744       2374.7164
  21409754.6294  -17167904.69049 -13355510.82447  21409753.8754   21409759.2544
     -2113.0674      -1646.5504
 05  1 20  0 27  0.0000000  0  9G18G 6G17G 2G 8G26G29G21G10
  24671690.1324   -4188384.01049  -3245485.85445  24671690.9774   24671696.1744
      2766.2034       2155.4744
  21313280.3924  -19557626.15449 -15215335.93048  21313280.2914   21313285.6814
       -57.6974        -44.9654
  20854980.9674  -25062719.72249 -19508518.67248  20854980.7174   20854986.4004
     -1020.3904       -795.1154
  22745850.2844  -14589353.59249 -11329275.58647  22745849.9864   22745853.4254
     -2822.0504      -2199.0134
  24674543.4234   -2755813.04849  -2139033.94945  24674543.2244   24674548.4324
       689.3964        537.1874
  20492056.2164  -21730394.63549 -16624044.60148  20492056.5444   20492061.2444
      2307.8294       1798.3064
  20521834.8694  -25285738.98249 -19652890.43448  20521835.1334   20521840.0264
       910.4164        709.4104
  23307939.8704   -8159144.31649  -6104626.22846  23307940.0054   23307943.4784
      3046.2294       2373.6774
  21421834.6874  -17104425.91049 -13306046.82447  21421833.5154   21421839.3544
     -2118.8554      -1651.0594
 05  1 20  0 27 30.0000000  0  9G18G 6G17G 2G 8G26G29G21G10
  24655911.5054   -4271316.10949  -3310108.10945  24655910.3804   24655915.4834
      2762.5024       2152.5914
  21313663.2154  -19555612.65149 -15213766.94748  21313663.2174   21313668.6684
       -76.8424        -59.8774
  20860840.9494  -25031929.11449 -19484525.98048  20860840.1744   20860846.1964
     -1032.3994       -804.4714
  22761984.1764  -14504572.79649 -11263212.57247  22761983.4014   22761986.8014
     -2830.0334      -2205.2194
  24670655.5124   -2776248.33949  -2154957.52845  24670655.4894   24670658.7024
       672.9714        524.3904
  20478934.4764  -21799345.33949 -16677772.39548  20478935.0294   20478940.1724
      2288.8334       1783.5034
  20516692.7424  -25312764.20449 -19673949.02548  20516692.7564   20516697.4914
       891.2974        694.5174
  23290554.6704   -8250510.49449  -6175820.60046  23290553.5974   23290557.7214
      3044.8064       2372.5804
  21433946.8444  -17040774.57049 -13256448.37947  21433946.1774   21433951.7564
     -2124.5934      -1655.5314
 05  1 20  0 28  0.0000000  0  9G18G 6G17G 2G 8G26G29G21G10
  24640152.7854   -4354136.02949  -3374642.97045  24640151.1224   24640155.5374
      2758.7884       2149.6994
  21314155.6744  -19553025.62949 -15211751.06548  21314155.4414   21314160.9064
       -95.9274        -74.7504
  20866767.8154  -25000778.87749 -19460253.06348  20866767.4884   20866773.5504
     -1044.3914       -813.8154
  22778162.0764  -14419553.58949 -11196963.80347  22778162.3294   22778165.3934
     -2837.9624      -2211.4044
  24666860.5524   -2796190.99949  -2170497.24345  24666859.1124   24666865.3034
       656.5084        511.5684
  20465923.6804  -21867724.74349 -16731055.02448  20465923.2344   20465927.7434
      2269.7534       1768.6374
  20511659.1564  -25339215.44549 -19694560.36148  20511659.0644   20511663.7474
       872.1544        679.6004
  23273174.6114   -8341833.95349  -6246981.69246  23273174.7954   23273179.3364
      3043.3764       2371.4564
  21446091.0824  -16976951.94149 -13206716.45747  21446090.7414   21446096.6614
     -2130.2604      -1659.9414
 05  1 20  0 28 30.0000000  0  9G18G 6G17G 2G 8G26G29G21G10
  24624411.9774   -4436843.34749  -3439090.04245  24624411.2354   24624415.7914
      2755.0414       2146.7804
  21314757.0524  -19549865.26849 -15209288.43348  21314757.1064   21314762.3984
      -115.0254        -89.6314
  20872764.5354  -24969268.68849 -19435699.65748  20872764.0754   20872769.6714
     -1056.3764       -823.1494
  22794386.3164  -14334296.62549 -11130529.76747  22794386.7114   22794388.1174
     -2845.8724      -2217.5654
  24663157.7564   -2815639.53649  -2185651.96945  24663157.7414   24663164.1334
       640.0354        498.7364
  20453019.8314  -21935530.72849 -16783890.83448  20453020.0354   20453025.0414
      2250.6154       1753.7274
  20506734.6574  -25365092.47549 -19714724.26148  20506734.7364   20506739.3104
       853.0504        664.7144
  23255806.3834   -8433113.07349  -6318108.21546  23255804.9434   23255808.7354
      3041.8694       2370.2914
  21458269.6024  -16912959.41349 -13156852.12647  21458268.4494   21458273.4154
     -2135.9144      -1664.3424
 05  1 20  0 29  0.0000000  0  9G18G 6G17G 2G 8G26G29G21G10
  24608696.1454   -4519438.01249  -3503449.41145  24608695.5544   24608698.7994
      2751.3084       2143.8684
  21315466.9474  -19546131.62049 -15206379.08348  21315467.4144   21315472.9314
      -134.1544       -104.5354
  20878829.0124  -24937397.73849 -19410865.14748  20878828.9424   20878834.6804
     -1068.4134       -832.5314
  22810655.8754  -14248802.93649 -11063911.27547  22810655.6674   22810657.7674
     -2853.7154      -2223.6804
  24659553.9714   -2834592.84249  -2200420.79945  24659552.2694   24659556.4264
       623.5294        485.8674
  20440225.6924  -22002761.27549 -16836278.25948  20440226.0954   20440231.1184
      2231.3984       1738.7564
  20501919.7584  -25390394.63949 -19734440.21048  20501919.6364   20501924.5144
       833.8594        649.7594
  23238443.7514   -8524346.43149  -6389199.10346  23238443.4914   23238448.1114
      3040.3684       2369.1094
  21470478.6644  -16848798.43549 -13106856.55447  21470477.8874   21470483.0154
     -2141.4894      -1668.6944
 05  1 20  0 29 30.0000000  0  9G18G 6G17G 2G 8G26G29G21G10
  24592995.0344   -4601919.59549  -3567720.68045  24592997.4484   24593004.2554
      2747.4224       2140.8424
  21316288.3244  -19541824.85749 -15203023.15548  21316287.8294   21316292.9254
      -153.2774       -119.4394
  20884962.5874  -24905165.79249 -19385749.34048  20884962.1294   20884968.2234
     -1080.4594       -841.9184
  22826969.8644  -14163073.12149 -10997108.82147  22826968.6724   22826971.8544
     -2861.6174      -2229.8334
  24656038.9984   -2853049.08249  -2214802.21045  24656039.6624   24656044.9194
       606.8934        472.9034
  20427542.7164  -22069413.87249 -16888215.32148  20427542.9214   20427547.6134
      2212.0714       1723.6914
  20497214.0204  -25415121.66149 -19753707.99948  20497214.1544   20497218.9694
       814.6564        634.7944
  23221092.3074   -8615532.81549  -6460253.38646  23221090.8994   23221095.1484
      3038.7294       2367.8284
  21482719.6314  -16784470.37849 -13056730.79547  21482719.1034   21482724.7994
     -2147.0444      -1673.0224
 05  1 20  0 30  0.0000000  0  9G18G 6G17G 2G 8G26G29G21G10
  24577323.2864   -4684287.69449  -3631903.53245  24577323.2564   24577330.4864
      2743.6554       2137.9054
  21317215.8634  -19536945.28549 -15199220.87848  21317216.1944   21317220.9144
      -172.3504       -134.2964
  20891164.9644  -24872572.20949 -19360351.73648  20891164.5194   20891170.2294
     -1092.5334       -851.3264
  22843327.5584  -14077107.90749 -10930122.93646  22843327.1844   22843330.4004
     -2869.4414      -2235.9284
  24652620.9374   -2871007.03449  -2228795.45045  24652621.1244   24652628.1864
       590.1864        459.8884
  20414970.2654  -22135486.73449 -16939700.64948  20414970.1934   20414974.1504
      2192.7144       1708.6074
  20492618.8744  -25439273.25249 -19772527.40448  20492618.7954   20492623.3904
       795.5004        619.8724
  23203747.7334   -8706670.66349  -6531269.83646  23203747.4024   23203752.8564
      3037.1054       2366.5684
  21494993.1454  -16719976.54849 -13006475.84647  21494991.6894   21494997.6514
     -2152.5774      -1677.3344
 05  1 20  0 30 30.0000000  0  9G18G 6G17G 2G 8G26G29G21G10
  24561672.5184   -4766542.20549  -3695997.81245  24561670.9514   24561676.7884
      2739.9174       2134.9944
  21318253.6314  -19531493.02749 -15194972.35048  21318253.3304   21318258.1804
      -191.4164       -149.1584
  20897436.9214  -24839616.21849 -19334671.73848  20897436.0444   20897441.6534
     -1104.5964       -860.7264
  22859729.3274  -13990908.11849 -10862954.26146  22859729.9244   22859733.7894
     -2877.2314      -2242.0024
  24649302.2344   -2888465.09449  -2242399.12345  24649300.4694   24649303.7364
       573.5974        446.9604
  20402506.5084  -22200977.50149 -16990732.38648  20402507.0154   20402511.9194
      2173.2834       1693.4644
  20488132.4344  -25462848.95249 -19790898.05548  20488132.4124   20488136.8674
       776.2794        604.8914
  23186413.8734   -8797758.64449  -6602247.43746  23186414.1334   23186418.4314
      3035.4104       2365.2554
  21507296.7104  -16655318.27749 -12956092.77947  21507296.0284   21507301.1764
     -2158.0154      -1681.5654
 05  1 20  0 31  0.0000000  0  9G18G 6G17G 2G 8G26G29G21G10
  24546039.8404   -4848682.79649  -3760003.42145  24546039.6054   24546045.5894
      2736.0484       2131.9884
  21319399.3814  -19525468.09549 -15190277.58548  21319399.7924   21319405.3344
      -210.5084       -164.0334
  20903777.1634  -24806297.34249 -19308708.97548  20903776.2584   20903782.3924
     -1116.7134       -870.1674
  22876177.8814  -13904474.71249 -10795603.55046  22876178.1514   22876181.1324
     -2885.0034      -2248.0534
  24646073.9824   -2905422.25249  -2255612.47346  24646073.3984   24646080.6854
       556.8544        433.9114
  20390155.3824  -22265884.05649 -17041308.90148  20390155.4944   20390160.8474
      2153.7894       1678.2774
  20483755.5774  -25485848.35149 -19808819.64948  20483755.3124   20483760.4874
       757.0424        589.8984
  23169090.0014   -8888795.39749  -6673185.11846  23169090.4984   23169095.1524
      3033.6804       2363.9124
  21519631.7674  -16590497.09849 -12905582.76447  21519631.0714   21519636.6144
     -2163.3984      -1685.7654
 05  1 20  0 31 30.0000000  0  9G18G 6G17G 2G 8G26G29G21G10
  24530433.0964   -4930709.43949  -3823920.20545  24530431.3154   24530434.9404
      2732.3434       2129.0954
  21320655.6884  -19518870.99849 -15185136.96748  21320655.1524   21320660.4184
      -229.5944       -178.9064
  20910186.8614  -24772615.34049 -19282463.25548  20910186.2274   20910192.0264
     -1128.8274       -879.6064
  22892670.0484  -13817808.40249 -10728071.33846  22892669.9954   22892673.0234
     -2892.7684      -2254.1164
  24642942.8194   -2921877.23149  -2268434.56445  24642941.4884   24642947.8024
       540.1294        420.8844
  20377916.0284  -22330204.48149 -17091428.69648  20377916.0754   20377920.5714
      2134.2074       1663.0144
  20479488.6164  -25508271.30649 -19826292.06248  20479488.4874   20479493.5014
       737.8454        574.9374
  23151777.8874   -8979779.37149  -6744081.66346  23151777.5394   23151781.1454
      3031.8904       2362.5184
  21531997.1634  -16525514.12449 -12854946.66847  21531996.6454   21532002.5724
     -2168.7814      -1689.9694
 05  1 20  0 32  0.0000000  0  9G18G 6G17G 2G 8G26G29G21G10
  24514841.9054   -5012621.27849  -3887747.51245  24514843.2684   24514848.5784
      2728.4984       2126.1014
  21322019.7844  -19511701.96049 -15179550.69548  21322019.4884   21322024.5334
      -248.6534       -193.7554
  20916665.2424  -24738569.64849 -19255934.13648  20916664.6514   20916670.4424
     -1140.9434       -889.0444
  22909206.9494  -13730909.94149 -10660358.24246  22909206.5704   22909209.6064
     -2900.5124      -2260.1414
  24639907.7484   -2937828.14949  -2280863.85045  24639907.4704   24639911.4514
       523.2954        407.7584
  20365787.8794  -22393936.88349 -17141090.29248  20365787.8844   20365792.7954
      2114.5724       1647.7184
  20475331.8904  -25530117.36849 -19843314.95248  20475331.8034   20475336.1364
       718.6274        559.9674
  23134474.0514   -9070708.97849  -6814935.86346  23134473.7424   23134478.0794
      3030.0544       2361.0704
  21544393.4554  -16460370.76549 -12804185.60247  21544392.8324   21544398.4064
     -2174.0794      -1694.0914
 05  1 20  0 32 30.0000000  0  9G18G 6G17G 2G 8G26G29G21G10
  24499278.8554   -5094418.04749  -3951485.15045  24499278.5244   24499282.4344
      2724.5894       2123.0504
  21323492.7274  -19503961.13549 -15173518.87448  21323492.4944   21323497.5324
      -267.6764       -208.5784
  20923213.1614  -24704159.54649 -19229121.06748  20923212.6564   20923218.3844
     -1153.0774       -898.5084
  22925786.8624  -13643780.09749 -10592464.83847  22925786.8344   22925790.8184
     -2908.2084      -2266.1224
  24636968.1934   -2953273.99349  -2292899.53445  24636968.2514   24636973.2274
       506.4104        394.6054
  20353772.1144  -22457078.75749 -17190291.72448  20353772.3574   20353777.4044
      2094.8604       1632.3614
  20471284.2364  -25551386.47049 -19859888.26148  20471284.1494   20471288.5184
       699.3674        544.9614
  23117180.9584   -9161582.62349  -6885746.45746  23117181.2744   23117185.5874
      3028.1574       2359.5934
  21556819.7874  -16395068.53849 -12753300.73747  21556819.6144   21556825.0804
     -2179.4194      -1698.2544
 05  1 20  0 33  0.0000000  0  9G18G 6G17G 2G 8G26G29G21G10
  24483736.8134   -5176099.76149  -4015133.17145  24483735.8444   24483739.7454
      2720.8404       2120.1304
  21325073.3594  -19495648.94149 -15167041.82348  21325073.8024   21325079.1924
      -286.7174       -223.4144
  20929830.9444  -24669384.69849 -19202023.78148  20929830.0704   20929836.1154
     -1165.2654       -907.9974
  22942411.1734  -13556419.77249 -10524391.88546  22942410.9494   22942413.4984
     -2915.8404      -2272.0854
  24634124.5944   -2968213.91949  -2304541.06645  24634123.5714   24634128.8654
       489.5114        381.4414
  20341869.6554  -22519628.60649 -17239031.85748  20341869.8774   20341874.4924
      2075.0894       1616.9534
  20467346.8034  -25572078.32449 -19876011.75948  20467346.5174   20467350.9384
       680.1474        529.9834
  23099899.9964   -9252399.38249  -6956512.72246  23099899.4394   23099903.1434
      3026.2374       2358.1064
  21569277.4784  -16329608.41649 -12702292.84447  21569276.4364   21569282.2894
     -2184.6294      -1702.3134
 05  1 20  0 33 30.0000000  0  9G18G 6G17G 2G 8G26G29G21G10
  24468213.2544   -5257666.11749  -4078691.27945  24468212.7984   24468218.1144
      2716.9584       2117.1104
  21326765.0834  -19486765.79049 -15160119.87548  21326764.5274   21326769.9354
      -305.7754       -238.2704
  20936517.4324  -24634244.58449 -19174641.86848  20936516.8484   20936522.7954
     -1177.4404       -917.4854
  22959080.4164  -13468829.70749 -10456139.84247  22959079.6184   22959081.5484
     -2923.4984      -2278.0614
  24631378.8064   -2982646.23849  -2315786.94945  24631377.2254   24631383.2544
       472.6184        368.2644
  20330080.4984  -22581584.15549 -17287308.89148  20330080.2784   20330084.7134
      2055.2524       1601.4944
  20463518.8684  -25592192.60849 -19891685.21548  20463518.8944   20463523.4434
       660.8974        514.9844
  23082629.8804   -9343157.41349  -7027233.21346  23082628.8284   23082632.7304
      3024.2354       2356.5444
  21581763.8164  -16263991.83449 -12651163.03847  21581762.5734   21581768.2784
     -2189.8234      -1706.3614
 05  1 20  0 34  0.0000000  0  9G18G 6G17G 2G 8G26G29G21G10
  24452713.1314   -5339117.18149  -4142159.52745  24452713.5334   24452718.1124
      2713.0794       2114.0874
  21328562.5644  -19477311.89149 -15152753.18348  21328563.0794   21328568.9264
      -324.7944       -253.0844
  20943273.9744  -24598738.80249 -19146975.02548  20943273.6054   20943278.9454
     -1189.6684       -927.0104
  22975790.2534  -13381010.86349 -10387709.57247  22975790.1354   22975793.1434
     -2931.0984      -2283.9704
  24628731.8834   -2996569.42049  -2326636.19445  24628730.1834   24628733.2914
       455.6504        355.0514
  20318403.1374  -22642943.49849 -17335121.34648  20318403.4124   20318408.6024
      2035.3374       1585.9774
  20459801.5654  -25611729.26749 -19906908.56548  20459801.1724   20459805.7324
       641.6224        499.9654
  23065369.0034   -9433855.46149  -7097906.97146  23065369.5394   23065372.9004
      3022.2534       2354.9964
  21594279.8394  -16198220.02549 -12599912.26747  21594278.7404   21594283.6324
     -2194.9484      -1710.3524
 05  1 20  0 34 30.0000000  0  9G18G 6G17G 2G 8G26G29G21G10
  24437236.1234   -5420451.89549  -4205537.14045  24437234.9974   24437238.8944
      2709.2304       2111.0874
  21330471.1564  -19467287.81149 -15144942.19248  21330470.9444   21330476.4824
      -343.7794       -267.8804
  20950099.9514  -24562866.80049 -19119022.81148  20950099.6464   20950105.6204
     -1201.8564       -936.5114
  22992545.3724  -13292964.26249 -10319101.81147  22992544.9014   22992547.8314
     -2938.7144      -2289.9024
  24626176.0104   -3009982.68549  -2337088.08745  24626175.8244   24626181.8824
       438.6244        341.7914
  20306841.0474  -22703704.56749 -17382467.62148  20306840.9524   20306846.0724
      2015.3514       1570.4034
  20456193.0734  -25630688.19449 -19921681.74648  20456193.1684   20456198.1524
       622.3544        484.9524
  23048122.3284   -9524491.89749  -7168532.74146  23048122.4894   23048124.6454
      3020.1484       2353.3664
  21606825.5514  -16132294.48549 -12548541.71247  21606824.3114   21606829.3714
     -2200.0844      -1714.3484
 05  1 20  0 35  0.0000000  0  9G18G 6G17G 2G 8G26G29G21G10
  24421778.5094   -5501670.48449  -4268824.28945  24421778.9764   24421784.6804
      2705.3504       2108.0664
  21332487.2514  -19456693.82449 -15136687.11948  21332486.9554   21332492.4474
      -362.7704       -282.6794
  20956996.0534  -24526628.07549 -19090784.83748  20956995.7404   20957001.8524
     -1214.1374       -946.0824
  23009343.6124  -13204690.54349 -10250317.09147  23009343.4494   23009346.0054
     -2946.2544      -2295.7834
  24623722.2904   -3022884.70949  -2347141.59646  24623721.0964   24623726.5924
       421.5394        328.4744
  20295392.5924  -22763865.69849 -17429346.40348  20295392.7694   20295397.5704
      1995.3214       1554.7944
  20452696.1484  -25649069.17249 -19936004.56748  20452695.7394   20452700.1634
       603.0904        469.9424
  23030886.3124   -9615065.14449  -7239109.24346  23030886.0164   23030890.0354
      3018.0514       2351.7224
  21619399.3314  -16066216.45049 -12497052.32447  21619398.4404   21619403.1814
     -2205.1304      -1718.2884
 05  1 20  0 35 30.0000000  0  9G18G 6G17G 2G 8G26G29G21G10
  24406349.5094   -5582772.81849  -4332020.80645  24406346.8284   24406350.8034
      2701.4654       2105.0284
  21334611.9124  -19445530.40949 -15127988.35248  21334611.9244   21334616.3834
      -381.7164       -297.4414
  20963961.8194  -24490022.29249 -19062260.84548  20963961.7644   20963967.4944
     -1226.3294       -955.5834
  23026184.0874  -13116190.49449 -10181356.02046  23026183.8444   23026186.8734
     -2953.7804      -2301.6444
  24621364.8434   -3035274.74549  -2356796.18445  24621363.8564   24621366.4674
       404.4514        315.1554
  20284058.9404  -22823424.92049 -17475756.16748  20284058.9214   20284063.7654
      1975.2384       1539.1474
  20449307.7974  -25666872.00249 -19949876.88548  20449307.9314   20449312.5224
       583.8024        454.9084
  23013662.7914   -9705573.72049  -7309635.38046  23013662.8894   23013667.3604
      3015.8894       2350.0364
  21632002.2604  -15999987.00649 -12445444.95947  21632001.8274   21632006.6314
     -2210.1854      -1722.2234
 05  1 20  0 36  0.0000000  0  9G18G 6G17G 2G 8G26G29G21G10
  24390935.6774   -5663758.81049  -4395126.69345  24390934.4044   24390941.7204
      2697.6434       2102.0544
  21336843.8774  -19433798.06149 -15118846.24548  21336843.4804   21336849.4274
      -400.6914       -312.2314
  20970997.7624  -24453049.09949 -19033450.57048  20970997.4384   20971003.3184
     -1238.6044       -965.1444
  23043068.8454  -13027465.01149 -10112219.26246  23043067.9024   23043070.3224
     -2961.2794      -2307.4964
  24619102.5974   -3047151.10449  -2366050.47645  24619102.8064   24619107.5384
       387.3344        301.8184
  20272840.9844  -22882380.30049 -17521695.41148  20272840.4144   20272844.9184
      1955.0944       1523.4544
  20446030.1374  -25684096.80449 -19963298.79748  20446030.1104   20446034.5844
       564.5764        439.9324
  22996452.7874   -9796016.02649  -7380109.87146  22996452.2544   22996455.8604
      3013.6424       2348.2874
  21644634.2764  -15933607.45249 -12393720.61947  21644633.0254   21644638.6374
     -2215.1174      -1726.0664
 05  1 20  0 36 30.0000000  0  9G18G 6G17G 2G 8G26G29G21G10
  24375546.2624   -5744627.80849  -4458141.40445  24375547.3064   24375552.3084
      2693.6714       2098.9674
  21339184.7594  -19421497.27649 -15109261.19348  21339184.3884   21339189.8404
      -419.6264       -326.9784
  20978103.2244  -24415707.93549 -19004353.54747  20978102.7674   20978108.9424
     -1250.8654       -974.6984
  23059994.8574  -12938515.11449 -10042907.62246  23059994.0454   23059997.6034
     -2968.7144      -2313.2834
  24616942.1404   -3058512.66549  -2374903.60445  24616941.7624   24616946.5694
       370.1244        288.4104
  20261736.3754  -22940730.18149 -17567162.82848  20261736.4194   20261741.5144
      1934.8524       1507.6774
  20442862.5964  -25700743.30349 -19976270.07548  20442862.2644   20442866.9874
       545.2734        424.8884
  22979254.5744   -9886390.69949  -7450531.67546  22979254.9574   22979258.2934
      3011.2964       2346.4764
  21657293.6034  -15867079.26549 -12341880.46947  21657292.9544   21657298.6284
     -2220.0874      -1729.9414
 05  1 20  0 37  0.0000000  0  9G18G 6G17G 2G 8G26G29G21G10
  24360181.8984   -5825379.49049  -4521064.74845  24360181.2274   24360185.4204
      2689.7344       2095.9004
  21341633.6414  -19408628.59349 -15099233.62948  21341633.4274   21341638.7254
      -438.5354       -341.7184
  20985279.8234  -24377998.20549 -18974969.34248  20985279.4044   20985284.9744
     -1263.1474       -984.2734
  23076962.8564  -12849341.49149  -9973421.69946  23076963.5164   23076966.8504
     -2976.1784      -2319.1064
  24614877.9554   -3069358.84749  -2383355.17345  24614876.5374   24614882.7444
       352.9474        275.0194
  20250748.2094  -22998472.65049 -17612156.94448  20250748.3334   20250753.4764
      1914.5894       1491.8854
  20439804.6924  -25716811.66149 -19988790.85948  20439804.5084   20439809.0714
       525.9894        409.8584
  22962071.0414   -9976696.02849  -7520899.43446  22962069.5014   22962073.9304
      3008.9974       2344.6694
  21669981.9604  -15800403.48649 -12289925.31547  21669980.8154   21669986.2274
     -2224.9724      -1733.7464
 05  1 20  0 37 30.0000000  0  9G18G 6G17G 2G 8G26G29G21G10
  24344836.9074   -5906013.66049  -4583896.43345  24344836.3264   24344841.2674
      2685.7994       2092.8324
  21344191.1384  -19395192.59749 -15088764.02148  21344190.5664   21344195.1364
      -457.4504       -356.4544
  20992526.4254  -24339919.79049 -18945297.84648  20992525.6724   20992530.4514
     -1275.4674       -993.8704
  23093976.5914  -12759945.13649  -9903762.19646  23093974.9624   23093977.4754
     -2983.5964      -2324.8874
  24612912.3914   -3079688.30749  -2391404.07545  24612910.4254   24612917.5674
       335.6704        261.5534
  20239876.7504  -23055605.84649 -17656676.30548  20239876.5874   20239881.2154
      1894.2404       1476.0314
  20436857.2314  -25732301.78549 -20000861.06748  20436857.0234   20436861.5354
       506.7254        394.8514
  22944899.9814  -10066930.42749  -7591211.93346  22944898.7124   22944903.4234
      3006.5944       2342.8064
  21682697.6164  -15733581.45649 -12237856.18947  21682696.6784   21682702.0134
     -2229.8304      -1737.5264
 05  1 20  0 38  0.0000000  0  9G18G 6G17G 2G 8G26G29G21G10
  24329515.5614   -5986529.84649  -4646636.25245  24329514.5994   24329517.6584
      2681.8964       2089.7874
  21346854.7334  -19381189.76449 -15077852.70848  21346854.6564   21346860.2944
      -476.3844       -371.2114
  20999841.8984  -24301472.30949 -18915338.77848  20999841.2864   20999847.2694
     -1287.7944      -1003.4784
  23111028.4644  -12670326.88849  -9833929.80946  23111027.9934   23111030.8944
     -2990.9544      -2330.6104
  24611045.0004   -3089499.80449  -2399049.42745  24611044.3294   24611050.1114
       318.3854        248.0894
  20229120.4354  -23112127.90749 -17700719.46148  20229120.6844   20229125.3384
      1873.8294       1460.1234
  20434019.4424  -25747213.64049 -20012480.68348  20434019.4074   20434024.1784
       487.4624        379.8414
  22927741.6544  -10157092.16549  -7661467.81246  22927741.7344   22927745.6584
      3004.1434       2340.8704
  21695441.1784  -15666614.49849 -12185674.14147  21695439.8934   21695445.6134
     -2234.6704      -1741.3044
 05  1 20  0 38 30.0000000  0  9G18G 6G17G 2G 8G26G29G21G10
  24314216.5474   -6066928.17849  -4709284.21745  24314214.9154   24314218.3324
      2677.9854       2086.7434
  21349627.2954  -19366620.47649 -15066499.99948  21349627.4154   21349632.7494
      -495.2394       -385.9064
  21007228.2464  -24262655.19549 -18885091.67048  21007227.7004   21007233.8464
     -1300.1194      -1013.0794
  23128126.9084  -12580487.71249  -9763925.27046  23128125.5144   23128127.4864
     -2998.3324      -2336.3604
  24609277.0654   -3098792.99249  -2406290.85445  24609277.6394   24609280.2904
       301.0984        234.6234
  20218481.0794  -23168037.51249 -17744285.36748  20218481.3594   20218486.1744
      1853.3944       1444.2004
  20431291.5604  -25761547.41549 -20023649.84348  20431291.4504   20431296.2424
       468.1404        364.7844
  22910599.8144  -10247179.92049  -7731666.04046  22910599.3744   22910602.9294
      3001.6514       2338.9424
  21708211.9344  -15599503.74949 -12133380.04847  21708210.8564   21708215.8374
     -2239.4304      -1745.0074
 05  1 20  0 39  0.0000000  0  9G18G 6G17G 2G 8G26G29G21G10
  24298936.5544   -6147208.70649  -4771840.37145  24298935.8584   24298943.3944
      2674.0364       2083.6624
  21352506.5874  -19351485.67349 -15054706.63048  21352506.9524   21352512.5094
      -514.0604       -400.5674
  21014686.0334  -24223468.21849 -18854556.36248  21014685.2334   21014690.9264
     -1312.4324      -1022.6754
  23145261.8204  -12490428.42149  -9693749.17546  23145261.9754   23145265.0814
     -3005.6614      -2342.0764
  24607607.2874   -3107566.14149  -2413127.07845  24607607.5374   24607610.9894
       283.7614        221.1204
  20207959.6864  -23223332.48549 -17787372.34548  20207959.3224   20207963.9644
      1832.8994       1428.2324
  20428673.7294  -25775302.93749 -20034368.42548  20428673.9004   20428678.8374
       448.9224        349.8114
  22893470.8534  -10337192.27749  -7801805.51846  22893470.0904   22893474.5894
      2999.1214       2336.9714
  21721009.5974  -15532250.42549 -12080974.86147  21721008.3844   21721013.9564
     -2244.1304      -1748.6694
 05  1 20  0 39 30.0000000  0  9G18G 6G17G 2G 8G26G29G21G10
  24283684.3114   -6227370.85249  -4834304.28045  24283683.3434   24283688.4994
      2670.1314       2080.6144
  21355495.3374  -19335785.77349 -15042472.92948  21355494.9764   21355500.5224
      -532.8654       -415.2224
  21022212.8554  -24183910.89049 -18823732.46347  21022212.3944   21022218.5954
     -1324.7694      -1032.2864
  23162442.6144  -12400149.98349  -9623402.33746  23162441.8604   23162444.8034
     -3012.9464      -2347.7414
  24606036.1774   -3115818.44149  -2419557.44145  24606035.7824   24606040.9844
       266.3804        207.5724
  20197553.8774  -23278011.46849 -17829979.32548  20197554.3634   20197558.6474
      1812.3474       1412.2204
  20426166.6504  -25788480.40549 -20044636.56448  20426166.6914   20426171.1264
       429.6524        334.7954
  22876356.5454  -10427127.41349  -7871884.81346  22876355.9284   22876359.9194
      2996.5754       2335.0034
  21733834.0504  -15464855.70849 -12028459.48947  21733833.4914   21733838.6474
     -2248.8344      -1752.3354
 05  1 20  0 40  0.0000000  0  9G18G 6G17G 2G 8G26G29G21G10
  24268450.2474   -6307414.37349  -4896675.76845  24268450.8714   24268456.3194
      2666.1064       2077.4814
  21358589.8004  -19319521.72149 -15029799.63048  21358589.7704   21358594.7834
      -551.6794       -429.8824
  21029811.3664  -24143982.90449 -18792619.74847  21029810.6714   21029816.5314
     -1337.1494      -1041.9324
  23179662.8534  -12309653.32649  -9552885.46746  23179662.3034   23179665.5194
     -3020.1894      -2353.3964
  24604567.0424   -3123548.84849  -2425581.14345  24604566.4314   24604569.1944
       248.9704        193.9984
  20187267.0774  -23332072.70649 -17872104.94348  20187266.7434   20187271.3634
      1791.7174       1396.1424
  20423768.8044  -25801079.97849 -20054454.39848  20423768.7644   20423773.5014
       410.3804        319.7794
  22859256.9574  -10516983.56149  -7941902.54846  22859256.9474   22859261.3414
      2993.8634       2332.8874
  21746685.7024  -15397320.77749 -11975834.86147  21746684.6974   21746690.4964
     -2253.4824      -1755.9554
 05  1 20  0 40 30.0000000  0  9G18G 6G17G 2G 8G26G29G21G10
  24253242.5404   -6387339.17649  -4958954.80045  24253242.0714   24253246.9424
      2662.1744       2074.4284
  21361793.0664  -19302693.95749 -15016687.07948  21361792.7634   21361797.1794
      -570.4374       -444.4964
  21037479.7074  -24103683.87149 -18761217.90747  21037479.0424   21037484.9094
     -1349.5194      -1051.5724
  23196926.1984  -12218939.22249  -9482199.17046  23196926.0674   23196927.7224
     -3027.4024      -2359.0234
  24603194.1524   -3130756.82749  -2431197.70845  24603194.2334   24603198.9364
       231.5784        180.4574
  20177096.5514  -23385514.52749 -17913747.91148  20177096.8514   20177101.6354
      1771.0384       1380.0294
  20421481.4874  -25813101.55249 -20063821.84948  20421481.0704   20421485.7224
       391.1174        304.7664
  22842174.1324  -10606759.31449  -8011857.66546  22842173.1004   22842176.9634
      2991.1754       2330.7834
  21759563.6844  -15329647.07649 -11923102.11347  21759562.9904   21759568.0504
     -2258.0734      -1759.5394
 05  1 20  0 41  0.0000000  0  9G18G 6G17G 2G 8G26G29G21G10
  24238056.9284   -6467145.09549  -5021141.11945  24238056.8964   24238061.0044
      2658.2444       2071.3504
  21365102.0134  -19285303.11749 -15003135.76548  21365101.8464   21365106.8834
      -589.2014       -459.1154
  21045219.0224  -24063013.43549 -18729526.66047  21045218.4784   21045224.7134
     -1361.8954      -1061.2124
  23214227.5474  -12128008.60549  -9411344.10846  23214228.2754   23214231.4414
     -3034.6524      -2364.6684
  24601922.1564   -3137441.15949  -2436406.27545  24601921.8564   24601926.6894
       214.0554        166.8044
  20167045.8114  -23438335.38949 -17954907.00548  20167045.6444   20167050.2914
      1750.3114       1363.8814
  20419303.2314  -25824545.68149 -20072739.33748  20419303.2114   20419308.1264
       371.8854        289.7804
  22825105.7944  -10696453.32749  -8081749.07546  22825104.7774   22825108.8894
      2988.4114       2328.6314
  21772468.1234  -15261835.79849 -11870262.14547  21772466.8544   21772472.1334
     -2262.6444      -1763.0974
 05  1 20  0 41 30.0000000  0  9G18G 6G17G 2G 8G26G29G21G10
  24222891.4444   -6546831.76049  -5083234.54345  24222890.9844   24222896.1664
      2654.2864       2068.2714
  21368517.9364  -19267350.02949 -14989146.33248  21368518.1994   21368523.0164
      -607.9204       -473.7064
  21053029.5454  -24021971.35349 -18697545.81847  21053028.7964   21053034.4064
     -1374.3034      -1070.8944
  23231573.9984  -12036862.57049  -9340321.23246  23231573.8194   23231576.6764
     -3041.8024      -2370.2334
  24600749.9204   -3143600.63149  -2441205.87445  24600749.7444   24600755.8314
       196.5634        153.1624
  20157113.0514  -23490533.58649 -17995580.90948  20157112.7954   20157117.1774
      1729.5274       1347.6824
  20417235.0824  -25835412.28049 -20081206.80548  20417235.2784   20417240.1074
       352.6174        274.7674
  22808053.6044  -10786063.56349  -8151575.24346  22808052.4944   22808056.2714
      2985.5984       2326.4484
  21785397.8014  -15193888.07749 -11817315.86247  21785396.5164   21785402.6484
     -2267.1584      -1766.6254
 05  1 20  0 42  0.0000000  0  9G18G 6G17G 2G 8G26G29G21G10
  24207750.6524   -6626399.08649  -5145234.98745  24207751.0284   24207753.7594
      2650.3024       2065.1724
  21372041.3234  -19248835.60849 -14974719.49548  21372040.7834   21372046.2214
      -626.6554       -488.3044
  21060910.7654  -23980557.35749 -18665275.17547  21060909.6354   21060915.3454
     -1386.6884      -1080.5324
  23248958.5604  -11945502.00749  -9269131.18346  23248958.7104   23248962.2174
     -3048.9284      -2375.7954
  24599678.2084   -3149234.71049  -2445596.05745  24599677.6884   24599683.6354
       179.0294        139.5064
  20147297.7314  -23542107.55449 -18035768.40048  20147297.9934   20147302.8094
      1708.7074       1331.4564
  20415277.5044  -25845701.59649 -20089224.44448  20415277.3624   20415281.9904
       333.4234        259.8104
  22791018.2454  -10875588.66649  -8221335.08446  22791015.8774   22791021.0464
      2982.7064       2324.1924
  21798352.3804  -15125804.91949 -11764264.05147  21798352.1264   21798357.8984
     -2271.6874      -1770.1504
 05  1 20  0 42 30.0000000  0  9G18G 6G17G 2G 8G26G29G21G10
  24192633.4074   -6705846.78349  -5207142.20245  24192632.4294   24192637.3504
      2646.2874       2062.0404
  21375671.6634  -19229760.55549 -14959855.80448  21375671.2284   21375675.9444
      -645.2864       -502.8244
  21068861.6134  -23938771.02049 -18632714.39247  21068861.1724   21068867.0654
     -1399.1154      -1090.2204
  23266384.3814  -11853928.00849  -9197774.80946  23266383.5684   23266387.8544
     -3056.0564      -2381.3494
  24598704.9714   -3154342.43649  -2449576.10845  24598705.6434   24598709.5284
       161.5064        125.8374
  20137602.9344  -23593056.05349 -18075468.51148  20137602.8064   20137607.4984
      1687.8284       1315.1924
  20413429.5804  -25855413.91749 -20096792.47148  20413429.4054   20413434.0224
       314.1384        244.7814
  22773996.2974  -10965026.95649  -8291027.31246  22773996.6034   22774000.6084
      2979.7974       2321.9264
  21811334.3774  -15057587.61449 -11711107.70347  21811333.7134   21811339.4354
     -2276.1294      -1773.6064
 05  1 20  0 43  0.0000000  0  9G18G 6G17G 2G 8G26G29G21G10
  24177535.4164   -6785174.65149  -5268956.02445  24177536.1494   24177541.1654
      2642.2764       2058.9094
  21379407.4904  -19210125.43249 -14944555.70648  21379407.1474   21379412.4574
      -663.9394       -517.3584
  21076884.4994  -23896612.00749 -18599863.21147  21076883.8374   21076889.9424
     -1411.5574      -1099.9164
  23283851.3544  -11762141.22449  -9126252.64546  23283850.6564   23283854.4364
     -3063.0824      -2386.8204
  24597833.9004   -3158923.19249  -2453145.51145  24597834.6414   24597837.4984
       143.8634        112.0994
  20128027.0494  -23643377.27949 -18114679.84548  20128027.5874   20128031.9074
      1666.8664       1298.8544
  20411690.7514  -25864549.53849 -20103911.13148  20411690.8514   20411695.5554
       294.9434        229.8284
  22756993.7044  -11054376.72449  -8360650.51946  22756993.3294   22756998.1584
      2976.8304       2319.6104
  21824340.4654  -14989237.24149 -11657847.67247  21824340.1284   21824345.5974
     -2280.5504      -1777.0544
 05  1 20  0 43 30.0000000  0  9G18G 6G17G 2G 8G26G29G21G10
  24162465.7104   -6864382.36549  -5330676.26845  24162464.6454   24162468.1454
      2638.2184       2055.7564
  21383249.4714  -19189931.51249 -14928820.16448  21383249.6864   21383255.4334
      -682.5904       -531.8864
  21084978.2944  -23854080.07349 -18566721.45047  21084977.1784   21084983.2054
     -1423.9664      -1109.5824
  23301357.9694  -11670142.62949  -9054565.43546  23301356.8994   23301359.7944
     -3070.1634      -2392.3614
  24597061.5824   -3162976.14649  -2456303.62645  24597060.0244   24597070.1274
       126.3034         98.4194
  20118571.3014  -23693069.85449 -18153401.30948  20118571.3254   20118575.9394
      1645.9374       1282.5494
  20410062.5714  -25873108.63149 -20110580.54248  20410062.2934   20410066.9414
       275.7314        214.8544
  22740008.2304  -11143635.98849  -8430203.18146  22740007.6434   22740012.4934
      2973.7844       2317.2344
  21837373.3504  -14920755.03849 -11604484.91847  21837372.6384   21837377.6294
     -2284.9294      -1780.4614
 05  1 20  0 44  0.0000000  0  9G18G 6G17G 2G 8G26G29G21G10
  24147413.3294   -6943469.86949  -5392302.83245  24147413.5484   24147418.0284
      2634.2534       2052.6704
  21387199.4994  -19169178.89949 -14912649.28648  21387198.9794   21387204.2064
      -701.1834       -546.3794
  21093142.7244  -23811174.98549 -18533288.91547  21093141.8794   21093147.6244
     -1436.4094      -1119.2784
  23318904.1574  -11577933.32749  -8982714.00546  23318904.5994   23318907.1934
     -3077.1664      -2397.8044
  24596391.9204   -3166500.78449  -2459050.09445  24596391.4224   24596395.9074
       108.6994         84.7034
  20109234.7064  -23742132.44049 -18191631.87748  20109234.6874   20109239.3544
      1624.8734       1266.1344
  20408543.0194  -25881091.52649 -20116800.96848  20408542.8844   20408547.3724
       256.5254        199.8904
  22723040.5574  -11232803.07449  -8499683.98846  22723040.2674   22723044.8604
      2970.6714       2314.8034
  21850429.4364  -14852142.19149 -11551020.35447  21850428.8554   21850433.8564
     -2289.2494      -1783.8254
 05  1 20  0 44 30.0000000  0  9G18G 6G17G 2G 8G26G29G21G10
  24132385.2164   -7022437.26749  -5453835.80045  24132386.7344   24132391.7664
      2630.2224       2049.5264
  21391254.2054  -19147869.24049 -14896044.34048  21391254.3514   21391259.0084
      -719.7444       -560.8434
  21101377.9894  -23767896.41149 -18499565.35447  21101377.5314   21101383.5174
     -1448.8794      -1128.9954
  23336491.3114  -11485514.12049  -8910699.06746  23336491.2404   23336493.8014
     -3084.1434      -2403.2304
  24595821.1554   -3169495.90149  -2461383.96845  24595820.6314   24595828.8134
        90.9914         70.9064
  20100018.4084  -23790563.42649 -18229370.28748  20100018.6514   20100023.2134
      1603.8134       1249.7234
  20407133.5244  -25888498.49049 -20122572.61848  20407133.6614   20407138.1614
       237.3464        184.9434
  22706090.3844  -11321876.43349  -8569091.77346  22706090.4534   22706093.3944
      2967.5344       2312.3664
  21863510.5634  -14783399.66849 -11497454.74247  21863509.9314   21863515.1104
     -2293.5654      -1787.1924
 05  1 20  0 45  0.0000000  0  9G18G 6G17G 2G 8G26G29G21G10
  24117383.3294   -7101283.70649  -5515274.49246  24117382.6264   24117388.3974
      2626.2584       2046.4314
  21395415.5644  -19126003.09049 -14879005.77948  21395415.3924   21395419.9414
      -738.2914       -575.2914
  21109684.6064  -23724244.23249 -18465550.66247  21109684.1114   21109690.1104
     -1461.3164      -1138.6904
  23354115.9874  -11392886.16849  -8838521.44446  23354116.0214   23354120.2114
     -3091.0884      -2408.6394
  24595353.2454   -3171960.78049  -2463304.61945  24595353.3764   24595360.1554
        73.3144         57.1294
  20090922.7414  -23838361.45349 -18266615.49148  20090923.0414   20090927.6924
      1582.7034       1233.2754
  20405834.1244  -25895329.92849 -20127895.80548  20405833.5584   20405838.0684
       218.1684        170.0004
  22689159.3134  -11410854.55449  -8638425.33846  22689158.9804   22689162.1614
      2964.3044       2309.8404
  21876616.3094  -14714528.65649 -11443789.01747  21876615.8754   21876620.7834
     -2297.8064      -1790.4934
 05  1 20  0 45 30.0000000  0  9G18G 6G17G 2G 8G26G29G21G10
  24102403.3644   -7180009.11149  -5576618.91346  24102402.7614   24102407.2304
      2622.1854       2043.2614
  21399682.0374  -19103581.36449 -14861534.28648  21399681.9214   21399687.0294
      -756.7594       -589.6874
  21118063.2874  -23680218.23249 -18431244.69347  21118062.5464   21118068.4894
     -1473.8014      -1148.4114
  23371782.8834  -11300050.48549  -8766181.97846  23371783.4074   23371786.7794
     -3097.9704      -2414.0064
  24594985.9154   -3173894.65549  -2464811.53545  24594985.8544   24594989.6464
        55.6574         43.3654
  20081948.2324  -23885525.49249 -18303366.67748  20081948.0154   20081952.3804
      1561.5634       1216.8074
  20404643.0974  -25901586.26649 -20132770.86648  20404643.1054   20404647.5644
       198.9954        155.0604
  22672247.0014  -11499735.58649  -8707683.24346  22672245.2674   22672248.8514
      2961.0604       2307.3154
  21889746.7864  -14645530.49749 -11390024.22147  21889745.4324   21889750.9854
     -2302.0614      -1793.8164
 05  1 20  0 46  0.0000000  0  9G18G 6G17G 2G 8G26G29G21G10
  24087444.2444   -7258613.53549  -5637869.03846  24087444.3964   24087448.4494
      2618.1214       2040.0954
  21404054.1924  -19080605.18149 -14843630.76147  21404053.9364   21404059.0764
      -775.2424       -604.0874
  21126511.4024  -23635817.80749 -18396646.96047  21126511.0514   21126516.6574
     -1486.2974      -1158.1554
  23389490.3844  -11207007.82149  -8693681.21146  23389489.8114   23389493.4594
     -3104.9024      -2419.4044
  24594719.1004   -3175296.97749  -2465904.22445  24594718.4734   24594721.6254
        37.8824         29.5234
  20073093.6024  -23932053.77449 -18339622.46848  20073093.7584   20073098.5344
      1540.3414       1200.2674
  20403562.0574  -25907267.87149 -20137198.08248  20403561.8534   20403566.2674
       179.8194        140.1184
  22655350.2654  -11588517.69249  -8776864.07347  22655350.8614   22655354.2754
      2957.7424       2304.7384
  21902900.8264  -14576405.96649 -11336160.94647  21902899.6724   21902904.6364
     -2306.2434      -1797.0724
 05  1 20  0 46 30.0000000  0  9G18G 6G17G 2G 8G26G29G21G10
  24072510.5534   -7337096.74849  -5699024.71146  24072509.4394   24072512.7334
      2614.1004       2036.9564
  21408531.3494  -19057075.42449 -14825295.87247  21408531.4834   21408536.8124
      -793.6844       -618.4564
  21135031.8424  -23591043.05249 -18361757.54147  21135031.8304   21135037.6034
     -1498.7674      -1167.8724
  23407235.8084  -11113759.26049  -8621020.00946  23407234.6284   23407236.0884
     -3111.6974      -2424.6934
  24594552.6464   -3176167.22449  -2466582.30745  24594552.0924   24594557.8964
        20.1844         15.7254
  20064360.6114  -23977945.22349 -18375382.02048  20064360.5434   20064365.4274
      1519.1024       1183.7174
  20402589.9004  -25912375.04849 -20141177.68548  20402590.0574   20402594.5744
       160.7094        125.2244
  22638476.6344  -11677199.38349  -8845966.65147  22638474.9574   22638479.1104
      2954.3854       2302.1204
  21916077.1824  -14507156.33449 -11282200.19647  21916077.1374   21916082.4674
     -2310.3874      -1800.3054
 05  1 20  0 47  0.0000000  0  9G18G 6G17G 2G 8G26G29G21G10
  24057597.0514   -7415458.37649  -5760085.61446  24057596.8764   24057601.4284
      2610.0524       2033.8034
  21413114.3474  -19032993.05249 -14806530.37748  21413114.5814   21413119.3884
      -812.0844       -632.7904
  21143623.5624  -23545893.63149 -18326576.17747  21143623.2014   21143629.1204
     -1511.2614      -1177.6014
  23425016.7104  -11020305.70949  -8548199.05046  23425016.6804   23425020.1764
     -3118.5094      -2430.0004
  24594488.2834   -3176504.58949  -2466845.24845  24594489.6954   24594492.7654
         2.3734          1.8634
  20055750.0064  -24023198.35549 -18410644.18648  20055749.5924   20055754.6014
      1497.7714       1167.0974
  20401727.7714  -25916908.43949 -20144710.18848  20401726.9434   20401731.8544
       141.5784        110.3194
  22621619.3424  -11765778.74149  -8914989.51047  22621619.2034   22621622.7834
      2950.9204       2299.4194
  21929279.1954  -14437782.70549 -11228142.81547  21929278.3524   21929283.7454
     -2314.4954      -1803.4994
 05  1 20  0 47 30.0000000  0  9G18G 6G17G 2G 8G26G29G21G10
  24042710.4114   -7493698.61149  -5821052.00446  24042709.4684   24042712.7574
      2606.0104       2030.6554
  21417802.5314  -19008359.05249 -14787335.04648  21417802.4534   21417807.4614
      -830.4624       -647.1184
  21152286.5764  -23500369.36849 -18291102.71547  21152286.1954   21152292.1424
     -1523.7174      -1187.3144
  23442841.2284  -10926648.32349  -8475219.27046  23442840.4604   23442842.1574
     -3125.3014      -2435.3034
  24594526.9344   -3176308.51249  -2466692.39845  24594526.4004   24594531.2314
       -15.4114        -12.0034
  20047259.9754  -24067812.13149 -18445408.15748  20047259.9994   20047264.4904
      1476.4184       1150.4564
  20400973.3184  -25920868.25449 -20147795.75048  20400973.3504   20400978.3194
       122.4634         95.4264
  22604782.3224  -11854254.07649  -8983931.29247  22604782.4294   22604786.6094
      2947.4184       2296.6954
  21942503.4924  -14368286.22249 -11173989.70847  21942503.0894   21942508.8154
     -2318.6014      -1806.7014
 05  1 20  0 48  0.0000000  0  9G18G 6G17G 2G 8G26G29G21G10
  24027842.1124   -7571817.14749  -5881923.49745  24027842.2724   24027846.9724
      2601.9524       2027.5024
  21422595.0394  -18983174.34949 -14767710.58848  21422594.8674   21422599.4994
      -848.8004       -661.4054
  21161021.8074  -23454470.09749 -18255337.06047  21161021.1544   21161026.4274
     -1536.2384      -1197.0654
  23460701.6334  -10832788.07949  -8402081.41346  23460701.2964   23460703.4404
     -3132.0464      -2440.5494
  24594663.9734   -3175578.21649  -2466123.34045  24594663.3664   24594670.1304
       -33.2384        -25.9024
  20038891.7324  -24111785.15549 -18479672.83148  20038891.8784   20038896.4144
      1455.0654       1133.8184
  20400329.1354  -25924255.12149 -20150434.86148  20400329.0774   20400333.6574
       103.4064         80.5794
  22587967.1224  -11942624.01749  -9052790.96647  22587966.1934   22587970.1734
      2943.8964       2293.9434
  21955752.9374  -14298667.96049 -11119741.70747  21955751.8744   21955757.0074
     -2322.6224      -1809.8374
 05  1 20  0 48 30.0000000  0  9G18G 6G17G 2G 8G26G29G21G10
  24012999.6154   -7649813.88749  -5942700.12145  24013000.6314   24013004.9724
      2597.8504       2024.2854
  21427491.4854  -18957440.24749 -14747658.03148  21427491.6884   21427497.2874
      -867.0994       -675.6604
  21169826.5804  -23408195.60749 -18219279.00947  21169826.2964   21169832.1604
     -1548.7774      -1206.8454
  23478599.7844  -10738725.89249  -8328786.20146  23478600.5254   23478603.3904
     -3138.7684      -2445.7934
  24594905.7214   -3174313.14349  -2465137.65445  24594904.9924   24594911.3674
       -51.1124        -39.8234
  20030645.8944  -24155116.33049 -18513437.37348  20030646.1854   20030651.2144
      1433.6694       1117.1454
  20399794.0534  -25927069.66449 -20152627.99848  20399794.0544   20399798.0994
        84.2924         65.6824
  22571170.5774  -12030886.52749  -9121566.92147  22571170.0354   22571174.4474
      2940.2424       2291.1024
  21969023.4034  -14228929.01849 -11065399.68947  21969022.9074   21969027.5874
     -2326.6394      -1812.9694
 05  1 20  0 49  0.0000000  0  9G18G 6G17G 2G 8G26G29G21G10
  23998182.2134   -7727688.47749  -6003381.55546  23998181.2574   23998184.5404
      2593.8064       2021.1514
  21432494.0834  -18931157.65849 -14727178.07947  21432493.2284   21432498.0564
      -885.3344       -689.8714
  21178703.6014  -23361545.75249 -18182928.47047  21178703.4014   21178709.2394
     -1561.2914      -1216.5874
  23496538.1944  -10644462.89249  -8255334.56146  23496538.5894   23496539.4534
     -3145.4424      -2450.9994
  24595248.9154   -3172513.25149  -2463735.09145  24595247.8534   24595250.6764
       -68.8564        -53.6524
  20022523.0554  -24197804.29249 -18546700.70648  20022523.2254   20022527.8594
      1412.2054       1100.4174
  20399367.3134  -25929312.21549 -20154375.42648  20399366.7854   20399371.6104
        65.2414         50.8394
  22554393.9484  -12119039.36549  -9190257.42147  22554395.1094   22554399.8054
      2936.5944       2288.2544
  21982316.2474  -14159070.27049 -11010964.28547  21982315.8744   21982321.5404
     -2330.6174      -1816.0704
 05  1 20  0 49 30.0000000  0  9G18G 6G17G 2G 8G26G29G21G10
  23983387.9164   -7805441.08049  -6063967.94646  23983385.9954   23983389.7864
      2589.7334       2017.9754
  21437598.0544  -18904327.91349 -14706271.77547  21437598.3724   21437603.1934
      -903.5524       -704.0664
  21187652.6704  -23314520.21449 -18146285.19447  21187652.1374   21187657.9054
     -1573.7664      -1226.3134
  23514514.7334  -10550000.03349  -8181727.11146  23514514.5284   23514516.9684
     -3152.0764      -2456.1484
  24595694.2004   -3170177.39349  -2461914.88845  24595692.9864   24595697.9904
       -86.8214        -67.6564
  20014522.1904  -24239848.34249 -18579462.29048  20014522.4874   20014527.4214
      1390.7104       1083.6734
  20399048.8094  -25930983.39949 -20155677.64748  20399048.7874   20399053.5934
        46.2374         36.0294
  22537642.8994  -12207081.31649  -9258861.51147  22537641.4774   22537645.2134
      2932.8744       2285.3624
  21995633.0384  -14089092.70749 -10956436.32047  21995632.2494   21995638.1454
     -2334.5364      -1819.1104
 05  1 20  0 50  0.0000000  0  9G18G 6G17G 2G 8G26G29G21G10
  23968613.4274   -7883071.37149  -6124459.03746  23968613.7824   23968617.6434
      2585.6404       2014.7774
  21442808.7584  -18876951.93349 -14684939.84347  21442808.3224   21442812.8724
      -921.7644       -718.2584
  21196673.0944  -23267119.24449 -18109349.37147  21196672.3494   21196677.8874
     -1586.3224      -1236.0954
  23532527.8414  -10455338.38449  -8107964.79846  23532527.2254   23532529.7954
     -3158.7004      -2461.3274
  24596237.4194   -3167305.53849  -2459677.14345  24596238.4954   24596244.1454
      -104.7164        -81.5914
  20006644.4114  -24281246.79749 -18611720.81348  20006644.5074   20006649.4004
      1369.1504       1066.8644
  20398839.5554  -25932083.77149 -20156535.06948  20398839.2064   20398844.2694
        27.2214         21.2084
  22520909.7084  -12295010.48249  -9327377.71747  22520908.5304   22520912.7844
      2929.0854       2282.4074
  22008971.5704  -14018997.68949 -10901816.82647  22008970.8654   22008975.9734
     -2338.4554      -1822.1824
 05  1 20  0 50 30.0000000  0  9G18G 6G17G 2G 8G26G29G21G10
  23953865.0704   -7960579.13949  -6184854.64746  23953864.2814   23953868.4334
      2581.5364       2011.5944
  21448120.9824  -18849030.91949 -14663183.19947  21448120.8094   21448126.3574
      -939.9084       -732.3874
  21205764.1354  -23219342.34349 -18072120.61947  21205764.3254   21205769.8274
     -1598.8514      -1245.8574
  23550577.2124  -10360478.98749  -8034048.37246  23550577.8244   23550580.2694
     -3165.2444      -2466.4174
  24596886.3744   -3163897.03549  -2457021.17545  24596886.1174   24596890.4944
      -122.5134        -95.4624
  19998889.8984  -24321998.83449 -18643475.63448  19998889.7254   19998894.2094
      1347.6054       1050.0854
  20398738.1624  -25932614.17049 -20156948.36248  20398738.3314   20398743.1674
         8.2014          6.3904
  22504198.8694  -12382825.21149  -9395804.74547  22504198.7494   22504201.9824
      2925.2214       2279.3974
  22022332.9864  -13948786.19249 -10847106.55547  22022332.1034   22022337.5804
     -2342.2974      -1825.1644
 05  1 20  0 51  0.0000000  0  9G18G 6G17G 2G 8G26G29G21G10
  23939137.8784   -8037963.88449  -6245154.41446  23939137.1814   23939143.1414
      2577.4674       2008.4204
  21453537.7104  -18820565.96649 -14641002.70347  21453537.5174   21453543.0744
      -958.0204       -746.5094
  21214927.6044  -23171189.47449 -18034598.88247  21214926.9384   21214932.9804
     -1611.3844      -1255.6194
  23568666.3564  -10265422.80149  -7959978.61246  23568666.5584   23568669.8034
     -3171.8254      -2471.5564
  24597638.2044   -3159951.71549  -2453946.89445  24597637.5314   24597644.3274
      -140.4934       -109.4744
  19991258.2134  -24362103.73549 -18674726.19248  19991257.9384   19991262.9234
      1326.0244       1033.2664
  20398746.1404  -25932574.93749 -20156917.78348  20398745.8774   20398750.4694
       -10.7694         -8.3924
  22487510.5444  -12470523.18549  -9464140.79647  22487510.4924   22487513.8514
      2921.3014       2276.3424
  22035715.2694  -13878459.37449 -10792306.43847  22035714.6904   22035720.1544
     -2346.1394      -1828.1534
 05  1 20  0 51 30.0000000  0  9G18G 6G17G 2G 8G26G29G21G10
  23924435.4614   -8115225.97449  -6305358.61846  23924435.1694   23924439.3604
      2573.3544       2005.2154
  21459057.4604  -18791558.37449 -14618399.37547  21459057.5094   21459063.1294
      -976.1094       -760.6014
  21224162.4194  -23122660.53849 -17996784.12147  21224161.9424   21224167.6164
     -1623.9344      -1265.4014
  23586790.0254  -10170171.07449  -7885756.48346  23586791.2654   23586795.5454
     -3178.3394      -2476.6324
  24598493.2884   -3155468.87349  -2450453.80145  24598492.5414   24598494.7884
      -158.4664       -123.4794
  19983749.4614  -24401559.86549 -18705471.21548  19983749.4784   19983754.2154
      1304.3494       1016.3754
  20398861.4374  -25931966.90949 -20156443.98548  20398861.6914   20398866.2024
       -29.7084        -23.1494
  22470846.5394  -12558102.87049  -9532384.67747  22470844.9944   22470848.1444
      2917.3014       2273.2234
  22049119.9644  -13808018.20649 -10737417.21247  22049118.8474   22049124.2744
     -2349.9474      -1831.1294
 05  1 20  0 52  0.0000000  0  9G18G 6G17G 2G 8G26G29G21G10
  23909756.7874   -8192364.78549  -6365466.74046  23909756.3944   23909760.9754
      2569.2204       2001.9924
  21464681.6564  -18762009.47349 -14595374.24547  21464680.9944   21464685.3494
      -994.0904       -774.6094
  21233468.9194  -23073755.36149 -17958676.18847  21233468.5834   21233473.8614
     -1636.4564      -1275.1564
  23604953.7734  -10074724.46749  -7811382.52146  23604954.2994   23604959.1194
     -3184.7474      -2481.6174
  24599451.0314   -3150448.06549  -2446541.52245  24599446.9754   24599451.9384
      -176.3414       -137.4114
  19976364.6924  -24440366.61949 -18735710.22848  19976364.9104   19976369.5984
      1282.7464        999.5424
  20399085.4374  -25930790.61549 -20155527.38148  20399085.2894   20399089.9674
       -48.6154        -37.8794
  22454203.1994  -12645562.71649  -9600535.18847  22454201.9334   22454204.6904
      2913.3234       2270.1154
  22062546.2744  -13737463.66949 -10682439.65147  22062545.2744   22062550.3374
     -2353.6644      -1834.0214
 05  1 20  0 52 30.0000000  0  9G18G 6G17G 2G 8G26G29G21G10
  23895100.3244   -8269380.40949  -6425478.90846  23895100.7024   23895104.4854
      2565.1314       1998.8064
  21470406.8794  -18731920.19649 -14571928.04447  21470406.8004   21470411.5644
     -1012.1144       -788.6634
  21242846.4184  -23024473.95349 -17920275.08147  21242845.8364   21242851.8764
     -1649.0064      -1284.9454
  23623155.1134   -9979084.33549  -7736857.76746  23623155.0744   23623158.4684
     -3191.2584      -2486.6904
  24600504.4914   -3144888.90448  -2442209.67544  24600504.4534   24600507.9704
      -194.1824       -151.3154
  19969103.9594  -24478523.05549 -18765442.50448  19969103.8574   19969108.7264
      1261.0144        982.6074
  20399417.1914  -25929046.70449 -20154168.48248  20399417.3554   20399422.0084
       -67.5644        -52.6474
  22437582.7024  -12732900.54649  -9668590.61047  22437581.9674   22437585.4704
      2909.2124       2266.9154
  22075994.1464  -13666796.81249 -10627374.55847  22075993.4004   22075998.2584
     -2357.4104      -1836.9424
 05  1 20  0 53  0.0000000  0  9G18G 6G17G 2G 8G26G29G21G10
  23880470.4664   -8346272.66349  -6485394.88346  23880469.9044   23880472.6624
      2561.0214       1995.6024
  21476234.9934  -18701291.97449 -14548061.88847  21476234.5574   21476239.9314
     -1030.0274       -802.6184
  21252296.0484  -22974816.21949 -17881580.75447  21252295.4154   21252301.4514
     -1661.6024      -1294.7554
  23641394.3704   -9883251.70149  -7662182.98546  23641391.9724   23641394.2214
     -3197.6094      -2491.6424
  24601664.4124   -3138790.83348  -2437457.84844  24601661.6604   24601671.0514
      -212.1944       -165.3474
  19961967.4464  -24516027.80949 -18794666.98048  19961967.2194   19961971.5614
      1239.2764        965.6704
  20399857.2514  -25926735.94549 -20152367.88448  20399857.1254   20399861.6534
       -86.4294        -67.3484
  22420985.8064  -12820114.42149  -9736549.44547  22420986.0274   22420988.6574
      2905.0294       2263.6554
  22089462.4304  -13596018.56749 -10572222.67447  22089461.4154   22089466.1034
     -2361.1364      -1839.8434
 05  1 20  0 53 30.0000000  0  9G18G 6G17G 2G 8G26G29G21G10
  23865860.2484   -8423041.40149  -6545214.64546  23865859.9414   23865864.4824
      2556.8794       1992.3694
  21482165.3824  -18670126.10249 -14523776.78447  21482165.7744   21482170.5954
     -1047.9464       -816.5804
  21261818.1364  -22924782.01349 -17842593.05947  21261817.0614   21261822.8124
     -1674.1024      -1304.4934
  23659663.8984   -9787227.50249  -7587358.91746  23659663.9584   23659667.1204
     -3203.9704      -2496.6174
  24602927.7504   -3132153.70249  -2432286.08744  24602927.2284   24602933.3984
      -230.2534       -179.4124
  19954953.9714  -24552880.37949 -18823383.25048  19954954.3574   19954958.9554
      1217.5314        948.7274
  20400404.6694  -25923859.22749 -20150126.27448  20400404.7784   20400409.0374
      -105.2954        -82.0464
  22404414.1044  -12907202.74749  -9804410.46247  22404413.3484   22404416.8644
      2900.8484       2260.4004
  22102951.0674  -13525129.65449 -10516984.56147  22102950.6484   22102955.6804
     -2364.7994      -1842.7044
 05  1 20  0 54  0.0000000  0  9G18G 6G17G 2G 8G26G29G21G10
  23851272.8414   -8499686.36249  -6604937.95446  23851272.5514   23851278.7804
      2552.7934       1989.1704
  21488198.2234  -18638423.93949 -14499073.79147  21488197.6284   21488203.1364
     -1065.8114       -830.5024
  21271409.4914  -22874371.40149 -17803312.06547  21271409.3104   21271415.5364
     -1686.6664      -1314.2874
  23677971.8534   -9691012.92549  -7512386.52346  23677973.5094   23677975.8694
     -3210.3434      -2501.5644
  24604294.7334   -3124977.51649  -2426694.17745  24604294.2224   24604296.5154
      -248.1494       -193.3694
  19948065.7854  -24589079.68849 -18851590.49548  19948065.7254   19948070.4314
      1195.7354        931.7414
  20401059.9624  -25920417.13749 -20147444.11848  20401059.7764   20401064.0644
      -124.1174        -96.7174
  22387864.6964  -12994163.56949  -9872172.11647  22387864.1644   22387868.3824
      2896.5534       2257.0504
  22116462.8314  -13454131.55049 -10461661.34847  22116461.4684   22116466.5464
     -2368.4324      -1845.5354
 05  1 20  0 54 30.0000000  0  9G18G 6G17G 2G 8G26G29G21G10
  23836713.6694   -8576207.48749  -6664564.75846  23836713.0584   23836718.3314
      2548.6004       1985.9354
  21494333.0324  -18606186.77749 -14473953.91947  21494332.9204   21494337.8294
     -1083.6014       -844.3654
  21281075.2004  -22823584.13149 -17763737.56847  21281074.5624   21281080.0084
     -1699.2124      -1324.0594
  23696319.1814   -9594608.97549  -7437266.57146  23696319.3154   23696321.0514
     -3216.6434      -2506.4734
  24605759.8654   -3117261.82848  -2420681.93045  24605761.1084   24605767.3094
      -266.1324       -207.3744
  19941301.5984  -24624624.97849 -18879288.11848  19941301.7514   19941306.0984
      1173.9234        914.7474
  20401822.2924  -25916410.55149 -20144322.08948  20401821.9004   20401826.3534
      -142.9274       -111.3714
  22371341.6974  -13080995.29849  -9939833.18547  22371340.6054   22371345.2004
      2892.2224       2253.6774
  22129993.7704  -13383024.85249 -10406253.52847  22129992.4974   22129998.2264
     -2372.0194      -1848.3264
 05  1 20  0 55  0.0000000  0  9G18G 6G17G 2G 8G26G29G21G10
  23822177.5014   -8652605.06249  -6724095.31346  23822176.5044   23822179.1994
      2544.5434       1982.7644
  21500568.6414  -18573415.80849 -14448418.08447  21500568.7484   21500574.0864
     -1101.3504       -858.1954
  21290811.0654  -22772420.37949 -17723869.71847  21290810.5144   21290815.9694
     -1711.7754      -1333.8534
  23714700.5794   -9498016.80549  -7362000.00446  23714701.0624   23714702.4344
     -3222.8814      -2511.3404
  24607332.6014   -3109006.39149  -2414249.26545  24607332.0284   24607338.7014
      -284.1404       -221.4074
  19934662.0224  -24659515.45949 -18906475.48948  19934662.2214   19934667.0444
      1152.0894        897.7294
  20402691.6504  -25911840.27649 -20140760.82548  20402691.5614   20402695.9404
      -161.6624       -125.9754
  22354841.8714  -13167695.90049 -10007392.07447  22354841.7994   22354846.8814
      2887.8124       2250.2464
  22143544.2384  -13311810.87649 -10350762.11947  22143544.1884   22143549.5854
     -2375.5784      -1851.0964
 05  1 20  0 55 30.0000000  0  9G18G 6G17G 2G 8G26G29G21G10
  23807659.6694   -8728878.59849  -6783529.16746  23807660.0794   23807665.3424
      2540.3454       1979.4864
  21506906.9504  -18540112.65849 -14422467.56947  21506906.8764   21506911.4954
     -1119.0634       -871.9964
  21300618.9964  -22720879.97449 -17683708.36247  21300618.0384   21300623.7504
     -1724.3204      -1343.6274
  23733117.1284   -9401237.52249  -7286587.59246  23733116.9564   23733118.6884
     -3229.1114      -2516.1884
  24609006.4134   -3100210.90749  -2407395.56745  24609006.6824   24609008.9924
      -302.2094       -235.4854
  19928147.7324  -24693750.33049 -18933152.00848  19928147.7474   19928152.1714
      1130.1994        880.6714
  20403668.3734  -25906707.01549 -20136760.87148  20403668.2474   20403672.9944
      -180.4634       -140.6234
  22338369.2794  -13254263.16049 -10074847.05347  22338368.8214   22338373.0714
      2883.2944       2246.7214
  22157116.6484  -13240490.28449 -10295187.62347  22157116.1244   22157121.4394
     -2379.1054      -1853.8494
 05  1 20  0 56  0.0000000  0  9G18G 6G17G 2G 8G26G29G21G10
  23793170.4234   -8805027.64249  -6842866.05846  23793170.1474   23793175.0044
      2536.2344       1976.2884
  21513344.7174  -18506278.67449 -14396103.41547  21513344.2664   21513349.7504
     -1136.7944       -885.8084
  21310498.1234  -22668962.97449 -17643253.54747  21310497.4854   21310503.5894
     -1736.8544      -1353.4004
  23751568.4464   -9304272.15849  -7211030.16446  23751568.0564   23751571.2974
     -3235.2904      -2520.9964
  24610781.0264   -3090875.00948  -2400120.84245  24610779.9324   24610789.6244
      -320.2514       -249.5404
  19921757.6304  -24727328.68149 -18959316.93848  19921757.7424   19921762.2914
      1108.2924        863.6044
  20404752.3894  -25901011.65249 -20132322.91548  20404752.1034   20404757.0064
      -199.2034       -155.2244
  22321922.9774  -13340695.40149 -10142196.82747  22321921.5404   22321925.4694
      2878.7974       2243.2224
  22170709.4294  -13169064.32049 -10239531.02447  22170707.8144   22170713.1774
     -2382.6464      -1856.6074
 05  1 20  0 56 30.0000000  0  9G18G 6G17G 2G 8G26G29G21G10
  23778704.8194   -8881052.43649  -6902106.11946  23778702.9694   23778707.8174
      2532.1024       1973.0654
  21519883.7194  -18471915.19649 -14369326.67447  21519883.9344   21519888.4924
     -1154.4244       -899.5484
  21320449.2954  -22616669.46849 -17602505.37147  21320448.9544   21320454.3934
     -1749.4144      -1363.1774
  23770056.2014   -9207121.72349  -7135328.56046  23770055.0744   23770057.5254
     -3241.3874      -2525.7584
  24612666.3044   -3080998.52449  -2392424.97145  24612665.0464   24612668.1444
      -338.1884       -263.5134
  19915493.5054  -24760249.67149 -18984969.64848  19915493.4144   19915497.9144
      1086.3814        846.5294
  20405942.6144  -25894755.17549 -20127447.72948  20405942.6734   20405947.3444
      -217.8614       -169.7634
  22305500.9034  -13426990.92849 -10209440.06747  22305500.1344   22305504.3054
      2874.1984       2239.6314
  22184320.0554  -13097533.85549 -10183793.00347  22184319.4934   22184324.5924
     -2386.0754      -1859.2794
 05  1 20  0 57  0.0000000  0  9G18G 6G17G 2G 8G26G29G21G10
  23764260.0524   -8956952.64449  -6961249.09146  23764259.4474   23764264.6704
      2527.8844       1969.7844
  21526522.5604  -18437023.55549 -14342138.37447  21526522.7974   21526528.2224
     -1171.9724       -913.2234
  21330471.8534  -22563999.40949 -17561463.77347  21330471.5234   21330477.5344
     -1761.9784      -1372.9684
  23788576.2504   -9109787.58949  -7059483.76746  23788576.0934   23788579.0084
     -3247.4954      -2530.5234
  24614643.4084   -3070581.44748  -2384307.76644  24614641.3934   24614641.8804
      -356.2534       -277.5974
  19909353.6554  -24792512.99649 -19010109.89548  19909353.8654   19909358.2894
      1064.4504        829.4424
  20407240.8034  -25887938.31149 -20122135.87848  20407240.0454   20407244.6774
      -236.5494       -184.3244
  22289105.4854  -13513147.48549 -10276575.01847  22289105.9854   22289108.6894
      2869.5374       2236.0004
  22197952.3094  -13025899.88049 -10127974.31947  22197951.2314   22197956.8734
     -2389.5054      -1861.9574
 05  1 20  0 57 30.0000000  0  9G18G 6G17G 2G 8G26G29G21G10
  23749839.8744   -9032728.36649  -7020295.06846  23749840.0084   23749844.0734
      2523.7644       1966.5724
  21533264.0524  -18401605.41349 -14314539.81747  21533263.5524   21533268.4054
     -1189.4994       -926.8854
  21340566.7054  -22510952.53649 -17520128.55547  21340566.0254   21340572.0094
     -1774.5384      -1382.7534
  23807133.9224   -9012270.85549  -6983496.72246  23807134.0614   23807136.2954
     -3253.6714      -2535.3304
  24616732.5194   -3059623.68349  -2375769.17445  24616732.0564   24616736.3784
      -374.0994       -291.5034
  19903339.4054  -24824117.43549 -19034736.72248  19903339.6414   19903344.3994
      1042.4954        812.3344
  20408643.4694  -25880562.21849 -20116388.26248  20408643.6234   20408648.0214
      -255.1534       -198.8214
  22272738.0614  -13599163.32449 -10343600.31447  22272737.2934   22272740.2994
      2864.8434       2232.3494
  22211603.2474  -12954163.23449 -10072075.62347  22211601.7884   22211607.5764
     -2392.9234      -1864.6124
 05  1 20  0 58  0.0000000  0  9G18G 6G17G 2G 8G26G29G21G10
  23735442.1694   -9108379.25649  -7079243.78146  23735442.6774   23735448.7094
      2519.6214       1963.3424
  21540102.9684  -18365662.25149 -14286532.14547  21540103.0874   21540108.0044
     -1206.9564       -940.4864
  21350732.9484  -22457529.16649 -17478499.97047  21350732.6384   21350738.3624
     -1787.0564      -1392.5154
  23825726.1004   -8914572.21249  -6907367.96246  23825726.3574   23825728.4904
     -3259.6134      -2539.9504
  24618920.5334   -3048125.33549  -2366809.40945  24618919.8894   24618924.4554
      -392.4514       -305.8044
  19897451.0404  -24855062.94749 -19058850.09948  19897451.0564   19897455.5564
      1020.5284        795.2144
  20410153.8494  -25872627.57949 -20110205.41448  20410153.5394   20410157.9704
      -273.7334       -213.3014
  22256396.7804  -13685036.55449 -10410514.48947  22256396.0034   22256399.3414
      2860.0424       2228.6044
  22225272.4644  -12882324.80649 -10016097.64247  22225272.6824   22225277.9184
     -2396.2844      -1867.2354
 05  1 20  0 58 30.0000000  0  9G18G 6G17G 2G 8G26G29G21G10
  23721072.5664   -9183905.06349  -7138095.02446  23721071.6294   23721074.7104
      2515.4624       1960.1094
  21547042.5374  -18329195.43549 -14258116.43547  21547042.3444   21547047.6154
     -1224.3934       -954.0744
  21360971.0804  -22403729.28049 -17436577.97947  21360970.2844   21360975.5504
     -1799.6264      -1402.3114
  23844351.7644   -8816693.21449  -6831098.59846  23844351.1074   23844354.3304
     -3265.6784      -2544.6814
  24621205.2494   -3036085.84949  -2357428.03145  24621208.3974   24621213.8014
      -410.2874       -319.6954
  19891687.9874  -24885348.31849 -19082449.07648  19891687.7924   19891692.4194
       998.5034        778.0504
  20411769.6574  -25864135.39249 -20103588.11248  20411769.5784   20411773.7294
      -292.3174       -227.7834
  22240083.0644  -13770765.40249 -10477316.16747  22240082.3024   22240085.8054
      2855.1874       2224.8194
  22238963.4404  -12810385.75749  -9960041.22247  22238962.1504   22238966.2104
     -2399.6454      -1869.8594
 05  1 20  0 59  0.0000000  0  9G18G 6G17G 2G 8G26G29G21G10
  23706723.9584   -9259305.95049  -7196848.89646  23706723.3024   23706726.9994
      2511.2834       1956.8544
  21554081.4844  -18292206.52049 -14229293.90447  21554081.4324   21554086.4394
     -1241.7744       -967.6144
  21371279.6304  -22349553.07149 -17394362.75947  21371279.2374   21371285.2554
     -1812.1764      -1412.0864
  23863012.7304   -8718634.82649  -6754689.48446  23863011.3234   23863015.2104
     -3271.5754      -2549.2844
  24623604.1584   -3023505.07549  -2347624.73245  24623604.3044   24623607.0964
      -428.3944       -333.8154
  19886049.8584  -24914973.43949 -19105533.57948  19886050.1864   19886054.8284
       976.4804        760.8924
  20413491.4644  -25855086.74149 -20096537.20348  20413491.3724   20413495.8194
      -310.8294       -242.2044
  22223796.7484  -13856347.43249 -10544003.42047  22223796.1644   22223799.9004
      2850.2524       2220.9754
  22252671.8664  -12738346.89049  -9903907.04947  22252670.6464   22252675.2954
     -2402.9594      -1872.4344
 05  1 20  0 59 30.0000000  0  9G18G 6G17G 2G 8G26G29G21G10
  23692401.1684   -9334581.85649  -7255505.40046  23692400.1034   23692403.2564
      2507.0824       1953.5664
  21561218.6904  -18254697.07549 -14200065.74647  21561218.6774   21561224.0134
     -1259.1104       -981.1284
  21381661.0994  -22295000.33749 -17351854.13947  21381660.2044   21381666.4204
     -1824.7384      -1421.8744
  23881706.8654   -8620398.18549  -6678141.48046  23881706.6724   23881708.3964
     -3277.5134      -2553.9044
  24626100.4074   -3010383.34948  -2337399.96245  24626100.3154   24626108.2844
      -446.4044       -347.8504
  19880538.7964  -24943937.40449 -19128102.89748  19880538.6474   19880543.2244
       954.4154        743.6934
  20415319.2124  -25845482.51649 -20089053.37948  20415318.6904   20415323.5294
      -329.3524       -256.6414
  22207539.3484  -13941780.97449 -10610574.98347  22207538.7554   22207542.5184
      2845.2824       2217.1054
  22266399.0064  -12666209.08149  -9847695.75847  22266398.0984   22266402.8714
     -2406.2414      -1874.9954
                            4  1
RINEX FILE SPLICE; other post-header comments skipped       COMMENT
 05  1 20  1  0  0.0000000  0  9G18G 6G17G 2G 8G26G29G21G10
  23678099.9704   -9409732.48849  -7314064.26746  23678098.5424   23678102.6194
      2502.9374       1950.3354
  21568455.4014  -18216668.63449 -14170433.19047  21568455.4284   21568460.6154
     -1276.3544       -994.5604
  21392113.3374  -22240071.22149 -17309052.24747  21392113.4474   21392118.3824
     -1837.2904      -1431.6544
  23900433.0564   -8521984.53549  -6601455.55846  23900433.4424   23900435.8844
     -3283.4004      -2558.4954
  24628696.6564   -2996720.66848  -2326753.77445  24628699.3144   24628707.3344
      -464.4544       -361.9104
  19875152.5064  -24972239.88549 -19150156.76748  19875152.5184   19875157.2184
       932.3964        726.5444
  20417252.0414  -25835323.84849 -20081137.52548  20417252.1474   20417256.6624
      -347.8034       -271.0204
  22191309.7544  -14027064.11949 -10677029.35047  22191309.6864   22191313.9764
      2840.2394       2213.1634
  22280144.5194  -12593973.26449  -9791408.10647  22280143.8524   22280149.6754
     -2409.4954      -1877.5294
 05  1 20  1  0 30.0000000  0  9G18G 6G17G 2G 8G26G29G21G10
  23663821.8894   -9484757.80349  -7372525.50546  23663821.4944   23663826.0704
      2498.7704       1947.1004
  21575791.4114  -18178122.94849 -14140397.57747  21575790.6184   21575795.6034
     -1293.6024      -1008.0054
  21402638.0294  -22184765.97449 -17265957.24747  21402637.1494   21402643.1214
     -1849.8064      -1441.4084
  23919195.2414   -8423394.71949  -6524632.32746  23919194.3094   23919195.9084
     -3289.2854      -2563.0844
  24631401.7264   -2982516.65749  -2315685.84045  24631402.5144   24631404.4084
      -482.4394       -375.9234
  19869892.4854  -24999880.50349 -19171694.90848  19869892.7814   19869897.7154
       910.2954        709.3184
  20419290.6224  -25824611.64449 -20072790.34548  20419290.5574   20419295.2754
      -366.2694       -285.4064
  22175110.3374  -14112194.87149 -10743364.97347  22175109.1684   22175113.7994
      2835.1174       2209.1794
  22293910.4684  -12521640.11749  -9735044.61047  22293909.2794   22293913.8244
     -2412.7484      -1880.0634
 05  1 20  1  1  0.0000000  0  9G18G 6G17G 2G 8G26G29G21G10
  23649567.5864   -9559657.87349  -7430889.16146  23649568.1254   23649573.7414
      2494.5884       1943.8434
  21583223.1414  -18139061.46249 -14109960.05847  21583223.0344   21583228.8854
     -1310.7714      -1021.3794
  21413233.8384  -22129084.47849 -17222569.07647  21413232.7514   21413238.8194
     -1862.3364      -1451.1764
  23937987.3784   -8324630.16449  -6447672.96746  23937988.3864   23937991.0504
     -3294.9844      -2567.5194
  24634212.0034   -2967771.58649  -2304196.15345  24634208.4074   24634212.7384
      -500.4614       -389.9684
  19864759.2294  -25026858.42649 -19192716.65748  19864759.1064   19864763.4854
       888.2314        692.1264
  20421434.0334  -25813347.02549 -20064012.71548  20421434.2194   20421438.5604
      -384.6554       -299.7334
  22158938.7674  -14197171.05949 -10809580.17147  22158938.7384   22158943.1564
      2829.9724       2205.1794
  22307693.0644  -12449210.64049  -9678606.05347  22307691.7414   22307696.5194
     -2415.9064      -1882.5324
 05  1 20  1  1 30.0000000  0  9G18G 6G17G 2G 8G26G29G21G10
  23635341.7274   -9634431.99349  -7489154.68046  23635339.8254   23635343.6374
      2490.3804       1940.5574
  21590754.4534  -18099485.80949 -14079121.87447  21590754.3494   21590759.7224
     -1327.8824      -1034.7154
  21423900.3484  -22073027.12349 -17178888.03547  21423900.1994   21423906.4854
     -1874.8664      -1460.9324
  23956816.2734   -8225691.96949  -6370578.33046  23956815.4514   23956817.4774
     -3300.7704      -2572.0254
  24637116.7294   -2952485.07048  -2292284.62945  24637118.7404   24637123.4724
      -518.5184       -404.0434
  19859751.4264  -25053173.72249 -19213222.08248  19859751.6124   19859756.1324
       866.1024        674.8834
  20423682.9414  -25801531.05049 -20054805.45048  20423682.5774   20423687.1534
      -403.0104       -314.0324
  22142798.7064  -14281991.01649 -10875673.61847  22142798.5474   22142802.1434
      2824.6954       2201.0574
  22321492.1024  -12376685.80649  -9622093.19447  22321491.6024   22321498.0534
     -2419.0804      -1884.9954
 05  1 20  1  2  0.0000000  0  9G18G 6G17G 2G 8G26G29G21G10
  23621134.4734   -9709080.27549  -7547322.12746  23621133.7064   23621139.1874
      2486.1764       1937.2814
  21598382.8294  -18059397.60249 -14047884.31447  21598383.2164   21598388.3614
     -1344.9144      -1047.9784
  21434639.7884  -22016593.79349 -17134914.00747  21434638.8054   21434645.3044
     -1887.3784      -1470.6844
  23975676.8144   -8126581.22149  -6293349.20346  23975675.1084   23975677.5744
     -3306.5554      -2576.5434
  24640133.4054   -2936657.73248  -2279951.65945  24640132.0034   24640134.1094
      -536.5354       -418.0824
  19854870.1014  -25078825.37349 -19233210.37748  19854869.9444   19854874.8204
       844.0104        657.6714
  20426036.0084  -25789164.90949 -20045169.48248  20426035.7834   20426040.3134
      -421.3354       -328.3144
  22126688.6644  -14366652.61549 -10941643.68947  22126688.3564   22126691.7344
      2819.4044       2196.9474
  22335311.3164  -12304066.48149  -9565506.71347  22335311.2814   22335316.5534
     -2422.1804      -1887.4014
 05  1 20  1  2 30.0000000  0  9G18G 6G17G 2G 8G26G29G21G10
  23606952.4924   -9783603.06749  -7605391.80846  23606952.1624   23606958.1804
      2482.0354       1934.0554
  21606109.3294  -18018798.68649 -14016248.77947  21606108.7854   21606113.8424
     -1361.9254      -1061.2354
  21445450.4054  -21959784.87949 -17090647.31647  21445449.6014   21445455.6874
     -1899.9204      -1480.4534
  23994568.0304   -8027299.17049  -6215986.58246  23994569.1684   23994570.8734
     -3312.2374      -2580.9634
  24643246.3344   -2920289.52858  -2267197.16354  24643249.9174   24643245.2904
      -554.6554       -432.2144
  19850115.0064  -25103813.24849 -19252681.44548  19850115.1274   19850119.4294
       821.8614        640.4114
  20428493.2644  -25776249.50049 -20035105.51748  20428493.5084   20428497.8634
      -439.6384       -342.5744
  22110609.4804  -14451153.85249 -11007488.77447  22110608.3634   22110611.6094
      2814.0134       2192.7404
  22349148.9964  -12231353.45549  -9508847.20047  22349148.2514   22349153.5214
     -2425.3314      -1889.8644
 05  1 20  1  3  0.0000000  0  9G18G 6G17G 2G 8G26G29G21G10
  23592798.0114   -9857999.84149  -7663363.30146  23592795.6414   23592801.6004
      2477.8174       1930.7734
  21613932.3914  -17977690.53349 -13984216.45247  21613931.9794   21613936.6144
     -1378.9004      -1074.4684
  21456332.7444  -21902600.24249 -17046087.86347  21456331.9374   21456337.5224
     -1912.4614      -1490.2254
  24013492.2904   -7927846.91849  -6138491.31446  24013492.8724   24013496.6784
     -3317.9354      -2585.3934
  24646459.3394   -2903380.68558  -2254021.37554  24646461.4474   24646465.7634
      -572.5004       -446.1184
  19845485.9244  -25128137.17249 -19271635.14548  19845486.2524   19845490.9614
       799.7014        623.1464
  20431055.3864  -25762786.18349 -20024614.61048  20431055.4244   20431060.1464
      -457.9084       -356.8094
  22094560.3574  -14535492.71149 -11073207.35247  22094558.9894   22094562.4244
      2808.5694       2188.5054
  22363004.1824  -12158547.51049  -9452115.29847  22363003.1734   22363008.9354
     -2428.4204      -1892.2644
 05  1 20  1  3 30.0000000  0  9G18G 6G17G 2G 8G26G29G21G10
  23578662.4784   -9932270.67149  -7721236.63446  23578661.8904   23578667.0524
      2473.5864       1927.4794
  21621850.6014  -17936074.92449 -13951788.71147  21621850.4534   21621855.6594
     -1395.7854      -1087.6264
  21467285.9104  -21845040.13149 -17001235.83447  21467285.0404   21467290.5884
     -1924.9514      -1499.9684
  24032450.1144   -7828225.72349  -6060864.44645  24032449.2444   24032453.1984
     -3323.4944      -2589.7274
  24649784.7564   -2885930.94948  -2240424.19145  24649782.8814   24649788.0574
      -590.6764       -460.2674
  19840984.1304  -25151796.48749 -19290070.97048  19840984.3024   19840988.6504
       777.5684        605.8974
  20433721.7944  -25748775.97649 -20013697.55748  20433721.4994   20433725.8174
      -476.1084       -370.9924
  22078542.0674  -14619667.20449 -11138797.85947  22078541.2324   22078544.2424
      2803.0314       2184.1764
  22376875.5704  -12085649.75649  -9395311.86247  22376874.9694   22376879.9574
     -2431.4634      -1894.6464
 05  1 20  1  4  0.0000000  0  9G18G 6G17G 2G 8G26G29G21G10
  23564554.5654  -10006415.31449  -7779011.63746  23564554.6184   23564556.3754
      2469.4094       1924.2134
  21629865.7314  -17893953.62349 -13918966.90947  21629865.9774   21629871.3494
     -1412.6104      -1100.7384
  21478310.4594  -21787104.97949 -16956091.56247  21478309.6064   21478315.3444
     -1937.4624      -1509.7114
  24051439.8304   -7728436.66649  -5983106.74945  24051439.3374   24051443.3524
     -3329.0894      -2594.1074
  24653207.0894   -2867940.95849  -2226406.07544  24653204.6344   24653211.1754
      -608.6664       -474.2724
  19836608.6674  -25174791.35049 -19307989.03948  19836608.8234   19836613.2164
       755.3834        588.6064
  20436491.4604  -25734220.01649 -20002355.23948  20436491.3124   20436495.8964
      -494.2404       -385.1244
  22062556.0404  -14703675.12849 -11204258.55847  22062555.2864   22062558.0244
      2797.4684       2179.8424
  22390765.2434  -12012661.09649  -9338437.56647  22390763.6944   22390768.6584
     -2434.4494      -1896.9794
 05  1 20  1  4 30.0000000  0  9G18G 6G17G 2G 8G26G29G21G10
  23550469.3364  -10080433.84449  -7836688.36346  23550468.4324   23550472.2504
      2465.1764       1920.9094
  21637978.4114  -17851328.35049 -13885752.40347  21637977.5704   21637982.8284
     -1429.3514      -1113.7814
  21489406.5434  -21728794.58449 -16910654.88947  21489406.0054   21489411.6654
     -1949.9704      -1519.4634
  24070460.1574   -7628481.09349  -5905219.28745  24070460.4464   24070462.6234
     -3334.6534      -2598.4414
  24656729.6764   -2849410.84858  -2211967.03154  24656732.3874   24656733.0454
      -626.7114       -488.3524
  19832359.8974  -25197121.09649 -19325388.83448  19832359.4734   19832363.7624
       733.2444        571.3564
  20439364.5854  -25719119.69249 -19990588.74048  20439364.7414   20439369.4724
      -512.3614       -399.2424
  22046602.1584  -14787514.64049 -11269588.03847  22046600.9814   22046604.3634
      2791.8194       2175.4344
  22404671.0864  -11939582.39149  -9281493.11447  22404670.5144   22404676.2174
     -2437.4274      -1899.2924
 05  1 20  1  5  0.0000000  0  9G18G 6G17G 2G 8G26G29G21G10
  23536404.4774  -10154325.79149  -7894266.43646  23536405.1084   23536410.5324
      2460.9604       1917.6334
  21646184.2374  -17808200.93249 -13852146.61947  21646184.4264   21646189.5734
     -1446.0614      -1126.7984
  21500572.8234  -21670109.36749 -16864926.16547  21500572.9754   21500579.2384
     -1962.4494      -1529.1804
  24089514.3744   -7528359.90149  -5827202.76445  24089512.6594   24089515.8284
     -3340.1174      -2602.6894
  24660363.9654   -2830340.63848  -2197107.05344  24660360.7274   24660362.7944
      -644.8404       -502.4824
  19828235.9124  -25218785.44449 -19342270.14448  19828236.3994   19828241.3144
       711.0694        554.0784
  20442342.0164  -25703476.19249 -19978398.99148  20442341.6734   20442346.1064
      -530.4654       -413.3504
  22030679.4074  -14871183.67149 -11334784.67247  22030679.1034   22030682.5644
      2786.1124       2170.9924
  22418594.8354  -11866414.13149  -9224478.88747  22418593.9234   22418598.8294
     -2440.4024      -1901.6134
 05  1 20  1  5 30.0000000  0  9G18G 6G17G 2G 8G26G29G21G10
  23522370.4204  -10228091.12449  -7951745.89246  23522369.8564   23522373.1824
      2456.7294       1914.3334
  21654486.1644  -17764573.17249 -13818150.94447  21654485.8484   21654491.6894
     -1462.7104      -1139.7714
  21511812.7324  -21611049.60649 -16818905.57047  21511811.7074   21511817.7054
     -1974.9284      -1538.9114
  24108596.2164   -7428074.47949  -5749058.32445  24108595.9874   24108598.9474
     -3345.5774      -2606.9384
  24664092.5094   -2810730.40758  -2181826.41154  24664091.9914   24664097.9304
      -662.7934       -516.4574
  19824240.4974  -25239784.77149 -19358633.24248  19824240.5614   19824245.2104
       688.8624        536.7774
  20445421.8324  -25687290.67449 -19965786.88948  20445421.7784   20445426.3024
      -548.4914       -427.3964
  22014790.4624  -14954680.20849 -11399846.90147  22014789.8984   22014794.0844
      2780.3234       2166.4824
  22432535.9004  -11793156.97949  -9167395.37947  22432533.9494   22432539.9084
     -2443.3804      -1903.9354
 05  1 20  1  6  0.0000000  0  9G18G 6G17G 2G 8G26G29G21G10
  23508356.7334  -10301730.04449  -8009126.83346  23508356.2604   23508360.5284
      2452.5374       1911.0634
  21662884.0534  -17720446.74549 -13783766.72447  21662883.3644   21662888.4024
     -1479.3174      -1152.7164
  21523122.1624  -21551615.34949 -16772593.16847  21523121.8504   21523127.8464
     -1987.4324      -1548.6444
  24127711.1234   -7327625.88449  -5670786.77345  24127710.3304   24127715.4944
     -3350.9754      -2611.1434
  24667927.2314   -2790580.72758  -2166125.45354  24667924.4044   24667925.7424
      -680.6444       -530.3824
  19820371.0674  -25260118.16149 -19374477.43748  19820371.1864   19820375.8784
       666.6704        519.4824
  20448604.9304  -25670564.36049 -19952753.38748  20448604.7284   20448609.1004
      -566.5144       -441.4434
  21998934.9824  -15038002.26649 -11464773.17947  21998934.5454   21998938.4204
      2774.4574       2161.9104
  22446491.7534  -11719812.10249  -9110243.52047  22446490.9014   22446495.4914
     -2446.2804      -1906.1984
 05  1 20  1  6 30.0000000  0  9G18G 6G17G 2G 8G26G29G21G10
  23494367.1184  -10375242.45849  -8066409.20446  23494367.4414   23494372.2494
      2448.2714       1907.7544
  21671375.4134  -17675823.57549 -13748995.42047  21671375.2134   21671379.6444
     -1495.8514      -1165.5984
  21534503.4274  -21491806.89049 -16725989.19047  21534503.0234   21534508.6024
     -1999.9094      -1558.3694
  24146857.5384   -7227015.55149  -5592389.15845  24146857.4644   24146861.4964
     -3356.4124      -2615.3954
  24671862.0024   -2769892.10058  -2150004.37054  24671869.8354
      -698.6354       -544.3974
  19816628.6284  -25279786.03549 -19389803.04348  19816628.6304   19816633.1394
       644.4844        502.1944
  20451890.1184  -25653298.48449 -19939299.44748  20451890.1824   20451894.7374
      -584.4714       -455.4284
  21983112.7424  -15121147.50549 -11529561.65947  21983112.1184   21983116.5614
      2768.5404       2157.3044
  22460465.4574  -11646380.19249  -9053023.84447  22460464.4614   22460469.8554
     -2449.1774      -1908.4494
 05  1 20  1  7  0.0000000  0  9G18G 6G17G 2G 8G26G29G21G10
  23480403.4954  -10448627.87849  -8123592.62346  23480402.8514   23480407.4824
      2444.0414       1904.4364
  21679960.5404  -17630705.57649 -13713838.53347  21679960.6464   21679965.7474
     -1512.2934      -1178.4044
  21545956.6024  -21431624.58849 -16679093.89047  21545955.8554   21545961.1244
     -2012.3334      -1568.0554
  24166033.5374   -7126244.54549  -5513866.33045  24166034.0224   24166036.6614
     -3361.6574      -2619.4664
  24675901.5164   -2748664.51358  -2133463.25654
      -716.6364       -558.4344
  19813012.5134  -25298787.92749 -19404609.70648  19813012.3684   19813017.1774
       622.2884        484.8974
  20455278.5894  -25635494.63349 -19925426.30748  20455278.3224   20455282.6114
      -602.3534       -469.3684
  21967325.0774  -15204113.98649 -11594210.84347  21967324.5364   21967328.2344
      2762.5354       2152.6144
  22474455.8354  -11572862.02249  -8995736.96947  22474455.0034   22474460.4224
     -2452.0384      -1910.6794
 05  1 20  1  7 30.0000000  0  9G18G 6G17G 2G 8G26G29G21G10
  23466462.2234  -10521886.48149  -8180677.22346  23466462.5504   23466466.1224
      2439.8824       1901.2004
  21688639.6964  -17585094.46949 -13678297.40347  21688639.9434   21688645.2094
     -1528.7104      -1191.2024
  21557479.2184  -21371068.45949 -16631907.31347  21557479.3034   21557484.3444
     -2024.7784      -1577.7504
  24185242.5584   -7025314.12449  -5435219.25545  24185241.4384   24185242.7004
     -3367.0254      -2623.6554
  24680046.0984   -2726898.83648  -2116503.27444
      -734.6194       -572.4324
  19809523.2814  -25317124.06949 -19418897.60948  19809523.4144   19809527.8894
       600.1004        467.6094
  20458768.4684  -25617153.81549 -19911134.75248  20458768.3754   20458772.8474
      -620.2614       -483.3224
  21951570.9784  -15286899.66449 -11658719.14647  21951570.5874   21951574.3224
      2756.4934       2147.9174
  22488461.7114  -11499258.23149  -8938383.36347  22488461.1514   22488466.8954
     -2454.8744      -1912.8814
 05  1 20  1  8  0.0000000  0  9G18G 6G17G 2G 8G26G29G21G10
  23452546.6664  -10595018.18649  -8237662.93946  23452546.1404   23452549.9804
      2435.6184       1897.8804
  21697413.6924  -17538992.14949 -13642373.51447  21697412.9464   21697418.5014
     -1545.0724      -1203.9554
  21569074.2464  -21310138.99949 -16584429.82147  21569073.4484   21569079.3464
     -2037.2404      -1587.4534
  24204475.0884   -6924225.42749  -5356448.91045  24204476.9364   24204478.7504
     -3372.2654      -2627.7444
  24684290.2174   -2704594.32758  -2099123.13754  24684287.7234   24684299.2104
      -752.5884       -586.4304
  19806160.6564  -25334794.02349 -19432666.39348  19806160.8574   19806165.5094
       577.8774        450.2944
  20462360.3964  -25598277.52349 -19896425.94648  20462360.2934   20462364.8294
      -638.1044       -497.2204
  21935853.0434  -15369502.46249 -11723084.95347  21935852.4904   21935855.3184
      2750.3284       2143.1114
  22502484.8714  -11425569.86749  -8880963.84347  22502483.7994   22502489.3304
     -2457.7194      -1915.1094
 05  1 20  1  8 30.0000000  0  9G18G 6G17G 2G 8G26G29G21G10
  23438653.7974  -10668022.74749  -8294549.58146  23438654.1354   23438657.2744
      2431.4044       1894.5914
  21706279.9084  -17492400.53749 -13606068.35947  21706279.4214   21706284.0844
     -1561.3224      -1216.6164
  21580740.0164  -21248836.41949 -16536661.59347  21580739.2014   21580744.1934
     -2049.6684      -1597.1494
  24223740.2204   -6822979.86049  -5277556.27745  24223741.6414   24223745.2004
     -3377.4764      -2631.8014
  24688629.8504   -2681751.93558  -2081323.96054  24688642.0774
      -770.5354       -600.4184
  19802925.3684  -25351798.23649 -19445916.41848  19802925.2464   19802929.6754
       555.7134        433.0224
  20466053.9604  -25578866.99949 -19881300.85448  20466053.8664   20466058.7174
      -655.8674       -511.0644
  21920169.1264  -15451920.28149 -11787306.61047  21920168.7644   21920171.9814
      2744.1674       2138.3144
  22516522.7534  -11351797.75349  -8823479.08647  22516522.2454   22516526.9044
     -2460.4534      -1917.2444
 05  1 20  1  9  0.0000000  0  9G18G 6G17G 2G 8G26G29G21G10
  23424785.8064  -10740900.11849  -8351337.13146  23424785.2174   23424789.8184
      2427.0924       1891.2404
  21715238.0694  -17445321.64149 -13569383.49947  21715237.9084   21715243.1694
     -1577.5024      -1229.2224
  21592475.7534  -21187161.07549 -16488602.90047  21592475.1944   21592480.9614
     -2062.0904      -1606.8254
  24243037.1784   -6721578.49549  -5198542.25845  24243039.3634   24243041.6794
     -3382.5994      -2635.7904
  24693089.9544   -2658371.60158  -2063105.60354
      -788.3134       -614.2834
  19799816.0544  -25368136.23249 -19458647.31248  19799816.1944   19799820.6464
       533.4704        415.6894
  20469849.1844  -25558923.63649 -19865760.56248  20469848.9864   20469853.6294
      -673.6114       -524.8944
  21904520.0104  -15534151.09649 -11851382.56047  21904520.5774   21904524.1844
      2737.8884       2133.4244
  22530577.1834  -11277942.52049  -8765929.55947  22530576.3654   22530581.9194
     -2463.2234      -1919.3994
 05  1 20  1  9 30.0000000  0  9G18G 6G17G 2G 8G26G29G21G10
  23410941.5754  -10813650.39049  -8408025.61346  23410941.8184   23410944.4764
      2422.9014       1887.9564
  21724289.1664  -17397757.38949 -13532320.43847  21724288.8994   21724294.2914
     -1593.6894      -1241.8374
  21604282.7054  -21125112.99649 -16440253.77247  21604282.2484   21604288.5704
     -2074.5244      -1616.5084
  24262364.6834   -6620022.53849  -5119407.79945  24262363.2184   24262367.9134
     -3387.7504      -2639.8044
  24697626.0524   -2634455.55757  -2044469.73254
      -805.9164       -627.9674
  19796833.8284  -25383808.38149 -19470859.36148  19796833.6324   19796838.3254
       511.2684        398.3904
  20473745.2184  -25538448.86049 -19849806.18448  20473745.2574   20473749.7664
      -691.3304       -538.7024
  21888909.2784  -15616192.79149 -11915311.14747  21888908.6304   21888912.1464
      2731.5174       2128.4484
  22544647.0924  -11204004.98349  -8708315.89847  22544646.2314   22544651.2154
     -2465.9614      -1921.5234
 05  1 20  1 10  0.0000000  0  9G18G 6G17G 2G 8G26G29G21G10
  23397122.5914  -10886273.40649  -8464614.95546  23397121.4834   23397125.2174
      2418.6624       1884.6644
  21733431.9104  -17349709.50349 -13494880.52547  21733432.3284   21733437.8194
     -1609.7484      -1254.3464
  21616160.3994  -21062692.78449 -16391614.65947  21616160.1964   21616166.8134
     -2086.8844      -1626.1444
  24281717.2394   -6518313.33449  -5040153.93345  24281716.8904   24281722.8294
     -3392.8484      -2643.7784
  24702296.6424   -2610001.84048     14180.02643
      -824.0034       -642.0804
  19793977.9234  -25398814.64849 -19482552.54948  19793978.1244   19793982.7484
       489.1284        381.1404
  20477742.8094  -25517444.04249 -19833438.78248  20477742.4904   20477746.7364
      -708.9194       -552.4024
  21873334.0394  -15698043.03249 -11979090.55547  21873333.2894   21873336.5174
      2725.1474       2123.4944
  22558731.2454  -11129985.73649  -8650638.55747  22558730.9944   22558736.3064
     -2468.6484      -1923.6374
 05  1 20  1 10 30.0000000  0  9G18G 6G17G 2G 8G26G29G21G10
  23383326.7174  -10958768.93649  -8521104.96046  23383326.1424   23383330.3354
      2414.4034       1881.3584
  21742667.9794  -17301180.21549 -13457065.49047  21742667.3964   21742671.8724
     -1625.7824      -1266.8394
  21628110.3844  -20999900.71449 -16342685.79247  21628109.6664   21628115.8284
     -2099.2804      -1635.8024
  24301103.8864   -6416452.03449  -4960781.48745  24301102.8344   24301106.5124
     -3397.8544      -2647.6784
  24707050.4614   -2585011.96758     33656.86854
      -841.9104       -656.1704
  19791249.2234  -25413155.09749 -19493726.91448  19791249.4414   19791253.9864
       466.9154        363.8304
  20481840.0234  -25495910.71149 -19816659.55248  20481840.1984   20481844.4674
      -726.5454       -566.1404
  21857794.9394  -15779699.86249 -12042719.25347  21857794.5984   21857797.6204
      2718.6544       2118.4314
  22572833.1934  -11055885.52649  -8592898.14247  22572832.4124   22572837.2944
     -2471.3574      -1925.7364
 05  1 20  1 11  0.0000000  0  9G18G 6G17G 2G 8G26G29G21G10
  23369554.4804  -11031136.73249  -8577495.42146  23369553.9584   23369558.4524
      2410.1734       1878.0524
  21751994.1664  -17252171.50349 -13418876.88247  21751993.4194   21751997.8984
     -1641.7394      -1279.2704
  21640130.3424  -20936737.11649 -16293467.42647  21640129.8244   21640135.3004
     -2111.6744      -1645.4574
  24320514.1154   -6314439.97849  -4881291.61345  24320514.3794   24320517.2784
     -3402.8824      -2651.5924
  24711905.3054   -2559487.00758     53551.20154
      -859.7694       -670.1164
  19788646.8674  -25426830.05049 -19504382.71548  19788646.9084   19788651.4764
       444.7264        346.5424
  20486038.2554  -25473850.12449 -19799469.47448  20486038.0094   20486042.6354
      -744.0794       -579.8004
  21842293.2864  -15861161.22549 -12106195.63647  21842292.6214   21842296.1714
      2712.0914       2113.3154
  22586949.0874  -10981705.28949  -8535095.33747  22586947.9664   22586954.8664
     -2474.0114      -1927.7914
 05  1 20  1 11 30.0000000  0  9G18G 6G17G 2G 8G26G29G21G10
  23355807.3344  -11103376.98849  -8633786.50846  23355806.8494   23355810.9474
      2405.8954       1874.7314
  21761409.2334  -17202685.20449 -13380316.13747  21761409.9614   21761415.0344
     -1657.6354      -1291.6604
  21652220.0214  -20873202.35749 -16243959.82747  21652219.5814   21652225.2274
     -2124.0774      -1655.1274
  24339955.2904   -6212278.50749  -4801685.32345  24339955.2394   24339957.5634
     -3407.8874      -2655.4984
  24716864.7594   -2533426.41558     13423.88653
      -877.5294       -683.7884
  19786171.1984  -25439839.15549 -19514519.67148  19786171.4524   19786176.0224
       422.5174        329.2364
  20490335.8254  -25451263.88249 -19781869.80248  20490335.9584   20490340.5814
      -761.6014       -593.4544
  21826829.1584  -15942424.87049 -12169517.95947  21826828.5224   21826832.0234
      2705.4554       2108.1484
  22601080.1394  -10907445.72749  -8477230.74447  22601080.1654   22601085.3814
     -2476.6554      -1929.8604
 05  1 20  1 12  0.0000000  0  9G18G 6G17G 2G 8G26G29G21G10
  23342085.0024  -11175489.70249  -8689978.22446  23342084.8424   23342089.0974
      2401.6024       1871.3824
  21770917.8534  -17152723.30849 -13341384.77347  21770917.6114   21770923.1994
     -1673.4224      -1303.9674
  21664381.8414  -20809296.70749 -16194163.22047  21664380.5714   21664386.2844
     -2136.4004      -1664.7284
  24359427.3654   -6109968.62149  -4721963.34645  24359425.5864   24359428.2044
     -3412.8014      -2659.3314
  24721925.9954   -2506831.64157     34144.20954
      -895.2964       -697.4844
  19783822.2604  -25452183.16349 -19524138.36648  19783822.3584   19783826.7404
       400.3514        311.9654
  20494734.0264  -25428153.28049 -19763861.52948  20494733.6084   20494738.3364
      -779.0004       -607.0114
  21811403.2824  -16023488.81049 -12232684.65647  21811402.6644   21811406.2524
      2698.7794       2102.9434
  22615226.4414  -10833107.54549  -8419304.89046  22615225.7554   22615231.2584
     -2479.2304      -1931.8684
 05  1 20  1 12 30.0000000  0  8G18G 6G17G 2G26G29G21G10
  23328387.2974  -11247474.51349  -8746070.26346  23328387.4144   23328392.0144
      2397.3614       1868.0644
  21780514.7204  -17102288.15949 -13302084.65847  21780514.9574   21780520.1694
     -1689.1554      -1316.2254
  21676612.1684  -20745020.75049 -16144078.05447  21676611.9644   21676617.7044
     -2148.7374      -1674.3394
  24378922.5084   -6007511.57949  -4642126.73645  24378921.7824   24378925.5154
     -3417.6644      -2663.1184
  19781599.9484  -25463862.11049 -19533238.82748  19781600.0564   19781604.3234
       378.2274        294.7224
  20499231.3004  -25404520.03649 -19745446.00348  20499231.0364   20499235.7134
      -796.4204       -620.5914
  21796015.9064  -16104350.51549 -12295693.76147  21796015.2264   21796018.8664
      2692.0054       2097.6654
  22629386.5164  -10758691.34849  -8361318.25046  22629386.2794   22629392.2204
     -2481.8224      -1933.8884
 05  1 20  1 13  0.0000000  0  8G18G 6G17G 2G26G29G21G10
  23314714.6444  -11319331.45949  -8802062.67246  23314714.4074   23314717.4324
      2393.0884       1864.7434
  21790202.7494  -17051381.57849 -13262417.18847  21790202.3684   21790206.8334
     -1704.8674      -1328.4714
  21688915.5394  -20680374.73749 -16093704.54647  21688914.1924   21688919.7024
     -2161.0724      -1683.9544
  24398441.6014   -5904908.99549  -4562176.70845  24398443.6194   24398449.3304
     -3422.4904      -2666.8714
  19779503.4684  -25474876.06249 -19541821.11648  19779503.7794   19779508.6384
       356.0484        277.4414
  20503828.0154  -25380365.45649 -19726624.25048  20503827.8374   20503832.0954
      -813.8204       -634.1474
  21780666.8954  -16185008.01649 -12358543.75947  21780666.6964   21780670.3974
      2685.1534       2092.3294
  22643562.6784  -10684197.98849  -8303271.48146  22643561.7724   22643567.6724
     -2484.3954      -1935.8904
 05  1 20  1 13 30.0000000  0  8G18G 6G17G 2G26G29G21G10
  23301062.6744  -11391060.50349  -8857955.41046  23301063.1824   23301067.5234
      2388.7794       1861.3744
  21799978.3764  -17000005.67949 -13222384.02347  21799978.1934   21799983.0854
     -1720.5134      -1340.6564
  21701286.0374  -20615359.12349 -16043043.05447  21701285.8574   21701290.7884
     -2173.3744      -1693.5394
  24417997.7294   -5802161.85949  -4482114.03445  24417998.0944   24418000.9734
     -3427.2944      -2670.6194
  19777534.8934  -25485225.61749 -19549885.69248  19777534.8344   19777539.0684
       333.9244        260.2004
  20508523.1364  -25355691.17949 -19707397.53048  20508522.9144   20508527.2674
      -831.1064       -647.6174
  21765357.6024  -16265459.40849 -12421233.13947  21765357.3704   21765361.0454
      2678.2494       2086.9444
  22657754.0854  -10609628.07049  -8245165.06946  22657752.2214   22657757.5924
     -2486.9134      -1937.8514
 05  1 20  1 14  0.0000000  0  8G18G 6G17G 2G26G29G21G10
  23287438.9554  -11462661.42149  -8913748.32846  23287438.5334   23287442.7104
      2384.5444       1858.0774
  21809844.9604  -16948162.74449 -13181986.93247  21809844.7624   21809849.1574
     -1736.0184      -1352.7414
  21713729.0234  -20549974.33149 -15992093.88747  21713728.2714   21713733.8154
     -2185.6844      -1703.1324
  24437578.8764   -5699271.45249  -4401939.69745  24437577.3794   24437580.8584
     -3432.0954      -2674.3564
  19775691.5394  -25494910.81449 -19557432.58248  19775691.3754   19775696.1714
       311.7514        242.9254
  20513316.8634  -25330498.73649 -19687767.04548  20513316.5884   20513321.5394
      -848.3314       -661.0354
  21750087.4614  -16345702.43049 -12483760.15047  21750086.9764   21750090.9994
      2671.2704       2081.5094
  22671957.4624  -10534982.34749  -8186999.55946  22671956.8144   22671962.6554
     -2489.4354      -1939.8204
 05  1 20  1 14 30.0000000  0  8G18G 6G17G 2G26G29G21G10
  23273837.5844  -11534134.14049  -8969441.34946  23273836.1814   23273841.9124
      2380.3084       1854.7914
  21819798.3474  -16895854.65949 -13141227.38147  21819798.1834   21819803.3624
     -1751.4844      -1364.7944
  21726240.1344  -20484220.82549 -15940857.39647  21726239.8584   21726245.8804
     -2197.9524      -1712.6914
  24457184.7914   -5596239.09549  -4321654.78845  24457183.7714   24457182.9354
     -3436.7594      -2678.0034
  19773975.1004  -25503931.94949 -19564462.02948  19773975.0654   19773979.8094
       289.6394        225.6934
  20518209.0164  -25304789.65449 -19667733.98748  20518209.0404   20518213.8234
      -865.5404       -674.4464
  21734857.7324  -16425734.83049 -12546123.04947  21734857.1804   21734861.2944
      2664.1984       2075.9974
  22686177.5784  -10460261.61149  -8128775.62446  22686176.1004   22686181.2484
     -2491.9404      -1941.7724
 05  1 20  1 15  0.0000000  0  8G18G 6G17G 2G26G29G21G10
  23260260.8304  -11605478.87049  -9025034.61646  23260260.9294   23260265.8004
      2376.0234       1851.4494
  21829840.1204  -16843083.54849 -13100107.02247  21829839.4584   21829844.7624
     -1766.8704      -1376.7794
  21738822.0814  -20418098.87349 -15889333.83647  21738822.8544   21738829.2654
     -2210.2274      -1722.2584
  24476817.1934   -5493065.94849  -4241260.06245  24476816.3234   24476821.2964
     -3441.4284      -2681.6304
  19772384.0634  -25512289.58149 -19570974.46348  19772384.4834   19772389.0194
       267.5164        208.4564
  20523199.0294  -25278565.67149 -19647299.71148  20523199.1854   20523204.1654
      -882.6644       -687.7874
  21719669.4304  -16505554.07549 -12608319.85847  21719668.8864   21719672.0434
      2657.0564       2070.4364
  22700409.0744  -10385466.21349  -8070493.49246  22700408.9974   22700414.8404
     -2494.4254      -1943.7114
 05  1 20  1 15 30.0000000  0  8G18G 6G17G 2G26G29G21G10
  23246709.6964  -11676695.15749  -9080527.82746  23246708.4864   23246713.0694
      2371.7244       1848.0934
  21839969.3114  -16789851.70249 -13058627.67747  21839969.8844   21839974.4714
     -1782.1984      -1388.7254
  21751476.5224  -20351609.19949 -15837523.71947  21751475.5284   21751482.1274
     -2222.4834      -1731.7984
  24496475.0144   -5389753.50449  -4160756.91345  24496476.6334   24496479.7434
     -3446.0734      -2685.2444
  19770920.4294  -25519984.12849 -19576970.20348  19770920.3944   19770924.8454
       245.4374        191.2514
  20528287.4594  -25251828.09749 -19626465.22948  20528287.2134   20528292.0144
      -899.8014       -701.1424
  21704521.5914  -16585158.33449 -12670349.15347  21704520.4494   21704524.0004
      2649.8644       2064.8304
  22714655.4324  -10310596.81149  -8012153.70446  22714655.5094   22714661.5684
     -2496.8594      -1945.5884
 05  1 20  1 16  0.0000000  0  8G18G 6G17G 2G26G29G21G10
  23233181.2614  -11747782.92749  -9135920.89546  23233181.6204   23233184.6534
      2367.4654       1844.7664
  21850187.4084  -16736161.19249 -13016790.90947  21850186.8334   21850191.8614
     -1797.4334      -1400.5944
  21764198.0934  -20284752.23049 -15785427.40347  21764197.6384   21764204.2694
     -2234.7084      -1741.3294
  24516163.7594   -5286302.99649  -4080146.22245  24516164.8304   24516165.4574
     -3450.6084      -2688.7794
  19769582.3424  -25527015.92849 -19582449.52048  19769582.2544   19769586.8234
       223.3644        174.0514
  20533473.2964  -25224578.68649 -19605231.91748  20533472.7164   20533477.2694
      -916.7744       -714.3674
  21689414.0944  -16664545.46249 -12732209.25747  21689413.9174   21689417.2264
      2642.6024       2059.1644
  22728917.4514  -10235654.29149  -7953756.92846  22728916.9334   22728921.9634
     -2499.2954      -1947.5034
 05  1 20  1 16 30.0000000  0  8G18G 6G17G 2G26G29G21G10
  23219677.7454  -11818742.20249  -9191213.80446  23219677.8344   23219683.0444
      2363.1894       1841.4404
  21860490.6364  -16682014.37249 -12974598.57547  21860490.3884   21860495.3614
     -1812.5804      -1412.4044
  21776990.6444  -20217528.20149 -15733045.09047  21776990.6834   21776996.1804
     -2246.9384      -1750.8654
  24535877.1374   -5182715.61549  -3999428.87445  24535878.1114   24535878.7504
     -3455.1564      -2692.3324
  19768370.2224  -25533385.26149 -19587412.62548  19768370.3084   19768374.6194
       201.2894        156.8494
  20538755.5434  -25196819.08049 -19583601.04748  20538755.3924   20538759.4724
      -933.7524       -727.6014
  21674349.1654  -16743713.34949 -12793898.50347  21674348.3624   21674352.2564
      2635.2544       2053.4444
  22743193.6714  -10160639.23349  -7895303.64646  22743190.9324   22743197.0124
     -2501.6894      -1949.3664
 05  1 20  1 17  0.0000000  0  8G18G 6G17G 2G26G29G21G10
  23206200.6244  -11889572.94049  -9246406.56446  23206199.4284   23206204.1414
      2358.8954       1838.0994
  21870880.9494  -16627413.06249 -12932052.10547  21870880.8504   21870885.9774
     -1827.7264      -1424.2074
  21789852.9754  -20149937.65649 -15680377.15047  21789852.1174   21789858.2074
     -2259.1454      -1760.3694
  24555612.2234   -5078992.84349  -3918605.96044  24555612.1374   24555614.1734
     -3459.6784      -2695.8504
  19767284.2444  -25539093.02549 -19591860.23048  19767284.1174   19767288.4494
       179.2234        139.6554
  20544134.6124  -25168550.91449 -19561573.89548  20544134.3294   20544139.0004
      -950.6934       -740.8014
  21659325.8554  -16822659.73149 -12855415.16147  21659325.3174   21659329.1834
      2627.8394       2047.6654
  22757480.0934  -10085552.43149  -7836794.43246  22757480.0434   22757485.3174
     -2504.0904      -1951.2504
 05  1 20  1 17 30.0000000  0  8G18G 6G17G 2G26G29G21G10
  23192745.0844  -11960275.11649  -9301499.16546  23192745.3974   23192749.8584
      2354.5864       1834.7454
  21881357.6074  -16572359.81449 -12889153.46247  21881356.9784   21881362.3114
     -1842.7414      -1435.9044
  21802784.3234  -20081981.17049 -15627424.07747  21802784.7084   21802789.4804
     -2271.3404      -1769.8734
  24575376.8574   -4975136.00749  -3837678.52044  24575377.8784   24575382.5704
     -3464.1664      -2699.3524
  19766323.7964  -25544139.28149 -19595792.36248  19766323.7454   19766328.3954
       157.1644        122.4654
  20549610.0334  -25139775.69849 -19539151.64648  20549610.0644   20549614.7004
      -967.5784       -753.9614
  21644345.7634  -16901382.23149 -12916757.36247  21644345.5454   21644348.7574
      2620.3234       2041.8104
  22771782.6324  -10010394.38149  -7778229.73046  22771782.5014   22771787.8244
     -2506.4594      -1953.0734
 05  1 20  1 18  0.0000000  0  8G18G 6G17G 2G26G29G21G10
  23179316.7014  -12030848.65649  -9356491.51246  23179316.3284   23179320.1804
      2350.2984       1831.3944
  21891919.6394  -16516856.72849 -12845904.30747  21891919.4274   21891923.4534
     -1857.7364      -1447.5904
  21815786.1394  -20013659.39749 -15574186.34647  21815785.4694   21815791.1834
     -2283.4994      -1779.3534
  24595163.7124   -4871146.33148  -3756647.62044  24595159.3064   24595161.2504
     -3468.5604      -2702.7774
  19765488.9044  -25548524.72249 -19599209.57948  19765489.1164   19765493.6044
       135.1834        105.3344
  20555182.1564  -25110495.19749 -19516335.66448  20555182.1644   20555186.7044
      -984.3894       -767.0564
  21629408.8534  -16979878.54749 -12977923.30847  21629407.5784   21629411.6064
      2612.7494       2035.9024
  22786098.1384   -9935165.79049  -7719610.04746  22786098.5564   22786103.0254
     -2508.7654      -1954.8844
 05  1 20  1 18 30.0000000  0  8G18G 6G17G 2G26G29G21G10
  23165911.8754  -12101293.22149  -9411383.35746  23165910.6164   23165914.8154
      2346.0124       1828.0604
  21902565.2764  -16460906.08949 -12802306.41747  21902565.8264   21902570.3974
     -1872.5974      -1459.1614
  21828856.5794  -19944972.78749 -15520664.34947  21828856.1404   21828862.6864
     -2295.6564      -1788.8084
  24614974.2564   -4767024.83148  -3675514.03544  24614975.7534
     -3472.7904      -2706.0694
  19764779.8024  -25552250.07149 -19602112.44248  19764779.9754   19764784.7054
       113.1804         88.1934
  20560850.1204  -25080711.28249 -19493127.41148  20560849.8974   20560854.5444
     -1001.1194       -780.0904
  21614513.7194  -17058146.63949 -13038911.41547  21614513.3714   21614517.5954
      2605.1004       2029.9514
  22800427.6514   -9859867.20749  -7660935.82746  22800426.9894   22800432.7104
     -2511.0994      -1956.6974
 05  1 20  1 19  0.0000000  0  8G18G 6G17G 2G26G29G21G10
  23152529.5834  -12171609.04249  -9466174.90046  23152529.3804   23152534.0504
      2341.7404       1824.7364
  21913298.4404  -16404510.09149 -12758361.47047  21913297.5894   21913302.6514
     -1887.4214      -1470.7194
  21841996.8994  -19875921.93549 -15466858.51647  21841996.1574   21842001.6524
     -2307.7984      -1798.2854
  24634816.3644   -4662773.24049  -3594278.98645  24634817.5134   24634817.9984
     -3477.2264      -2709.5274
  19764196.8944  -25555315.60449 -19604501.15448  19764196.9544   19764201.3864
        91.2024         71.0644
  20566613.5314  -25050425.33349 -19469527.96548  20566612.9234   20566617.4314
     -1017.8374       -793.1194
  21599664.3274  -17136184.33249 -13099719.99447  21599663.6884   21599667.2854
      2597.3864       2023.9364
  22814769.8404   -9784499.54049  -7602207.77746  22814769.4744   22814773.7964
     -2513.3924      -1958.4834
 05  1 20  1 19 30.0000000  0  9G18G 6G17G 2G 8G26G29G21G10
  23139172.4894  -12241796.07649  -9520866.08246  23139172.3634   23139177.6304
      2337.4464       1821.3974
  21924113.7174  -16347670.96849 -12714071.25247  21924113.9634   21924118.8164
     -1902.1224      -1482.1724
  21855206.0584  -19806507.20549 -15412769.15747  21855205.4424   21855210.8844
     -2319.9104      -1807.7214
  24654683.3104   -4558392.73249  -3512943.49745  24654679.4774   24654685.2784
     -3481.4094      -2712.7824
                     31231.66341
     -1159.8174
  19763738.8754  -25557722.21149 -19606376.42548  19763738.9034   19763743.3834
        69.2214         53.9394
  20572471.6954  -25019639.18249 -19445538.75548  20572471.5194   20572475.9884
     -1034.4844       -806.0914
  21584858.6184  -17213989.37949 -13160347.29547  21584858.0134   21584861.6754
      2589.6014       2017.8694
  22829124.7834   -9709063.20549  -7543426.20446  22829123.7454   22829129.5014
     -2515.6654      -1960.2624
 05  1 20  1 20  0.0000000  0  9G18G 6G17G 2G 8G26G29G21G10
  23125841.9814  -12311854.10849  -9575456.74646  23125841.9864   23125846.0694
      2333.1344       1818.0244
  21935014.2864  -16290391.18549 -12669437.64747  21935013.5574   21935019.1004
     -1916.7814      -1493.5944
  21868484.4614  -19736729.20549 -15358396.69647  21868483.6904   21868489.2894
     -2331.9944      -1817.1344
  24674564.8064   -4453884.68549  -3431508.73845  24674567.9174   24674570.7964
     -3485.6924      -2716.1264
                     66286.67041
     -1177.2404
  19763406.2014  -25559470.60049 -19607738.79348  19763406.3574   19763410.8154
        47.3274         36.8794
  20578424.5024  -24988354.81949 -19421161.32348  20578424.6594   20578429.0604
     -1051.0354       -818.9874
  21570097.6284  -17291559.30049 -13220791.38347  21570097.2534   21570100.3524
      2581.7404       2011.7504
  22843493.3904   -9633558.90249  -7484591.67446  22843492.9224   22843496.7954
     -2517.9234      -1962.0284
 05  1 20  1 20 30.0000000  0  9G18G 6G17G 2G 8G26G29G21G10
  23112535.8964  -12381782.86949  -9629946.66346  23112535.5034   23112539.6234
      2328.7824       1814.6334
  21945997.4564  -16232672.78649 -12624462.27147  21945997.2474   21946002.5034
     -1931.4024      -1504.9854
  21881831.4714  -19666588.66849 -15303741.75547  21881830.7824   21881836.9734
     -2344.1024      -1826.5744
  24694474.0524   -4349250.39448  -3349975.58345  24694478.3704   24694480.1284
     -3489.9224      -2719.4164
                    101863.92541     38823.807 4                  24817709.063
     -1194.5894       -913.419
  19763198.7314  -25560561.40149 -19608588.76348  19763198.8324   19763203.2794
        25.3944         19.7874
  20584472.3154  -24956573.63249 -19396396.76048  20584472.4604   20584476.8414
     -1067.6474       -831.9324
  21555380.8494  -17368892.20349 -13281050.78947  21555380.9274   21555384.4344
      2573.7704       2005.5364
  22857872.5154   -9557987.14849  -7425704.58846  22857872.8864   22857878.8994
     -2520.1794      -1963.7754
 05  1 20  1 21  0.0000000  0  8G18G 6G17G 2G26G29G21G10
  23099252.8324  -12451582.30949  -9684335.81946  23099252.4914   23099257.2234
      2324.4904       1811.2894
  21957063.8244  -16174518.18249 -12579146.98847  21957063.6904   21957068.8124
     -1945.8824      -1516.2804
  21895248.0324  -19596086.06449 -15248804.66347  21895246.5854   21895252.7854
     -2356.1384      -1835.9584
  24714414.3714   -4244491.09049  -3268345.03745  24714412.4444   24714414.2354
     -3494.0874      -2722.6674
  19763116.1164  -25560995.21649 -19608926.78948  19763116.0424   19763120.5974
         3.5124          2.7394
  20590614.3724  -24924297.48549 -19371246.51248  20590614.4434   20590618.7264
     -1084.1014       -844.7554
  21540711.1894  -17445985.81149 -13341123.72447  21540710.6804   21540714.0674
      2565.7674       1999.3034
  22872267.3494   -9482348.35849  -7366765.28046  22872266.7084   22872271.7164
     -2522.4274      -1965.5274
 05  1 20  1 21 30.0000000  0  8G18G 6G17G 2G26G29G21G10
  23085994.4144  -12521252.30749  -9738624.11946  23085994.6204   23085999.5894
      2320.1544       1807.9044
  21968212.8264  -16115929.75449 -12533493.66147  21968212.7314   21968218.0014
     -1960.3134      -1527.5234
  21908732.4004  -19525222.21949 -15193586.13147  21908731.9064   21908738.3664
     -2368.1894      -1845.3464
  24734372.6744   -4139608.28049  -3186618.17444  24734373.7564   24734375.5844
     -3498.1914      -2725.8674
  19763158.2534  -25560772.75549 -19608753.43748  19763158.4134   19763162.9414
       -18.3814        -14.3224
  20596850.2774  -24891528.19849 -19345711.99548  20596850.0164   20596854.6344
     -1100.4844       -857.5194
  21526086.3424  -17522837.66949 -13401008.28047  21526085.8054   21526089.3034
      2557.6634       1992.9884
  22886672.5404   -9406643.20649  -7307774.26546  22886672.4454   22886678.1054
     -2524.6314      -1967.2464
 05  1 20  1 22  0.0000000  0  8G18G 6G17G 2G26G29G21G10
  23072763.2844  -12590792.69349  -9792811.43346  23072761.9844   23072766.4714
      2315.8864       1804.5824
  21979444.5674  -16056909.99549 -12487504.24847  21979443.8174   21979449.2814
     -1974.6354      -1538.6744
  21922286.2944  -19453997.49849 -15138086.36247  21922285.7194   21922291.6654
     -2380.1914      -1854.6884
  24754356.0324   -4034603.18749  -3104796.08044  24754353.4064   24754362.1724
     -3502.2304      -2729.0004
  19763325.4364  -25559894.76649 -19608069.27548  19763325.4684   19763329.8704
       -40.1714        -31.3044
  20603179.6884  -24858267.47449 -19319794.54148  20603179.4434   20603183.8844
     -1116.8124       -870.2454
  21511508.5834  -17599445.37449 -13460702.58447  21511507.9904   21511511.8464
      2549.5094       1986.6284
  22901091.8964   -9330872.42949  -7248732.10146  22901091.0094   22901095.9174
     -2526.7874      -1968.9174
 05  1 20  1 22 30.0000000  0  8G18G 6G17G 2G26G29G21G10
  23059553.7334  -12660203.84849  -9846898.02946  23059553.3144   23059557.3944
      2311.5744       1801.2324
  21990756.5224  -15997461.04349 -12441180.39247  21990756.5464   21990761.1004
     -1988.8944      -1549.7864
  21935908.4944  -19382412.45149 -15082305.81947  21935907.6054   21935914.0914
     -2392.1964      -1864.0474
  24774360.1394   -3929477.24549  -3022879.80644  24774360.4254   24774359.8384
     -3506.2594      -2732.1564
  19763616.9354  -25558362.36149 -19606875.18548  19763617.1624   19763621.5694
       -61.9974        -48.3104
  20609602.3044  -24824517.10349 -19293495.55348  20609602.0684   20609606.4824
     -1133.1474       -882.9704
  21496977.4674  -17675807.07849 -13520205.19847  21496976.7434   21496980.7714
      2541.2794       1980.2204
  22915523.9144   -9255036.75649  -7189639.37946  22915522.7634   22915528.1704
     -2528.9234      -1970.5744
 05  1 20  1 23  0.0000000  0  8G18G 6G17G 2G26G29G21G10
  23046369.3954  -12729485.60049  -9900883.79146  23046368.9564   23046373.5944
      2307.2644       1797.8664
  22002151.4094  -15937585.25349 -12394523.92247  22002150.4864   22002155.1864
     -2003.0424      -1560.8124
  21949599.0934  -19310468.07649 -15026245.28947  21949598.9004   21949604.6724
     -2404.1524      -1873.3604
  24794388.2464   -3824232.01349  -2940870.42345  24794386.2344   24794389.4434
     -3510.1724      -2735.2094
  19764033.0504  -25556175.92449 -19605171.45448  19764033.0584   19764037.7134
       -83.7654        -65.2714
  20616116.9234  -24790279.24949 -19266816.70248  20616116.9254   20616121.7414
     -1149.3134       -895.5664
  21482493.3594  -17751920.25449 -13579514.16547  21482492.9694   21482496.7704
      2532.9594       1973.7344
  22929967.8314   -9179136.74149  -7130496.51146  22929966.2944   22929971.0864
     -2531.0754      -1972.2484
 05  1 20  1 23 30.0000000  0  8G18G 6G17G 2G26G29G21G10
  23033210.1874  -12798637.86649  -9954768.66046  23033210.2984   23033214.9614
      2302.8934       1794.4634
  22013624.2754  -15877285.18249 -12347536.86247  22013624.6724   22013630.2504
     -2017.2164      -1571.8574
  21963358.3664  -19238164.81949 -14969905.13147  21963357.6484   21963363.4274
     -2416.1434      -1882.7074
  24814439.3274   -3718868.41049  -2858768.89545  24814438.6984   24814440.5764
     -3514.1664      -2738.3124
  19764573.3204  -25553336.62349 -19602959.00448  19764573.3804   19764577.9484
      -105.5314        -82.2344
  20622724.9464  -24755555.26049 -19239759.05148  20622724.6824   20622729.2814
     -1165.5274       -908.2054
  21468057.2404  -17827782.57349 -13638627.65947  21468057.1954   21468060.7444
      2524.5284       1967.1624
  22944421.8754   -9103172.74749  -7071303.79346  22944421.0024   22944426.5564
     -2533.1904      -1973.9154
 05  1 20  1 24  0.0000000  0  9G18G 6G17G 2G 8G26G29G21G10
  23020077.8844  -12867660.28349 -10008552.35346  23020075.9494   23020079.7124
      2298.5824       1791.1114
  22025180.9054  -15816563.09949 -12300220.94947  22025180.9964   22025185.2194
     -2031.2194      -1582.7674
  21977186.1254  -19165503.39249 -14913285.84947  21977185.2154   21977190.3154
     -2428.0254      -1891.9694
  24834506.7954   -3613387.97948  -2776576.48144  24834508.3184   24834508.4624
     -3517.8974      -2741.2314
  24873554.5834      25158.61249      8452.99243
     -1315.3124      -1024.9194
  19765237.7254  -25549845.14349 -19600238.36548  19765237.8614   19765242.3344
      -127.2374        -99.1464
  20629425.5714  -24720347.23849 -19212324.21948  20629424.6944   20629429.0514
     -1181.6294       -920.7484
  21453669.7784  -17903391.83449 -13697543.96247  21453669.0724   21453672.3874
      2516.0854       1960.5894
  22958889.1454   -9027145.35949  -7012061.65646  22958888.3634   22958894.7764
     -2535.2994      -1975.5454
 05  1 20  1 24 30.0000000  0  9G18G 6G17G 2G 8G26G29G21G10
  23006965.4544  -12936552.94749 -10062234.92546  23006965.1324   23006971.0294
      2294.2664       1787.7434
  22036815.0064  -15755421.59449 -12252578.21447  22036815.2284   22036820.6024
     -2045.1574      -1593.6254
  21991080.0134  -19092484.33949 -14856387.85447  21991079.4524   21991085.9014
     -2439.9744      -1901.2784
  24854599.1644   -3507792.15058  -2694293.95754  24854598.6224   24854602.2654
     -3521.6644      -2744.1574
                     64874.56741     26457.286 3                  24877949.816
     -1332.4074      -1033.899
  19766026.1944  -25545702.53749 -19597010.35148  19766026.1334   19766030.4274
      -148.9394       -116.0604
  20636216.1994  -24684656.84749 -19184513.52648  20636216.4474   20636220.7944
     -1197.6544       -933.2364
  21439330.1454  -17978745.90549 -13756261.41147  21439329.3804   21439332.7744
      2507.5134       1953.9044
  22973370.6574   -8951055.09449  -6952770.56546  22973369.3304   22973372.8934
     -2537.3774      -1977.1704
 05  1 20  1 25  0.0000000  0  9G18G 6G17G 2G 8G26G29G21G10
  22993880.6404  -13005315.65049 -10115816.24446  22993880.5604   22993885.0934
      2289.9204       1784.3544
  22048528.8384  -15693862.86349 -12204610.37547  22048529.0234   22048534.6034
     -2059.0204      -1604.4374
  22005043.3904  -19019108.42849 -14799211.83347  22005042.8994   22005048.1594
     -2451.8234      -1910.5134
  24874718.4834   -3402082.20748  -2611922.58244  24874718.2254   24874725.6874
     -3525.5904      -2747.2204
                    105103.18841     26457.286 3                  24877949.816
     -1349.4194      -1033.899
  19766937.9814  -25540909.74149 -19593275.70048  19766938.0704   19766942.7344
      -170.5994       -132.9334
  20643100.1764  -24648486.14949 -19156328.55648  20643099.6974   20643104.0924
     -1213.6104       -945.6684
  21425039.6574  -18053842.40949 -13814778.16047  21425039.1864   21425042.6614
      2498.8974       1947.1934
  22987859.2754   -8874902.76949  -6893431.07946  22987858.6554   22987864.5074
     -2539.4464      -1978.7894
 05  1 20  1 25 30.0000000  0  8G18G 6G17G 2G26G29G21G10
  22980822.1774  -13073948.22449 -10169296.17646  22980820.8374   22980824.9104
      2285.6014       1780.9834
  22060323.0344  -15631889.46549 -12156319.41747  22060322.2444   22060327.8834
     -2072.7954      -1615.1684
  22019073.7344  -18945376.69649 -14741758.56747  22019073.3244   22019078.6204
     -2463.6574      -1919.7284
  24894854.8694   -3296259.52149  -2529463.43744  24894855.4254   24894859.5904
     -3529.3554      -2750.1514
  19767973.9274  -25535467.64049 -19589035.09648  19767973.8604   19767978.4084
      -192.1994       -149.7654
  20650073.9204  -24611836.98949 -19127770.77448  20650073.6144   20650078.2434
     -1229.5554       -958.0974
  21410798.3434  -18128679.17149 -13873092.51747  21410798.2964   21410801.7494
      2490.2154       1940.4254
  23002364.7494   -8798688.65849  -6834043.45046  23002363.5304   23002367.6424
     -2541.4434      -1980.3454
 05  1 20  1 26  0.0000000  0  8G18G 6G17G 2G26G29G21G10
  22967786.0464  -13142450.64049 -10222674.65646  22967784.7994   22967788.6984
      2281.2354       1777.5824
  22072194.6894  -15569503.91649 -12107707.30547  22072194.2954   22072198.8054
     -2086.5214      -1625.8574
  22033171.8814  -18871289.19449 -14684028.04347  22033171.7614   22033178.1424
     -2475.5544      -1929.0004
  24915012.5964   -3190325.48149  -2446917.48545  24915012.8484   24915017.5854
     -3533.0974      -2753.0684
  19769132.4484  -25529377.08349 -19584289.20048  19769132.7414   19769137.4774
      -213.8204       -166.6134
  20657138.7324  -24574711.15349 -19098841.54748  20657138.4364   20657142.9134
     -1245.3974       -970.4384
  21396606.8594  -18203253.56249 -13931202.41347  21396607.0394   21396610.6574
      2481.4004       1933.5584
  23016877.9074   -8722413.12249  -6774607.98446  23016877.2454   23016882.8984
     -2543.5104      -1981.9554
 05  1 20  1 26 30.0000000  0  8G18G 6G17G 2G26G29G21G10
  22954775.0444  -13210823.54049 -10275952.22147  22954775.0394   22954778.3074
      2276.8984       1774.2094
  22084143.9554  -15506708.64749 -12058775.92547  22084143.5304   22084148.9764
     -2100.1134      -1636.4604
  22047338.6044  -18796847.20949 -14626021.33647  22047337.8624   22047342.8204
     -2487.3484      -1938.1904
  24935196.9924   -3084281.58649  -2364285.94344  24935195.4864   24935196.9014
     -3536.5714      -2755.7684
  19770415.1544  -25522639.29649 -19579038.97148  19770414.7994   19770419.4504
      -235.3874       -183.4184
  20664293.4714  -24537110.58649 -19069542.40648  20664293.3894   20664298.0214
     -1261.2274       -982.7734
  21382466.3044  -18277563.25549 -13989106.06747  21382466.4024   21382469.8414
      2472.5444       1926.6644
  23031403.6524   -8646076.68949  -6715125.03946  23031403.2984   23031408.7674
     -2545.5704      -1983.5494
 05  1 20  1 27  0.0000000  0  7G18G 6G17G26G29G21G10
  22941789.6734  -13279066.08649 -10329128.22647  22941788.9584   22941791.9034
      2272.5964       1770.8534
  22096171.4034  -15443506.08649 -12009527.19047  22096170.9394   22096175.8364
     -2113.6494      -1647.0014
  22061572.2074  -18722051.07549 -14567738.63847  22061570.5954   22061576.5694
     -2499.0814      -1947.3364
  19771820.0284  -25515255.14549 -19573285.08548  19771820.2024   19771824.4814
      -256.9224       -200.2004
  20671539.1124  -24499037.33649 -19039874.93348  20671538.8994   20671543.2364
     -1276.9504       -995.0314
  21368377.0834  -18351606.31049 -14046801.94547  21368376.5214   21368379.9344
      2463.6294       1919.7074
  23045942.4084   -8569680.08549  -6655595.22246  23045942.0284   23045947.2014
     -2547.5804      -1985.1374
 05  1 20  1 27 30.0000000  0  7G18G 6G17G26G29G21G10
  22928826.1144  -13347178.38549 -10382202.72946  22928825.9744   22928830.7394
      2268.2314       1767.4544
  22108274.9804  -15379898.71049 -11959962.99047  22108274.4464   22108279.8784
     -2127.0894      -1657.4704
  22075870.6994  -18646901.82249 -14509180.78347  22075870.5864   22075877.7434
     -2510.8544      -1956.5164
  19773348.2374  -25507225.90349 -19567028.52548  19773348.1314   19773352.3634
      -278.3864       -216.9274
  20678873.6384  -24460493.13349 -19009840.48848  20678873.7114   20678877.7154
     -1292.6174      -1007.2384
  21354338.5714  -18425380.41049 -14104288.25147  21354337.7844   21354341.5344
      2454.6374       1912.7024
  23060492.7044   -8493223.90749  -6596018.98646  23060491.9414   23060496.0374
     -2549.5424      -1986.6584
 05  1 20  1 28  0.0000000  0  7G18G 6G17G26G29G21G10
  22915890.2754  -13415160.23049 -10435175.59346  22915889.8104   22915894.0814
      2263.8904       1764.0664
  22120455.0644  -15315889.11449 -11910085.39747  22120455.3964   22120460.4834
     -2140.4704      -1667.8964
  22090238.5934  -18571400.21249 -14450348.35646  22090237.8594   22090244.3784
     -2522.6014      -1965.6654
  19774998.3224  -25498552.47349 -19560269.99948  19774998.4914   19775002.7984
      -299.8534       -233.6554
  20686297.2054  -24421480.13049 -18979440.74648  20686297.3404   20686301.4454
     -1308.2004      -1019.3774
  21340351.2324  -18498883.24349 -14161563.17747  21340350.7684   21340354.3984
      2445.5384       1905.6164
  23075051.6674   -8416708.57449  -6536396.66546  23075050.8394   23075055.5294
     -2551.4884      -1988.1774
 05  1 20  1 28 30.0000000  0  7G18G 6G17G26G29G21G10
  22902977.9404  -13483011.43249 -10488046.64346  22902977.8764   22902982.2114
      2259.5224       1760.6624
  22132712.0314  -15251479.68949 -11859896.22147  22132711.7814   22132716.7874
     -2153.7424      -1678.2484
  22104673.8754  -18495546.80049 -14391241.78847  22104672.9034   22104678.9984
     -2534.3634      -1974.8284
  19776771.2534  -25489236.23649 -19553010.58348  19776771.3054   19776775.8144
      -321.2624       -250.3374
  20693810.3294  -24382000.06949 -18948677.05748  20693810.0484   20693814.4224
     -1323.7304      -1031.4794
  21326416.6034  -18572112.23349 -14218624.72648  21326415.8624   21326419.4544
      2436.3564       1898.4574
  23089622.1654   -8340134.63649  -6476728.65546  23089622.5684   23089628.0574
     -2553.3954      -1989.6664
 05  1 20  1 29  0.0000000  0  7G18G 6G17G26G29G21G10
  22890090.5814  -13550731.97349 -10540815.89646  22890090.8724   22890094.6844
      2255.1964       1757.3074
  22145044.0544  -15186673.12849 -11809397.61347  22145044.6434   22145049.5154
     -2166.9494      -1688.5274
  22119174.6114  -18419342.57249 -14331861.86746  22119174.3164   22119179.5104
     -2545.9924      -1983.8854
  19778666.1124  -25479278.09849 -19545250.99148  19778666.2494   19778670.8534
      -342.6144       -266.9714
  20701410.9564  -24342054.88549 -18917550.94148  20701411.2154   20701415.9544
     -1339.2354      -1043.5574
  21312533.0474  -18645065.08649 -14275471.10248  21312533.1134   21312536.9874
      2427.1544       1891.2944
  23104204.9044   -8263502.50649  -6417015.31646  23104204.4014   23104209.9694
     -2555.3804      -1991.2094
 05  1 20  1 29 30.0000000  0  7G18G 6G17G26G29G21G10
  22877228.6484  -13618322.00649 -10593483.44146  22877229.2654   22877233.3274
      2250.8354       1753.8924
  22157452.3164  -15121471.90449 -11758591.46147  22157451.8414   22157456.9754
     -2180.0464      -1698.7394
  22133741.6714  -18342788.51949 -14272209.36146  22133741.6594   22133748.3094
     -2557.6544      -1992.9834
  19780682.8544  -25468679.35449 -19536992.22248  19780683.0264   19780687.6014
      -363.9544       -283.6004
  20709100.4604  -24301646.54849 -18886063.92648  20709100.5704   20709105.1244
     -1354.6214      -1055.5474
  21298704.4234  -18717739.24549 -14332100.30948  21298703.3824   21298707.4074
      2417.8234       1884.0224
  23118800.3274   -8186812.69249  -6357257.03146  23118798.5784   23118804.3884
     -2557.3014      -1992.7074
 05  1 20  1 30  0.0000000  0  8G 9G18G 6G17G26G29G21G10
                   -101488.07941    -46688.677 3                  24638780.998
      3681.7034       2869.662
  22864393.5334  -13685781.20049 -10646049.03947  22864392.4414   22864395.7784
      2246.4564       1750.4854
  22169933.4974  -15055878.59549 -11707479.80447  22169933.7284   22169938.7614
     -2193.0944      -1708.9134
  22148376.7194  -18265885.15849 -14212284.68046  22148375.8084   22148382.3104
     -2569.2824      -2002.0354
  19782821.6804  -25457440.90249 -19528234.98548  19782821.6134   19782826.3384
      -385.2554       -300.1994
  20716878.1754  -24260777.28249 -18854217.74248  20716877.8674   20716882.3994
     -1369.9384      -1067.4834
  21284927.8134  -18790132.89949 -14388510.94547  21284927.4334   21284930.9694
      2408.4084       1876.6834
  23133403.1894   -8110065.59649  -6297454.06746  23133403.3134   23133408.8744
     -2559.1784      -1994.1594
 05  1 20  1 30 30.0000000  0  8G 9G18G 6G17G26G29G21G10
  24614951.5424    -211975.29949   -144257.49145
      3683.9984       2870.6724
  22851581.2804  -13753109.63849 -10698512.74647  22851580.6044   22851584.1114
      2242.1024       1747.0984
  22182489.5664  -14989895.62649 -11656064.49747  22182489.6304   22182495.5794
     -2206.0454      -1718.9984
  22163077.6264  -18188633.26349 -14152088.41146  22163076.9724   22163082.0154
     -2580.9024      -2011.0994
  19785081.9774  -25445564.50949 -19518980.64848  19785081.6324   19785086.3574
      -406.5184       -316.7644
  20724742.9154  -24219448.84449 -18822013.76748  20724742.6674   20724747.0034
     -1385.2404      -1079.4054
  21271205.6354  -18862243.66649 -14444701.15648  21271205.3044   21271208.7274
      2398.9394       1869.3074
  23148020.0694   -8033261.77449  -6237606.94546  23148018.5644   23148023.2994
     -2561.0724      -1995.6414
 05  1 20  1 31  0.0000000  0  8G 9G18G 6G17G26G29G21G10
  24593916.3034    -322528.50149   -230402.76545                  24593916.5974
      3686.2244       2872.3824
  22838793.7704  -13820307.05449 -10750874.36247  22838793.3434   22838797.1134
      2237.7484       1743.6934
  22195119.4154  -14923525.63149 -11604347.62647  22195120.1624   22195124.9824
     -2218.8934      -1729.0124
  22177844.0924  -18111033.68549 -14091621.23646  22177843.8494   22177849.5154
     -2592.4704      -2020.1084
  19787463.0934  -25433051.08449 -19509229.91948  19787462.9534   19787467.3054
      -427.7294       -333.2954
  20732694.2814  -24177663.52149 -18789453.76948  20732694.1744   20732698.4544
     -1400.4124      -1091.2314
  21257537.5104  -18934069.00049 -14500668.94048  21257537.2924   21257540.8204
      2389.3964       1861.8674
  23162644.9924   -7956401.67549  -6177715.95946  23162644.8384   23162649.5354
     -2562.9254      -1997.0764
 05  1 20  1 31 30.0000000  0  8G 9G18G 6G17G26G29G21G10
  24572862.5514    -433144.72549   -316597.11645  24572863.8614   24572867.2454
      3688.1844       2873.9094
  22826032.0574  -13887373.74249 -10803134.10547  22826031.9224   22826034.1924
      2233.3664       1740.2864
  22207823.2284  -14856771.34649 -11552331.29647  22207822.1784   22207827.7414
     -2231.6544      -1738.9514
  22192675.3994  -18033087.27149 -14030883.80846  22192675.6384   22192682.3404
     -2603.9814      -2029.0754
  19789964.8864  -25419901.98849 -19498983.86148  19789965.0714   19789969.5764
      -448.9004       -349.7904
  20740732.3644  -24135423.15349 -18756539.19348  20740732.1834   20740736.4114
     -1415.5724      -1103.0424
  21243924.2774  -19005606.69449 -14556412.58748  21243924.1534   21243927.6594
      2379.7734       1854.3704
  23177281.3534   -7879485.97849  -6117781.62446  23177280.8524   23177286.1874
     -2564.7684      -1998.5434
 05  1 20  1 32  0.0000000  0  8G 9G18G 6G17G26G29G21G10
  24551799.4004    -543821.39349   -402838.55845  24551797.5884   24551806.1694
      3690.1844       2875.4644
  22813293.7164  -13954309.34649 -10855291.71347  22813293.1844   22813297.6044
      2228.9954       1736.8814
  22220597.9514  -14789635.11249 -11500017.34947  22220598.4844   22220603.1854
     -2244.3644      -1748.8584
  22207576.2704  -17954795.44049 -13969877.23946  22207574.8864   22207580.6844
     -2615.5134      -2038.0654
  19792587.8354  -25406118.28849 -19488243.31248  19792587.9594   19792592.4744
      -470.0214       -366.2514
  20748856.6224  -24092729.55549 -18723271.45748  20748856.5694   20748860.9044
     -1430.6374      -1114.7844
  21230366.7964  -19076854.63149 -14611930.46248  21230366.5204   21230369.8934
      2370.0534       1846.7934
  23191929.5694   -7802514.98949  -6057804.21146  23191928.9614   23191933.4794
     -2566.5994      -1999.9584
 05  1 20  1 32 30.0000000  0  8G 9G18G 6G17G26G29G21G10
  24530728.7094    -654555.26249   -489124.66245  24530728.8464   24530734.6414
      3692.0824       2876.9444
  22800580.4874  -14021113.79249 -10907347.11247  22800580.6134   22800584.2464
      2224.6414       1733.4824
  22233445.8074  -14722119.82149 -11447408.03947  22233446.0194   22233451.1174
     -2256.9314      -1758.6444
  22222538.8574  -17876158.37049 -13908601.65546  22222538.5214   22222545.3744
     -2627.0404      -2047.0264
  19795331.4534  -25391701.62049 -19477009.54348  19795331.1794   19795335.9364
      -491.1134       -382.6854
  20757066.7104  -24049585.08049 -18689652.38348  20757066.4954   20757070.7644
     -1445.6184      -1126.4574
  21216864.7124  -19147809.81249 -14667220.20748  21216864.1004   21216867.5394
      2360.2774       1839.1794
  23206586.2544   -7725489.21449  -5997784.13646  23206585.8474   23206591.3954
     -2568.4474      -2001.3824
 05  1 20  1 33  0.0000000  0  8G 9G18G 6G17G26G29G21G10
  24509648.5594    -765343.45849   -575453.06745  24509647.5334   24509653.1744
      3693.8004       2878.2824
  22787893.7774  -14087786.84149 -10959300.12547  22787893.2814   22787897.1464
      2220.2304       1730.0454
  22246366.1184  -14654228.02549 -11394505.34647  22246365.6584   22246370.4784
     -2269.4404      -1768.3984
  22237569.6244  -17797177.36049 -13847057.99246  22237568.2974   22237574.4394
     -2638.4854      -2055.9694
  19798194.6864  -25376653.31149 -19465283.58848  19798194.9974   19798199.7104
      -512.1454       -399.0754
  20765362.2194  -24005991.87449 -18655683.65348  20765362.0334   20765366.6954
     -1460.5334      -1138.0784
  21203418.5044  -19218470.56549 -14722280.53648  21203417.9164   21203421.0824
      2350.4074       1831.4844
  23221254.4074   -7648408.94249  -5937721.59446  23221253.9224   23221258.5864
     -2570.2274      -2002.7854
 05  1 20  1 33 30.0000000  0  8G 9G18G 6G17G26G29G21G10
  24488557.0004    -876183.10949   -661821.50445  24488556.1824   24488561.8094
      3695.4684       2879.5814
  22775231.3274  -14154328.65649 -11011150.89246  22775230.4444   22775233.9424
      2215.8634       1726.6454
  22259355.9204  -14585962.28149 -11341311.26547  22259355.8454   22259360.9564
     -2281.8734      -1778.0894
  22252663.1454  -17717852.79549 -13785246.69046  22252663.3684   22252669.3764
     -2649.9174      -2064.8734
  19801178.0704  -25360974.78549 -19453066.55348  19801178.3404   19801182.9914
      -533.1184       -415.4204
  20773743.1144  -23961951.73349 -18621366.65348  20773742.6694   20773746.9504
     -1475.4164      -1149.6774
  21190028.6434  -19288834.10449 -14777109.26648  21190028.1514   21190031.7044
      2340.4634       1823.7384
  23235932.3054   -7571274.68249  -5877616.96846  23235931.2824   23235937.7324
     -2572.0604      -2004.1994
 05  1 20  1 34  0.0000000  0  8G 9G18G 6G17G26G29G21G10
  24467456.8044    -987071.29749   -748227.82745  24467454.7294   24467460.3694
      3697.0424       2880.8134
  22762592.7324  -14220738.92749 -11062899.14347  22762592.6794   22762597.4494
      2211.5124       1723.2554
  22272417.9784  -14517325.20649 -11287827.82247  22272417.2404   22272422.0634
     -2294.1704      -1787.6604
  22267824.8234  -17638186.01349 -13723168.71046  22267823.5804   22267829.2254
     -2661.2574      -2073.6974
  19804282.0754  -25344667.05249 -19440359.23148  19804282.0064   19804286.2384
      -554.0744       -431.7434
  20782208.5074  -23917466.64749 -18586702.95248  20782208.2484   20782212.2494
     -1490.1864      -1161.1844
  21176695.3804  -19358898.17949 -14831704.63848  21176695.2104   21176699.1004
      2330.4664       1815.9514
  23250621.4204   -7494086.83249  -5817470.58546  23250620.3344   23250625.8374
     -2573.7874      -2005.5444
 05  1 20  1 34 30.0000000  0  8G 9G18G 6G17G26G29G21G10
  24446345.1514   -1098005.04249   -834669.64645  24446343.2754   24446347.9584
      3698.4544       2881.9144
  22749981.2354  -14287017.62249 -11114544.89147  22749980.6974   22749984.5144
      2207.1014       1719.8294
  22285548.3484  -14448319.53749 -11234057.18747  22285548.9244   22285553.6314
     -2306.4364      -1797.2224
  22283050.2604  -17558177.82349 -13660824.69546  22283049.0254   22283053.8544
     -2672.6164      -2082.5584
  19807504.2004  -25327731.87449 -19427162.98448  19807504.3694   19807508.9824
      -574.9584       -448.0184
  20790757.2614  -23872538.81649 -18551694.24948  20790757.1854   20790761.5754
     -1504.9174      -1172.6624
  21163420.0194  -19428660.66449 -14886065.01248  21163419.7654   21163423.6984
      2320.3774       1808.0904
  23265319.5364   -7416846.04649  -5757282.96346  23265319.1194   23265323.8254
     -2575.5644      -2006.9254
 05  1 20  1 35  0.0000000  0  8G 9G18G 6G17G26G29G21G10
  24425226.8724   -1208981.31949   -921144.60945  24425227.1154   24425230.1664
      3699.8694       2883.0144
  22737394.0634  -14353164.71349 -11166088.06047  22737393.6114   22737397.5084
      2202.7054       1716.4034
  22298749.4644  -14378947.98949 -11180001.42947  22298749.5344   22298754.2304
     -2318.6074      -1806.7164
  22298339.0114  -17477829.44849 -13598215.57646  22298339.0614   22298343.9954
     -2683.9504      -2091.3924
  19810846.6034  -25310170.53849 -19413478.82248  19810846.4244   19810850.8664
      -595.8114       -464.2674
  20799391.3504  -23827170.36949 -18516342.20548  20799390.8254   20799395.2674
     -1519.5704      -1184.0774
  21150202.8184  -19498119.01949 -14940188.39948  21150202.1804   21150205.8474
      2310.1754       1800.1394
  23280028.4764   -7339552.72849  -5697054.41946  23280026.8414   23280032.1284
     -2577.3404      -2008.3124
 05  1 20  1 35 30.0000000  0  8G 9G18G 6G17G26G29G21G10
  24404100.9524   -1319997.17949  -1007650.41345  24404099.5754   24404105.5814
      3701.1304       2883.9934
  22724830.4794  -14419179.88549 -11217528.46047  22724830.6764   22724835.1924
      2198.3064       1712.9664
  22312019.6344  -14309213.13749 -11125662.58547  22312019.8204   22312025.0054
     -2330.6354      -1816.0864
  22313693.8144  -17397141.80749 -13535342.12646  22313693.5934   22313699.7284
     -2695.1484      -2100.1174
  19814307.0804  -25291984.76249 -19399308.08748  19814307.0544   19814311.3854
      -616.5914       -480.4634
  20808107.0294  -23781363.48549 -18480648.52648  20808107.4974   20808111.9644
     -1534.1364      -1195.4334
  21137043.5514  -19567270.91149 -14994072.98548  21137043.0054   21137046.3704
      2299.9054       1792.1294
  23294746.4074   -7262207.15849  -5636785.14946  23294745.1374   23294751.3694
     -2579.0284      -2009.6244
 05  1 20  1 36  0.0000000  0  8G 9G18G 6G17G26G29G21G10
  24382967.4604   -1431049.76649  -1094184.83845  24382966.4844   24382974.9334
      3702.3334       2884.9314
  22712294.1384  -14485063.20449 -11268866.12447  22712293.8174   22712298.0464
      2193.9324       1709.5594
  22325358.3334  -14239117.53549 -11071042.64247  22325358.3404   22325362.7144
     -2342.6374      -1825.4244
  22329112.5084  -17316115.53549 -13472204.77046  22329111.7374   22329117.9414
     -2706.4834      -2108.9364
  19817886.4034  -25273175.76949 -19384651.72648  19817886.3104   19817890.6674
      -637.3284       -496.6174
  20816907.2454  -23735120.01749 -18444614.66048  20816907.1354   20816911.4144
     -1548.6574      -1206.7434
  21123943.3894  -19636114.06749 -15047716.99448  21123943.0764   21123946.1584
      2289.6024       1784.1054
  23309473.5154   -7184809.59649  -5576475.37046  23309472.8514   23309477.9304
     -2580.7984      -2010.9974
 05  1 20  1 36 30.0000000  0  9G 9G18G 6G17G22G26G29G21G10
  24361830.6884   -1542136.04649  -1180745.54845  24361829.2734   24361833.9394
      3703.3614       2885.7344
  22699782.6824  -14550814.88449 -11320101.19347  22699781.7334   22699785.7034
      2189.5174       1706.1224
  22338764.6704  -14168664.15549 -11016143.90247  22338764.8544   22338770.2424
     -2354.5504      -1834.7154
  22344594.0434  -17234751.46349 -13408804.19546  22344593.9094   22344601.5634
     -2717.7834      -2117.7434
                   -184511.94741   -125942.721 5                  25230471.580
      2657.9454       2072.680
  19821583.0004  -25253745.35349 -19369511.14548  19821583.4454   19821588.0504
      -658.0654       -512.7764
  20825789.7534  -23688442.33249 -18408242.43748  20825789.6264   20825793.9904
     -1563.1194      -1218.0144
  21110902.6274  -19704646.05049 -15101118.54448  21110901.7984   21110904.7414
      2279.1614       1775.9694
  23324213.5964   -7107360.46349  -5516125.39046  23324211.9354   23324216.6964
     -2582.5104      -2012.3554
 05  1 20  1 37  0.0000000  0  9G 9G18G 6G17G22G26G29G21G10
  24340683.3654   -1653253.26649  -1267330.39345  24340683.5774   24340687.2384
      3704.3884       2886.5374
  22687295.9514  -14616434.29449 -11371233.20547  22687295.0284   22687298.4164
      2185.1204       1702.6984
  22352239.5284  -14097855.39749 -10960968.24947  22352238.9634   22352245.0634
     -2366.3304      -1843.8904
  22360142.0344  -17153050.56849 -13345141.13446  22360141.3354   22360148.0174
     -2729.0834      -2126.5654
  25214541.5724    -264224.01049   -191162.66445                  25214539.3754
      2656.1884       2069.7544
  19825399.3564  -25233694.69849 -19353887.25748  19825399.3844   19825403.6424
      -678.6794       -528.8394
  20834754.7824  -23641332.42149 -18371533.41148  20834754.3734   20834758.6094
     -1577.4774      -1229.2014
  21097920.8144  -19772864.17149 -15154275.52048  21097920.1284   21097923.6154
      2268.6784       1767.8034
  23338959.2554   -7029860.23749  -5455735.58946  23338958.7814   23338964.2614
     -2584.2094      -2013.6704
 05  1 20  1 37 30.0000000  0  9G 9G18G 6G17G22G26G29G21G10
  24319534.3034   -1764398.01849  -1353936.65245  24319533.3684   24319537.2514
      3705.2534       2887.2084
  22674832.5384  -14681921.51549 -11422262.18847  22674832.9774   22674837.3884
      2180.6974       1699.2424
  22365780.9424  -14026694.20749 -10905517.97247  22365780.5904   22365786.3554
     -2378.0494      -1853.0344
  22375752.6304  -17071014.05449 -13281216.55746  22375752.0434   22375758.2784
     -2740.1824      -2135.2144
  25199381.8614    -343884.73649   -253235.86045  25199380.1904   25199380.8764
      2654.4764       2068.4224
  19829332.5324  -25213025.68749 -19337781.53448  19829332.5794   19829336.8214
      -699.2554       -544.8764
  20843800.9274  -23593792.32049 -18334489.17548  20843800.9154   20843805.5084
     -1591.7714      -1240.3404
  21084999.4284  -19840766.57749 -15207186.48548  21084998.5894   21085002.0684
      2258.1194       1759.5744
  23353719.5924   -6952309.26249  -5395306.28746  23353718.5714   23353721.6524
     -2585.8444      -2014.9444
 05  1 20  1 38  0.0000000  0  9G 9G18G 6G17G22G26G29G21G10
  24298376.7754   -1875567.32149  -1440561.98345  24298378.0054   24298383.4404
      3706.0434       2887.8214
  22662397.4744  -14747276.45349 -11473188.12347  22662396.7404   22662399.4674
      2176.3004       1695.8194
  22379389.6714  -13955183.27549 -10849795.17847  22379389.5754   22379394.2004
     -2389.6414      -1862.0504
  22391427.2774  -16988643.04849 -13217031.22246  22391425.9974   22391433.4694
     -2751.2614      -2143.8394
  25184230.3524    -423494.28249   -315269.24645  25184229.8394   25184235.3334
      2652.8564       2067.1594
  19833382.6754  -25191739.82749 -19321195.15048  19833382.7904   19833387.3884
      -719.7874       -560.8744
  20852929.1924  -23545824.31249 -18297111.50648  20852929.1084   20852933.3104
     -1606.0064      -1251.4344
  21072138.4354  -19908350.90649 -15259849.60648  21072137.9804   21072141.3474
      2247.4584       1751.2664
  23368484.1414   -6874708.30149  -5334838.01246  23368484.5654   23368489.2404
     -2587.5104      -2016.2374
 05  1 20  1 38 30.0000000  0  9G 9G18G 6G17G22G26G29G21G10
  24277220.1124   -1986758.18349  -1527204.13445  24277218.9894   24277225.7804
      3706.7094       2888.3454
  22649985.4584  -14812498.78249 -11524010.71547  22649984.9124   22649988.8634
      2171.8854       1692.3814
  22393064.0804  -13883325.28649 -10793801.93647  22393063.4274   22393068.6504
     -2401.1394      -1871.0144
  22407166.3414  -16905938.29749 -13152585.81246  22407165.3254   22407170.8164
     -2762.3634      -2152.4844
  25169092.5584    -503052.45049   -377262.61745  25169092.7564   25169093.4744
      2651.0394       2065.7434
  19837550.6424  -25169838.73449 -19304129.35848  19837550.4924   19837555.0214
      -740.2724       -576.8364
  20862138.0084  -23497430.62849 -18259402.14248  20862137.8174   20862142.5854
     -1620.1884      -1262.4814
  21059338.2074  -19975614.68049 -15312262.93948  21059337.9274   21059341.6434
      2236.7594       1742.9284
  23383260.3484   -6797057.52949  -5274330.91746  23383260.2284   23383264.8424
     -2589.1844      -2017.5494
 05  1 20  1 39  0.0000000  0  9G 9G18G 6G17G22G26G29G21G10
  24256055.2124   -2097967.70549  -1613860.88645  24256055.4374   24256061.3074
      3707.2554       2888.7644
  22637599.8524  -14877588.71849 -11574730.13547  22637598.7294   22637602.4284
      2167.4604       1688.9254
  22406802.8914  -13811123.00249 -10737540.42247  22406802.7434   22406808.2804
     -2412.5804      -1879.9384
  22422967.1594  -16822900.90249 -13087881.18046  22422966.8404   22422972.7364
     -2773.5064      -2161.1804
  25153962.6734    -582559.06449   -439215.76645  25153960.5934   25153963.9794
      2649.4444       2064.5044
  19841834.8614  -25147323.99049 -19286585.39948  19841835.0944   19841839.4124
      -760.7244       -592.7754
  20871428.0634  -23448613.19749 -18221362.58648  20871427.6644   20871432.1394
     -1634.2774      -1273.4624
  21046599.8504  -20042555.47449 -15364424.59448  21046599.3954   21046603.2224
      2225.9454       1734.5024
  23398047.7994   -6719357.23749  -5213785.24546  23398046.0734   23398051.7924
     -2590.8274      -2018.8294
 05  1 20  1 39 30.0000000  0  9G 9G18G 6G17G22G26G29G21G10
  24234892.5724   -2209192.75049  -1700529.73245  24234891.6694   24234895.8004
      3707.7304       2889.1404
  22625238.7644  -14942545.98449 -11625346.17847  22625238.1954   22625241.4474
      2163.0084       1685.4634
  22420606.7864  -13738579.13749 -10681012.74647  22420606.8654   22420612.2754
     -2423.9174      -1888.7554
  22438832.7904  -16739532.17849 -13022918.55046  22438830.8554   22438837.0614
     -2784.4404      -2169.6894
  25138839.5064    -662014.19149   -501128.76845  25138840.8344   25138845.6334
      2647.6474       2063.1004
  19846235.9054  -25124197.35549 -19268564.64048  19846235.8384   19846240.1624
      -781.0744       -608.6284
  20880797.3614  -23399374.24749 -18182994.57248  20880797.6834   20880802.2194
     -1648.2834      -1284.3734
  21033923.5234  -20109170.89949 -15416332.71748  21033923.0354   21033926.6264
      2215.0574       1726.0234
  23412841.5144   -6641607.76849  -5153201.24446  23412841.5984   23412847.9564
     -2592.4464      -2020.0994
 05  1 20  1 40  0.0000000  0  9G 9G18G 6G17G22G26G29G21G10
  24213723.6654   -2320430.48249  -1787208.45045  24213723.5194   24213729.1074
      3708.0944       2889.4214
  22612903.0414  -15007370.65249 -11675858.91447  22612902.4294   22612905.9644
      2158.5954       1682.0224
  22434476.5274  -13665696.54449 -10624221.12047  22434476.6694   22434481.6504
     -2435.1974      -1897.5594
  22454759.9154  -16655833.24349 -12957698.60846  22454760.2154   22454764.7204
     -2795.5134      -2178.3274
  25123734.6974    -741417.97649   -563001.82245  25123733.8564   25123734.8804
      2645.9494       2061.7754
  19850752.5304  -25100460.34949 -19250068.27348  19850752.7494   19850757.3224
      -801.3754       -624.4504
  20890247.5484  -23349716.03649 -18144299.86148  20890247.3514   20890251.5984
     -1662.1794      -1295.2024
  21021309.7204  -20175458.50049 -15467985.38848  21021309.0784   21021312.6624
      2204.1284       1717.5014
  23427646.0514   -6563809.69749  -5092579.37246  23427646.6024   23427650.5614
     -2594.0834      -2021.3794
 05  1 20  1 40 30.0000000  0 10G 9G18G15G 6G17G22G26G29G21G10
  24192553.4714   -2431677.58249  -1873894.47745  24192554.2144   24192557.3494
      3708.3184       2889.5954
  22600591.9934  -15072062.63849 -11726268.23747  22600591.1124   22600595.6584
      2154.1474       1678.5534
  24462627.8774    -290840.64049   -206305.11545                  24462629.6174
      3565.1504       2778.0414
  22448409.0904  -13592477.93949 -10567167.65647  22448409.3124   22448415.1764
     -2446.3234      -1906.2204
  22470749.2424  -16571804.84949 -12892221.98446  22470748.9394   22470755.7764
     -2806.4134      -2186.8084
  25108629.9984    -820770.29149   -624834.74945  25108630.5034   25108632.9474
      2644.1894       2060.4054
  19855385.2284  -25076114.88949 -19231097.78748  19855385.4414   19855390.1964
      -821.6514       -640.2484
  20899776.2714  -23299640.69149 -18105280.10648  20899776.1934   20899780.4044
     -1676.1004      -1306.0514
  21008758.7224  -20241415.91149 -15519380.76448  21008757.7314   21008761.0844
      2193.0534       1708.8694
  23442461.1444   -6485963.26749  -5031919.84146  23442459.7264   23442465.7924
     -2595.6954      -2022.6204
 05  1 20  1 41  0.0000000  0 10G 9G18G15G 6G17G22G26G29G21G10
  24171385.3224   -2542931.11549  -1960585.49745  24171384.5294   24171387.3884
      3708.5394       2889.7684
  22588307.3534  -15136621.61149 -11776573.93047  22588306.8874   22588310.3644
      2149.7324       1675.1244
  24442276.0784    -397792.64649   -289644.32945  24442273.1204   24442277.6114
      3564.9234       2777.8644
  22462405.4324  -13518925.94749 -10509854.42547  22462405.9034   22462411.4664
     -2457.3774      -1914.8344
  22486803.8094  -16487447.97549 -12826489.33646  22486801.9764   22486806.7334
     -2817.3824      -2195.3694
  25093538.5484    -900070.84649   -686627.35145  25093540.7044   25093542.3684
      2642.5014       2059.0924
  19860133.8184  -25051162.57449 -19211654.42748  19860133.9134   19860138.4954
      -841.8384       -655.9794
  20909384.4894  -23249150.42449 -18065937.04248  20909384.0954   20909388.4794
     -1689.8814      -1316.7894
  20996270.4384  -20307041.13549 -15570517.30048  20996269.7644   20996273.0004
      2181.9384       1700.2134
  23457283.5584   -6408068.77049  -4971222.86246  23457283.3474   23457287.3514
     -2597.2764      -2023.8554
 05  1 20  1 41 30.0000000  0 10G 9G18G15G 6G17G22G26G29G21G10
  24150214.4864   -2654187.92849  -2047279.05145  24150212.5894   24150216.0864
      3708.6284       2889.8354
  22576048.5374  -15201047.56549 -11826775.98047  22576047.5334   22576050.0774
      2145.3284       1671.6854
  24421925.2894    -504736.40249   -372977.11545  24421922.9194   24421926.0614
      3564.6314       2777.6354
  22476466.4094  -13445043.47949 -10452283.68947  22476465.7224   22476469.9384
     -2468.3474      -1923.3944
  22502916.8674  -16402763.80549 -12760501.65846  22502915.4654   22502921.5864
     -2828.3864      -2203.9304
  25078460.7374    -979319.86749   -748379.77045  25078461.3354   25078463.6714
      2640.7714       2057.7414
  19864997.6794  -25025604.97749 -19191739.41348  19864997.3634   19865001.7264
      -861.9984       -671.6894
  20919070.4764  -23198247.36449 -18026272.31948  20919070.5914   20919075.1774
     -1703.5714      -1327.4594
  20983846.3594  -20372331.59449 -15621392.98148  20983845.4804   20983848.7464
      2170.7674       1691.5054
  23472115.8634   -6330126.45649  -4910488.60746  23472114.5634   23472120.6004
     -2598.8484      -2025.0754
 05  1 20  1 42  0.0000000  0 10G 9G18G15G 6G17G22G26G29G21G10
  24129042.2524   -2765444.85449  -2133972.68545  24129041.2174   24129044.6244
      3708.5754       2889.7954
  22563811.3694  -15265340.33949 -11876874.23347  22563811.3434   22563815.9244
      2140.9014       1668.2344
  24401576.2144    -611670.18249   -456302.10446  24401573.7494   24401577.4284
      3564.2614       2777.3454
  22490587.8394  -13370833.36649 -10394457.61547  22490587.2634   22490592.4204
     -2479.2324      -1931.8694
  22519091.7674  -16317753.60149 -12694259.88646  22519092.6974   22519098.2354
     -2839.0994      -2212.3004
  25063391.2764   -1058517.21149   -810091.90145  25063390.5404   25063391.8894
      2639.0284       2056.3854
  19869975.5184  -24999444.33249 -19171354.49448  19869975.5574   19869980.0144
      -882.0684       -687.3264
  20928835.3734  -23146933.69349 -17986287.63848  20928835.2664   20928839.8394
     -1717.2404      -1338.1114
  20971486.1074  -20437284.87449 -15672005.92348  20971485.4424   20971488.4844
      2159.4754       1682.7074
  23486956.9954   -6252136.77849  -4849717.45746  23486955.6094   23486961.6554
     -2600.4334      -2026.3184
 05  1 20  1 42 30.0000000  0 10G 9G18G15G 6G17G22G26G29G21G10
  24107870.2864   -2876699.03749  -2220664.24845  24107869.0764   24107873.9004
      3708.3654       2889.6334
  22551603.1084  -15329499.81449 -11926868.63447  22551602.8154   22551607.0214
      2136.4404       1664.7544
  24381228.0504    -718592.16949   -539617.91446  24381227.2804   24381231.1104
      3563.8344       2777.0114
  22504770.2514  -13296298.31149 -10336378.36747  22504770.5854   22504775.4024
     -2490.0374      -1940.2914
  22535330.4054  -16232418.20749 -12627764.76846  22535330.7334   22535337.5214
     -2849.9334      -2220.7264
  25048328.8174   -1137662.71449   -871763.71045  25048328.4644   25048330.7034
      2637.3184       2055.0544
  19875067.7964  -24972681.94649 -19150500.68948  19875068.1884   19875072.6094
      -902.0844       -702.9254
  20938677.6874  -23095211.66949 -17945984.76348  20938677.6314   20938682.3074
     -1730.8494      -1348.7144
  20959188.9784  -20501898.63449 -15722354.30848  20959189.1194   20959193.0764
      2148.0914       1673.8384
  23501808.2324   -6174100.26949  -4788909.83246  23501807.6424   23501809.9314
     -2602.0024      -2027.5234
 05  1 20  1 43  0.0000000  0 10G 9G18G15G 6G17G22G26G29G21G10
  24086699.3334   -2987947.26249  -2307351.15945  24086698.2844   24086703.9754
      3708.1564       2889.4764
  22539420.7764  -15393525.82149 -11976759.02347  22539419.7874   22539423.3274
      2131.9784       1661.2614
  24360883.0474    -825500.51649   -622923.07546  24360882.7074   24360885.9614
      3563.3674       2776.6504
  22519015.9264  -13221441.14549 -10278048.11747  22519015.9804   22519020.7274
     -2500.7044      -1948.6014
  22551632.9714  -16146758.87749 -12561017.24146  22551631.6554   22551637.7924
     -2860.7144      -2229.1244
  25033277.4424   -1216756.52749   -933395.19445  25033276.8854   25033279.0534
      2635.6104       2053.7204
  19880275.0134  -24945320.04549 -19129179.72348  19880274.9334   19880279.3934
      -922.0624       -718.4904
  20948597.0094  -23043083.48249 -17905365.39148  20948597.2644   20948601.5934
     -1744.3344      -1359.2224
  20946958.9194  -20566170.40649 -15772436.20048  20946958.4524   20946962.5864
      2136.6624       1664.9314
  23516663.4264   -6096017.19149  -4728065.88746  23516664.1144   23516669.7854
     -2603.5404      -2028.7304
 05  1 20  1 43 30.0000000  0 10G 9G18G15G 6G17G22G26G29G21G10
  24065533.4864   -3099186.36849  -2394030.98045  24065531.6934   24065535.8734
      3707.7334       2889.1424
  22527261.2244  -15457418.28849 -12026545.36047  22527260.9614   22527264.7374
      2127.4974       1657.7734
  24340542.6914    -932393.33549   -706216.17046  24340541.0514   24340545.1664
      3562.7984       2776.2054
  22533321.7814  -13146264.59449 -10219468.99547  22533321.4924   22533326.6184
     -2511.3074      -1956.8624
  22567994.9224  -16060777.21949 -12494018.52946  22567993.3724   22567999.6054
     -2871.3994      -2237.4514
  25018236.8184   -1295798.66549   -994986.45745  25018236.5264   25018238.9474
      2633.8844       2052.3824
  19885595.5044  -24917360.25049 -19107392.86948  19885595.5244   19885600.2854
      -941.9604       -733.9964
  20958594.6554  -22990551.42149 -17864431.31648  20958594.0244   20958598.2494
     -1757.7554      -1369.6794
  20934794.3174  -20630098.07449 -15822249.96648  20934793.6984   20934797.2824
      2125.1524       1655.9664
  23531531.5604   -6017887.69849  -4667185.77946  23531531.1244   23531537.8744
     -2605.0584      -2029.9064
 05  1 20  1 44  0.0000000  0 10G 9G18G15G 6G17G22G26G29G21G10
  24044364.7984   -3210413.34649  -2480701.31245  24044365.2814   24044371.3124
      3707.2924       2888.8034
  22515128.0104  -15521176.82949 -12076227.34547  22515127.9104   22515132.2644
      2123.0644       1654.3364
  24320203.7174   -1039268.75549   -789495.68346  24320203.3894   24320207.6524
      3562.1834       2775.7214
  22547687.1724  -13070771.73749 -10160643.40247  22547686.9324   22547692.5214
     -2521.8064      -1965.0454
  22584415.8394  -15974473.67849 -12426768.99746  22584416.5984   22584422.8724
     -2882.1444      -2245.8224
  25003205.5974   -1374788.91349  -1056537.24245  25003204.5904   25003206.3174
      2632.1314       2051.0044
  19891029.5704  -24888804.16249 -19085141.37248  19891029.8034   19891034.1174
      -961.8044       -749.4544
  20968666.4244  -22937617.54249 -17823184.13548  20968666.5964   20968671.2314
     -1771.0564      -1380.0424
  20922695.4384  -20693679.03249 -15871793.56948  20922694.9904   20922698.0774
      2113.5664       1646.9364
  23546408.8334   -5939712.11849  -4606269.77446  23546408.0934   23546412.3684
     -2606.6184      -2031.1264
 05  1 20  1 44 30.0000000  0 10G 9G18G15G 6G17G22G26G29G21G10
  24023202.3964   -3321625.05749  -2567359.77445  24023201.6344   24023208.3674
      3706.7774       2888.3924
  22503022.0374  -15584801.34949 -12125804.89347  22503021.3094   22503024.9204
      2118.5894       1650.8424
  24299869.9054   -1146124.93449   -872760.21946  24299869.0674   24299873.5314
      3561.5214       2775.2094
  22562112.3544  -12994965.19149 -10101573.37247  22562112.2474   22562118.2274
     -2532.2184      -1973.1534
  22600901.6474  -15887849.58449 -12359269.70646  22600900.6604   22600907.0794
     -2892.7374      -2254.0834
  24988184.2244   -1453727.32649  -1118047.63845  24988183.5084   24988187.1684
      2630.4114       2049.6684
  19896576.6084  -24859654.01249 -19062426.96948  19896576.8244   19896581.3344
      -981.5604       -764.8534
  20978816.3254  -22884284.12349 -17781625.62148  20978815.9174   20978820.6514
     -1784.3784      -1390.4254
  20910662.9894  -20756910.90949 -15921065.15548  20910662.4164   20910665.6424
      2101.8784       1637.8254
  23561291.8714   -5861490.98649  -4545318.23646  23561291.2624   23561298.3064
     -2608.1654      -2032.3314
 05  1 20  1 45  0.0000000  0 10G 9G18G15G 6G17G22G26G29G21G10
  24002043.0264   -3432818.44349  -2654003.95445  24002041.5494   24002046.6364
      3706.1154       2887.8784
  22490938.8634  -15648291.83949 -12175278.01247  22490938.8614   22490942.7114
      2114.1304       1647.3694
  24279538.9564   -1252960.27849   -956008.51446  24279538.5884   24279544.0534
      3560.8124       2774.6534
  22576597.5754  -12918847.73149 -10042261.07347  22576597.0614   22576602.8724
     -2542.5474      -1981.2204
  22617445.3514  -15800905.98049 -12291521.43746  22617445.5824   22617451.8804
     -2903.4804      -2262.4534
  24973173.3244   -1532613.76949  -1179517.60345  24973172.9614   24973175.5644
      2628.6954       2048.3344
  19902236.5264  -24829911.63349 -19039251.08648  19902236.6224   19902241.0664
     -1001.2724       -780.2114
  20989040.5094  -22830553.51549 -17739757.61948  20989040.0564   20989044.7814
     -1797.5784      -1400.7104
  20898697.0944  -20819791.51349 -15970063.03448  20898696.6534   20898700.0524
      2090.1404       1628.6764
  23576188.0654   -5783224.39949  -4484331.29646  23576187.2034   23576192.9464
     -2609.6424      -2033.4944
 05  1 20  1 45 30.0000000  0 10G 9G18G15G 6G17G22G26G29G21G10
  23980886.1154   -3543990.30449  -2740631.35945  23980886.4404   23980893.2424
      3705.3364       2887.2764
  22478883.5654  -15711648.22049 -12224646.60647  22478882.8284   22478886.5144
      2109.6344       1643.8734
  24259212.3954   -1359772.97349  -1039239.14845  24259212.5734   24259217.1784
      3560.0104       2774.0324
  22591141.2354  -12842422.27449  -9982708.78047  22591140.9124   22591145.7604
     -2552.7604      -1989.1594
  22634050.3424  -15713644.57649 -12223525.52146  22634050.0444   22634057.4174
     -2914.0644      -2270.6984
  24958170.1684   -1611448.27749  -1240947.05245  24958169.7784   24958171.8664
      2626.9364       2046.9634
  19908008.9294  -24799578.86349 -19015615.15948  19908008.6204   19908013.3394
     -1020.9654       -795.5564
  20999340.2974  -22776427.83949 -17697581.76448  20999340.3154   20999344.9034
     -1810.7684      -1410.9884
  20886798.2834  -20882318.55249 -16018785.39848  20886797.8124   20886801.4824
      2078.2994       1619.4524
  23591089.8184   -5704912.82349  -4423309.27746  23591089.6974   23591094.0844
     -2611.1384      -2034.6594
 05  1 20  1 46  0.0000000  0 10G 9G18G15G 6G17G22G26G29G21G10
  23959734.6104   -3655137.43349  -2827239.48145  23959734.8264   23959742.4634
      3704.4894       2886.6194
  22466853.2814  -15774870.52149 -12273910.73747  22466852.3274   22466855.5024
      2105.1954       1640.4124
  24238890.3244   -1466560.94249  -1122450.52646  24238891.1624   24238896.9454
      3559.1304       2773.3424
  22605742.0514  -12765691.82749  -9922918.83746  22605742.2284   22605746.5394
     -2562.8724      -1997.0394
  22650716.7264  -15626066.04549 -12155282.51746  22650716.3994   22650722.0104
     -2924.5794      -2278.9034
  24943180.8554   -1690230.86949  -1302336.05945  24943179.5054   24943180.7564
      2625.2314       2045.6334
  19913892.4014  -24768657.67549 -18991520.73348  19913892.6294   19913897.3454
     -1040.5184       -810.7934
  21009714.8554  -22721909.32849 -17655099.81448  21009714.6094   21009719.2244
     -1823.7574      -1421.1104
  20874967.5524  -20944489.37549 -16067230.18948  20874966.9094   20874970.7844
      2066.4134       1610.1914
  23606001.2364   -5626556.54549  -4362252.47246  23606001.0054   23606003.7974
     -2612.6164      -2035.8124
 05  1 20  1 46 30.0000000  0 10G 9G18G15G 6G17G22G26G29G21G10
  23938590.5584   -3766256.68149  -2913825.89145  23938590.1174   23938596.8554
      3703.5154       2885.8554
  22454846.5324  -15837958.62649 -12323070.29947  22454846.2514   22454850.5284
      2100.6954       1636.9054
  24218575.0284   -1573322.35349  -1205641.21346  24218574.8464   24218580.6074
      3558.2554       2772.6584
  22620399.0284  -12688659.05249  -9862893.30046  22620400.1904   22620405.9884
     -2572.8874      -2004.8434
  22667443.1194  -15538171.45649 -12086793.18446  22667442.7284   22667448.7494
     -2935.1154      -2287.0994
  24928196.0294   -1768961.36649  -1363684.48345  24928195.6734   24928197.3554
      2623.4474       2044.2434
  19919888.2054  -24737149.94049 -18966969.25048  19919888.4914   19919892.8124
     -1060.0234       -825.9924
  21020163.0834  -22667000.35849 -17612313.59848  21020163.2034   21020168.2794
     -1836.7654      -1431.2474
  20863204.8864  -21006301.75049 -16115395.67248  20863204.4814   20863208.0054
      2054.4204       1600.8454
  23620918.6954   -5548156.01249  -4301161.15446  23620918.4994   23620923.5254
     -2614.1034      -2036.9584
 05  1 20  1 47  0.0000000  0 10G 9G18G15G 6G17G22G26G29G21G10
  23917451.4154   -3877344.88249  -3000388.17445  23917451.1444   23917457.9464
      3702.3554       2884.9544
  22442866.7864  -15900912.12849 -12372124.96947  22442866.9244   22442871.0054
      2096.1994       1633.3974
  24198265.1654   -1680055.11449  -1288809.59146  24198264.8344   24198269.9374
      3557.2224       2771.8634
  22635117.1734  -12611326.94649  -9802634.52047  22635116.6044   22635121.6384
     -2582.8444      -2012.6164
  22684230.1234  -15449962.71049 -12018059.08446  22684228.5604   22684233.7214
     -2945.5584      -2295.2394
  24913223.8684   -1847639.85149  -1424992.38145  24913223.8104   24913226.8044
      2621.7224       2042.8984
  19925995.4654  -24705057.80649 -18941962.39148  19925995.3034   19925999.7834
     -1079.4644       -841.1364
  21030686.0074  -22611703.10949 -17569224.83648  21030686.1474   21030690.5754
     -1849.6804      -1441.3044
  20851510.8724  -21067753.62749 -16163280.24848  20851510.5164   20851514.3454
      2042.3554       1591.4494
  23635848.7274   -5469711.19249  -4240035.34046  23635848.3294   23635851.1904
     -2615.5554      -2038.0904
 05  1 20  1 47 30.0000000  0 10G 9G18G15G 6G17G22G26G29G21G10
  23896317.5214   -3988398.91549  -3086923.74545  23896318.6084   23896323.9294
      3701.1984       2884.0524
  22430913.4004  -15963731.13449 -12421074.84147  22430912.6754   22430917.0014
      2091.7404       1629.9264
  24177959.6544   -1786757.41649  -1371954.22445  24177959.2864   24177965.0134
      3556.2294       2771.0784
  22649889.4854  -12533698.26749  -9742144.66746  22649889.9224   22649893.4764
     -2592.6334      -2020.2454
  22701073.8214  -15361440.41849 -11949080.67346  22701073.8154   22701079.4424
     -2955.9654      -2303.3524
  24898261.8184   -1926266.12949  -1486259.60745  24898261.2784   24898264.7624
      2620.0094       2041.5694
  19932213.1514  -24672383.11749 -18916501.59648  19932213.1364   19932217.6314
     -1098.8604       -856.2564
  21041281.8874  -22556019.86749 -17525835.30048  21041282.0814   21041287.1844
     -1862.4804      -1451.2874
  20839886.7574  -21128842.19049 -16210881.72748  20839886.0124   20839889.5764
      2030.2054       1581.9764
  23650783.0184   -5391222.50449  -4178875.33946  23650782.1124   23650787.9174
     -2617.0314      -2039.2574
 05  1 20  1 48  0.0000000  0 10G 9G18G15G 6G17G22G26G29G21G10
  23875194.7274   -4099415.61149  -3173430.26245  23875192.7294   23875198.1724
      3699.9034       2883.0384
  22418984.8434  -16026415.25049 -12469919.61847  22418984.7224   22418988.6384
      2087.2144       1626.4034
  24157662.7314   -1893427.32649  -1455073.61546  24157661.3374   24157666.6504
      3555.0664       2770.1824
  22664716.8114  -12455775.85949  -9681425.91246  22664717.4434   22664722.2404
     -2602.3994      -2027.8304
  22717977.9494  -15272605.92549 -11879858.96146  22717978.5594   22717983.6684
     -2966.3774      -2311.4654
  24883310.6054   -2004840.18549  -1547486.15145  24883310.0254   24883312.3544
      2618.2484       2040.1924
  19938541.9004  -24639127.94949 -18890588.47548  19938541.7534   19938545.9204
     -1118.1604       -871.2894
  21051952.2444  -22499952.84449 -17482146.70348  21051951.7624   21051955.9884
     -1875.2154      -1461.2034
  20828331.1664  -21189565.30649 -16258198.44548  20828330.8914   20828334.1764
      2017.9964       1572.4694
  23665726.8314   -5312690.22949  -4117681.37846  23665725.7214   23665732.0054
     -2618.4744      -2040.3614
 05  1 20  1 48 30.0000000  0 10G 9G18G15G 6G17G22G26G29G21G10
  23854076.4644   -4210391.79749  -3259905.18245  23854075.2854   23854080.4094
      3698.5164       2881.9624
  22407082.8734  -16088964.30449 -12518659.14747  22407081.7794   22407086.0544
      2082.7144       1622.8924
  24137369.7244   -2000062.97849  -1538166.30145  24137368.5814   24137375.6294
      3553.9004       2769.2674
  22679601.3774  -12377562.52749  -9620480.50746  22679600.7714   22679606.2914
     -2612.0794      -2035.3944
  22734942.6224  -15183460.77249 -11810395.21946  22734942.0344   22734948.4404
     -2976.6904      -2319.5014
  24868367.9984   -2083362.06249  -1608672.00145  24868367.4344   24868369.7104
      2616.4994       2038.8334
  19944979.5414  -24605294.34449 -18864224.62348  19944980.0594   19944984.2504
     -1137.4324       -886.3144
  21062693.6304  -22443504.43249 -17438160.91948  21062693.5444   21062698.0434
     -1887.9074      -1471.0984
  20816846.5144  -21249920.45849 -16305228.43148  20816845.7404   20816849.0544
      2005.6694       1562.8584
  23680679.6214   -5234114.68149  -4056453.68646  23680678.8154   23680685.1024
     -2619.9084      -2041.4834
 05  1 20  1 49  0.0000000  0 10G 9G18G15G 6G17G22G26G29G21G10
  23832966.9594   -4321324.10949  -3346345.90645  23832966.4724   23832971.5444
      3697.0164       2880.7884
  22395204.3744  -16151378.37949 -12567293.48347  22395204.6414   22395208.7854
      2078.2204       1619.3934
  24117083.4104   -2106662.33749  -1621230.71346  24117083.4904   24117090.5254
      3552.6754       2768.3124
  22694538.6644  -12299061.40749  -9559310.82046  22694538.8174   22694543.8554
     -2621.5904      -2042.7914
  22751965.6864  -15094006.01849 -11740690.23846  22751965.4234   22751970.4834
     -2987.0104      -2327.5374
  24853435.6044   -2161831.91949  -1669817.27345  24853434.7464   24853436.9964
      2614.8254       2037.5204
  19951527.8654  -24570884.38349 -18837411.66548  19951528.0894   19951532.4394
     -1156.5844       -901.2314
  21073507.0534  -22386676.68149 -17393879.56548  21073507.2794   21073511.8534
     -1900.5364      -1480.9354
  20805431.0634  -21309905.49149 -16351970.01348  20805430.7844   20805434.4494
      1993.3084       1553.2294
  23695641.0664   -5155496.21049  -3995192.55246  23695640.0534   23695645.4634
     -2621.3134      -2042.5854
 05  1 20  1 49 30.0000000  0 10G 9G18G15G 6G17G22G26G29G21G10
  23811866.6504   -4432209.56649  -3432750.17545  23811866.1844   23811869.5904
      3695.3914       2879.5244
  22383354.6024  -16213657.28549 -12615822.48647  22383353.6024   22383357.7024
      2073.7364       1615.8994
  24096805.0674   -2213223.74349  -1704265.53746  24096805.6134   24096812.2694
      3551.4064       2767.3254
  22709531.3334  -12220275.22849  -9497919.02046  22709531.1314   22709535.9794
     -2631.0344      -2050.1564
  22769045.6744  -15004242.74749 -11670744.82646  22769045.8514   22769052.3024
     -2997.3144      -2335.5664
  24838513.4224   -2240249.30949  -1730921.75845  24838513.5714   24838515.3724
      2613.0524       2036.1504
  19958184.4784  -24535900.19149 -18810151.25348  19958184.6314   19958189.7104
     -1175.6884       -916.1194
  21084393.2284  -22329472.14349 -17349304.59148  21084393.0944   21084397.9104
     -1913.0414      -1490.6774
  20794087.4204  -21369517.73549 -16398421.11048  20794086.8244   20794090.5424
      1980.8434       1543.5174
  23710607.9574   -5076835.13449  -3933898.21946  23710606.9904   23710613.6274
     -2622.7324      -2043.6884
 05  1 20  1 50  0.0000000  0 10G 9G18G15G 6G17G22G26G29G21G10
  23790773.0534   -4543044.96949  -3519115.39145  23790773.2084   23790780.1524
      3693.6534       2878.1714
  22371527.3764  -16275801.00849 -12664246.15547  22371527.5074   22371532.1024
      2069.1424       1612.3154
  24076536.2224   -2319744.99049  -1787269.11446  24076535.8604   24076541.6384
      3549.9914       2766.2284
  22724576.9464  -12141206.87849  -9436307.35246  22724577.2414   22724582.6574
     -2640.4004      -2057.4504
  22786185.7404  -14914172.32649 -11600560.04046  22786184.3144   22786191.6124
     -3007.5224      -2343.5204
  24823601.1644   -2318614.37149  -1791985.48145  24823599.8324   24823603.7634
      2611.3014       2034.7764
  19964951.0654  -24500343.44549 -18782444.69848  19964950.9694   19964955.6094
     -1194.7694       -930.9894
  21095350.1354  -22271892.79349 -17304437.57248  21095350.0254   21095354.5444
     -1925.4724      -1500.3654
  20782814.7974  -21428755.31349 -16444580.26048  20782814.0714   20782817.7424
      1968.3114       1533.7444
  23725585.8334   -4998131.83149  -3872570.95646  23725585.4704   23725590.8054
     -2624.1824      -2044.8164
 05  1 20  1 50 30.0000000  0 10G 9G18G15G 6G17G22G26G29G21G10
  23769691.6174   -4653827.12549  -3605439.14545  23769692.8374   23769697.5834
      3691.8204       2876.7434
  22359728.3384  -16337809.07249 -12712564.11947  22359727.6374   22359732.1604
      2064.6304       1608.7954
  24056276.8404   -2426224.20849  -1870239.89545  24056273.5854   24056279.9484
      3548.5824       2765.1254
  22739677.6074  -12061859.30349  -9374478.11946  22739677.4464   22739681.3374
     -2649.6764      -2064.6904
  22803382.9394  -14823796.25349 -11530137.15046  22803383.1894   22803390.3764
     -3017.6774      -2351.4344
  24808698.7804   -2396927.16949  -1853008.39545  24808698.3494   24808699.9224
      2609.5604       2033.4294
  19971826.0914  -24464216.68649 -18754293.98148  19971826.0694   19971830.3614
     -1213.7154       -945.7534
  21106377.8844  -22213941.14049 -17259280.43148  21106377.8624   21106382.3504
     -1937.8924      -1510.0484
  20771613.6804  -21487615.61049 -16490445.42648  20771613.5954   20771617.0754
      1955.6954       1523.9164
  23740570.0384   -4919386.30249  -3811210.81946  23740570.8154   23740575.5644
     -2625.5664      -2045.8904
 05  1 20  1 51  0.0000000  0 10G 9G18G15G 6G17G22G26G29G21G10
  23748621.9004   -4764552.84049  -3691718.90145  23748621.4524   23748627.4614
      3689.8694       2875.2194
  22347954.9954  -16399681.32849 -12760776.25147  22347954.3424   22347958.5524
      2060.1384       1605.2994
  24036018.0554   -2532659.33949  -1953176.35545  24036019.5624   24036026.0594
      3547.0354       2763.9244
  22754829.0564  -11982235.49849  -9312433.63946  22754828.9324   22754833.7804
     -2658.8774      -2071.8584
  22820640.8154  -14733115.25849 -11459476.63346  22820639.6694   22820647.1454
     -3027.7874      -2359.3064
  24793808.1654   -2475187.65249  -1913990.53345  24793806.6334   24793808.4634
      2607.8164       2032.0624
  19978808.5494  -24427521.90049 -18725700.63748  19978808.7464   19978813.2114
     -1232.6064       -960.4724
  21117476.1824  -22155619.47149 -17213834.98248  21117476.5974   21117480.6004
     -1950.1544      -1519.6034
  20760485.6904  -21546096.44749 -16536014.91848  20760485.2944   20760488.5194
      1942.9994       1514.0234
  23755564.8454   -4840598.64949  -3749817.87046  23755562.4684   23755568.3674
     -2626.9344      -2046.9624
 05  1 20  1 51 30.0000000  0 10G 9G18G15G 6G17G22G26G29G21G10
  23727563.5154   -4875218.62349  -3777951.94345  23727563.8644   23727568.2384
      3687.7954       2873.6034
  22336206.8934  -16461417.59849 -12808882.41647  22336206.4704   22336210.2854
      2055.5894       1601.7514
  24015774.6304   -2639048.43849  -2036076.90746  24015774.9724   24015781.7334
      3545.5284       2762.7484
  22770032.3364  -11902338.15549  -9250176.01346  22770032.8994   22770037.1734
     -2667.9244      -2078.9094
  22837954.2804  -14642131.46249 -11388580.17446  22837953.9174   22837958.6884
     -3037.9244      -2367.2224
  24778920.1484   -2553395.44249  -1974931.76445  24778921.6404   24778925.1774
      2606.0554       2030.6954
  19985898.9504  -24390261.08149 -18696666.23148  19985899.2904   19985903.5324
     -1251.4564       -975.1634
  21128644.8744  -22096929.90349 -17168102.84948  21128644.4154   21128648.8264
     -1962.4144      -1529.1564
  20749429.2524  -21604195.32949 -16581286.76648  20749429.2454   20749432.5764
      1930.2254       1504.0674
  23770563.1824   -4761769.60849  -3688392.65646  23770563.0364   23770568.8354
     -2628.3484      -2048.0704
 05  1 20  1 52  0.0000000  0 10G 9G18G15G 6G17G22G26G29G21G10
  23706516.8914   -4985821.61649  -3864136.05045  23706516.2814   23706521.9424
      3685.7014       2871.9734
  22324484.8744  -16523017.67049 -12856882.45647  22324484.0534   22324488.1894
      2051.1084       1598.2654
  23995539.5904   -2745389.52249  -2118940.06846  23995539.1824   23995544.7934
      3543.8644       2761.4534
  22785289.4214  -11822170.23449  -9187707.55346  22785288.7894   22785293.5524
     -2676.8544      -2085.8604
  22855326.0764  -14550845.34549 -11317448.13546  22855325.0954   22855330.4114
     -3047.9564      -2375.0334
  24764049.0984   -2631550.89149  -2035832.03845  24764048.3624   24764053.4254
      2604.3394       2029.3474
  19993096.7874  -24352436.68349 -18667192.67348  19993096.8944   19993101.5554
     -1270.1874       -989.7564
  21139881.9224  -22037874.94749 -17122085.99448  21139882.1414   21139886.5004
     -1974.5364      -1538.5994
  20738447.3834  -21661909.95149 -16626259.20448  20738446.5324   20738449.7714
      1917.4034       1494.0804
  23785572.9814   -4682899.18649  -3626935.17946  23785570.6894   23785575.8424
     -2629.7064      -2049.1404
 05  1 20  1 52 30.0000000  0 10G 9G18G15G 6G17G22G26G29G21G10
  23685480.2814   -5096358.20849  -3950268.45145  23685480.7624   23685486.6924
      3683.3974       2870.1784
  22312787.3734  -16584481.44049 -12904776.30747  22312787.8214   22312792.1554
      2046.5364       1594.7024
  23975312.0804   -2851680.69049  -2201764.31946  23975312.2804   23975317.9214
      3542.2234       2760.1704
  22800594.7534  -11741734.71949  -9125030.56746  22800594.3074   22800599.3454
     -2685.7774      -2092.8154
  22872752.5374  -14459258.87249 -11246082.02446  22872752.0854   22872758.7914
     -3057.9224      -2382.7924
  24749187.8274   -2709653.90049  -2096691.48845  24749188.6484   24749191.6034
      2602.5454       2027.9564
  20000401.6434  -24314050.44449 -18637281.31548  20000401.7034   20000406.1364
     -1288.8704      -1004.3154
  21151189.4814  -21978456.69049 -17075786.05448  21151189.5024   21151193.4074
     -1986.6074      -1548.0024
  20727537.4064  -21719238.02549 -16670930.42748  20727537.1264   20727540.8604
      1904.4664       1483.9984
  23800589.9024   -4603987.33949  -3565445.46546  23800589.0504   23800593.8914
     -2631.0694      -2050.1764
 05  1 20  1 53  0.0000000  0 10G 9G18G15G 6G17G22G26G29G21G10
  23664462.3354   -5206825.40049  -4036346.75546  23664461.3034   23664466.0394
      3681.0274       2868.3324
  22301118.0964  -16645808.69149 -12952563.75947  22301117.4254   22301122.2804
      2041.9694       1591.1434
  23955096.6044   -2957919.60849  -2284547.86145  23955095.6624   23955101.4634
      3540.4084       2758.7604
  22815949.7664  -11661034.50449  -9062147.32646  22815950.6294   22815956.4024
     -2694.4894      -2099.6144
  22890238.0034  -14367373.17049 -11174482.80246  22890238.4894   22890244.3354
     -3067.8364      -2390.5304
  24734336.6014   -2787704.39149  -2157510.08745  24734336.1874   24734336.9154
      2600.8464       2026.6344
  20007812.8434  -24275104.93749 -18606934.16748  20007812.7704   20007817.2264
     -1307.4844      -1018.8194
  21162565.1034  -21918677.73349 -17029205.04348  21162564.6944   21162569.0734
     -1998.6124      -1557.3634
  20716702.4244  -21776177.14749 -16715298.57748  20716702.0124   20716705.6744
      1891.4754       1473.8754
  23815612.3054   -4525034.77549  -3503924.01146  23815612.0324   23815618.1814
     -2632.4344      -2051.2464
 05  1 20  1 53 30.0000000  0 10G 9G18G15G 6G17G22G26G29G21G10
  23643454.1914   -5317219.93649  -4122368.45045  23643453.9554   23643457.1894
      3678.6174       2866.4544
  22289474.2234  -16706999.47649 -13000244.87447  22289473.5884   22289477.6434
      2037.4164       1587.5914
  23934890.1474   -3064104.42349  -2367289.24946  23934889.3264   23934895.7324
      3538.5604       2757.3234
  22831358.3184  -11580072.45349  -8999060.05546  22831358.8904   22831363.0354
     -2703.2224      -2106.4094
  22907780.4624  -14275189.64149 -11102651.46146  22907779.8444   22907785.6474
     -3077.7554      -2398.2474
  24719491.6614   -2865702.28549  -2218287.67745  24719491.7854   24719497.8714
      2599.0684       2025.2464
  20015329.7294  -24235602.22649 -18576152.83048  20015329.8074   20015334.6044
     -1326.0284      -1033.2714
  21174008.5654  -21858540.21149 -16982344.63248  21174008.6624   21174012.7344
     -2010.5144      -1566.6374
  20705941.4794  -21832725.02449 -16759361.85748  20705941.1804   20705944.8174
      1878.3744       1463.6654
  23830645.8114   -4446041.71649  -3442370.98846  23830644.7624   23830650.3774
     -2633.7684      -2052.2904
 05  1 20  1 54  0.0000000  0 10G 9G18G15G 6G17G22G26G29G21G10
  23622460.6844   -5427538.48549  -4208330.94446  23622459.7434   23622465.7664
      3675.9914       2864.4034
  22277855.7754  -16768053.95849 -13047819.76847  22277855.4314   22277859.5344
      2032.8624       1584.0554
  23914693.8794   -3170233.13649  -2449986.93046  23914693.7204   23914699.5044
      3536.6574       2755.8344
  22846815.3944  -11498851.56749  -8935771.09146  22846814.5994   22846819.5834
     -2711.7914      -2113.0724
  22925378.5154  -14182709.15649 -11030588.74846  22925378.3234   22925384.0354
     -3087.6364      -2405.9484
  24704659.8594   -2943647.56549  -2279024.19045  24704659.9784   24704662.6534
      2597.3264       2023.8854
  20022952.2864  -24195544.46349 -18544938.99048  20022952.6594   20022957.0544
     -1344.4904      -1047.6524
  21185519.9414  -21798046.28849 -16935206.50748  21185520.0064   21185524.5454
     -2022.3304      -1575.8384
  20695255.9064  -21888879.35849 -16803118.48548  20695255.2824   20695259.2364
      1865.2384       1453.4354
  23845685.3554   -4367008.37049  -3380786.57246  23845684.8594   23845687.8474
     -2635.0894      -2053.3044
 05  1 20  1 54 30.0000000  0 10G 9G18G15G 6G17G22G26G29G21G10
  23601482.9424   -5537777.70649  -4294231.60746  23601482.6384   23601488.0384
      3673.2624       2862.2844
  22266264.5884  -16828971.01249 -13095287.58347  22266263.5764   22266266.6874
      2028.2714       1580.4704
  23894510.8394   -3276303.59249  -2532639.19846  23894509.3744   23894515.1004
      3534.6624       2754.2804
  22862320.2094  -11417374.70449  -8872282.68146  22862318.6724   22862323.8774
     -2720.2774      -2119.6884
  22943034.8184  -14089933.45949 -10958295.98146  22943033.2184   22943038.7824
     -3097.4804      -2413.6184
  24689841.1124   -3021540.02049  -2339719.60745  24689839.9914   24689840.6084
      2595.5254       2022.4844
  20030679.9364  -24154934.16149 -18513294.59348  20030680.2914   20030685.1224
     -1362.8684      -1061.9734
  21197099.3854  -21737198.41649 -16887792.58448  21197099.2204   21197103.3984
     -2034.0874      -1585.0014
  20684645.6904  -21944637.87149 -16846566.67648  20684645.2664   20684648.9264
      1852.0034       1443.1174
  23860731.4054   -4287934.62149  -3319170.65646  23860730.6174   23860737.3394
     -2636.4744      -2054.3894
 05  1 20  1 55  0.0000000  0 10G 9G18G15G 6G17G22G26G29G21G10
  23580520.4014   -5647934.34149  -4380067.97546  23580519.7324   23580522.8874
      3670.4794       2860.1104
  22254696.9754  -16889751.11449 -13142648.69047  22254696.9284   22254701.1344
      2023.7324       1576.9384
  23874338.6044   -3382313.80549  -2615244.53446  23874336.8284   23874341.2774
      3532.6284       2752.7024
  22877870.6834  -11335645.01949  -8808597.24146  22877870.6904   22877876.3804
     -2728.6394      -2126.2094
  22960743.4964  -13996864.23549 -10885774.49346  22960744.0024   22960749.1994
     -3107.1794      -2421.1764
  24675024.7184   -3099379.96549  -2400374.07845  24675026.6694   24675028.5424
      2593.7374       2021.0924
  20038513.1044  -24113773.31249 -18481221.20548  20038513.2314   20038517.6964
     -1381.1914      -1076.2544
  21208744.7174  -21675998.96449 -16840104.69848  21208745.0214   21208749.4434
     -2045.8024      -1594.1334
  20674111.0944  -21999998.16249 -16889704.56548  20674110.6104   20674114.0394
      1838.6684       1432.7264
  23875786.2514   -4208820.93149  -3257523.61746  23875786.1384   23875792.1194
     -2637.7744      -2055.4154
 05  1 20  1 55 30.0000000  0 10G 9G18G15G 6G17G22G26G29G21G10
  23559574.5674   -5758005.24949  -4465837.50446  23559574.3114   23559579.7034
      3667.5904       2857.8694
  22243157.1944  -16950393.87549 -13189902.77947  22243157.0514   22243161.0004
      2019.1644       1573.3774
  23854176.6834   -3488261.79849  -2697801.42146  23854175.1594   23854180.5014
      3530.5544       2751.0814
  22893470.8474  -11253665.32949  -8744716.97946  22893471.2334   22893476.2664
     -2736.9244      -2132.6784
  22978510.0274  -13903502.36649 -10813024.98846  22978510.1534   22978515.6794
     -3116.9534      -2428.7994
  24660222.0364   -3177167.23549  -2460987.50645  24660222.9984   24660226.2804
      2592.0354       2019.7694
  20046449.9064  -24072064.09749 -18448720.51448  20046450.1984   20046454.8604
     -1399.3944      -1090.4374
  21220457.3574  -21614450.25749 -16792144.66848  21220457.3044   21220461.5414
     -2057.3874      -1603.1604
  20663652.7224  -22054958.16649 -16932530.54148  20663652.1104   20663655.5024
      1825.2934       1422.3064
  23890848.3824   -4129667.73349  -3195845.80845  23890847.1824   23890854.6194
     -2639.0944      -2056.4244
 05  1 20  1 56  0.0000000  0 10G 9G18G15G 6G17G22G26G29G21G10
  23538646.9374   -5867987.08749  -4551537.61346  23538645.7104   23538650.4484
      3664.5384       2855.4854
  22231642.8654  -17010899.41749 -13237049.93547  22231642.5884   22231647.4044
      2014.5384       1569.7664
  23834026.6394   -3594145.42849  -2780308.14846  23834026.5844   23834030.7544
      3528.3464       2749.3604
  22909119.6454  -11171438.48149  -8680644.14846  22909118.6704   22909124.0504
     -2745.1214      -2139.0594
  22996331.0084  -13809849.63349 -10740048.85146  22996330.7664   22996337.8844
     -3126.6974      -2436.3884
  24645429.3184   -3254901.49249  -2521559.70945  24645430.2814   24645434.9074
      2590.3184       2018.4274
  20054491.1204  -24029809.11949 -18415794.55448  20054490.9104   20054495.3574
     -1417.6034      -1104.6264
  21232235.5544  -21552554.39249 -16743914.11748  21232235.8534   21232240.0194
     -2068.9424      -1612.1664
  20653270.4894  -22109515.14649 -16975042.47048  20653270.1214   20653273.6104
      1811.8024       1411.7934
  23905919.7484   -4050475.09449  -3134137.29045  23905918.0564   23905922.2384
     -2640.4334      -2057.4814
 05  1 20  1 56 30.0000000  0 10G 9G18G15G 6G17G22G26G29G21G10
  23517733.9544   -5977876.68149  -4637165.86446  23517733.8684   23517739.9364
      3661.4334       2853.0714
  22220156.7214  -17071267.23949 -13284089.79347  22220156.0314   22220159.6134
      2009.9614       1566.2074
  23813889.8664   -3699962.48749  -2862762.98046  23813889.3724   23813893.6754
      3526.0634       2747.5874
  22924811.8554  -11088967.43749  -8616381.02746  22924811.7364   22924817.6694
     -2753.1934      -2145.3424
  23014207.9024  -13715907.13449 -10666846.89946  23014208.1374   23014213.7544
     -3136.2754      -2443.8424
  24630647.7444   -3332582.94449  -2582090.70045  24630647.9984   24630650.3374
      2588.5054       2017.0124
  20062635.7374  -23987010.32349 -18382444.84448  20062635.4014   20062639.6864
     -1435.6674      -1118.7004
  21244080.0684  -21490313.89349 -16695415.02448  21244079.3634   21244084.2494
     -2080.3674      -1621.0654
  20642965.2294  -22163667.05749 -17017238.76248  20642965.0774   20642968.8534
      1798.3054       1401.2814
  23920996.5784   -3971243.23249  -3072398.18345  23920996.0184   23920999.4484
     -2641.7304      -2058.4764
 05  1 20  1 57  0.0000000  0 10G 9G18G15G 6G17G22G26G29G21G10
  23496840.3154   -6087670.70749  -4722719.64946  23496841.5224   23496846.1834
      3658.1534       2850.5164
  22208693.5794  -17131496.86549 -13331021.96447  22208694.0654   22208698.2214
      2005.3744       1562.6294
  23793766.6674   -3805710.93949  -2945164.35146  23793764.9824   23793770.7874
      3523.8494       2745.8514
  22940552.3644  -11006255.22149  -8551929.97046  22940553.0614   22940558.2854
     -2761.2304      -2151.6064
  23032140.0894  -13621676.42349 -10593420.34946  23032139.5644   23032145.2134
     -3145.8464      -2451.3104
  24615876.0544   -3410211.57849  -2642580.47445  24615876.1454   24615878.6764
      2586.7364       2015.6424
  20070882.3964  -23943670.33149 -18348673.42148  20070882.4364   20070887.1864
     -1453.6734      -1132.7304
  21255988.6734  -21427730.93449 -16646649.09448  21255988.5754   21255993.3544
     -2091.7624      -1629.9404
  20632738.4864  -22217411.77349 -17059117.77048  20632737.8434   20632741.5884
      1784.6794       1390.6624
  23936082.7934   -3891972.18249  -3010628.55845  23936080.5224   23936086.3994
     -2643.0604      -2059.5234
 05  1 20  1 57 30.0000000  0 10G 9G18G15G 6G17G22G26G29G21G10
  23475966.3844   -6197365.61949  -4808196.17646  23475966.5394   23475971.5204
      3654.8114       2847.8994
  22197259.2644  -17191588.43549 -13377846.54947  22197258.8324   22197263.3284
      2000.7404       1559.0234
  23773656.1624   -3911388.68849  -3027510.64446  23773656.8944   23773660.7544
      3521.3674       2743.9194
  22956336.4914  -10923304.76749  -8487293.27246  22956336.2444   22956342.9644
     -2769.0804      -2157.7314
  23050124.9894  -13527158.97049 -10519770.35846  23050125.6034   23050131.0994
     -3155.3714      -2458.7294
  24601113.8974   -3487787.27049  -2703029.10245  24601113.6444   24601116.3924
      2584.9624       2014.2474
  20079232.4864  -23899791.33249 -18314481.99148  20079232.5324   20079236.6214
     -1471.5844      -1146.6894
  21267962.0254  -21364808.00149 -16597618.23948  21267962.4264   21267966.9284
     -2103.0504      -1638.7394
  20622588.2314  -22270746.74349 -17100677.48348  20622588.3974   20622592.3184
      1770.9794       1379.9834
  23951170.7384   -3812662.38249  -2948828.70645  23951170.8594   23951177.2074
     -2644.2974      -2060.4834
 05  1 20  1 58  0.0000000  0 10G 9G18G15G 6G17G22G26G29G21G10
  23455111.6084   -6306958.32449  -4893593.08746  23455111.6394   23455116.0014
      3651.3754       2845.2284
  22185851.1014  -17251541.64249 -13424563.34447  22185850.5844   22185854.4014
      1996.1504       1555.4424
  23753560.4604   -4016993.51349  -3109800.10846  23753558.9694   23753565.1034
      3518.9544       2742.0444
  22972167.4714  -10840118.98649  -8422473.20846  22972167.3024   22972171.7284
     -2776.8694      -2163.8004
  23068167.0924  -13432356.23749 -10445898.13146  23068165.4524   23068171.3144
     -3164.8624      -2466.1324
  24586362.3394   -3565309.79949  -2763436.23445  24586362.3494   24586364.6334
      2583.1954       2012.8824
  20087684.2204  -23855375.53849 -18279872.27648  20087684.5014   20087688.7574
     -1489.4524      -1160.6144
  21280000.7184  -21301547.18949 -16548324.09948  21280000.9914   21280005.2764
     -2114.2644      -1647.4834
  20612518.3854  -22323669.64249 -17141916.10948  20612517.8084   20612521.5654
      1757.2114       1369.2524
  23966274.4984   -3733313.69649  -2886998.60345  23966271.1304   23966276.7164
     -2645.6064      -2061.5114
 05  1 20  1 58 30.0000000  0 10G 9G18G15G 6G17G22G26G29G21G10
  23434276.7374   -6416445.30649  -4978907.62946  23434276.8594   23434281.5644
      3647.7874       2842.4314
  22174467.0994  -17311356.50349 -13471172.31747  22174467.6954   22174471.8064
      1991.5194       1551.8324
  23733477.3674   -4122523.30149  -3192031.12346  23733478.7964   23733484.0714
      3516.3874       2740.0424
  22988041.3524  -10756700.99749  -8357472.19546  22988040.4534   22988046.2574
     -2784.5824      -2169.8024
  23086262.5524  -13337269.35349 -10371804.47646  23086261.2954   23086266.2784
     -3174.3334      -2473.5114
  24571616.9034   -3642779.45549  -2823802.20845  24571618.7044   24571623.4404
      2581.4354       2011.5014
  20096237.9994  -23810425.61249 -18244846.35848  20096238.2294   20096242.6384
     -1507.2164      -1174.4564
  21292102.8044  -21237951.13549 -16498768.73448  21292102.5924   21292107.1974
     -2125.3864      -1656.1454
  20602526.3554  -22376178.33949 -17182831.97448  20602525.8854   20602529.2524
      1743.3594       1358.4614
  23981378.6794   -3653926.60249  -2825138.49545  23981377.4234   23981385.0834
     -2646.8954      -2062.5164
 05  1 20  1 59  0.0000000  0 10G 9G18G15G 6G17G22G26G29G21G10
  23413463.3724   -6525823.37349  -5064137.28046  23413462.4944   23413467.6164
      3644.0924       2839.5444
  22163112.7704  -17371032.58749 -13517673.16647  22163112.0704   22163115.8774
      1986.8984       1548.2334
  23713412.9754   -4227975.88249  -3274201.94346  23713410.4894   23713416.6794
      3513.7124       2737.9594
  23003957.3884  -10673053.66349  -8292292.47446  23003957.9464   23003963.6784
     -2792.1534      -2175.7044
  23104408.3484  -13241899.94249 -10297490.61346  23104408.3494   23104414.1784
     -3183.6384      -2480.7444
  24556890.8914   -3720196.00049  -2884126.80545  24556889.9064   24556888.9594
      2579.7254       2010.1734
  20104893.1244  -23764943.42349 -18209405.69548  20104893.2224   20104897.7084
     -1524.8974      -1188.2324
  21304267.9564  -21174022.01649 -16448953.83448  21304267.8684   21304272.6644
     -2136.4794      -1664.7914
  20592614.2774  -22428270.34849 -17223423.15448  20592613.4424   20592616.5974
      1729.4404       1347.6144
  23996494.7444   -3574501.32349  -2763248.71045  23996493.2574   23996498.2794
     -2648.1384      -2063.4774
 05  1 20  1 59 30.0000000  0 10G 9G18G15G 6G17G22G26G29G21G10
  23392671.2354   -6635089.17249  -5149279.43046  23392671.2414   23392674.4334
      3640.2764       2836.5864
  22151783.6234  -17430569.79949 -13564065.81147  22151782.7064   22151786.3824
      1982.2654       1544.6204
  23693359.3864   -4333349.11049  -3356310.93546  23693358.9894   23693363.7534
      3511.0614       2735.8954
  23019920.4584  -10589179.86049  -8226936.29546  23019919.5624   23019923.9034
     -2799.6924      -2181.5854
  23122608.0684  -13146249.58149 -10222957.87045  23122608.6594   23122614.7604
     -3193.0444      -2488.0894
  24542165.9444   -3797559.52549  -2944410.07045  24542166.0354   24542167.7714
      2577.8934       2008.7544
  20113649.2694  -23718931.97849 -18173552.61348  20113648.8984   20113653.4254
     -1542.5114      -1201.9574
  21316496.2304  -21109762.17349 -16398881.22848  21316496.1114   21316500.8024
     -2147.4384      -1673.3274
  20582780.5614  -22479943.61149 -17263688.03548  20582780.1174   20582783.4474
      1715.4474       1336.7134
  24011614.2694   -3495038.00549  -2701329.24445  24011613.7104   24011620.0974
     -2649.3754      -2064.4524
                            4  1
RINEX FILE SPLICE; other post-header comments skipped       COMMENT
 05  1 20  2  0  0.0000000  0 10G 9G18G15G 6G17G22G26G29G21G10
  23371900.8654   -6744239.23749  -5234331.41946  23371900.4824   23371905.9704
      3636.3864       2833.5564
  22140479.7314  -17489967.98849 -13610350.09247  22140479.1564   22140483.5104
      1977.6154       1541.0064
  23673322.9174   -4438640.94249  -3438356.51946  23673322.8624   23673328.4454
      3508.3614       2733.7914
  23035922.8434  -10505082.63649  -8161405.98546  23035922.3594   23035927.2594
     -2807.0474      -2187.3144
  23140865.9484  -13050320.06349 -10148207.63046  23140865.7254   23140871.0724
     -3202.3304      -2495.3194
  24527454.5134   -3874869.89149  -3004651.86845  24527454.0754   24527457.5124
      2576.1684       2007.4124
  20122504.7224  -23672393.19249 -18137288.62948  20122504.8984   20122509.7284
     -1560.0364      -1215.6114
  21328786.4414  -21045173.71349 -16348552.55748  21328786.7504   21328791.4064
     -2158.3444      -1681.8234
  20573027.5884  -22531195.95449 -17303624.92548  20573026.8954   20573030.3464
      1701.3704       1325.7404
  24026742.5644   -3415536.84949  -2639380.30346  24026743.2844   24026748.0844
     -2650.6604      -2065.4384
 05  1 20  2  0 30.0000000  0 10G 9G18G15G 6G17G22G26G29G21G10
  23351150.6604   -6853270.39949  -5319290.74946  23351151.4944   23351157.5184
      3632.3544       2830.4044
  22129202.0434  -17549226.64949 -13656525.67047  22129202.0584   22129206.1104
      1972.9664       1537.3704
  23653302.4944   -4543849.19449  -3520336.97846  23653302.0134   23653307.1534
      3505.5004       2731.5564
  23051968.3414  -10420765.06549  -8095703.97846  23051967.0174   23051971.9344
     -2814.3804      -2193.0374
  23159172.9934  -12954112.06149 -10073240.35046  23159172.1554   23159178.0474
     -3211.5924      -2502.5314
  24512754.3134   -3952126.97849  -3064852.22045  24512753.7864   24512756.4374
      2574.3434       2005.9774
  20131460.3544  -23625329.87249 -18100615.90648  20131460.5414   20131465.1714
     -1577.5094      -1229.2294
  21341139.2994  -20980259.27649 -16297969.88448  21341139.3114   21341144.5144
     -2169.1804      -1690.2704
  20563354.6564  -22582025.07649 -17343232.03448  20563354.4364   20563357.7164
      1687.2194       1314.7134
  24041879.9604   -3335998.06149  -2577402.05946  24041878.7074   24041884.4244
     -2651.9104      -2066.4214
 05  1 20  2  1  0.0000000  0 10G 9G18G15G 6G17G22G26G29G21G10
  23330427.6404   -6962179.38949  -5404154.89646  23330427.1924   23330432.4324
      3628.2324       2827.1884
  22117953.0064  -17608345.69349 -13702592.44747  22117952.6654   22117956.7034
      1968.2994       1533.7404
  23633298.5534   -4648971.69849  -3602250.58346  23633299.1334   23633302.8524
      3502.6034       2729.2924
  23068054.0604  -10336229.98949  -8029832.50346  23068054.4054   23068058.2274
     -2821.5554      -2198.6204
  23177533.1494  -12857627.58249  -9998057.63446  23177533.4554   23177538.8274
     -3220.7774      -2509.6924
  24498061.6094   -4029330.84449  -3125011.08245  24498061.4934   24498062.7914
      2572.5864       2004.6184
  20140515.3074  -23577743.97649 -18063535.99148  20140515.6194   20140520.3644
     -1594.8634      -1242.7524
  21353553.6844  -20915021.02049 -16247134.88248  21353553.8184   21353558.8984
     -2179.9414      -1698.6544
  20553763.5884  -22632428.57849 -17382507.49448  20553763.0924   20553766.3464
      1673.0054       1303.6394
  24057023.8534   -3256421.79249  -2515394.58346  24057022.7744   24057025.2754
     -2653.1874      -2067.4194
 05  1 20  2  1 30.0000000  0 10G 9G18G15G 6G17G22G26G29G21G10
  23309727.2674   -7070962.83149  -5488921.18246  23309726.8694   23309731.9694
      3624.0034       2823.9014
  22106729.0804  -17667325.19249 -13748550.48447  22106728.8564   22106733.0934
      1963.6434       1530.1174
  23613310.2134   -4754006.35749  -3684095.76945  23613310.1104   23613315.0394
      3499.6974       2727.0434
  23084180.8214  -10251480.39949  -7963793.86246  23084181.4154   23084186.7164
     -2828.6454      -2204.1404
  23195946.2484  -12760868.06949  -9922660.60746  23195946.2044   23195951.7654
     -3229.8494      -2516.7624
  24483380.5964   -4106481.27949  -3185128.29846  24483379.7384   24483383.7694
      2570.7814       2003.2054
  20149669.9574  -23529638.37049 -18026051.10348  20149670.1974   20149674.8734
     -1612.1654      -1256.2314
  21366029.7704  -20849461.43849 -16196049.49148  21366029.5014   21366034.4194
     -2190.6064      -1706.9644
  20544253.5834  -22682404.13549 -17421449.48248  20544253.1784   20544256.2554
      1658.7014       1292.4934
  24072168.7694   -3176808.32649  -2453358.13546  24072169.6624   24072177.4854
     -2654.3924      -2068.3594
 05  1 20  2  2  0.0000000  0 10G 9G18G15G 6G17G22G26G29G21G10
  23289050.9034   -7179617.38549  -5573587.03946  23289050.5914   23289055.0724
      3619.6174       2820.4854
  22095533.2574  -17726164.69349 -13794399.41847  22095532.7784   22095536.7054
      1959.0034       1526.4894
  23593341.7134   -4858950.93149  -3765870.76945  23593340.4014   23593345.9174
      3496.5984       2724.6264
  23100350.4104  -10166519.30449  -7897590.44146  23100349.4084   23100353.7854
     -2835.6374      -2209.5824
  23214409.5454  -12663835.02049  -9847050.45545  23214410.1894   23214415.2404
     -3239.0214      -2523.9074
  24468709.7954   -4183578.38549  -3245203.94845  24468708.7014   24468712.8864
      2569.0234       2001.8374
  20158923.0524  -23481015.09249 -17988162.82848  20158922.9164   20158927.3184
     -1629.3764      -1269.6464
  21378566.7474  -20783582.72649 -16144715.42948  21378566.1644   21378570.4384
     -2201.2064      -1715.2254
  20534825.5754  -22731949.69949 -17460056.41348  20534825.0824   20534828.1174
      1644.3304       1281.2954
  24087330.5834   -3097157.60649  -2391292.64146  24087328.8594   24087335.1304
     -2655.6444      -2069.3294
 05  1 20  2  2 30.0000000  0 10G 9G18G15G 6G17G22G26G29G21G10
  23268398.7414   -7288139.71049  -5658149.88046  23268399.4484   23268404.3624
      3615.1304       2816.9874
  22084363.4674  -17784863.89549 -13840139.04847  22084363.1074   22084366.5394
      1954.3034       1522.8334
  23573390.4954   -4963803.12049  -3847573.76145  23573387.9854   23573392.8914
      3493.4834       2722.1954
  23116555.9834  -10081349.60949  -7831224.45346  23116555.8834   23116560.3724
     -2842.5894      -2215.0054
  23232927.0974  -12566529.97349  -9771228.36645  23232926.7514   23232932.4914
     -3248.0454      -2530.9484
  24454047.6964   -4260622.32749  -3305238.16845  24454048.4614   24454051.4134
      2567.2484       2000.4584
  20168273.6774  -23431876.87349 -17949873.31148  20168273.9654   20168278.0784
     -1646.4834      -1282.9764
  21391162.7394  -20717387.27349 -16093134.55648  21391162.7074   21391167.0014
     -2211.7734      -1723.4584
  20525479.5804  -22781063.02349 -17498326.53748  20525478.9204   20525482.3844
      1629.8814       1270.0374
  24102492.6594   -3017469.96049  -2329198.35646  24102491.5464   24102498.1234
     -2656.9434      -2070.3444
 05  1 20  2  3  0.0000000  0 10G 9G18G15G 6G17G22G26G29G21G10
  23247774.7004   -7396526.43849  -5742607.06146  23247774.6864   23247779.8514
      3610.6034       2813.4634
  22073219.5494  -17843422.73549 -13885769.30247  22073218.7724   22073223.1284
      1949.6094       1519.1764
  23553455.5174   -5068560.74549  -3929203.05445  23553453.1164   23553458.0214
      3490.3604       2719.7634
  23132803.1574   -9995974.45249  -7764698.35746  23132803.0334   23132807.3054
     -2849.3594      -2220.2894
  23251496.2434  -12468954.40749  -9695195.45345  23251495.5724   23251501.7884
     -3257.0384      -2537.9534
  24439396.1604   -4337612.50149  -3365230.53545  24439396.0174   24439399.6294
      2565.4834       1999.0634
  20177722.2864  -23382226.15349 -17911184.43348  20177721.9914   20177726.5144
     -1663.5454      -1296.2754
  21403818.9884  -20650877.38449 -16041308.66948  21403819.4594   21403823.1264
     -2222.1814      -1731.5744
  20516216.8184  -22829741.59749 -17536257.89448  20516215.8744   20516219.1544
      1615.3634       1258.7214
  24117665.3314   -2937745.73549  -2267075.61646  24117663.6894   24117669.1034
     -2658.0634      -2071.2224
 05  1 20  2  3 30.0000000  0 10G 9G18G15G 6G17G22G26G29G21G10
  23227176.0644   -7504774.27649  -5826956.01046  23227175.2874   23227179.9994
      3605.9624       2809.8454
  22062102.2154  -17901840.86849 -13931289.91347  22062102.0314   22062106.7674
      1944.9364       1515.5354
  23533536.4124   -5173221.53349  -4010756.90045  23533536.2334   23533542.8044
      3487.0274       2717.1684
  23149087.3314   -9910396.60349  -7698014.32546  23149087.4674   23149092.7444
     -2856.0714      -2225.5264
  23270114.8114  -12371109.93149  -9618953.00845  23270115.2824   23270120.6654
     -3266.0134      -2544.9484
  24424755.7404   -4414549.12349  -3425181.14145  24424756.5394   24424759.1304
      2563.6254       1997.6284
  20187266.7944  -23332065.28949 -17872098.04048  20187266.9834   20187271.7254
     -1680.5254      -1309.4964
  21416535.2644  -20584055.37849 -15989239.57548  21416535.3584   21416539.3744
     -2232.5274      -1739.6314
  20507035.5484  -22877983.89249 -17573849.28948  20507035.2224   20507038.9354
      1600.7704       1247.3574
  24132841.0664   -2857984.84249  -2204924.27146  24132841.7254   24132846.4144
     -2659.3214      -2072.2104
 05  1 20  2  4  0.0000000  0 10G 9G18G15G 6G17G22G26G29G21G10
  23206602.9884   -7612879.68649  -5911193.98446  23206602.7954   23206608.4424
      3601.0784       2806.0274
  22051012.8584  -17960118.22049 -13976700.83447  22051012.4804   22051016.7954
      1940.2254       1511.8684
  23513640.0284   -5277783.04349  -4092233.37445  23513638.8064   23513645.1044
      3483.6814       2714.5604
  23165410.1124   -9824619.22049  -7631174.82746  23165410.7514   23165416.3054
     -2862.6704      -2230.6424
  23288785.1514  -12272997.85949  -9542502.01045  23288785.5214   23288789.1374
     -3274.8174      -2551.8004
  24410127.6794   -4491432.21549  -3485090.02246  24410127.0754   24410129.6194
      2561.8684       1996.2644
  20196909.2494  -23281396.89349 -17832616.17848  20196909.0134   20196913.5144
     -1697.3814      -1322.6364
  21429309.6604  -20516923.50749 -15936929.02548  21429309.6454   21429314.4534
     -2242.8484      -1747.6714
  20497938.8414  -22925787.38049 -17611098.76648  20497938.5394   20497942.2664
      1586.1134       1235.9344
  24148028.1584   -2778187.32549  -2142744.39846  24148027.3664   24148032.3604
     -2660.5464      -2073.1524
 05  1 20  2  4 30.0000000  0 10G 9G18G15G 6G17G22G26G29G21G10
  23186058.0194   -7720839.25149  -5995318.31446  23186058.4444   23186064.5274
      3596.1954       2802.2334
  22039950.2534  -18018254.31549 -14022001.68447  22039950.0374   22039954.0084
      1935.5374       1508.2084
  23493761.9874   -5382243.21649  -4173630.88246  23493760.9694   23493767.5884
      3480.2884       2711.9074
  23181769.9424   -9738645.19349  -7564182.10146  23181769.7904   23181776.2254
     -2869.1814      -2235.7304
  23307506.8774  -12174619.97349  -9465843.91945  23307506.5364   23307511.1744
     -3283.7184      -2558.7414
  24395506.4844   -4568261.75549  -3544957.20045  24395506.4044   24395508.1924
      2560.0924       1994.8734
  20206646.7314  -23230223.47449 -17792740.78648  20206646.8524   20206651.5054
     -1714.1754      -1335.7224
  21442142.6074  -20449484.49449 -15884379.14248  21442142.5904   21442147.3244
     -2253.0534      -1755.6294
  20488926.2464  -22973149.60349 -17648004.39748  20488925.8034   20488929.5574
      1571.3684       1224.4424
  24163217.1164   -2698353.67149  -2080536.40846  24163217.1014   24163224.5444
     -2661.6564      -2074.0174
 05  1 20  2  5  0.0000000  0 10G 9G18G15G 6G17G22G26G29G21G10
  23165543.3084   -7828649.71849  -6079326.45546  23165543.2384   23165548.4014
      3591.1684       2798.3064
  22028914.8114  -18076248.64749 -14067192.08247  22028913.7814   22028917.8124
      1930.7964       1504.5184
  23473903.0764   -5486599.92749  -4254947.79446  23473902.6194   23473908.7014
      3476.7654       2709.1724
  23198168.0354   -9652477.58149  -7497038.52046  23198167.4234   23198173.2914
     -2875.6094      -2240.7374
  23326277.7894  -12075978.05549  -9388980.08745  23326276.2574   23326282.1514
     -3292.4964      -2565.5844
  24380896.3284   -4645037.49949  -3604782.46245  24380895.3844   24380898.2494
      2558.1824       1993.3904
  20216480.1194  -23178547.42849 -17752473.73748  20216480.2554   20216485.0944
     -1730.8774      -1348.7364
  21455033.7754  -20381740.18149 -15831591.36948  21455033.6534   21455038.5994
     -2263.1714      -1763.5084
  20479997.6874  -23020068.67449 -17684564.70648  20479997.2254   20480000.9244
      1556.5524       1212.8964
  24178417.6014   -2618484.06749  -2018300.35346  24178416.7354   24178421.0104
     -2662.9224      -2074.9974
 05  1 20  2  5 30.0000000  0 10G 9G18G15G 6G17G22G26G29G21G10
  23145058.2954   -7936307.66549  -6163215.75546  23145056.8694   23145062.2274
      3586.0124       2794.2924
  22017905.1284  -18134101.07349 -14112271.88947  22017904.9464   22017909.0644
      1926.0714       1500.8354
  23454065.7444   -5590850.75749  -4336182.20946  23454065.1844   23454070.4984
      3473.1894       2706.3854
  23214601.1834   -9566119.37549  -7429746.43346  23214600.8264   23214605.7144
     -2881.8944      -2245.6234
  23345097.6394  -11977073.04549  -9311911.28245  23345097.2044   23345102.2834
     -3301.2284      -2572.3814
  24366296.6894   -4721759.45149  -3664565.74146  24366298.0494   24366299.8484
      2556.5184       1992.0944
  20226409.0584  -23126371.50249 -17711817.17448  20226409.5544   20226413.6794
     -1747.4854      -1361.6764
  21467983.1824  -20313693.09749 -15778567.67048  21467983.1784   21467987.5144
     -2273.2294      -1771.3444
  20471154.3644  -23066542.19049 -17720777.83748  20471153.8404   20471157.3264
      1541.6634       1201.2954
  24193625.2624   -2538578.49149  -1956036.27846  24193623.6204   24193628.4324
     -2664.1244      -2075.9314
 05  1 20  2  6  0.0000000  0 10G 9G18G15G 6G17G22G26G29G21G10
  23124600.4394   -8043809.77349  -6246983.63246  23124599.7314   23124604.7624
      3580.7904       2790.2264
  22006923.2564  -18191811.69349 -14157241.19447  22006923.1034   22006927.1524
      1921.3264       1497.1364
  23434250.0184   -5694993.48749  -4417332.38646  23434246.9884   23434252.7784
      3469.5874       2703.5674
  23231070.9064   -9479573.33249  -7362307.96046  23231070.9334   23231075.6904
     -2888.1054      -2250.4724
  23363969.3684  -11877906.97149  -9234639.01845  23363968.5944   23363973.1654
     -3309.9154      -2579.1584
  24351708.9904   -4798427.61849  -3724307.17846  24351708.0734   24351710.3064
      2554.7204       1990.6884
  20236432.8914  -23073697.83749 -17670772.75548  20236432.9884   20236437.2374
     -1764.0514      -1374.5904
  21480989.6634  -20245345.42249 -15725309.74248  21480989.2074   21480993.4304
     -2283.2024      -1779.1254
  20462396.1134  -23112568.12849 -17756642.20248  20462395.5664   20462398.9534
      1526.7014       1189.6334
  24208834.9254   -2458636.97749  -1893744.21546  24208834.1624   24208840.8434
     -2665.3424      -2076.8834
 05  1 20  2  6 30.0000000  0 10G 9G18G15G 6G17G22G26G29G21G10
  23104172.5854   -8151152.59749  -6330627.39646  23104173.4884   23104178.0714
      3575.3674       2785.9994
  21995968.6124  -18249380.20849 -14202099.77947  21995968.3084   21995972.0034
      1916.6034       1493.4654
  23414450.8494   -5799026.06549  -4498396.71846  23414450.9804   23414456.0324
      3465.8794       2700.6824
  23247574.3084   -9392842.66249  -7294725.61046  23247574.6144   23247579.8934
     -2894.1804      -2255.2024
  23382888.1534  -11778481.34149  -9157164.51745  23382887.7994   23382893.9154
     -3318.5234      -2585.8644
  24337126.8634   -4875041.96749  -3784006.66245  24337128.5484   24337129.3354
      2552.9184       1989.2964
  20246550.5024  -23020529.49649 -17629342.87548  20246550.5624   20246554.8594
     -1780.5144      -1387.4144
  21494052.3164  -20176699.85049 -15671819.68048  21494052.1054   21494056.2974
     -2293.1204      -1786.8454
  20453723.2734  -23158144.19549 -17792156.01848  20453722.6784   20453726.0324
      1511.6824       1177.9334
  24224055.0074   -2378659.85349  -1831424.38746  24224054.2674   24224059.7954
     -2666.5134      -2077.8034
 05  1 20  2  7  0.0000000  0 10G 9G18G15G 6G17G22G26G29G21G10
  23083778.1294   -8258332.81649  -6414144.45846  23083777.3794   23083783.0844
      3569.9094       2781.7524
  21985041.1194  -18306806.39149 -14246847.44847  21985040.6794   21985043.9174
      1911.8444       1489.7514
  23394676.0914   -5902945.88549  -4579373.21446  23394675.4894   23394680.8904
      3462.0724       2697.7174
  23264112.3264   -9305930.35749  -7227001.75646  23264112.6494   23264118.3114
     -2900.1804      -2259.8744
  23401859.2244  -11678797.98849  -9079489.19545  23401856.9924   23401862.9154
     -3327.0624      -2592.5044
  24322559.1674   -4951602.45949  -3843664.15246  24322559.8214   24322561.7484
      2551.1384       1987.8944
  20256761.4444  -22966868.50049 -17587529.10948  20256761.8624   20256766.1074
     -1796.8914      -1400.1744
  21507171.4734  -20107758.42549 -15618099.09348  21507171.6214   21507175.5274
     -2302.9304      -1794.4944
  20445136.4364  -23203268.37649 -17827317.72448  20445135.8214   20445139.3634
      1496.5764       1166.1644
  24239279.7834   -2298647.18649  -1769076.87346  24239278.9994   24239285.5254
     -2667.7064      -2078.7304
 05  1 20  2  7 30.0000000  0 10G 9G18G15G 6G17G22G26G29G21G10
  23063411.9454   -8365346.99249  -6497532.09046  23063412.9824   23063419.3664
      3564.3474       2777.4164
  21974140.1344  -18364089.61749 -14291483.72547  21974140.0054   21974143.1464
      1907.0584       1486.0194
  23374923.6764   -6006750.59449  -4660259.99146  23374921.7204   23374927.5874
      3458.2254       2694.7214
  23280687.6414   -9218839.40049  -7159138.68346  23280685.9634   23280691.9594
     -2906.1254      -2264.5114
  23420876.2394  -11578857.85549  -9001613.77045  23420876.0214   23420880.5564
     -3335.6044      -2599.1704
  24308001.2314   -5028108.90649  -3903279.56646  24308000.7944   24308002.9194
      2549.3094       1986.4734
  20267066.4894  -22912717.91149 -17545333.84148  20267066.3364   20267070.7714
     -1813.1484      -1412.8424
  21520345.9794  -20038523.54649 -15564149.83348  21520346.2124   21520350.7534
     -2312.6654      -1802.0764
  20436635.3974  -23247938.41849 -17862125.54648  20436634.9674   20436638.9934
      1481.4044       1154.3454
  24254512.9444   -2218599.19049  -1706701.85545  24254511.4964   24254517.9154
     -2668.8504      -2079.6214
 05  1 20  2  8  0.0000000  0 10G 9G18G15G 6G17G22G26G29G21G10
  23043081.9194   -8472191.67749  -6580787.70246  23043081.7404   23043085.2224
      3558.6234       2772.9454
  21963266.5064  -18421229.54549 -14336008.34547  21963266.2774   21963269.9804
      1902.2964       1482.3144
  23355191.1734   -6110437.88749  -4741055.29146  23355190.8924   23355196.1944
      3454.2754       2691.6384
  23297293.0014   -9131572.67349  -7091138.66646  23297292.4454   23297297.7274
     -2911.9104      -2269.0334
  23439942.3334  -11478663.20149  -8923540.00945  23439941.2674   23439946.7204
     -3344.0644      -2605.7644
  24293453.2324   -5104561.10149  -3962852.72445  24293452.4634   24293453.8074
      2547.4084       1985.0004
  20277463.6234  -22858079.83349 -17502758.72048  20277463.6544   20277468.1834
     -1829.3864      -1425.4944
  21533576.6424  -19968997.51949 -15509973.70447  21533576.5564   21533580.8864
     -2322.2934      -1809.5804
  20428222.2444  -23292152.16349 -17896577.81948  20428221.7534   20428225.1744
      1466.1524       1142.4574
  24269753.3324   -2138515.90849  -1644299.29445  24269753.0354   24269758.8934
     -2669.9954      -2080.5164
 05  1 20  2  8 30.0000000  0 10G 9G18G15G 6G17G22G26G29G21G10
  23022781.7954   -8578863.46349  -6663908.56046  23022782.4664   23022788.0434
      3552.8054       2768.4194
  21952419.6224  -18478226.10549 -14380421.24347  21952419.5324   21952423.7984
      1897.4854       1478.5604
  23335482.7544   -6214005.48749  -4821757.30846  23335482.6954   23335487.8464
      3450.2184       2688.4764
  23313931.5654   -9044133.19349  -7023004.01546  23313931.3084   23313936.3204
     -2917.6244      -2273.4744
  23459056.2404  -11378215.62249  -8845269.21045  23459056.0134   23459062.2864
     -3352.4884      -2612.3344
  24278914.5694   -5180959.22549  -4022383.72246  24278913.9884   24278916.1584
      2545.6994       1983.6574
  20287952.7414  -22802957.26749 -17459806.07048  20287953.2074   20287957.5824
     -1845.4674      -1438.0254
  21546862.6504  -19899182.61649 -15455572.47347  21546862.1094   21546866.4454
     -2331.9294      -1817.0874
  20419895.2724  -23335907.43549 -17930672.83348  20419895.0954   20419899.1004
      1450.8384       1130.5254
  24285000.6034   -2058397.46549  -1581869.39245  24284998.8084   24285002.3484
     -2671.2264      -2081.4694
 05  1 20  2  9  0.0000000  0 10G 9G18G15G 6G17G22G26G29G21G10
  23002517.6154   -8685359.13349  -6746892.19946  23002516.7074   23002522.5334
      3546.8904       2763.8134
  21941601.2834  -18535079.15649 -14424722.30247  21941601.0944   21941605.5274
      1892.7044       1474.8394
  23315798.1014   -6317451.11449  -4902364.28846  23315797.3654   23315802.4104
      3446.0954       2685.2734
  23330603.8794   -8956524.00649  -6954737.10746  23330602.7334   23330608.3134
     -2923.2674      -2277.8704
  23478220.1534  -11277516.13849  -8766802.05745  23478218.9354   23478224.0724
     -3360.8674      -2618.8624
  24264388.3334   -5257303.14749  -4081872.43946  24264386.6344   24264387.0594
      2543.9034       1982.2584
  20298534.2544  -22747352.53049 -17416477.70448  20298534.2044   20298538.9624
     -1861.5194      -1450.5334
  21560201.1584  -19829081.19849 -15400947.99747  21560201.5014   21560206.0154
     -2341.4414      -1824.4994
  20411657.4934  -23379202.15149 -17964408.97748  20411656.8664   20411660.1574
      1435.4554       1118.5374
  24300250.3444   -1978244.14649  -1519412.28445  24300250.7684   24300257.7844
     -2672.2954      -2082.3154
 05  1 20  2  9 30.0000000  0 10G 9G18G15G 6G17G22G26G29G21G10
  22982285.8014   -8791675.04349  -6829735.75346  22982286.0664   22982291.4644
      3540.8044       2759.0594
  21930811.0264  -18591788.37749 -14468911.30047  21930810.0174   21930813.4754
      1887.9094       1471.0984
  23296138.1594   -6420772.44549  -4982874.41846  23296136.4874   23296141.5924
      3441.9524       2682.0304
  23347306.3914   -8868747.97749  -6886340.22146  23347305.9224   23347310.7224
     -2928.7674      -2282.1534
  23497429.3934  -11176567.34349  -8688140.67545  23497428.0774   23497433.6434
     -3369.1714      -2625.3264
  24249869.7734   -5333592.75549  -4141318.84845  24249870.0954   24249870.3024
      2542.0764       1980.8434
  20309206.6974  -22691268.36849 -17372775.75048  20309206.9084   20309211.1904
     -1877.4394      -1462.9384
  21573595.4874  -19758695.50649 -15346102.00647  21573595.6094   21573599.8664
     -2350.8644      -1831.8414
  20403506.7704  -23422034.16449 -17997784.57048  20403506.1944   20403509.4154
      1419.9904       1106.4844
  24315513.3924   -1898056.01349  -1456928.00845  24315510.9094   24315515.5764
     -2673.5324      -2083.2704
 05  1 20  2 10  0.0000000  0 10G 9G18G15G 6G17G22G26G29G21G10
  22962088.3974   -8897807.71549  -6912436.53146  22962089.8184   22962095.2084
      3534.6674       2754.2974
  21920046.5064  -18648353.71549 -14512988.20547  21920046.5404   21920049.4354
      1883.0994       1467.3524
  23276498.3784   -6523967.11849  -5063285.86046  23276498.8714   23276504.3314
      3437.6644       2678.7214
  23364040.0374   -8780808.21749  -6817815.73746  23364040.2504   23364046.6074
     -2934.1374      -2286.3424
  23516685.6564  -11075370.08249  -8609285.65845  23516685.0304   23516690.9694
     -3377.4284      -2631.7714
  24235362.3204   -5409827.93249  -4200722.89146  24235363.3164   24235363.3634
      2540.2554       1979.4314
  20319969.6094  -22634707.20049 -17328702.11848  20319969.8634   20319974.4454
     -1893.3244      -1475.3204
  21587043.2774  -19688027.99349 -15291036.41447  21587043.3264   21587047.2584
     -2360.2464      -1839.1544
  20395445.0264  -23464401.53149 -18030798.10848  20395443.8474   20395447.3524
      1404.4824       1094.4014
  24330774.8734   -1817833.32949  -1394416.89645  24330775.9724   24330782.3744
     -2674.6604      -2084.1424
 05  1 20  2 10 30.0000000  0 10G 9G18G15G 6G17G22G26G29G21G10
  22941930.0034   -9003753.82049  -6994991.92546  22941928.5904   22941933.7854
      3528.3914       2749.3894
  21909310.0844  -18704774.24849 -14556952.25347  21909309.6174   21909313.1714
      1878.2804       1463.5934
  23256886.3704   -6627032.84149  -5143596.78246  23256886.3394   23256891.6304
      3433.3654       2675.3484
  23380803.6014   -8692707.80649  -6749166.08646  23380804.5304   23380810.9884
     -2939.4794      -2290.5064
  23535989.4304  -10973926.23249  -8530238.53545  23535989.7004   23535996.0474
     -3385.5684      -2638.1084
  24220866.3544   -5486008.75949  -4260084.58346  24220865.3134   24220867.8254
      2538.4754       1978.0394
  20330823.5224  -22577671.79249 -17284258.93648  20330823.3124   20330828.0114
     -1909.0454      -1487.5664
  21600544.2274  -19617080.86949 -15235752.93247  21600543.9704   21600548.1454
     -2369.4894      -1846.3564
  20387470.6054  -23506302.26149 -18063448.02548  20387470.1614   20387474.1174
      1388.8934       1082.2574
  24346048.8684   -1737576.18049  -1331878.82245  24346048.0284   24346055.0244
     -2675.8114      -2085.0464
 05  1 20  2 11  0.0000000  0 10G 9G18G15G 6G17G22G26G29G21G10
  22921805.1494   -9109510.15149  -7077399.45146  22921804.8304   22921808.4304
      3522.0104       2744.4264
  21898600.9164  -18761049.90449 -14600803.41847  21898600.7274   21898604.1644
      1873.4264       1459.8154
  23237298.4354   -6729967.28149  -5223805.43446  23237297.9684   23237304.4184
      3428.8894       2671.8494
  23397601.1004   -8604449.60449  -6680393.46746  23397600.2364   23397606.3504
     -2944.7524      -2294.6044
  23555339.7414  -10872237.31949  -8451000.39945  23555339.5684   23555346.7994
     -3393.7834      -2644.5124
  24206377.8674   -5562135.08749  -4319403.75546  24206377.4994   24206381.9204
      2536.6464       1976.6054
  20341766.7494  -22520164.77449 -17239448.27648  20341766.5904   20341771.4694
     -1924.7494      -1499.8044
  21614097.3614  -19545856.51249 -15180253.43647  21614097.4484   21614102.0714
     -2378.7104      -1853.5294
  20379586.4084  -23547733.99749 -18095732.49348  20379585.8984   20379589.6664
      1373.2074       1070.0334
  24361328.3374   -1657284.35049  -1269313.80345  24361326.9454   24361333.6714
     -2677.0144      -2085.9914
 05  1 20  2 11 30.0000000  0 10G 9G18G15G 6G17G22G26G29G21G10
  22901715.9354   -9215073.10249  -7159656.27546  22901715.5374   22901720.4124
      3515.4864       2739.3264
  21887919.8074  -18817180.30849 -14644541.37447  21887919.2054   21887923.1174
      1868.5714       1456.0334
  23217735.8154   -6832768.06449  -5303909.90546  23217735.6444   23217741.4654
      3424.3744       2668.3434
  23414425.3774   -8516036.56549  -6611500.21346  23414424.6424   23414431.1324
     -2949.8194      -2298.5634
  23574738.8764  -10770305.45149  -8371573.00745  23574737.7224   23574743.0144
     -3401.7814      -2650.7394
  24191903.0924   -5638206.62849  -4378680.27146  24191903.6274   24191904.0114
      2534.8144       1975.1774
  20352798.6984  -22462188.74149 -17194272.14748  20352799.0164   20352803.6414
     -1940.3454      -1511.9564
  21627702.9654  -19474357.29449 -15124539.75647  21627703.2904   21627707.9174
     -2387.8634      -1860.6684
  20371792.2274  -23588694.61149 -18127649.85348  20371791.3544   20371795.2044
      1357.4594       1057.7624
  24376614.2384   -1576958.23749  -1206722.06245  24376612.7004   24376618.9384
     -2678.1104      -2086.8364
 05  1 20  2 12  0.0000000  0 10G 9G18G15G 6G17G22G26G29G21G10
  22881664.0474   -9320439.20549  -7241759.74446  22881664.6684   22881671.3234
      3508.9094       2734.2064
  21877266.4174  -18873165.49749 -14688166.18747  21877265.9354   21877269.7784
      1863.7724       1452.2894
  23198199.8154   -6935432.61149  -5383908.23946  23198198.7714   23198205.3554
      3419.8744       2664.8304
  23431281.2394   -8427471.69149  -6542488.63146  23431279.5194   23431284.0204
     -2954.7524      -2302.4114
  23594179.6644  -10668132.21649  -8291957.53145  23594179.9354   23594185.5014
     -3409.7844      -2656.9724
  24177436.8924   -5714223.60849  -4437914.32545  24177436.6974   24177439.0564
      2532.9994       1973.7524
  20363920.2834  -22403746.48049 -17148732.72448  20363920.2204   20363924.9684
     -1955.8384      -1524.0284
  21641361.2524  -19402585.43749 -15068613.63147  21641361.3684   21641365.7524
     -2396.8914      -1867.7064
  20364087.2484  -23629182.55149 -18159198.90248  20364086.8934   20364090.5624
      1341.6934       1045.4754
  24391906.6294   -1496598.03749  -1144103.75245  24391905.7014   24391909.6924
     -2679.2214      -2087.7064
 05  1 20  2 12 30.0000000  0 10G 9G18G15G 6G17G22G26G29G21G10
  22861653.5654   -9425605.19549  -7323707.26546  22861653.2804   22861658.3704
      3502.1204       2728.9164
  21866640.6064  -18929005.34249 -14731677.75147  21866640.3334   21866643.6144
      1858.8934       1448.4874
  23178690.7294   -7037958.56649  -5463798.58646  23178689.0004   23178694.5604
      3415.1794       2661.1744
  23448160.4754   -8338758.10249  -6473361.17046  23448161.0774   23448165.1974
     -2959.7944      -2306.3464
  23613669.6524  -10565719.12549  -8212155.09845  23613667.8914   23613675.1914
     -3417.8664      -2663.2854
  24162980.2184   -5790185.93749  -4497105.68346  24162980.7524   24162985.8094
      2531.1564       1972.3354
  20375129.9264  -22344840.32749 -17102831.82348  20375129.8254   20375134.2844
     -1971.2554      -1536.0484
  21655070.3334  -19330543.23249 -15012476.85847  21655070.4404   21655075.2634
     -2405.8814      -1874.7124
  20356473.1724  -23669194.98749 -18190377.42448  20356472.8454   20356476.3954
      1325.8034       1033.0944
  24407204.3154   -1416204.01449  -1081459.05146  24407203.1484   24407209.7994
     -2680.3414      -2088.5764
 05  1 20  2 13  0.0000000  0 10G 9G18G15G 6G17G22G26G29G21G10
  22841679.2054   -9530567.57449  -7405496.12346  22841679.2934   22841683.0404
      3495.3274       2723.6304
  21856042.0074  -18984698.97849 -14775075.38347  21856041.6524   21856045.6174
      1854.0024       1444.6774
  23159206.1404   -7140343.53549  -5543579.07746  23159205.9174   23159211.3864
      3410.4224       2657.4714
  23465069.2054   -8249898.68649  -6404120.08946  23465069.5104   23465074.7524
     -2964.5134      -2310.0024
  23633200.3114  -10463067.52449  -8132166.86845  23633201.3594   23633208.8974
     -3425.7164      -2669.3894
  24148535.7524   -5866093.27349  -4556254.22946  24148537.6334   24148539.7164
      2529.3304       1970.9054
  20386426.5224  -22285473.17149 -17056571.70248  20386426.8874   20386431.4124
     -1986.5944      -1547.9964
  21668830.6604  -19258233.02849 -14956131.24047  21668830.0804   21668835.1584
     -2414.7484      -1881.6214
  20348949.9334  -23708730.58349 -18221184.38448  20348949.4034   20348952.9414
      1309.8724       1020.6794
  24422511.2494   -1335775.69849  -1018787.67546  24422510.5584   24422514.6594
     -2681.5394      -2089.5104
 05  1 20  2 13 30.0000000  0 10G 9G18G15G 6G17G22G26G29G21G10
  22821744.8564   -9635323.00749  -7487123.72746  22821745.0864   22821749.7434
      3488.3634       2718.2054
  21845471.6964  -19040246.36249 -14818359.04747  21845471.2614   21845474.9934
      1849.1754       1440.9154
  23139750.0754   -7242585.08549  -5623247.82746  23139749.9574   23139755.7924
      3405.6504       2653.7594
  23482006.2014   -8160896.30149  -6334767.59346  23482006.7524   23482011.2614
     -2969.1964      -2313.6614
  23652781.9774  -10360179.68849  -8051994.54645  23652781.4914   23652787.2104
     -3433.5774      -2675.5184
  24134103.9494   -5941945.65149  -4615359.99846  24134102.9274   24134103.4954
      2527.5344       1969.5034
  20397811.1524  -22225647.74049 -17009954.48448  20397811.5324   20397815.8794
     -2001.7754      -1559.8224
  21682641.2214  -19185657.12049 -14899578.59047  21682640.9714   21682645.9824
     -2423.5674      -1888.4934
  20341518.0844  -23747786.56049 -18251617.61448  20341517.4134   20341520.7804
      1293.8754       1008.2164
  24437821.5254   -1255313.59949   -956089.97645  24437819.8894   24437825.7614
     -2682.5564      -2090.3004
 05  1 20  2 14  0.0000000  0 10G 9G18G15G 6G17G22G26G29G21G10
  22801851.1564   -9739867.79249  -7568587.20046  22801850.4754   22801855.7294
      3481.2534       2712.6654
  21834929.7504  -19095646.89649 -14861528.29447  21834929.2884   21834932.6144
      1844.2454       1437.0704
  23120322.2684   -7344680.81049  -5702802.94446  23120321.9194   23120327.3674
      3400.6924       2649.8904
  23498971.2714   -8071754.05549  -6265306.11546  23498969.3204   23498974.6104
     -2973.7794      -2317.2224
  23672405.4864  -10257057.22749  -7971639.39945  23672404.8874   23672411.4234
     -3441.3984      -2681.6144
  24119681.1394   -6017743.01049  -4674422.84746  24119679.8494   24119681.7134
      2525.6804       1968.0584
  20409282.0674  -22165366.72049 -16962982.25948  20409282.4464   20409286.9314
     -2016.9534      -1571.6524
  21696501.9404  -19112817.72649 -14842820.62147  21696502.0094   21696506.1264
     -2432.2984      -1895.2954
  20334177.4184  -23786361.67849 -18281676.14548  20334177.0864   20334180.2834
      1277.7864        995.6814
  24453139.4084   -1174817.79249   -893366.00045  24453139.4094   24453143.9134
     -2683.6734      -2091.1754
 05  1 20  2 14 30.0000000  0 10G 9G18G15G 6G17G22G26G29G21G10
  22781996.7954   -9844198.78149  -7649884.06846  22781996.6484   22782002.2174
      3474.0674       2707.0594
  21824414.5544  -19150900.30749 -14904582.89747  21824414.3194   21824418.3384
      1839.3334       1433.2434
  23100922.5544   -7446628.28849  -5782242.54346  23100922.3184   23100927.4534
      3395.7424       2646.0284
  23515959.1124   -7982474.92149  -6195737.98046  23515958.5514   23515964.2164
     -2978.3024      -2320.7784
  23692074.1354  -10153701.74249  -7891102.73445  23692072.0814   23692077.2154
     -3449.0424      -2687.5654
  24105266.8964   -6093485.13449  -4733442.66946  24105266.2524   24105269.8014
      2523.8234       1966.6164
  20420839.8984  -22104632.20349 -16915656.66748  20420839.9244   20420844.0504
     -2032.0174      -1583.3884
  21710413.2314  -19039717.27649 -14785859.23347  21710412.7084   21710417.4724
     -2440.9854      -1902.0614
  20326928.9784  -23824453.29149 -18311357.92548  20326928.4004   20326931.7884
      1261.6454        983.1024
  24468462.4994   -1094288.48149   -830615.91145  24468462.1804   24468468.1134
     -2684.8714      -2092.1024
 05  1 20  2 15  0.0000000  0 10G 9G18G15G 6G17G22G26G29G21G10
  22762185.4904   -9948312.39949  -7731011.58546  22762184.7594   22762189.7204
      3466.7854       2701.4034
  21813928.9214  -19206006.55649 -14947522.82647  21813928.2884   21813931.9274
      1834.4284       1429.4224
  23081551.7264   -7548425.09049  -5861564.70346  23081551.2624   23081555.9714
      3390.6554       2642.0674
  23532973.3034   -7893061.90849  -6126065.52046  23532973.0454   23532978.8794
     -2982.7774      -2324.2534
  23711784.0794  -10050114.88049  -7810385.62445  23711783.9514   23711792.3254
     -3456.7464      -2693.5724
  24090864.2854   -6169171.97249  -4792419.45546  24090863.9264   24090865.9924
      2521.9704       1965.1874
  20432482.5864  -22043447.48449 -16867980.25748  20432482.5974   20432487.3204
     -2046.9614      -1595.0374
  21724372.8704  -18966357.90849 -14728696.08647  21724372.5234   21724377.0684
     -2449.5834      -1908.7654
  20319772.5174  -23862059.97649 -18340661.83748  20319772.0894   20319775.3484
      1245.4604        970.4864
  24483791.7504   -1013725.56549   -767839.65645  24483791.0614   24483796.1464
     -2686.0014      -2092.9884
 05  1 20  2 15 30.0000000  0 10G 9G18G15G 6G17G22G26G29G21G10
  22742414.7064  -10052205.13449  -7811966.95646  22742414.8614   22742420.3184
      3459.3854       2695.6334
  21803470.3614  -19260964.85349 -14990347.46947  21803470.0194   21803473.4704
      1829.4684       1425.5594
  23062210.1764   -7650069.02249  -5940767.78846  23062208.6354   23062214.5204
      3385.5434       2638.0734
  23550013.5584   -7803518.01549  -6056291.06746  23550012.9954   23550018.3634
     -2987.1004      -2327.6064
  23731540.4064   -9946298.46649  -7729489.75045  23731539.8754   23731546.3414
     -3464.4304      -2699.5644
  24076471.1544   -6244803.46649  -4851353.06546  24076469.4744   24076473.4794
      2520.0844       1963.6974
  20444211.0154  -21981815.22449 -16819955.11848  20444211.0774   20444215.4114
     -2061.8884      -1606.6664
  21738380.7324  -18892742.09549 -14671333.11747  21738380.9544   21738385.5824
     -2458.1014      -1915.4034
  20312708.9164  -23899179.38149 -18369586.04948  20312708.3094   20312711.6834
      1229.1554        957.7794
  24499130.2874    -933129.13949   -705037.27945  24499128.2414   24499136.6864
     -2687.1594      -2093.8854
 05  1 20  2 16  0.0000000  0 10G 9G18G15G 6G17G22G26G29G21G10
  22722687.4784  -10155873.63249  -7892747.63346  22722687.3964   22722691.6314
      3451.8464       2689.7494
  21793040.0394  -19315775.02049 -15033056.68647  21793039.7534   21793043.7204
      1824.5224       1421.7064
  23042896.4574   -7751557.50649  -6019849.69946  23042896.3664   23042901.2124
      3380.3274       2634.0234
  23567077.5944   -7713846.10549  -5986416.85846  23567077.4164   23567083.1684
     -2991.2864      -2330.8714
  23751339.6754   -9842254.54349  -7648416.61845  23751340.1934   23751344.2044
     -3471.9754      -2705.4324
  24062087.5204   -6320379.38449  -4910243.39646  24062088.3734   24062092.6594
      2518.2754       1962.2924
  20456023.2984  -21919737.83549 -16771583.13048  20456023.7314   20456028.5844
     -2076.6284      -1618.1524
  21752438.6294  -18818871.99949 -14613772.00347  21752438.3514   21752442.5204
     -2466.5324      -1921.9754
  20305738.3244  -23935809.53249 -18398129.02748  20305737.9564   20305741.4554
      1212.8314        945.0624
  24514473.5324    -852499.49649   -642208.99145  24514473.0574   24514479.6534
     -2688.2084      -2094.7064
 05  1 20  2 16 30.0000000  0 10G 9G18G15G 6G17G22G26G29G21G10
  22703002.5334  -10259314.48349  -7973350.89646  22703002.3184   22703008.1844
      3444.2144       2683.8054
  21782638.7334  -19370436.88249 -15075650.34447  21782637.9644   21782642.1754
      1819.6104       1417.8804
  23023614.3444   -7852887.93649  -6098808.49746  23023613.6554   23023619.2964
      3375.0264       2629.8934
  23584163.1484   -7624049.32449  -5916445.38046  23584164.3594   23584170.1404
     -2995.4044      -2334.0814
  23771180.8834   -9737984.42349  -7567167.19845  23771181.6044   23771189.1004
     -3479.4204      -2711.2364
  24047719.2664   -6395899.88049  -4969090.53046  24047718.8164   24047719.9734
      2516.4584       1960.8794
  20467921.1554  -21857218.13749 -16722866.48448  20467921.0314   20467925.5874
     -2091.3284      -1629.6044
  21766542.9674  -18744749.95249 -14556014.56447  21766542.8124   21766547.7834
     -2474.8904      -1928.4864
  20298861.7714  -23971948.54849 -18426289.30148  20298861.0574   20298864.3944
      1196.4184        932.2774
  24529824.0944    -771836.73849   -579354.91745  24529822.4184   24529828.8464
     -2689.3094      -2095.5644
 05  1 20  2 17  0.0000000  0 10G 9G18G15G 6G17G22G26G29G21G10
  22683363.6064  -10362524.29749  -8053774.12646  22683363.0974   22683367.8574
      3436.4254       2677.7414
  21772265.1504  -19424950.33049 -15118128.35547  21772264.3854   21772268.3674
      1814.6344       1413.9974
  23004361.9284   -7954058.08849  -6177642.35646  23004360.7334   23004367.1524
      3369.5964       2625.6584
  23601275.2674   -7534130.43949  -5846378.73246  23601276.0394   23601280.3264
     -2999.4204      -2337.2134
  23791063.2414   -9633490.06849  -7485743.02745  23791064.6214   23791070.5034
     -3486.8024      -2716.9914
  24033358.3734   -6471364.67649  -5027894.21246  24033356.1424   24033359.8824
      2514.5324       1959.3614
  20479901.4804  -21794259.00549 -16673807.42148  20479901.9724   20479906.5604
     -2105.9454      -1640.9964
  21780695.4824  -18670378.16549 -14498062.52447  21780695.4714   21780699.8024
     -2483.1564      -1934.9314
  20292078.1294  -24007594.45049 -18454065.33348  20292077.8604   20292081.3504
      1179.9704        919.4594
  24545177.7394    -691140.67449   -516474.86845  24545177.4834   24545185.3404
     -2690.4314      -2096.4404
 05  1 20  2 17 30.0000000  0 10G 9G18G15G 6G17G22G26G29G21G10
  22663768.8274  -10465499.45549  -8134014.53246  22663767.4494   22663772.5584
      3428.5474       2671.5894
  21761919.8724  -19479314.72349 -15160490.22547  21761919.5914   21761923.2884
      1809.6574       1410.1194
  22985139.8814   -8055065.36649  -6256349.31346  22985140.3494   22985145.6924
      3364.1824       2621.4434
  23618411.2774   -7444092.45749  -5776219.28246  23618410.0154   23618414.7014
     -3003.3234      -2340.2644
  23810990.1154   -9528773.10049  -7404145.41345  23810992.5444   23810998.3994
     -3494.3014      -2722.8364
  24019008.2294   -6546773.83949  -5086654.61746  24019009.8524   24019010.2074
      2512.7084       1957.9594
  20491965.8174  -21730862.88849 -16624407.84748  20491965.9154   20491970.7084
     -2120.4634      -1652.3104
  21794895.0094  -18595758.88649 -14439917.63347  21794895.2814   21794899.4844
     -2491.3914      -1941.3434
  20285389.1854  -24042745.54449 -18481455.79348  20285388.6134   20285392.0404
      1163.4284        906.5664
  24560540.9724    -610411.62349   -453569.11345  24560540.1824   24560547.6464
     -2691.5014      -2097.2794
