     2.11           Observation         G (GPS)             RINEX VERSION / TYPE
teqc  2009Mar23     gpsops              02/24/2010 11:10:06 PGM / RUN BY / DATE
CRO1                                                        MARKER NAME
GGN                 NATIONAL RADIO ASTRONOMY OBSERVATORY    OBSERVER / AGENCY
UC1200345005        ASHTECH UZ-12       CQ00                REC # / TYPE / VERS
CR5200404026        ASH701945G_M    JPLA                    ANT # / TYPE
  2607771.2183 -5488076.6919  1932767.7873                  APPROX POSITION XYZ
        0.0814        0.0000        0.0000                  ANTENNA: DELTA H/E/N
     1     1                                                WAVELENGTH FACT L1/2
     7    L1    L2    P1    P2    C1    S1    S2            # / TYPES OF OBSERV
     1.000                                                  INTERVAL
  2010     1    15    19     0    0.0000000     GPS         TIME OF FIRST OBS
43201M001                                                   MARKER NUMBER
Linux 2.4.20-8|Pentium IV|gcc -static|Linux|486/DX+         COMMENT
2.10           OBSERVATION DATA    GPS                      COMMENT
soc2rnx ver 1.20    gpsops              15-Jan-2010 19:22:09COMMENT
S1, if present, is the SNR for the C/A data stream on L1.   COMMENT
SNR is mapped to RINEX snr flag value [1,4-9]               COMMENT
SNR:   >316  >100  >31.6  >10  >3.2    >0 bad=0             COMMENT
L1 & L2:      9     8     7     6     5     4     1         COMMENT
                                                            COMMENT
This data is provided as a public service by NASA/JPL.      COMMENT
No warranty is expressed or implied regarding suitability   COMMENT
for use.  For further information, contact:                 COMMENT
Dave Stowers, NASA/JPL m/s 238-600                          COMMENT
4800 Oak Grove Drive, Pasadena CA 91109 USA                 COMMENT
                                                            COMMENT
Edited by GPSTK Rinex Editor ver 3.5 6/21/2007 on 2010/02/24COMMENT
                                                            END OF HEADER
 10  1 15 19  0  0.0000000  0  8G02G04G05G08G10G15G24G29
 109946202.31847  85672344.72547  20922083.5404   20922085.3794   20922083.9254 
        56.000          50.000  
 123949202.64947  96583779.63447  23586759.9354   23586764.6894   23586760.4884 
        50.000          43.000  
 113385049.49147  88351980.26347  21576460.0544   21576463.2444   21576459.4264 
        54.000          49.000  
 130343715.92547 101566520.36047  24803590.0624   24803598.5154   24803590.2344 
        42.000          37.000  
 115476764.11347  89981878.93547  21974510.4514   21974514.5534   21974511.1344 
        53.000          46.000  
 110507710.42447  86109888.58647  21028930.6474   21028933.7054   21028930.5204 
        55.000          50.000  
 124418173.00547  96949199.56647  23676013.5784   23676017.7524   23676015.3754 
        46.000          40.000  
 120339943.28547  93771373.46147  22899936.8104   22899939.7344   22899936.7884 
        50.000          44.000  
 10  1 15 19  0  1.0000000  0  8G02G04G05G08G10G15G24G29
 109946085.72447  85672253.87247  20922061.6434   20922063.0244   20922061.6404 
        56.000          50.000  
 123950843.08247  96585057.89247  23587072.7074   23587075.9924   23587072.5704 
        50.000          43.000  
 113386082.21747  88352784.98647  21576656.1284   21576659.7604   21576655.9574 
        54.000          49.000  
 130343073.94747 101566020.11847  24803467.0064   24803476.3034   24803467.8784 
        42.000          37.000  
 115478549.02247  89983269.77147  21974849.5094   21974853.7994   21974850.7644 
        52.000          46.000  
 110505678.49847  86108305.26947  21028543.7674   21028547.3014   21028543.8654 
        55.000          50.000  
 124415900.48747  96947428.77547  23675580.3054   23675585.6924   23675582.9584 
        45.000          40.000  
 120337351.02947  93769353.52247  22899443.3624   22899446.7964   22899443.5694 
        50.000          44.000  
 10  1 15 19  0  2.0000000  0  8G02G04G05G08G10G15G24G29
 109945969.32847  85672163.17147  20922039.4614   20922040.8764   20922039.3874 
        56.000          50.000  
 123952483.66747  96586336.26847  23587384.4174   23587391.0044   23587384.7264 
        50.000          43.000  
 113387114.88047  88353589.65747  21576852.6944   21576856.3584   21576852.4944 
        54.000          49.000  
 130342432.15447 101565520.02247  24803344.5444   24803353.8274   24803345.4714 
        41.000          37.000  
 115480333.82647  89984660.52747  21975189.2344   21975194.1304   21975190.3314 
        53.000          46.000  
 110503646.96147  86106722.25347  21028157.5044   21028160.6554   21028157.3054 
        55.000          50.000  
 124413627.76247  96945657.82347  23675147.1134   23675153.2994   23675150.3544 
        45.000          40.000  
 120334759.03147  93767333.78547  22898950.2104   22898952.3094   22898950.3574 
        50.000          44.000  
 10  1 15 19  0  3.0000000  0  8G02G04G05G08G10G15G24G29
 109945853.37047  85672072.81447  20922017.2384   20922018.8654   20922017.2934 
        56.000          50.000  
 123954124.59647  96587614.91347  23587697.1874   23587702.9784   23587696.9884 
        50.000          43.000  
 113388147.71747  88354394.46547  21577049.6214   21577052.6154   21577049.0404 
        54.000          49.000  
 130341790.81647 101565020.27847  24803222.4834   24803231.7564   24803223.2374 
        41.000          37.000  
 115482118.74647  89986051.37447  21975529.5964   21975533.2104   21975529.9804 
        53.000          46.000  
 110501616.06247  86105139.73647  21027770.7524   21027774.2714   21027770.8064 
        55.000          50.000  
 124411355.03547  96943886.86947  23674714.9634   23674720.8524   23674717.9224 
        46.000          40.000  
 120332167.54147  93765314.44247  22898456.3674   22898460.4404   22898457.2114 
        50.000          44.000  
 10  1 15 19  0  4.0000000  0  8G02G04G05G08G10G15G24G29
 109945737.72947  85671982.70347  20921995.1884   20921997.1534   20921995.2934 
        56.000          50.000  
 123955765.74347  96588893.72647  23588009.0164   23588014.7104   23588009.4554 
        50.000          43.000  
 113389180.60847  88355199.31647  21577246.1624   21577249.2704   21577245.5854 
        54.000          49.000  
 130341149.79447 101564520.78247  24803100.2894   24803109.3434   24803101.0244 
        41.000          37.000  
 115483903.67147  89987442.22547  21975869.1174   21975873.5874   21975869.6244 
        53.000          46.000  
 110499585.67947  86103557.62047  21027384.5984   21027387.7424   21027384.3514 
        55.000          50.000  
 124409082.21547  96942115.84147  23674282.7744   23674288.7294   23674285.2644 
        46.000          40.000  
 120329576.43647  93763295.40047  22897963.8404   22897967.0264   22897964.1044 
        50.000          44.000  
 10  1 15 19  0  5.0000000  0  8G02G04G05G08G10G15G24G29
 109945622.32747  85671892.77847  20921973.2684   20921974.8594   20921973.4344 
        56.000          50.000  
 123957407.05847  96590172.67647  23588321.9024   23588325.1664   23588321.8484 
        51.000          43.000  
 113390213.47547  88356004.14747  21577442.9454   21577445.8164   21577442.1334 
        54.000          49.000  
 130340509.00747 101564021.46947  24802978.4964   24802987.6514   24802979.0404 
        40.000          37.000  
 115485688.51047  89988833.01047  21976208.4724   21976212.5134   21976209.2224 
        52.000          46.000  
 110497555.73047  86101975.84247  21026997.9474   21027001.2144   21026997.9554 
        55.000          50.000  
 124406809.19947  96940344.65947  23673850.3714   23673856.6584   23673852.6554 
        45.000          40.000  
 120326985.63747  93761276.59947  22897470.8014   22897472.6264   22897471.0044 
        50.000          44.000  
 10  1 15 19  0  6.0000000  0  8G02G04G05G08G10G15G24G29
 109945507.30147  85671803.14647  20921951.7434   20921953.0264   20921951.6484 
        56.000          50.000  
 123959048.63447  96591451.82647  23588634.7514   23588638.3834   23588634.2884 
        50.000          43.000  
 113391246.44647  88356809.06047  21577639.1044   21577642.4004   21577638.7584 
        54.000          49.000  
 130339868.61347 101563522.46147  24802855.6824   24802866.7044   24802856.9924 
        42.000          37.000  
 115487473.40847  89990223.83947  21976547.7744   21976553.2384   21976548.7894 
        52.000          46.000  
 110495526.34047  86100394.49947  21026611.9504   21026615.2044   21026611.6684 
        55.000          50.000  
 124404536.13747  96938573.44347  23673418.0694   23673423.5194   23673419.8454 
        45.000          40.000  
 120324395.25847  93759258.12247  22896977.1934   22896981.0154   22896978.0844 
        50.000          44.000  
 10  1 15 19  0  7.0000000  0  8G02G04G05G08G10G15G24G29
 109945392.57347  85671713.74747  20921929.6364   20921931.1544   20921929.9104 
        56.000          50.000  
 123960690.44747  96592731.16347  23588946.5764   23588950.9404   23588946.7334 
        50.000          43.000  
 113392279.45547  88357614.00247  21577836.0654   21577838.8964   21577835.3534 
        54.000          49.000  
 130339228.48547 101563023.66047  24802733.6874   24802744.7854   24802734.7124 
        40.000          37.000  
 115489258.27847  89991614.64647  21976887.8644   21976892.3314   21976888.3584 
        52.000          46.000  
 110493497.44347  86098813.54047  21026225.8584   21026229.2534   21026225.5034 
        55.000          50.000  
 124402262.95547  96936802.13347  23672985.5454   23672990.5744   23672986.9614 
        46.000          40.000  
 120321805.23047  93757239.92047  22896485.3244   22896487.6664   22896485.2364 
        50.000          44.000  
 10  1 15 19  0  8.0000000  0  8G02G04G05G08G10G15G24G29
 109945278.26247  85671624.67447  20921907.8084   20921909.4524   20921908.1164 
        56.000          50.000  
 123962332.59147  96594010.75747  23589260.1914   23589264.0344   23589259.2584 
        51.000          43.000  
 113393312.60947  88358419.05647  21578032.5094   21578035.4364   21578032.0244 
        54.000          49.000  
 130338588.82047 101562525.22047  24802610.0544   24802622.2994   24802612.1404 
        39.000          37.000  
 115491043.25347  89993005.53747  21977227.2504   21977231.5094   21977227.9944 
        52.000          46.000  
 110491469.16447  86097233.06347  21025840.0064   21025843.2304   21025839.4504 
        55.000          50.000  
 124399989.75247  96935030.80847  23672552.4194   23672558.6864   23672554.2954 
        45.000          40.000  
 120319215.69147  93755222.09847  22895992.0824   22895994.8874   22895992.4464 
        50.000          44.000  
 10  1 15 19  0  9.0000000  0  8G02G04G05G08G10G15G24G29
 109945164.27847  85671535.85547  20921886.1604   20921887.5254   20921886.3874 
        56.000          50.000  
 123963974.99747  96595290.55447  23589571.8374   23589576.8494   23589571.7614 
        50.000          43.000  
 113394345.84047  88359224.17247  21578229.1084   21578231.8564   21578228.7024 
        54.000          49.000  
 130337949.47847 101562027.03247  24802488.6834   24802500.8254   24802490.0434 
        40.000          37.000  
 115492828.25247  89994396.44347  21977567.0194   21977571.2044   21977567.5734 
        52.000          46.000  
 110489441.41647  86095653.00147  21025454.0894   21025457.3264   21025453.5984 
        55.000          50.000  
 124397716.45547  96933259.41047  23672120.0434   23672126.5774   23672121.5714 
        45.000          40.000  
 120316626.56847  93753204.60147  22895499.2474   22895502.5324   22895499.8544 
        50.000          44.000  
 10  1 15 19  0 10.0000000  0  8G02G04G05G08G10G15G24G29
 109945050.56547  85671447.24747  20921864.3794   20921865.9884   20921864.6714 
        56.000          50.000  
 123965617.57547  96596570.48347  23589884.7704   23589889.3754   23589884.3594 
        50.000          43.000  
 113395379.07047  88360029.28647  21578426.1564   21578428.2674   21578425.2684 
        54.000          49.000  
 130337310.43147 101561529.07647  24802367.0544   24802377.9184   24802367.9324 
        41.000          37.000  
 115494613.19647  89995787.30747  21977906.5834   21977910.8134   21977907.1744 
        52.000          46.000  
 110487414.12647  86094073.29547  21025068.2824   21025071.5664   21025067.8164 
        55.000          50.000  
 124395443.00747  96931487.89447  23671687.7824   23671692.8174   23671688.6654 
        45.000          40.000  
 120314037.76747  93751187.35347  22895006.2334   22895009.9924   22895007.2464 
        50.000          44.000  
 10  1 15 19  0 11.0000000  0  8G02G04G05G08G10G15G24G29
 109944937.16847  85671358.88547  20921843.1084   20921844.6284   20921843.0634 
        56.000          50.000  
 123967260.38747  96597850.59347  23590195.8944   23590202.2924   23590197.0804 
        50.000          43.000  
 113396412.36647  88360834.45347  21578621.9204   21578625.5674   21578621.8924 
        54.000          49.000  
 130336671.71547 101561031.37747  24802246.4094   24802255.8844   24802246.3644 
        41.000          37.000  
 115496398.15047  89997178.17947  21978246.3724   21978250.9444   21978246.8544 
        52.000          46.000  
 110485387.34947  86092493.99047  21024682.5204   21024685.8644   21024682.1034 
        55.000          50.000  
 124393169.45847  96929716.30047  23671255.0424   23671260.2934   23671255.7994 
        46.000          40.000  
 120311449.35647  93749170.41247  22894514.9734   22894518.0044   22894514.7214 
        50.000          45.000  
 10  1 15 19  0 12.0000000  0  8G02G04G05G08G10G15G24G29
 109944824.10947  85671270.78747  20921821.5004   20921823.0704   20921821.5324 
        56.000          50.000  
 123968903.42547  96599130.88147  23590509.2534   23590513.1694   23590509.8294 
        50.000          43.000  
 113397445.74247  88361639.67947  21578818.9034   21578822.1684   21578818.5594 
        54.000          49.000  
 130336033.32047 101560533.92847  24802125.1464   24802134.4574   24802125.0664 
        40.000          37.000  
 115498183.11347  89998569.05947  21978585.9184   21978590.3634   21978586.6494 
        53.000          46.000  
 110483361.10847  86090915.10147  21024297.0084   21024300.3424   21024296.5594 
        56.000          50.000  
 124390895.81847  96927944.63547  23670821.8344   23670827.8754   23670822.7864 
        45.000          40.000  
 120308861.34247  93747153.78047  22894021.1574   22894025.1204   22894022.2574 
        50.000          45.000  
 10  1 15 19  0 13.0000000  0  8G02G04G05G08G10G15G24G29
 109944711.45047  85671183.00147  20921800.0544   20921801.6514   20921800.0804 
        56.000          50.000  
 123970546.81947  96600411.44447  23590822.1684   23590828.0124   23590822.5274 
        50.000          43.000  
 113398479.25747  88362445.01647  21579015.6364   21579018.4724   21579015.2564 
        54.000          49.000  
 130335395.29947 101560036.77247  24802003.7234   24802013.5034   24802003.9014 
        39.000          37.000  
 115499968.16847  89999960.01147  21978925.4394   21978929.8864   21978926.3674 
        53.000          46.000  
 110481335.46347  86089336.67747  21023911.3924   21023914.8344   21023911.1274 
        55.000          50.000  
 124388622.17147  96926172.96447  23670389.3494   23670395.4824   23670390.0574 
        45.000          40.000  
 120306273.80947  93745137.51947  22893529.2574   22893532.2214   22893529.8394 
        50.000          45.000  
 10  1 15 19  0 14.0000000  0  8G02G04G05G08G10G15G24G29
 109944599.09347  85671095.45147  20921778.4794   20921780.2274   20921778.8164 
        56.000          50.000  
 123972190.42647  96601692.17547  23591135.2664   23591140.0684   23591135.2794 
        50.000          43.000  
 113399512.80447  88363250.37947  21579212.2834   21579214.9614   21579211.9684 
        54.000          49.000  
 130334757.61947 101559539.88247  24801882.0494   24801891.7324   24801882.4274 
        39.000          37.000  
 115501753.20647  90001350.94947  21979265.0234   21979268.7714   21979266.0604 
        52.000          46.000  
 110479310.31547  86087758.64147  21023526.2364   21023529.3704   21023525.7614 
        55.000          50.000  
 124386348.39047  96924401.18947  23669957.4874   23669963.2884   23669957.3324 
        45.000          40.000  
 120303686.64647  93743121.54447  22893036.3044   22893040.0834   22893037.5254 
        50.000          44.000  
 10  1 15 19  0 15.0000000  0  8G02G04G05G08G10G15G24G29
 109944486.98447  85671008.09347  20921757.7204   20921758.7954   20921757.6244 
        56.000          50.000  
 123973834.19847  96602973.03347  23591449.0444   23591452.7174   23591448.0074 
        50.000          43.000  
 113400546.34047  88364055.73047  21579408.9504   21579411.9434   21579408.5944 
        54.000          49.000  
 130334120.21247 101559043.20647  24801760.9324   24801769.5964   24801761.0074 
        40.000          37.000  
 115503538.17347  90002741.83047  21979604.7664   21979609.3694   21979605.7834 
        52.000          46.000  
 110477285.62447  86086180.96047  21023140.8894   21023144.3844   21023140.5424 
        55.000          50.000  
 124384074.43047  96922629.27447  23669525.0794   23669530.9554   23669524.7644 
        46.000          40.000  
 120301099.80547  93741105.82747  22892544.8144   22892548.0464   22892545.1564 
        51.000          44.000  
 10  1 15 19  0 16.0000000  0  8G02G04G05G08G10G15G24G29
 109944375.30847  85670921.07347  20921736.2934   20921737.7604   20921736.4704 
        56.000          50.000  
 123975478.31847  96604254.16447  23591761.0304   23591764.3284   23591760.7264 
        50.000          43.000  
 113401580.04547  88364861.21447  21579605.5064   21579608.8664   21579605.3154 
        54.000          49.000  
 130333483.19347 101558546.83047  24801640.1544   24801649.5694   24801639.5014 
        41.000          37.000  
 115505323.26647  90004132.81447  21979944.2294   21979948.7284   21979945.4184 
        52.000          46.000  
 110475261.55647  86084603.76647  21022755.5934   21022759.0574   21022755.3624 
        55.000          50.000  
 124381800.48547  96920857.36947  23669092.6184   23669098.2634   23669092.0654 
        45.000          40.000  
 120298513.45747  93739090.49447  22892052.5594   22892055.4674   22892052.9524 
        51.000          44.000  
 10  1 15 19  0 17.0000000  0  8G02G04G05G08G10G15G24G29
 109944263.90447  85670834.26347  20921715.0754   20921716.7664   20921715.3704 
        56.000          50.000  
 123977122.62547  96605535.44447  23592072.7104   23592077.7344   23592073.5954 
        50.000          43.000  
 113402613.74947  88365666.69647  21579802.2494   21579805.2684   21579802.0464 
        54.000          49.000  
 130332846.47047 101558050.68647  24801518.8814   24801528.1904   24801518.3414 
        40.000          37.000  
 115507108.29347  90005523.74247  21980284.5724   21980288.4194   21980285.0834 
        52.000          46.000  
 110473237.94447  86083026.92547  21022370.7654   21022374.0814   21022370.3504 
        55.000          50.000  
 124379526.38447  96919085.34447  23668659.4724   23668664.7234   23668659.1874 
        45.000          40.000  
 120295927.44447  93737075.42147  22891561.2884   22891564.2934   22891560.7934 
        50.000          44.000  
 10  1 15 19  0 18.0000000  0  8G02G04G05G08G10G15G24G29
 109944152.81247  85670747.69847  20921693.8304   20921695.3614   20921694.2524 
        56.000          50.000  
 123978767.17047  96606816.91147  23592386.4044   23592391.8014   23592386.4694 
        50.000          43.000  
 113403647.50947  88366472.22347  21579999.1244   21580002.0624   21579998.6884 
        54.000          49.000  
 130332210.06547 101557554.79047  24801398.8344   24801407.0274   24801397.7184 
        41.000          37.000  
 115508893.32747  90006914.67847  21980623.8454   21980628.5204   21980624.8344 
        52.000          46.000  
 110471214.84847  86081450.48747  21021985.6944   21021989.0844   21021985.4594 
        55.000          50.000  
 124377252.16847  96917313.22847  23668226.8954   23668232.0394   23668226.3184 
        45.000          40.000  
 120293341.81747  93735060.65047  22891068.1974   22891070.2734   22891068.8614 
        50.000          44.000  
 10  1 15 19  0 19.0000000  0  8G02G04G05G08G10G15G24G29
 109944042.16747  85670661.48147  20921672.7664   20921674.3424   20921673.2234 
        56.000          50.000  
 123980412.05847  96608098.64047  23592699.1074   23592704.1914   23592699.3134 
        50.000          42.000  
 113404681.44547  88367277.88847  21580195.6914   21580198.9564   21580195.3944 
        54.000          49.000  
 130331574.15047 101557059.27647  24801278.4504   24801286.2114   24801277.0024 
        41.000          37.000  
 115510678.50047  90008305.72447  21980963.6384   21980968.3934   21980964.4964 
        53.000          46.000  
 110469192.39047  86079874.54647  21021600.7744   21021604.2294   21021600.6204 
        56.000          50.000  
 124374977.96847  96915541.12447  23667793.8004   23667799.1964   23667793.6554 
        45.000          40.000  
 120290756.69447  93733046.26747  22890576.6794   22890579.1124   22890576.8324 
        51.000          45.000  
 10  1 15 19  0 20.0000000  0  8G02G04G05G08G10G15G24G29
 109943931.68747  85670575.39347  20921652.1274   20921653.4674   20921652.2154 
        56.000          50.000  
 123982057.02547  96609380.43047  23593012.7354   23593017.1444   23593012.1834 
        50.000          42.000  
 113405715.28547  88368083.47847  21580392.6974   21580395.3444   21580392.1244 
        54.000          49.000  
 130330938.34547 101556563.84547  24801157.5864   24801166.5484   24801156.5904 
        41.000          37.000  
 115512463.50847  90009696.63947  21981302.9054   21981307.6324   21981304.2154 
        52.000          46.000  
 110467170.29947  86078298.89047  21021216.1264   21021219.3384   21021215.8204 
        56.000          50.000  
 124372703.51847  96913768.82347  23667361.0314   23667365.8244   23667360.8804 
        45.000          40.000  
 120288171.81247  93731032.07247  22890084.6604   22890086.7714   22890084.9464 
        50.000          45.000  
 10  1 15 19  0 21.0000000  0  8G02G04G05G08G10G15G24G29
 109943821.66947  85670489.66547  20921630.9474   20921632.2994   20921631.2774 
        56.000          50.000  
 123983702.37847  96610662.52647  23593326.0264   23593330.0844   23593325.1144 
        50.000          43.000  
 113406749.32247  88368889.22147  21580589.2964   21580592.5874   21580588.9344 
        54.000          49.000  
 130330303.04047 101556068.80647  24801036.3534   24801045.2124   24801036.1504 
        42.000          37.000  
 115514248.67347  90011087.67747  21981642.5104   21981647.8854   21981643.8064 
        52.000          46.000  
 110465148.86347  86076723.74747  21020831.1914   21020834.7804   21020831.2014 
        55.000          50.000  
 124370429.11147  96911996.55947  23666927.9514   23666932.9254   23666928.1144 
        45.000          40.000  
 120285587.45247  93729018.28647  22889593.1214   22889596.0804   22889593.1414 
        50.000          45.000  
 10  1 15 19  0 22.0000000  0  8G02G04G05G08G10G15G24G29
 109943711.91047  85670404.13847  20921610.0614   20921611.5094   20921610.4234 
        56.000          50.000  
 123985347.90247  96611944.75047  23593638.2914   23593643.4744   23593638.1674 
        50.000          43.000  
 113407783.35047  88369694.95747  21580786.0314   21580788.8774   21580785.7664 
        54.000          49.000  
 130329667.99047 101555573.96347  24800914.6384   24800925.0874   24800915.6614 
        41.000          37.000  
 115516033.77147  90012478.66247  21981982.7784   21981987.3364   21981983.3364 
        52.000          46.000  
 110463127.88447  86075148.95747  21020446.7784   21020450.2424   21020446.6474 
        56.000          50.000  
 124368154.53047  96910224.15747  23666494.7694   23666500.5964   23666495.4614 
        45.000          40.000  
 120283003.42147  93727004.75647  22889099.9564   22889103.8804   22889101.3194 
        50.000          44.000  
 10  1 15 19  0 23.0000000  0  8G02G04G05G08G10G15G24G29
 109943602.45247  85670318.84647  20921589.0484   20921590.7444   20921589.6334 
        56.000          50.000  
 123986993.64847  96613227.14447  23593952.2354   23593955.7604   23593951.3914 
        50.000          43.000  
 113408817.40647  88370500.71447  21580982.9094   21580985.7794   21580982.6234 
        54.000          49.000  
 130329033.22547 101555079.34347  24800795.0514   24800804.8424   24800795.3174 
        41.000          37.000  
 115517818.85247  90013869.63447  21982322.5964   21982327.2154   21982322.9154 
        52.000          46.000  
 110461107.39547  86073574.54947  21020062.3374   21020065.4064   21020062.1924 
        56.000          50.000  
 124365879.82047  96908451.65647  23666062.1004   23666068.1264   23666062.8344 
        45.000          40.000  
 120280419.75347  93724991.50847  22888608.4074   22888611.7234   22888609.5584 
        50.000          44.000  
 10  1 15 19  0 24.0000000  0  8G02G04G05G08G10G15G24G29
 109943493.42447  85670233.89147  20921568.5344   20921570.1304   20921568.7994 
        56.000          50.000  
 123988639.72647  96614509.79847  23594264.9734   23594268.5764   23594264.6774 
        50.000          42.000  
 113409851.63547  88371306.60747  21581179.5514   21581182.8364   21581179.4794 
        54.000          49.000  
 130328398.88347 101554585.05247  24800674.5494   24800682.7684   24800675.0314 
        41.000          37.000  
 115519604.03947  90015260.68547  21982662.1474   21982666.3114   21982662.5824 
        52.000          46.000  
 110459087.52647  86072000.62747  21019678.0204   21019681.4264   21019677.8374 
        55.000          50.000  
 124363605.13647  96906679.17647  23665628.6864   23665635.0004   23665630.1344 
        46.000          40.000  
 120277836.57547  93722978.64447  22888117.9344   22888120.9874   22888117.9744 
        50.000          44.000  
 10  1 15 19  0 25.0000000  0  8G02G04G05G08G10G15G24G29
 109943384.64547  85670149.12847  20921547.5984   20921549.2594   20921548.1164 
        56.000          50.000  
 123990285.96247  96615792.57847  23594577.3404   23594582.0664   23594578.1494 
        50.000          42.000  
 113410885.84047  88372112.48147  21581376.2574   21581379.3764   21581376.3314 
        54.000          49.000  
 130327764.81947 101554090.97847  24800552.5844   24800561.6554   24800553.8264 
        41.000          37.000  
 115521389.15747  90016651.68647  21983002.2384   21983005.9454   21983002.2584 
        52.000          46.000  
 110457068.09847  86070427.04647  21019293.5614   21019296.8894   21019293.5234 
        55.000          50.000  
 124361330.25147  96904906.54047  23665196.3034   23665202.0334   23665197.3104 
        45.000          40.000  
 120275253.72547  93720966.03247  22887625.6674   22887628.5064   22887626.3444 
        50.000          45.000  
 10  1 15 19  0 26.0000000  0  8G02G04G05G08G10G15G24G29
 109943276.29647  85670064.70147  20921526.9494   20921528.5864   20921527.5024 
        56.000          50.000  
 123991932.56347  96617075.64247  23594891.2084   23594896.7284   23594891.6814 
        50.000          42.000  
 113411920.21547  88372918.48747  21581573.4364   21581576.1154   21581573.1274 
        54.000          49.000  
 130327131.18647 101553597.23947  24800431.9994   24800441.3434   24800433.0024 
        41.000          37.000  
 115523174.39747  90018042.78247  21983341.5834   21983346.1754   21983341.8354 
        52.000          46.000  
 110455049.30447  86068853.96047  21018909.3124   21018912.8354   21018909.3024 
        55.000          50.000  
 124359055.39547  96903133.92647  23664763.6854   23664768.4994   23664764.4924 
        45.000          40.000  
 120272671.36647  93718953.80747  22887135.0054   22887138.6814   22887134.7034 
        50.000          45.000  
 10  1 15 19  0 27.0000000  0  8G02G04G05G08G10G15G24G29
 109943168.18147  85669980.45547  20921506.3404   20921508.3954   20921506.9294 
        56.000          50.000  
 123993579.29647  96618358.81047  23595204.1634   23595209.3664   23595205.0984 
        50.000          42.000  
 113412954.55947  88373724.46947  21581770.0824   21581773.1564   21581769.9824 
        54.000          49.000  
 130326497.78047 101553103.67647  24800311.1564   24800320.8214   24800311.9774 
        41.000          37.000  
 115524959.55347  90019433.81147  21983680.6474   21983685.8914   21983681.4734 
        52.000          46.000  
 110453030.93947  86067281.20847  21018525.2934   21018528.7404   21018525.1514 
        55.000          50.000  
 124356780.33547  96901361.15447  23664330.8944   23664335.4744   23664331.4174 
        45.000          40.000  
 120270089.31847  93716941.82347  22886644.7014   22886646.1214   22886643.2964 
        50.000          45.000  
 10  1 15 19  0 28.0000000  0  8G02G04G05G08G10G15G24G29
 109943060.41347  85669896.48047  20921485.9514   20921487.7114   20921486.3834 
        56.000          49.000  
 123995226.28347  96619642.17947  23595517.9724   23595522.8344   23595518.3244 
        50.000          42.000  
 113413988.97147  88374530.50547  21581966.7254   21581969.9584   21581966.8634 
        54.000          49.000  
 130325864.72047 101552610.38347  24800190.3654   24800199.7454   24800191.0234 
        42.000          37.000  
 115526744.72847  90020824.85647  21984020.6704   21984025.3024   21984021.1384 
        52.000          46.000  
 110451013.10947  86065708.87347  21018141.3844   21018144.9914   21018141.2604 
        55.000          50.000  
 124354505.18247  96899588.30847  23663897.6314   23663902.7584   23663898.5884 
        45.000          40.000  
 120267507.67947  93714930.15647  22886152.5724   22886155.9904   22886152.1194 
        50.000          45.000  
 10  1 15 19  0 29.0000000  0  8G02G04G05G08G10G15G24G29
 109942952.99647  85669812.77847  20921465.4294   20921467.2704   20921465.9614 
        56.000          49.000  
 123996873.54147  96620925.75447  23595831.4664   23595836.0134   23595831.6554 
        50.000          42.000  
 113415023.48247  88375336.61647  21582163.7844   21582166.3874   21582163.7134 
        54.000          49.000  
 130325232.03947 101552117.38847  24800069.9624   24800079.5994   24800070.6364 
        41.000          37.000  
 115528529.92947  90022215.91947  21984360.2954   21984365.5924   21984360.9184 
        52.000          46.000  
 110448995.82847  86064136.96647  21017757.6064   21017760.9134   21017757.4034 
        56.000          50.000  
 124352229.98247  96897815.42547  23663464.6484   23663469.4184   23663465.5874 
        45.000          40.000  
 120264926.45947  93712918.81347  22885660.2904   22885663.7024   22885660.9494 
        50.000          45.000  
 10  1 15 19  0 30.0000000  0  8G02G04G05G08G10G15G24G29
 109942845.98547  85669729.39447  20921445.2024   20921446.7424   20921445.5534 
        56.000          49.000  
 123998521.13247  96622209.59747  23596145.7874   23596150.4084   23596145.1134 
        49.000          42.000  
 113416058.13147  88376142.83747  21582360.4144   21582363.8034   21582360.5704 
        54.000          49.000  
 130324599.76347 101551624.70747  24799950.2344   24799959.5644   24799950.2524 
        41.000          37.000  
 115530315.22647  90023607.06147  21984700.6564   21984704.8654   21984700.6294 
        52.000          46.000  
 110446979.15047  86062565.53047  21017373.7184   21017377.1184   21017373.6744 
        55.000          50.000  
 124349954.74147  96896042.51147  23663031.1494   23663036.3844   23663032.3454 
        45.000          40.000  
 120262345.72947  93710907.85647  22885169.8234   22885173.3914   22885169.8474 
        50.000          45.000  
 10  1 15 19  0 31.0000000  0  8G02G04G05G08G10G15G24G29
 109942739.21347  85669646.19447  20921424.8764   20921426.6844   20921425.1204 
        56.000          49.000  
 124000168.86547  96623493.54547  23596460.9484   23596462.7344   23596458.5554 
        49.000          42.000  
 113417092.75047  88376949.03347  21582557.4764   21582560.5664   21582557.4804 
        54.000          49.000  
 130323967.72747 101551132.21647  24799829.1904   24799839.0344   24799830.0454 
        42.000          37.000  
 115532100.43947  90024998.13747  21985039.7014   21985045.3784   21985040.4024 
        52.000          46.000  
 110444962.90447  86060994.42947  21016990.2764   21016993.4774   21016990.0294 
        55.000          50.000  
 124347679.31847  96894269.45647  23662598.0874   23662604.0204   23662599.3994 
        45.000          40.000  
 120259765.28847  93708897.12047  22884679.1354   22884682.2014   22884678.7234 
        50.000          44.000  
 10  1 15 19  0 32.0000000  0  8G02G04G05G08G10G15G24G29
 109942632.80347  85669563.27547  20921404.5564   20921405.9604   20921404.8544 
        56.000          50.000  
 124001816.90747  96624777.73447  23596770.9544   23596777.0794   23596772.0184 
        49.000          42.000  
 113418127.45447  88377755.29647  21582754.2644   21582757.6694   21582754.3264 
        54.000          49.000  
 130323336.06847 101550640.01747  24799709.3044   24799719.1074   24799710.2924 
        42.000          37.000  
 115533885.68747  90026389.23747  21985379.5314   21985384.1394   21985380.2234 
        52.000          46.000  
 110442947.20847  86059423.75847  21016606.4054   21016610.0394   21016606.4884 
        56.000          50.000  
 124345403.83647  96892496.35647  23662166.0784   23662171.4364   23662166.2094 
        45.000          40.000  
 120257185.27147  93706886.72047  22884188.0044   22884190.9204   22884187.8024 
        50.000          45.000  
 10  1 15 19  0 33.0000000  0  8G02G04G05G08G10G15G24G29
 109942526.62647  85669480.53847  20921384.2744   20921385.9414   20921384.6004 
        56.000          50.000  
 124003465.08847  96626062.02647  23597085.4934   23597091.1834   23597085.7214 
        49.000          42.000  
 113419162.13747  88378561.54147  21582950.8744   21582954.0944   21582951.2364 
        54.000          49.000  
 130322704.61147 101550147.97547  24799590.1334   24799599.2254   24799590.6024 
        42.000          37.000  
 115535670.85747  90027780.28047  21985719.1904   21985723.7984   21985720.0144 
        52.000          46.000  
 110440931.95247  86057853.42847  21016222.9514   21016226.6674   21016223.0474 
        56.000          50.000  
 124343128.17747  96890723.11847  23661732.5784   23661738.6724   23661733.0584 
        45.000          40.000  
 120254605.56547  93704876.56147  22883696.3524   22883699.5354   22883696.9534 
        50.000          45.000  
 10  1 15 19  0 34.0000000  0  8G02G04G05G08G10G15G24G29
 109942420.88147  85669398.13847  20921364.1564   20921365.6604   20921364.4804 
        56.000          50.000  
 124005113.59847  96627346.57447  23597398.5554   23597404.0174   23597399.4184 
        49.000          42.000  
 113420196.98047  88379367.91347  21583148.2204   21583151.5884   21583148.0934 
        54.000          49.000  
 130322073.59947 101549656.27847  24799470.4484   24799479.0934   24799470.9044 
        42.000          37.000  
 115537456.13647  90029171.40747  21986059.6414   21986063.7564   21986059.7964 
        52.000          46.000  
 110438917.31947  86056283.58647  21015839.5904   21015842.7844   21015839.7424 
        55.000          50.000  
 124340852.48747  96888949.85447  23661299.1054   23661305.8454   23661299.9504 
        45.000          40.000  
 120252026.35247  93702866.78747  22883206.8504   22883209.5294   22883206.1284 
        50.000          45.000  
 10  1 15 19  0 35.0000000  0  8G02G04G05G08G10G15G24G29
 109942315.46047  85669315.99247  20921344.3424   20921346.0514   20921344.4654 
        56.000          50.000  
 124006762.35347  96628631.31847  23597713.4514   23597718.2484   23597713.2904 
        49.000          42.000  
 113421231.88447  88380174.33147  21583345.0684   21583348.1364   21583345.0064 
        54.000          49.000  
 130321442.92647 101549164.84547  24799349.9334   24799358.9014   24799350.8834 
        42.000          37.000  
 115539241.42047  90030562.53747  21986398.8674   21986403.1724   21986399.5534 
        52.000          46.000  
 110436903.20647  86054714.14847  21015456.2804   21015459.8154   21015456.4964 
        56.000          50.000  
 124338576.72947  96887176.53947  23660866.7124   23660872.5844   23660866.8224 
        46.000          40.000  
 120249447.53547  93700857.32147  22882715.6434   22882718.3184   22882715.3224 
        50.000          45.000  
 10  1 15 19  0 36.0000000  0  8G02G04G05G08G10G15G24G29
 109942210.43847  85669234.15547  20921323.9884   20921325.7624   20921324.5144 
        56.000          50.000  
 124008411.41447  96629916.29847  23598027.8104   23598031.6054   23598027.2274 
        50.000          42.000  
 113422266.91247  88380980.84847  21583542.0564   21583545.3234   21583541.8584 
        54.000          49.000  
 130320812.65147 101548673.72147  24799230.6234   24799239.5464   24799231.3334 
        42.000          37.000  
 115541026.77547  90031953.72047  21986738.3244   21986742.4244   21986739.3454 
        52.000          46.000  
 110434889.68347  86053145.16947  21015073.2474   21015076.4554   21015073.3324 
        56.000          50.000  
 124336300.93947  96885403.20047  23660432.9864   23660439.4814   23660433.7024 
        45.000          40.000  
 120246869.18147  93698848.21547  22882225.4294   22882227.9514   22882224.6674 
        50.000          45.000  
 10  1 15 19  0 37.0000000  0  8G02G04G05G08G10G15G24G29
 109942105.68647  85669152.53147  20921304.3144   20921305.6714   20921304.5874 
        56.000          50.000  
 124010060.65947  96631201.42547  23598341.0754   23598345.2764   23598341.2914 
        50.000          42.000  
 113423301.95547  88381787.37647  21583738.8754   21583742.3754   21583738.7284 
        54.000          49.000  
 130320182.64447 101548182.80547  24799110.0174   24799120.4004   24799111.2994 
        42.000          37.000  
 115542812.08747  90033344.87147  21987077.7534   21987082.9834   21987079.0994 
        52.000          46.000  
 110432876.64147  86051576.56647  21014689.9094   21014693.7664   21014690.2734 
        55.000          50.000  
 124334024.99147  96883629.73647  23659999.6684   23660005.6864   23660000.5274 
        45.000          40.000  
 120244291.16847  93696839.37347  22881734.0254   22881737.3684   22881734.0184 
        50.000          45.000  
 10  1 15 19  0 38.0000000  0  8G02G04G05G08G10G15G24G29
 109942001.17547  85669071.09347  20921284.6404   20921286.1384   20921284.7134 
        56.000          50.000  
 124011710.06147  96632486.67047  23598655.5674   23598659.4594   23598655.2614 
        49.000          42.000  
 113424336.96447  88382593.87547  21583936.3614   21583939.2954   21583935.6784 
        54.000          49.000  
 130319552.90847 101547692.10047  24798990.6154   24799000.5124   24798991.5774 
        42.000          37.000  
 115544597.31347  90034735.95347  21987418.1484   21987423.0014   21987418.8904 
        52.000          46.000  
 110430864.02047  86050008.29147  21014307.1604   21014310.5764   21014307.3004 
        55.000          50.000  
 124331748.85247  96881856.12347  23659566.6614   23659571.9854   23659567.3514 
        46.000          40.000  
 120241713.45647  93694830.76947  22881244.5854   22881246.3494   22881243.5784 
        50.000          45.000  
 10  1 15 19  0 39.0000000  0  8G02G04G05G08G10G15G24G29
 109941897.10047  85668989.99547  20921264.4714   20921266.1314   20921264.8944 
        56.000          50.000  
 124013359.78647  96633772.17247  23598968.5224   23598973.1904   23598969.2574 
        49.000          42.000  
 113425372.14647  88383400.50947  21584132.9874   21584136.0114   21584132.6304 
        54.000          49.000  
 130318923.58747 101547201.72047  24798870.6174   24798880.1244   24798871.7134 
        42.000          37.000  
 115546382.64947  90036127.12347  21987757.3794   21987762.3584   21987758.6274 
        52.000          46.000  
 110428852.02847  86048440.50447  21013924.2474   21013927.8434   21013924.3684 
        55.000          50.000  
 124329472.72047  96880082.51547  23659133.5654   23659138.6014   23659134.1954 
        45.000          40.000  
 120239136.25047  93692822.55547  22880752.9134   22880756.2044   22880753.2884 
        50.000          45.000  
 10  1 15 19  0 40.0000000  0  8G02G04G05G08G10G15G24G29
 109941793.29747  85668909.10847  20921244.9574   20921246.5454   20921245.1474 
        56.000          50.000  
 124015009.71947  96635057.83447  23599282.6254   23599287.9494   23599283.0984 
        49.000          42.000  
 113426407.32847  88384207.14547  21584329.9204   21584333.1754   21584329.5464 
        54.000          49.000  
 130318294.54247 101546711.55347  24798750.3524   24798760.2624   24798751.7204 
        41.000          37.000  
 115548167.93247  90037518.25247  21988097.5754   21988101.9174   21988098.5274 
        52.000          46.000  
 110426840.50747  86046873.08747  21013541.3024   21013544.6824   21013541.5184 
        56.000          50.000  
 124327196.44947  96878308.79847  23658701.0034   23658704.7824   23658700.9664 
        46.000          40.000  
 120236559.37547  93690814.60047  22880263.0374   22880265.8354   22880262.9154 
        51.000          45.000  
 10  1 15 19  0 41.0000000  0  8G02G04G05G08G10G15G24G29
 109941689.95047  85668828.57947  20921225.2804   20921226.8084   20921225.4944 
        56.000          50.000  
 124016660.02047  96636343.78047  23599596.2494   23599601.5384   23599596.9674 
        49.000          42.000  
 113427442.70447  88385013.93347  21584526.6434   21584529.9664   21584526.5054 
        54.000          49.000  
 130317665.95147 101546221.74147  24798630.4604   24798639.1374   24798631.8834 
        42.000          37.000  
 115549953.36347  90038909.50047  21988436.7554   21988441.7724   21988438.2594 
        52.000          46.000  
 110424829.64247  86045306.17947  21013158.7974   21013162.2574   21013158.8564 
        56.000          50.000  
 124324920.19747  96876535.09547  23658268.3684   23658271.8844   23658267.8014 
        46.000          40.000  
 120233983.02947  93688807.05647  22879773.6174   22879776.1784   22879772.6604 
        50.000          45.000  
 10  1 15 19  0 42.0000000  0  8G02G04G05G08G10G15G24G29
 109941586.82347  85668748.21747  20921205.6494   20921207.5024   20921205.9654 
        56.000          50.000  
 124018310.47147  96637629.84147  23599910.4634   23599914.9994   23599910.7404 
        49.000          42.000  
 113428478.03447  88385820.68447  21584724.2034   21584727.1294   21584723.5314 
        54.000          49.000  
 130317037.60447 101545732.12047  24798510.7144   24798519.6494   24798512.1994 
        42.000          37.000  
 115551738.68547  90040300.66147  21988776.8814   21988782.1484   21988778.0014 
        52.000          46.000  
 110422819.19147  86043739.59447  21012776.3404   21012779.6264   21012776.2754 
        55.000          50.000  
 124322643.74247  96874761.23247  23657834.9864   23657839.8364   23657834.7294 
        45.000          40.000  
 120231406.97247  93686799.73847  22879283.2854   22879285.6884   22879282.3954 
        50.000          45.000  
 10  1 15 19  0 43.0000000  0  8G02G04G05G08G10G15G24G29
 109941484.04547  85668668.12947  20921186.1794   20921187.5884   20921186.5364 
        56.000          50.000  
 124019961.18647  96638916.10847  23600223.8724   23600229.5794   23600224.6834 
        49.000          42.000  
 113429513.44747  88386627.49747  21584921.0174   21584924.0194   21584920.5794 
        54.000          49.000  
 130316409.60047 101545242.76847  24798391.0064   24798400.0574   24798392.4664 
        41.000          37.000  
 115553524.04447  90041691.85047  21989116.9494   21989122.0484   21989117.8244 
        52.000          46.000  
 110420809.27547  86042173.42847  21012393.9384   21012397.3594   21012393.8414 
        55.000          50.000  
 124320367.21447  96872987.31447  23657401.9674   23657406.3294   23657401.5394 
        46.000          40.000  
 120228831.33247  93684792.74647  22878792.2354   22878794.4994   22878792.3144 
        50.000          45.000  
 10  1 15 19  0 44.0000000  0  8G02G04G05G08G10G15G24G29
 109941381.65847  85668588.34747  20921166.7704   20921168.4704   20921167.1614 
        56.000          50.000  
 124021612.20347  96640202.61147  23600540.2354   23600543.4094   23600538.8094 
        49.000          42.000  
 113430548.98547  88387434.40947  21585118.4954   21585121.1994   21585117.6424 
        54.000          49.000  
 130315781.98147 101544753.71747  24798272.3134   24798280.2004   24798272.8964 
        42.000          37.000  
 115555309.47047  90043083.09147  21989456.8674   21989461.1464   21989457.6034 
        52.000          46.000  
 110418799.95547  86040607.72447  21012011.2034   21012015.0244   21012011.5124 
        55.000          50.000  
 124318090.65147  96871213.36947  23656969.0134   23656973.2324   23656968.5684 
        45.000          40.000  
 120226256.15447  93682786.11647  22878303.5074   22878305.6514   22878302.1754 
        51.000          45.000  
 10  1 15 19  0 45.0000000  0  8G02G04G05G08G10G15G24G29
 109941279.51747  85668508.75647  20921147.3804   20921148.6914   20921147.7724 
        56.000          50.000  
 124023263.39347  96641489.25047  23600852.9664   23600858.1424   23600853.1004 
        49.000          42.000  
 113431584.49747  88388241.30047  21585315.1524   21585318.3874   21585314.6764 
        54.000          49.000  
 130315154.63447 101544264.87747  24798153.2904   24798161.6714   24798153.9424 
        42.000          37.000  
 115557094.81447  90044474.26947  21989796.0924   21989801.0444   21989797.3794 
        52.000          46.000  
 110416791.07447  86039042.36347  21011628.9604   21011632.6664   21011629.2254 
        56.000          50.000  
 124315813.91847  96869439.29147  23656535.8074   23656540.8954   23656535.3614 
        45.000          40.000  
 120223681.28847  93680779.72647  22877811.7184   22877815.0994   22877812.1804 
        50.000          45.000  
 10  1 15 19  0 46.0000000  0  8G02G04G05G08G10G15G24G29
 109941177.76347  85668429.46547  20921127.8894   20921129.3964   20921128.4374 
        56.000          50.000  
 124024914.86947  96642776.11047  23601166.7484   23601171.3754   23601167.4754 
        49.000          42.000  
 113432620.13047  88389048.28647  21585512.3114   21585515.1924   21585511.7424 
        54.000          48.000  
 130314527.65447 101543776.32547  24798034.4884   24798041.6724   24798034.5374 
        42.000          37.000  
 115558880.22947  90045865.50347  21990135.8924   21990141.3044   21990137.1224 
        52.000          46.000  
 110414782.77747  86037477.45647  21011247.0864   21011250.4184   21011247.0714 
        56.000          50.000  
 124313537.12047  96867665.16447  23656102.5484   23656107.8944   23656102.2014 
        45.000          40.000  
 120221106.88347  93678773.69547  22877322.7104   22877325.6004   22877322.3454 
        50.000          45.000  
 10  1 15 19  0 47.0000000  0  8G02G04G05G08G10G15G24G29
 109941076.30447  85668350.40647  20921108.6094   20921110.1484   20921109.2114 
        56.000          50.000  
 124026566.53447  96644063.12247  23601483.5894   23601486.2164   23601481.8814 
        49.000          42.000  
 113433655.78847  88389855.29247  21585709.1634   21585712.7134   21585708.8774 
        54.000          48.000  
 130313901.00947 101543288.03247  24797914.7754   24797922.0844   24797915.2734 
        42.000          37.000  
 115560665.61747  90047256.71547  21990475.4724   21990480.4224   21990476.9114 
        52.000          46.000  
 110412774.97347  86035912.93547  21010864.8444   21010868.5404   21010865.0774 
        55.000          50.000  
 124311260.21647  96865890.95447  23655668.6014   23655674.4474   23655669.0334 
        46.000          40.000  
 120218532.83447  93676767.94447  22876833.4814   22876835.2884   22876832.5604 
        50.000          45.000  
 10  1 15 19  0 48.0000000  0  8G02G04G05G08G10G15G24G29
 109940975.14047  85668271.57647  20921089.3084   20921090.5754   20921090.0124 
        56.000          50.000  
 124028218.43047  96645350.31447  23601798.8624   23601800.1324   23601796.2494 
        49.000          42.000  
 113434691.47547  88390662.32047  21585906.5874   21585908.9814   21585905.9684 
        54.000          49.000  
 130313274.65847 101542799.96647  24797794.6354   24797802.6064   24797795.7834 
        42.000          37.000  
 115562450.97947  90048647.90547  21990815.0954   21990820.0364   21990816.6884 
        52.000          46.000  
 110410767.65147  86034348.78847  21010482.8344   21010486.4964   21010483.0894 
        56.000          50.000  
 124308983.16447  96864116.62847  23655235.0624   23655239.9504   23655235.8934 
        45.000          40.000  
 120215959.15247  93674762.47747  22876342.8894   22876345.8354   22876342.7574 
        50.000          45.000  
 10  1 15 19  0 49.0000000  0  8G02G04G05G08G10G15G24G29
 109940874.42347  85668193.09647  20921070.4474   20921071.5554   20921070.8714 
        56.000          50.000  
 124029870.68647  96646637.78747  23602108.9824   23602114.2084   23602110.8724 
        49.000          42.000  
 113435727.34047  88391469.48947  21586103.4114   21586106.7394   21586103.0654 
        54.000          49.000  
 130312648.73047 101542312.23347  24797676.0514   24797683.9444   24797676.5804 
        42.000          37.000  
 115564236.46047  90050039.18947  21991155.2084   21991160.7214   21991156.4604 
        52.000          46.000  
 110408760.97347  86032785.14447  21010101.0544   21010104.2904   21010101.2254 
        56.000          50.000  
 124306706.14647  96862342.33047  23654801.0444   23654806.5844   23654802.7374 
        46.000          40.000  
 120213385.97447  93672757.40547  22875853.2294   22875856.6104   22875853.0854 
        51.000          45.000  
 10  1 15 19  0 50.0000000  0  8G02G04G05G08G10G15G24G29
 109940773.98647  85668114.83447  20921051.2654   20921052.1894   20921051.8164 
        56.000          50.000  
 124031523.13947  96647925.41347  23602425.8534   23602429.9634   23602425.4454 
        49.000          42.000  
 113436763.21547  88392276.66347  21586300.5574   21586303.5484   21586300.1914 
        54.000          49.000  
 130312023.09047 101541824.71947  24797556.8114   24797565.9164   24797557.6424 
        41.000          37.000  
 115566021.90647  90051430.44547  21991494.8004   21991499.1034   21991496.1904 
        52.000          46.000  
 110406754.77647  86031221.87447  21009718.9744   21009722.7194   21009719.4004 
        55.000          50.000  
 124304428.97247  96860567.90947  23654367.6274   23654372.4364   23654369.3334 
        46.000          40.000  
 120210813.14847  93670752.60747  22875364.4654   22875366.5434   22875363.5244 
        51.000          45.000  
 10  1 15 19  0 51.0000000  0  8G02G04G05G08G10G15G24G29
 109940673.84847  85668036.80447  20921031.9594   20921033.0404   20921032.7444 
        56.000          50.000  
 124033175.77747  96649213.18347  23602739.5664   23602744.2364   23602740.0474 
        49.000          42.000  
 113437799.12747  88393083.86747  21586497.8204   21586501.0044   21586497.2634 
        54.000          49.000  
 130311397.76647 101541337.45347  24797438.0204   24797446.2434   24797438.9274 
        41.000          37.000  
 115567807.33947  90052821.69047  21991834.6834   21991839.9374   21991835.9404 
        52.000          46.000  
 110404749.08347  86029658.99747  21009337.4334   21009341.2264   21009337.7014 
        55.000          50.000  
 124302151.68147  96858793.39947  23653934.3284   23653939.2354   23653936.1124 
        45.000          40.000  
 120208240.69847  93668748.10247  22874874.9284   22874877.3234   22874874.0374 
        50.000          45.000  
 10  1 15 19  0 52.0000000  0  8G02G04G05G08G10G15G24G29
 109940574.08947  85667959.07147  20921013.1044   20921014.2534   20921013.7384 
        56.000          50.000  
 124034828.72547  96650501.19047  23603054.7534   23603059.7574   23603054.5614 
        49.000          42.000  
 113438835.12847  88393891.14247  21586694.5694   21586697.8224   21586694.3814 
        54.000          49.000  
 130310772.82447 101540850.48547  24797318.2924   24797327.9644   24797320.2934 
        43.000          37.000  
 115569592.81347  90054212.96747  21992174.6694   21992179.5334   21992175.7244 
        52.000          46.000  
 110402743.94947  86028096.55647  21008955.8714   21008959.4904   21008956.0574 
        55.000          50.000  
 124299874.33747  96857018.84647  23653501.4314   23653506.8504   23653502.7244 
        45.000          40.000  
 120205668.69047  93666743.94147  22874384.7504   22874387.8294   22874384.5784 
        51.000          45.000  
 10  1 15 19  0 53.0000000  0  8G02G04G05G08G10G15G24G29
 109940474.52347  85667881.48747  20920994.2354   20920995.6194   20920994.7464 
        56.000          50.000  
 124036481.78047  96651789.28347  23603367.0404   23603372.3304   23603369.0924 
        49.000          42.000  
 113439871.07347  88394698.37147  21586891.8104   21586895.2234   21586891.5544 
        54.000          49.000  
 130310148.08047 101540363.66747  24797200.4594   24797208.6354   24797201.5894 
        43.000          37.000  
 115571378.15947  90055604.14347  21992514.9544   21992519.4834   21992515.4504 
        52.000          46.000  
 110400739.21147  86026534.42347  21008574.5614   21008578.2744   21008574.5494 
        55.000          50.000  
 124297596.75947  96855244.11347  23653067.9774   23653073.5114   23653069.2934 
        45.000          40.000  
 120203096.94147  93664739.98047  22873896.0874   22873899.2894   22873895.2624 
        51.000          45.000  
 10  1 15 19  0 54.0000000  0  8G02G04G05G08G10G15G24G29
 109940375.49747  85667804.32547  20920975.4724   20920976.6914   20920975.8304 
        56.000          50.000  
 124038135.29447  96653077.74047  23603684.3444   23603689.4234   23603683.7484 
        49.000          42.000  
 113440907.28347  88395505.80747  21587089.3354   21587092.4534   21587088.7374 
        54.000          48.000  
 130309523.88147 101539877.27547  24797082.7344   24797091.5004   24797082.9454 
        42.000          37.000  
 115573163.72647  90056995.49547  21992853.5464   21992858.6954   21992855.1874 
        52.000          46.000  
 110398735.20947  86024972.86347  21008193.1534   21008196.7784   21008193.1974 
        55.000          50.000  
 124295319.29747  96853469.47147  23652634.5044   23652639.9094   23652635.8954 
        46.000          40.000  
 120200525.80147  93662736.49547  22873406.2094   22873408.9644   22873405.9874 
        50.000          45.000  
 10  1 15 19  0 55.0000000  0  8G02G04G05G08G10G15G24G29
 109940276.68647  85667727.32947  20920956.6824   20920957.7724   20920957.0124 
        56.000          50.000  
 124039788.91347  96654366.27047  23603997.9354   23604003.0444   23603998.4144 
        49.000          42.000  
 113441943.44247  88396313.20447  21587286.3094   21587289.6024   21587285.9604 
        54.000          49.000  
 130308899.90047 101539391.05347  24796964.4504   24796972.7464   24796964.2114 
        42.000          37.000  
 115574949.18347  90058386.75947  21993193.8474   21993199.2304   21993194.9114 
        52.000          46.000  
 110396731.61547  86023411.62247  21007811.9494   21007815.5134   21007811.9154 
        55.000          50.000  
 124293041.62647  96851694.66647  23652200.9424   23652206.4584   23652202.5354 
        45.000          40.000  
 120197954.94047  93660733.22547  22872917.1054   22872920.8934   22872916.7874 
        51.000          45.000  
 10  1 15 19  0 56.0000000  0  8G02G04G05G08G10G15G24G29
 109940178.29247  85667650.65947  20920938.0824   20920938.5344   20920938.3054 
        56.000          50.000  
 124041442.89247  96655655.08147  23604313.0224   23604317.1874   23604313.1214 
        49.000          42.000  
 113442979.75447  88397120.72047  21587483.3204   21587486.1474   21587483.1854 
        54.000          49.000  
 130308276.33447 101538905.15747  24796846.0454   24796853.8324   24796845.4844 
        42.000          37.000  
 115576734.73947  90059778.10447  21993533.8354   21993538.2534   21993534.6884 
        52.000          46.000  
 110394728.63747  86021850.86147  21007430.7524   21007434.1014   21007430.7204 
        55.000          50.000  
 124290763.94647  96849919.85547  23651767.3474   23651772.6914   23651769.1024 
        46.000          40.000  
 120195384.57147  93658730.34347  22872428.7194   22872430.8704   22872427.6354 
        50.000          45.000  
 10  1 15 19  0 57.0000000  0  8G02G04G05G08G10G15G24G29
 109940080.06947  85667574.12047  20920919.3034   20920920.3864   20920919.6354 
        56.000          50.000  
 124043096.94947  96656943.95647  23604627.2534   23604631.8314   23604627.8264 
        49.000          42.000  
 113444015.96647  88397928.15847  21587680.6944   21587683.9094   21587680.3514 
        54.000          49.000  
 130307652.96747 101538419.41447  24796726.8344   24796734.3374   24796727.1234 
        42.000          37.000  
 115578520.14047  90061169.32547  21993873.9744   21993878.2854   21993874.4434 
        52.000          46.000  
 110392726.02547  86020290.38447  21007049.6514   21007053.0644   21007049.6054 
        55.000          50.000  
 124288486.01347  96848144.84647  23651334.3544   23651339.4524   23651335.6804 
        45.000          40.000  
 120192814.43847  93656727.64147  22871939.6974   22871941.0444   22871938.5524 
        51.000          45.000  
 10  1 15 19  0 58.0000000  0  8G02G04G05G08G10G15G24G29
 109939982.43447  85667498.04147  20920900.4084   20920901.7124   20920901.1174 
        56.000          50.000  
 124044751.51747  96658233.23247  23604941.8634   23604946.5134   23604942.6304 
        49.000          42.000  
 113445052.49347  88398735.84447  21587878.0074   21587881.2504   21587877.5784 
        54.000          49.000  
 130307030.17047 101537934.11447  24796607.2504   24796615.5814   24796608.4074 
        42.000          37.000  
 115580305.80347  90062560.75347  21994213.3044   21994218.1564   21994214.0914 
        52.000          46.000  
 110390724.19347  86018730.51747  21006668.6054   21006671.8454   21006668.6764 
        55.000          50.000  
 124286208.23347  96846369.95747  23650901.0784   23650906.2674   23650901.8864 
        46.000          40.000  
 120190244.94547  93654725.44047  22871449.2564   22871452.4984   22871449.5924 
        51.000          45.000  
 10  1 15 19  0 59.0000000  0  8G02G04G05G08G10G15G24G29
 109939884.96447  85667422.08747  20920881.9364   20920882.9394   20920882.5464 
        56.000          50.000  
 124046406.16447  96659522.56347  23605257.0474   23605263.0774   23605257.3054 
        49.000          42.000  
 113446088.93047  88399543.45747  21588074.9234   21588078.5514   21588074.8534 
        54.000          48.000  
 130306407.55847 101537448.96047  24796489.2744   24796497.5314   24796490.0524 
        42.000          37.000  
 115582091.32047  90063952.06447  21994552.8584   21994558.0274   21994553.8004 
        52.000          46.000  
 110388722.72847  86017170.93547  21006287.4944   21006291.0034   21006287.6984 
        55.000          50.000  
 124283930.20847  96844594.87447  23650467.7154   23650472.3384   23650468.0444 
        45.000          40.000  
 120187675.70647  93652723.43547  22870962.3244   22870963.6404   22870960.6744 
        51.000          45.000  
 10  1 15 19  1  0.0000000  0  8G02G04G05G08G10G15G24G29
 109939787.78647  85667346.36247  20920863.4064   20920864.8364   20920864.0204 
        56.000          50.000  
 124048061.02347  96660812.06247  23605572.1194   23605576.3604   23605571.9984 
        49.000          42.000  
 113447125.38347  88400351.08447  21588272.3754   21588275.2094   21588272.1134 
        54.000          48.000  
 130305785.24547 101536964.04147  24796370.9494   24796379.6484   24796371.7174 
        42.000          37.000  
 115583876.80747  90065343.35347  21994892.7844   21994898.3574   21994893.5844 
        52.000          46.000  
 110386721.74047  86015611.72547  21005906.9924   21005910.5624   21005906.8344 
        55.000          50.000  
 124281652.03347  96842819.67547  23650034.4984   23650038.8914   23650034.3354 
        46.000          40.000  
 120185106.82047  93650721.70847  22870471.7894   22870474.7694   22870471.9374 
        51.000          45.000  
 10  1 15 19  1  1.0000000  0  8G02G04G05G08G10G15G24G29
 109939691.02547  85667270.96347  20920845.3814   20920845.9784   20920845.5734 
        56.000          50.000  
 124049716.20647  96662101.81647  23605887.2854   23605892.2964   23605886.9514 
        49.000          42.000  
 113448161.98447  88401158.82347  21588469.4344   21588472.5554   21588469.4654 
        54.000          48.000  
 130305163.35247 101536479.45047  24796253.0184   24796260.5024   24796253.3254 
        42.000          37.000  
 115585662.39547  90066734.72047  21995232.4844   21995237.3434   21995233.3544 
        52.000          46.000  
 110384721.37547  86014053.00047  21005526.2984   21005529.9044   21005526.2434 
        55.000          50.000  
 124279373.87147  96841044.48547  23649600.8504   23649606.0054   23649600.6014 
        45.000          40.000  
 120182538.42547  93648720.36347  22869983.7664   22869986.5884   22869983.2674 
        51.000          45.000  
 10  1 15 19  1  2.0000000  0  8G02G04G05G08G10G15G24G29
 109939594.57347  85667195.80447  20920826.6364   20920827.8864   20920827.2124 
        56.000          50.000  
 124051371.60547  96663391.73147  23606201.1134   23606206.4424   23606201.7984 
        49.000          42.000  
 113449198.62247  88401966.59347  21588666.5874   21588670.4714   21588666.7874 
        54.000          48.000  
 130304541.76947 101535995.10147  24796134.6144   24796141.8294   24796135.0764 
        42.000          37.000  
 115587447.96747  90068126.07147  21995572.3134   21995577.4314   21995573.1324 
        52.000          46.000  
 110382721.49747  86012494.65447  21005145.8224   21005149.1144   21005145.6604 
        55.000          50.000  
 124277095.57347  96839269.18847  23649166.9544   23649172.7774   23649166.6164 
        45.000          40.000  
 120179970.39947  93646719.30447  22869495.0234   22869497.9564   22869494.5634 
        51.000          45.000  
 10  1 15 19  1  3.0000000  0  8G02G04G05G08G10G15G24G29
 109939498.46847  85667120.91747  20920808.5804   20920809.9324   20920808.8824 
        56.000          50.000  
 124053027.25247  96664681.84947  23606517.8684   23606521.2924   23606516.9794 
        49.000          42.000  
 113450235.33247  88402774.41747  21588864.2434   21588867.4354   21588864.1364 
        54.000          49.000  
 130303920.54447 101535511.03147  24796016.3694   24796023.8164   24796016.7754 
        41.000          37.000  
 115589233.55947  90069517.43847  21995912.2834   21995917.0014   21995912.9104 
        52.000          46.000  
 110380722.16547  86010936.73347  21004765.2964   21004768.7174   21004765.2044 
        56.000          50.000  
 124274817.19247  96837493.82647  23648733.8744   23648739.1814   23648732.9604 
        45.000          40.000  
 120177402.79247  93644718.57147  22869007.1174   22869009.1604   22869006.0974 
        51.000          45.000  
 10  1 15 19  1  4.0000000  0  8G02G04G05G08G10G15G24G29
 109939402.74247  85667046.32747  20920790.1654   20920791.4994   20920790.6714 
        56.000          50.000  
 124054683.18647  96665972.18647  23606831.6314   23606836.7734   23606832.2054 
        49.000          42.000  
 113451272.15647  88403582.33247  21589061.5074   21589064.5494   21589061.5024 
        54.000          49.000  
 130303299.72147 101535027.27347  24795897.9224   24795904.9994   24795898.3184 
        41.000          37.000  
 115591019.21747  90070908.85947  21996251.4854   21996256.7554   21996252.7964 
        52.000          46.000  
 110378723.42247  86009379.27247  21004384.9254   21004388.6894   21004384.9064 
        55.000          50.000  
 124272538.79047  96835718.44647  23648300.3324   23648305.6354   23648299.3174 
        45.000          40.000  
 120174835.64147  93642718.19447  22868517.2904   22868520.2414   22868517.6094 
        51.000          45.000  
 10  1 15 19  1  5.0000000  0  8G02G04G05G08G10G15G24G29
 109939307.26047  85666971.92547  20920772.0884   20920773.1984   20920772.5024 
        56.000          50.000  
 124056339.28247  96667262.64847  23607147.6084   23607151.9344   23607147.3414 
        49.000          42.000  
 113452308.95247  88404390.22547  21589258.6214   21589262.0644   21589258.8524 
        54.000          49.000  
 130302679.10547 101534543.67747  24795780.4684   24795787.1884   24795779.9664 
        41.000          37.000  
 115592804.78847  90072300.21247  21996592.0444   21996596.6364   21996592.7444 
        52.000          46.000  
 110376725.10647  86007822.14247  21004004.6904   21004008.2194   21004004.6364 
        56.000          50.000  
 124270260.17747  96833942.90247  23647866.2684   23647871.1754   23647865.4404 
        45.000          40.000  
 120172268.79247  93640718.05147  22868029.2464   22868032.8804   22868029.2484 
        51.000          45.000  
 10  1 15 19  1  6.0000000  0  8G02G04G05G08G10G15G24G29
 109939212.15847  85666897.81947  20920753.9654   20920755.1764   20920754.3364 
        56.000          50.000  
 124057995.67347  96668553.34147  23607461.9954   23607468.2484   23607462.5054 
        49.000          42.000  
 113453345.86147  88405198.20647  21589455.8344   21589459.3984   21589456.2624 
        54.000          49.000  
 130302058.89647 101534060.39947  24795662.2354   24795669.3174   24795661.9244 
        41.000          37.000  
 115594590.42247  90073691.61647  21996931.3964   21996936.2894   21996932.6374 
        52.000          46.000  
 110374727.38447  86006265.47547  21003624.6274   21003627.9734   21003624.5294 
        55.000          50.000  
 124267981.54247  96832167.34247  23647432.5054   23647438.2094   23647431.8584 
        45.000          40.000  
 120169702.40247  93638718.26947  22867541.3264   22867543.0364   22867540.7624 
        51.000          45.000  
 10  1 15 19  1  7.0000000  0  8G02G04G05G08G10G15G24G29
 109939117.34247  85666823.93747  20920735.8764   20920737.1814   20920736.2194 
        56.000          50.000  
 124059652.26047  96669844.18847  23607779.0654   23607782.4244   23607777.8174 
        49.000          42.000  
 113454382.79047  88406006.20247  21589653.6684   21589656.3734   21589653.6674 
        54.000          49.000  
 130301438.97347 101533577.34347  24795544.1694   24795551.0654   24795543.9404 
        41.000          37.000  
 115596376.02547  90075082.99347  21997271.6224   21997276.0284   21997272.4764 
        52.000          46.000  
 110372730.12847  86004709.17247  21003244.3134   21003247.8654   21003244.5434 
        55.000          50.000  
 124265702.75247  96830391.66147  23646998.8984   23647005.3464   23646998.2314 
        45.000          40.000  
 120167136.35147  93636718.74747  22867052.8034   22867054.3414   22867052.5184 
        51.000          45.000  
 10  1 15 19  1  8.0000000  0  8G02G04G05G08G10G15G24G29
 109939022.90247  85666750.34947  20920717.8634   20920719.2134   20920718.2084 
        56.000          50.000  
 124061309.14747  96671135.27147  23608093.2484   23608096.7594   23608093.1434 
        49.000          42.000  
 113455419.81647  88406814.27647  21589850.7144   21589854.1294   21589850.9924 
        54.000          49.000  
 130300819.43647 101533094.58747  24795425.4334   24795432.5974   24795426.1304 
        41.000          37.000  
 115598161.67847  90076474.41347  21997611.1834   21997616.1734   21997612.2854 
        52.000          46.000  
 110370733.45747  86003153.32547  21002864.7444   21002867.9854   21002864.6704 
        55.000          50.000  
 124263423.92047  96828615.94947  23646564.8994   23646570.9994   23646564.5354 
        45.000          40.000  
 120164570.76247  93634719.58447  22866564.6944   22866566.9444   22866564.3994 
        51.000          45.000  
 10  1 15 19  1  9.0000000  0  8G02G04G05G08G10G15G24G29
 109938928.70447  85666676.94847  20920700.1164   20920701.2794   20920700.3174 
        56.000          50.000  
 124062966.17347  96672426.46047  23608410.1604   23608412.3854   23608408.6554 
        49.000          42.000  
 113456456.80647  88407622.32247  21590047.9154   21590051.2894   21590048.3154 
        54.000          49.000  
 130300200.13647 101532612.01647  24795308.5114   24795314.9444   24795308.6464 
        42.000          37.000  
 115599947.24047  90077865.75947  21997950.8304   21997956.2534   21997952.0714 
        52.000          46.000  
 110368737.21447  86001597.81147  21002484.7574   21002487.9114   21002484.7914 
        56.000          50.000  
 124261144.90647  96826840.09347  23646131.5504   23646137.7574   23646130.9724 
        45.000          40.000  
 120162005.46147  93632720.65147  22866076.7054   22866079.7454   22866076.3634 
        51.000          45.000  
 10  1 15 19  1 10.0000000  0  8G02G04G05G08G10G15G24G29
 109938835.01947  85666603.94747  20920682.3044   20920683.5544   20920682.4484 
        56.000          50.000  
 124064623.63547  96673717.98447  23608724.1684   23608728.7724   23608724.1134 
        49.000          42.000  
 113457494.05347  88408430.56647  21590245.3124   21590248.3404   21590245.6774 
        54.000          49.000  
 130299581.35847 101532129.85047  24795190.6134   24795198.4294   24795191.3494 
        41.000          37.000  
 115601732.99847  90079257.26147  21998290.2664   21998295.8244   21998291.8014 
        52.000          46.000  
 110366741.67947  86000042.84947  21002104.9424   21002108.3134   21002105.0194 
        56.000          50.000  
 124258865.97547  96825064.30447  23645697.6834   23645703.4874   23645697.3494 
        45.000          40.000  
 120159440.75147  93630722.17647  22865588.6094   22865590.2634   22865588.3284 
        51.000          45.000  
 10  1 15 19  1 11.0000000  0  8G02G04G05G08G10G15G24G29
 109938741.53947  85666531.10447  20920664.4564   20920665.7554   20920664.7044 
        56.000          50.000  
 124066281.19947  96675009.59447  23609038.0624   23609044.0824   23609039.6674 
        49.000          42.000  
 113458531.22847  88409238.75647  21590442.9684   21590445.7634   21590442.9994 
        54.000          49.000  
 130298962.77547 101531647.83547  24795071.5684   24795081.6154   24795073.8374 
        41.000          37.000  
 115603518.63147  90080648.66647  21998631.0944   21998635.4344   21998631.5694 
        52.000          46.000  
 110364746.54247  85998488.19747  21001725.2614   21001728.3494   21001725.2844 
        55.000          50.000  
 124256586.81147  96823288.33347  23645264.2014   23645269.5244   23645263.6564 
        46.000          40.000  
 120156876.31347  93628723.91647  22865101.1174   22865103.3884   22865100.3474 
        51.000          45.000  
 10  1 15 19  1 12.0000000  0  8G02G04G05G08G10G15G24G29
 109938648.48247  85666458.59247  20920646.4294   20920647.8104   20920646.9824 
        56.000          50.000  
 124067939.09747  96676301.46147  23609353.8594   23609358.9154   23609355.1964 
        49.000          42.000  
 113459568.56647  88410047.07347  21590639.9274   21590642.9694   21590640.3534 
        54.000          49.000  
 130298344.61247 101531166.14747  24794955.4934   24794963.8244   24794956.5434 
        42.000          37.000  
 115605304.36647  90082040.14847  21998970.1034   21998975.3284   21998971.3204 
        52.000          46.000  
 110362752.02947  85996934.03347  21001345.9584   21001349.0394   21001345.7324 
        55.000          50.000  
 124254307.65647  96821512.36947  23644830.7674   23644836.0744   23644830.3154 
        46.000          40.000  
 120154312.35747  93626726.03047  22864611.9774   22864615.3204   22864612.4594 
        51.000          45.000  
 10  1 15 19  1 13.0000000  0  8G02G04G05G08G10G15G24G29
 109938555.71347  85666386.30347  20920629.0574   20920630.5904   20920629.2674 
        56.000          50.000  
 124069597.20347  96677593.49547  23609671.1154   23609676.1374   23609670.6274 
        49.000          43.000  
 113460605.91547  88410855.39847  21590837.3844   21590841.0774   21590837.7154 
        54.000          49.000  
 130297726.76347 101530684.70547  24794837.0904   24794845.0664   24794839.0374 
        41.000          37.000  
 115607090.05547  90083431.59447  21999310.5414   21999315.0584   21999311.1844 
        52.000          46.000  
 110360757.98647  85995380.23647  21000966.2484   21000969.7544   21000966.2624 
        56.000          50.000  
 124252028.34747  96819736.28447  23644397.6774   23644402.4194   23644396.7474 
        46.000          40.000  
 120151748.75847  93624728.41847  22864124.4054   22864127.2654   22864124.6474 
        51.000          45.000  
 10  1 15 19  1 14.0000000  0  8G02G04G05G08G10G15G24G29
 109938463.21947  85666314.22747  20920611.2054   20920612.7204   20920611.6474 
        56.000          50.000  
 124071255.49747  96678885.67347  23609985.1464   23609991.8294   23609986.3404 
        49.000          42.000  
 113461643.26547  88411663.72447  21591034.9734   21591038.2424   21591035.1964 
        54.000          49.000  
 130297109.14347 101530203.44147  24794719.4174   24794726.6964   24794721.3504 
        42.000          37.000  
 115608875.69747  90084823.00447  21999650.7844   21999654.5424   21999650.9944 
        52.000          46.000  
 110358764.42347  85993826.81247  21000586.7664   21000590.1444   21000586.8484 
        55.000          50.000  
 124249748.89447  96817960.08947  23643963.2604   23643968.4924   23643963.1384 
        45.000          40.000  
 120149185.49547  93622731.07247  22863636.7104   22863640.4394   22863636.8954 
        51.000          45.000  
 10  1 15 19  1 15.0000000  0  8G02G04G05G08G10G15G24G29
 109938371.09847  85666242.44447  20920593.7494   20920595.3134   20920594.0904 
        56.000          50.000  
 124072914.08647  96680178.07547  23610303.0014   23610306.1774   23610301.7964 
        49.000          42.000  
 113462680.72447  88412472.13247  21591232.5534   21591235.9644   21591232.6114 
        54.000          49.000  
 130296491.93947 101529722.50347  24794600.6034   24794608.1424   24794603.6284 
        41.000          37.000  
 115610661.39047  90086214.45147  21999990.0624   21999995.0714   21999990.8764 
        52.000          46.000  
 110356771.43447  85992273.83547  21000207.5064   21000211.2634   21000207.5974 
        55.000          50.000  
 124247469.38947  96816183.85147  23643529.5374   23643534.3944   23643529.4274 
        46.000          40.000  
 120146622.68947  93620734.08247  22863149.3164   22863151.9814   22863149.2834 
        51.000          45.000  
 10  1 15 19  1 16.0000000  0  8G02G04G05G08G10G15G24G29
 109938279.36247  85666170.96047  20920576.1074   20920578.0704   20920576.6404 
        56.000          50.000  
 124074572.94147  96681470.69147  23610617.1044   23610622.1754   23610617.4694 
        49.000          42.000  
 113463718.28947  88413280.62547  21591429.9264   21591432.7604   21591430.0734 
        54.000          48.000  
 130295875.14647 101529241.88647  24794483.8984   24794490.6594   24794485.9594 
        41.000          37.000  
 115612447.14647  90087605.94847  22000329.3194   22000333.9134   22000330.6554 
        52.000          46.000  
 110354779.01447  85990721.30147  20999828.4224   20999832.0254   20999828.4754 
        55.000          50.000  
 124245189.85047  96814407.59047  23643095.0854   23643101.2664   23643095.8374 
        45.000          40.000  
 120144060.32647  93618737.43747  22862660.4044   22862664.0174   22862661.6324 
        51.000          45.000  
 10  1 15 19  1 17.0000000  0  8G02G04G05G08G10G15G24G29
 109938187.91147  85666099.69747  20920558.8754   20920560.6184   20920559.2634 
        56.000          50.000  
 124076232.02847  96682763.48847  23610933.6294   23610938.0274   23610933.0514 
        49.000          42.000  
 113464755.87547  88414089.13447  21591627.1424   21591630.5084   21591627.5354 
        54.000          49.000  
 130295258.59847 101528761.46047  24794366.8634   24794374.6134   24794368.5214 
        41.000          37.000  
 115614232.87047  90088997.42047  22000669.1834   22000674.4314   22000670.5264 
        52.000          46.000  
 110352787.08347  85989169.14847  20999449.5254   20999452.7714   20999449.3604 
        55.000          50.000  
 124242910.17247  96812631.22047  23642661.7124   23642667.1734   23642662.1374 
        45.000          40.000  
 120141498.32147  93616741.07247  22862173.7694   22862177.4724   22862174.1094 
        51.000          45.000  
 10  1 15 19  1 18.0000000  0  8G02G04G05G08G10G15G24G29
 109938096.74647  85666028.65847  20920541.6524   20920543.0474   20920541.9254 
        56.000          50.000  
 124077891.30347  96684056.42947  23611248.9374   23611252.5034   23611248.8394 
        49.000          42.000  
 113465793.48447  88414897.66047  21591824.8554   21591828.1334   21591824.9024 
        54.000          49.000  
 130294642.37947 101528281.29147  24794249.4274   24794258.3044   24794251.2854 
        41.000          37.000  
 115616018.56047  90090388.86347  22001009.5204   22001013.6834   22001010.3524 
        52.000          46.000  
 110350795.63547  85987617.37047  20999070.2914   20999073.9444   20999070.4284 
        55.000          50.000  
 124240630.34447  96810854.73347  23642228.4054   23642232.8604   23642228.6944 
        46.000          40.000  
 120138936.68147  93614744.98947  22861686.9274   22861689.1244   22861686.7594 
        51.000          45.000  
 10  1 15 19  1 19.0000000  0  8G02G04G05G08G10G15G24G29
 109938006.00047  85665957.94747  20920524.2534   20920525.9344   20920524.6514 
        56.000          50.000  
 124079550.91847  96685349.63147  23611562.9414   23611569.9394   23611564.6034 
        49.000          42.000  
 113466831.22847  88415706.29247  21592022.1464   21592025.3174   21592022.3854 
        54.000          48.000  
 130294026.56647 101527801.43847  24794132.1954   24794141.3404   24794133.9674 
        41.000          37.000  
 115617804.33447  90091780.37447  22001349.3374   22001353.5004   22001350.2114 
        52.000          46.000  
 110348804.79247  85986066.06347  20998691.6804   20998695.0944   20998691.6124 
        55.000          50.000  
 124238350.51547  96809078.24447  23641794.1624   23641798.8584   23641794.9554 
        45.000          40.000  
 120136375.50847  93612749.27247  22861198.4734   22861202.1644   22861199.3024 
        50.000          45.000  
 10  1 15 19  1 20.0000000  0  8G02G04G05G08G10G15G24G29
 109937915.63447  85665887.53247  20920506.9844   20920508.8804   20920507.3574 
        56.000          50.000  
 124081210.82747  96686643.06247  23611880.0404   23611886.8004   23611880.2924 
        49.000          42.000  
 113467869.07647  88416515.00547  21592219.5984   21592222.7074   21592219.7854 
        54.000          49.000  
 130293411.11747 101527321.86947  24794015.5314   24794024.1294   24794016.7964 
        41.000          37.000  
 115619590.16747  90093171.93147  22001688.7114   22001693.7514   22001690.0954 
        52.000          46.000  
 110346814.53247  85984515.21247  20998313.1024   20998316.3034   20998312.8604 
        56.000          50.000  
 124236070.64447  96807301.72347  23641360.5104   23641365.6864   23641360.9764 
        46.000          40.000  
 120133814.79747  93610753.91147  22860711.1464   22860714.9184   22860712.0334 
        51.000          45.000  
 10  1 15 19  1 21.0000000  0  8G02G04G05G08G10G15G24G29
 109937825.38747  85665817.20947  20920489.7664   20920491.4894   20920490.1374 
        56.000          50.000  
 124082870.76847  96687936.52247  23612196.8154   23612201.3854   23612196.1044 
        49.000          42.000  
 113468906.78147  88417323.60447  21592417.4044   21592420.2504   21592417.1964 
        54.000          49.000  
 130292795.82147 101526842.41847  24793898.0134   24793907.1504   24793899.5054 
        41.000          37.000  
 115621375.80047  90094563.33247  22002029.2494   22002033.1504   22002029.9354 
        52.000          46.000  
 110344824.58747  85982964.60547  20997934.4284   20997937.4814   20997934.1734 
        55.000          50.000  
 124233790.45747  96805524.95547  23640926.6004   23640931.9914   23640927.1114 
        46.000          40.000  
 120131254.27047  93608758.69547  22860224.0234   22860227.3094   22860224.7534 
        51.000          45.000  
 10  1 15 19  1 22.0000000  0  8G02G04G05G08G10G15G24G29
 109937735.63847  85665747.27447  20920472.9054   20920474.3294   20920473.0384 
        56.000          50.000  
 124084531.12347  96689230.30647  23612513.1294   23612518.0954   23612512.0514 
        49.000          42.000  
 113469944.71047  88418132.38147  21592614.8394   21592617.7634   21592614.6984 
        54.000          49.000  
 130292181.02647 101526363.35747  24793782.3444   24793789.6044   24793782.4154 
        41.000          37.000  
 115623161.60347  90095954.86647  22002368.1294   22002372.5594   22002369.7884 
        52.000          46.000  
 110342835.32747  85981414.53147  20997555.8964   20997559.1354   20997555.5904 
        55.000          50.000  
 124231510.34147  96803748.24547  23640492.2144   23640497.2464   23640493.2394 
        46.000          40.000  
 120128694.31247  93606763.92147  22859737.0224   22859741.1554   22859737.5434 
        51.000          45.000  
 10  1 15 19  1 23.0000000  0  8G02G04G05G08G10G15G24G29
 109937646.17147  85665677.55847  20920456.0944   20920457.7634   20920456.0634 
        56.000          50.000  
 124086191.67347  96690524.23747  23612827.2584   23612832.0654   23612828.1104 
        49.000          42.000  
 113470982.64447  88418941.16247  21592812.4654   21592815.0104   21592812.2754 
        54.000          49.000  
 130291566.50947 101525884.51347  24793665.0474   24793673.0444   24793665.3514 
        42.000          37.000  
 115624947.35747  90097346.36347  22002708.8694   22002712.7734   22002709.5524 
        52.000          46.000  
 110340846.54847  85979864.83347  20997177.2114   20997180.5734   20997177.1534 
        55.000          50.000  
 124229230.08847  96801971.42647  23640058.2984   23640063.3164   23640059.3824 
        46.000          40.000  
 120126134.70147  93604769.42047  22859249.7514   22859253.9954   22859250.4954 
        51.000          45.000  
 10  1 15 19  1 24.0000000  0  8G02G04G05G08G10G15G24G29
 109937557.12347  85665608.17147  20920439.3874   20920440.4554   20920439.2714 
        56.000          50.000  
 124087852.55547  96691818.42847  23613145.0254   23613148.4394   23613144.1454 
        50.000          43.000  
 113472020.73347  88419750.06447  21593009.8284   21593012.7504   21593009.7154 
        54.000          49.000  
 130290952.41047 101525405.99447  24793548.5314   24793555.1584   24793548.5654 
        42.000          37.000  
 115626733.21047  90098737.93947  22003047.8524   22003052.8034   22003049.3994 
        52.000          46.000  
 110338858.38347  85978315.61447  20996799.1214   20996802.4394   20996798.8424 
        56.000          50.000  
 124226949.81447  96800194.59147  23639624.2874   23639629.8114   23639625.5314 
        46.000          40.000  
 120123575.57847  93602775.30347  22858763.7084   22858766.8904   22858763.4994 
        51.000          45.000  
 10  1 15 19  1 25.0000000  0  8G02G04G05G08G10G15G24G29
 109937468.32547  85665538.97847  20920421.9414   20920423.9104   20920422.5444 
        56.000          50.000  
 124089513.59047  96693112.73947  23613461.7094   23613465.2044   23613460.2164 
        50.000          42.000  
 113473058.79647  88420558.94547  21593207.3504   21593210.2864   21593207.2994 
        54.000          49.000  
 130290338.57847 101524927.68447  24793431.8184   24793439.1714   24793432.3024 
        41.000          37.000  
 115628518.98647  90100129.45447  22003387.6774   22003392.7244   22003389.1624 
        52.000          46.000  
 110336870.65947  85976766.73947  20996420.8664   20996424.1594   20996420.6474 
        55.000          50.000  
 124224669.39547  96798417.64347  23639190.6054   23639195.8114   23639191.7954 
        46.000          40.000  
 120121016.76947  93600781.42747  22858276.6524   22858279.5774   22858276.5684 
        51.000          45.000  
 10  1 15 19  1 26.0000000  0  8G02G04G05G08G10G15G24G29
 109937379.93647  85665470.10247  20920405.5264   20920406.8724   20920405.8374 
        57.000          50.000  
 124091174.97047  96694407.31647  23613776.2334   23613781.9074   23613776.3684 
        49.000          42.000  
 113474096.99647  88421367.93247  21593404.9264   21593407.5204   21593404.8774 
        54.000          49.000  
 130289725.12647 101524449.67047  24793315.9054   24793322.8144   24793315.7444 
        42.000          37.000  
 115630304.85147  90101521.03747  22003728.1554   22003732.6554   22003728.9694 
        52.000          46.000  
 110334883.54747  85975218.34147  20996042.5914   20996045.7234   20996042.5524 
        55.000          50.000  
 124222388.92347  96796640.65447  23638756.1774   23638761.5384   23638757.6464 
        46.000          40.000  
 120118458.44147  93598787.92647  22857789.3294   22857792.5524   22857789.6984 
        51.000          45.000  
 10  1 15 19  1 27.0000000  0  8G02G04G05G08G10G15G24G29
 109937291.80847  85665401.43047  20920388.7454   20920390.1054   20920389.1134 
        56.000          50.000  
 124092836.52847  96695702.03847  23614093.1724   23614096.2284   23614092.6044 
        49.000          42.000  
 113475135.18847  88422176.91347  21593602.5674   21593605.0974   21593602.4054 
        54.000          49.000  
 130289111.95847 101523971.87547  24793198.6754   24793206.5934   24793198.9384 
        42.000          37.000  
 115632090.63947  90102912.55947  22004067.0024   22004072.2844   22004068.7834 
        52.000          46.000  
 110332896.87247  85973670.28447  20995664.3224   20995667.9364   20995664.5124 
        55.000          50.000  
 124220108.31147  96794863.55647  23638321.4634   23638327.7124   23638323.5644 
        46.000          40.000  
 120115900.44847  93596794.68447  22857302.7284   22857305.4324   22857302.9214 
        50.000          45.000  
 10  1 15 19  1 28.0000000  0  8G02G04G05G08G10G15G24G29
 109937204.13447  85665333.11247  20920371.8314   20920373.4244   20920372.4764 
        56.000          50.000  
 124094498.43947  96696997.03147  23614409.3554   23614414.6214   23614408.9284 
        49.000          43.000  
 113476173.55447  88422986.03047  21593800.1894   21593803.0674   21593799.9044 
        54.000          48.000  
 130288499.23647 101523494.42947  24793081.9804   24793089.2474   24793082.2754 
        42.000          37.000  
 115633876.56347  90104304.18847  22004407.3004   22004411.7074   22004408.5634 
        52.000          46.000  
 110330910.85847  85972122.74347  20995286.4744   20995289.7434   20995286.5474 
        55.000          50.000  
 124217827.71447  96793086.47047  23637887.9324   23637894.2494   23637889.4264 
        45.000          40.000  
 120113342.97247  93594801.84747  22856815.6424   22856819.7774   22856816.2074 
        51.000          45.000  
 10  1 15 19  1 29.0000000  0  8G02G04G05G08G10G15G24G29
 109937116.67747  85665264.96147  20920355.2134   20920356.9284   20920355.8674 
        56.000          50.000  
 124096160.46547  96698292.11247  23614724.9474   23614729.8654   23614725.3134 
        49.000          43.000  
 113477211.87047  88423795.10647  21593997.3484   21594000.2384   21593997.4314 
        54.000          49.000  
 130287886.76647 101523017.17847  24792964.8794   24792971.4834   24792965.3634 
        42.000          37.000  
 115635662.37847  90105695.73047  22004747.1584   22004752.6224   22004748.3544 
        52.000          46.000  
 110328925.25147  85970575.51647  20994908.6714   20994911.8394   20994908.6294 
        55.000          50.000  
 124215546.90647  96791309.21847  23637454.2094   23637460.2734   23637455.2934 
        46.000          40.000  
 120110785.78347  93592809.22947  22856329.3464   22856332.5634   22856329.5324 
        51.000          45.000  
 10  1 15 19  1 30.0000000  0  8G02G04G05G08G10G15G24G29
 109937029.48347  85665197.01747  20920338.6814   20920340.1404   20920339.2804 
        57.000          50.000  
 124097822.66847  96699587.33547  23615041.3944   23615046.6374   23615041.7204 
        50.000          43.000  
 113478250.17147  88424604.17047  21594195.2074   21594198.2774   21594195.0294 
        54.000          49.000  
 130287274.56247 101522540.13547  24792850.1074   24792854.5294   24792849.0124 
        41.000          37.000  
 115637448.12647  90107087.22647  22005087.6734   22005092.0814   22005088.1154 
        52.000          46.000  
 110326940.11147  85969028.65447  20994531.1604   20994534.3234   20994530.8154 
        55.000          50.000  
 124213265.94547  96789531.84747  23637020.4224   23637026.3784   23637021.0354 
        46.000          40.000  
 120108228.93247  93590816.87947  22855842.5894   22855845.9794   22855842.9254 
        51.000          45.000  
 10  1 15 19  1 31.0000000  0  8G02G04G05G08G10G15G24G29
 109936942.78947  85665129.46247  20920322.3204   20920323.8234   20920322.9024 
        57.000          50.000  
 124099485.28147  96700882.88147  23615358.1684   23615361.3024   23615358.0484 
        49.000          43.000  
 113479288.70047  88425413.41447  21594393.1874   21594395.5574   21594392.6114 
        54.000          49.000  
 130286662.85947 101522063.48247  24792733.9884   24792738.3754   24792732.7804 
        42.000          37.000  
 115639234.05047  90108478.85347  22005427.5534   22005431.6664   22005427.9454 
        52.000          46.000  
 110324955.65347  85967482.32447  20994153.3544   20994156.3234   20994153.1014 
        55.000          50.000  
 124210985.05647  96787754.53047  23636586.2094   23636591.7644   23636586.5204 
        46.000          40.000  
 120105672.64747  93588824.97147  22855355.9304   22855359.1024   22855356.3304 
        50.000          45.000  
 10  1 15 19  1 32.0000000  0  8G02G04G05G08G10G15G24G29
 109936856.34747  85665062.10347  20920305.9154   20920307.1054   20920306.5384 
        57.000          50.000  
 124101148.07047  96702178.55747  23615674.0414   23615678.9484   23615674.4934 
        49.000          43.000  
 113480327.20947  88426222.64047  21594590.6174   21594593.1444   21594590.2454 
        54.000          49.000  
 130286051.40447 101521587.02147  24792616.9024   24792620.7234   24792616.3664 
        41.000          37.000  
 115641019.90847  90109870.42947  22005766.8984   22005771.4004   22005767.8024 
        52.000          46.000  
 110322971.65547  85965936.35247  20993775.7104   20993779.1974   20993775.4784 
        55.000          50.000  
 124208703.97947  96785977.06847  23636152.3914   23636158.0624   23636152.3814 
        46.000          40.000  
 120103116.67347  93586833.30347  22854869.2364   22854872.9044   22854869.8264 
        51.000          45.000  
 10  1 15 19  1 33.0000000  0  8G02G04G05G08G10G15G24G29
 109936770.30847  85664995.06047  20920289.4924   20920290.8834   20920290.2334 
        57.000          50.000  
 124102811.17347  96703474.48147  23615991.3154   23615996.2214   23615990.8654 
        49.000          43.000  
 113481365.84847  88427031.96947  21594788.5094   21594791.0484   21594787.8874 
        54.000          49.000  
 130285440.35747 101521110.87847  24792499.6904   24792503.3944   24792499.8074 
        42.000          37.000  
 115642805.83847  90111262.06447  22006106.6194   22006112.0254   22006107.6844 
        52.000          46.000  
 110320988.25647  85964390.84747  20993398.3684   20993401.5954   20993397.9994 
        55.000          50.000  
 124206422.89147  96784199.59747  23635719.1114   23635723.8394   23635718.2264 
        46.000          40.000  
 120100561.18647  93584842.01547  22854383.8944   22854387.5904   22854383.5834 
        51.000          45.000  
 10  1 15 19  1 34.0000000  0  8G02G04G05G08G10G15G24G29
 109936684.51247  85664928.20547  20920273.0134   20920274.5734   20920273.9564 
        56.000          50.000  
 124104474.42147  96704770.51947  23616307.2174   23616312.1334   23616307.3204 
        50.000          42.000  
 113482404.44847  88427841.26847  21594986.1494   21594988.3644   21594985.5384 
        54.000          49.000  
 130284829.57247 101520634.94147  24792382.8624   24792386.4534   24792383.3954 
        42.000          37.000  
 115644591.67747  90112653.62447  22006446.5434   22006451.3924   22006447.5784 
        52.000          46.000  
 110319005.28547  85962845.67447  20993021.2704   20993024.3734   20993020.6604 
        55.000          50.000  
 124204141.61347  96782421.97747  23635284.3614   23635289.5684   23635284.0774 
        46.000          40.000  
 120098006.00047  93582850.96347  22853897.2654   22853900.9884   22853897.3834 
        51.000          45.000  
 10  1 15 19  1 35.0000000  0  8G02G04G05G08G10G15G24G29
 109936599.09247  85664861.64347  20920257.0014   20920258.4134   20920257.6364 
        56.000          50.000  
 124106137.94047  96706066.76747  23616624.4694   23616627.9904   23616623.8604 
        49.000          42.000  
 113483443.15947  88428650.65247  21595183.7504   21595186.4264   21595183.2264 
        54.000          49.000  
 130284219.14647 101520159.28547  24792265.7804   24792271.2534   24792267.2564 
        42.000          36.000  
 115646377.57747  90114045.23547  22006786.1354   22006791.2194   22006787.4484 
        52.000          46.000  
 110317022.88947  85961300.95047  20992643.6954   20992646.8894   20992643.3334 
        55.000          50.000  
 124201860.28247  96780644.31547  23634850.0374   23634856.2494   23634849.8964 
        46.000          40.000  
 120095451.26147  93580860.25847  22853411.3864   22853414.1954   22853411.2834 
        51.000          45.000  
 10  1 15 19  1 36.0000000  0  8G02G04G05G08G10G15G24G29
 109936514.03647  85664795.36647  20920240.5744   20920241.7794   20920241.4144 
        56.000          50.000  
 124107801.75147  96707363.24247  23616940.9164   23616945.2224   23616940.6304 
        49.000          42.000  
 113484481.95647  88429460.10547  21595381.7454   21595384.0544   21595381.0164 
        54.000          49.000  
 130283609.11147 101519683.93547  24792149.5134   24792155.8604   24792151.2584 
        42.000          36.000  
 115648163.50947  90115436.87147  22007126.5594   22007130.5834   22007127.2524 
        52.000          46.000  
 110315041.05547  85959756.66547  20992266.5014   20992269.9704   20992266.1314 
        55.000          50.000  
 124199578.89347  96778866.61147  23634416.1684   23634421.6854   23634415.7034 
        46.000          40.000  
 120092896.94947  93578869.88647  22852925.1284   22852928.7604   22852925.3284 
        51.000          45.000  
 10  1 15 19  1 37.0000000  0  8G02G04G05G08G10G15G24G29
 109936429.26247  85664729.31047  20920224.3404   20920225.9244   20920225.1664 
        56.000          50.000  
 124109465.73447  96708659.85347  23617256.9764   23617262.3124   23617257.5164 
        49.000          42.000  
 113485520.75047  88430269.55647  21595579.0514   21595581.2164   21595578.7314 
        54.000          49.000  
 130282999.33947 101519208.78847  24792032.8024   24792040.0894   24792035.2994 
        42.000          36.000  
 115649949.40147  90116828.47547  22007466.3894   22007471.0784   22007467.0714 
        53.000          46.000  
 110313059.69747  85958212.75047  20991889.3384   20991892.7844   20991889.0264 
        55.000          50.000  
 124197297.36047  96777088.79447  23633981.9794   23633988.1464   23633981.6304 
        46.000          40.000  
 120090342.99447  93576879.79347  22852438.5284   22852442.9654   22852439.2164 
        51.000          45.000  
 10  1 15 19  1 38.0000000  0  8G02G04G05G08G10G15G24G29
 109936344.82547  85664663.51547  20920208.5454   20920209.7914   20920208.9494 
        56.000          50.000  
 124111129.97447  96709956.66447  23617573.8134   23617578.9494   23617574.4034 
        50.000          43.000  
 113486559.61747  88431079.06347  21595776.7174   21595779.6914   21595776.4454 
        54.000          49.000  
 130282389.91447 101518733.91047  24791917.0544   24791925.7724   24791919.3244 
        41.000          37.000  
 115651735.29447  90118220.08047  22007805.7164   22007810.3864   22007807.0034 
        52.000          46.000  
 110311078.87847  85956669.25547  20991512.6184   20991515.9054   20991512.0644 
        55.000          50.000  
 124195015.72647  96775310.89847  23633547.9484   23633553.5874   23633547.5124 
        46.000          40.000  
 120087789.44347  93574890.01247  22851953.5384   22851957.6044   22851953.2384 
        50.000          45.000  
 10  1 15 19  1 39.0000000  0  8G02G04G05G08G10G15G24G29
 109936260.80547  85664598.04447  20920192.2674   20920194.0654   20920192.7984 
        56.000          50.000  
 124112794.54847  96711253.73247  23617889.4254   23617895.6064   23617891.1724 
        49.000          42.000  
 113487598.62747  88431888.68247  21595974.6764   21595977.3024   21595974.1044 
        54.000          49.000  
 130281780.91947 101518259.36947  24791802.0534   24791811.1914   24791803.2664 
        42.000          37.000  
 115653521.27647  90119611.75547  22008146.1964   22008150.4124   22008146.9174 
        52.000          46.000  
 110309098.67247  85955126.23947  20991135.7084   20991138.9764   20991135.2244 
        55.000          50.000  
 124192734.09747  96773533.00647  23633113.9914   23633119.4694   23633113.4394 
        46.000          40.000  
 120085236.36747  93572900.60047  22851467.4114   22851470.5804   22851467.3904 
        50.000          45.000  
 10  1 15 19  1 40.0000000  0  8G02G04G05G08G10G15G24G29
 109936177.06147  85664532.79047  20920176.4424   20920177.9994   20920176.7754 
        56.000          50.000  
 124114459.30847  96712550.94847  23618208.4844   23618211.6594   23618207.9674 
        49.000          43.000  
 113488637.63547  88432698.29847  21596171.7474   21596174.5214   21596171.7844 
        54.000          49.000  
 130281172.19647 101517785.04247  24791686.9924   24791694.9984   24791687.7114 
        42.000          37.000  
 115655307.20147  90121003.38547  22008485.9174   22008490.4514   22008486.8314 
        52.000          46.000  
 110307118.93947  85953583.59047  20990759.2374   20990762.3944   20990758.5804 
        55.000          50.000  
 124190452.30347  96771754.98447  23632680.2244   23632686.0274   23632679.3654 
        46.000          40.000  
 120082683.64247  93570911.46347  22850980.8814   22850984.7584   22850981.6034 
        51.000          45.000  
 10  1 15 19  1 41.0000000  0  8G02G04G05G08G10G15G24G29
 109936093.65047  85664467.79447  20920160.5124   20920162.2764   20920160.8694 
        56.000          50.000  
 124116124.34047  96713848.37547  23618523.0294   23618530.1844   23618524.7024 
        50.000          42.000  
 113489676.70247  88433507.96247  21596370.3294   21596372.5884   21596369.4574 
        54.000          49.000  
 130280563.81847 101517310.98247  24791571.3574   24791579.0124   24791571.8724 
        42.000          37.000  
 115657093.14147  90122395.02747  22008825.5044   22008830.7484   22008826.7214 
        52.000          46.000  
 110305139.73547  85952041.35547  20990382.5964   20990385.9144   20990381.9914 
        55.000          50.000  
 124188170.42047  96769976.89547  23632245.3544   23632251.8504   23632245.3124 
        46.000          40.000  
 120080131.32447  93568922.64547  22850495.8054   22850499.8434   22850495.9314 
        51.000          45.000  
 10  1 15 19  1 42.0000000  0  8G02G04G05G08G10G15G24G29
 109936010.60047  85664403.08047  20920144.8794   20920146.3804   20920145.0434 
        56.000          50.000  
 124117789.62547  96715145.99647  23618840.8864   23618844.7544   23618841.4354 
        49.000          42.000  
 113490715.85047  88434317.68747  21596567.8694   21596570.8784   21596567.1714 
        54.000          49.000  
 130279955.78847 101516837.19447  24791456.6704   24791462.7754   24791456.4944 
        42.000          37.000  
 115658879.10247  90123786.68547  22009165.9354   22009169.8924   22009166.6144 
        52.000          46.000  
 110303161.08347  85950499.55047  20990006.0614   20990009.1904   20990005.4564 
        55.000          50.000  
 124185888.47647  96768198.75647  23631810.9214   23631817.6124   23631811.2494 
        46.000          40.000  
 120077579.42347  93566934.15247  22850010.3014   22850013.9604   22850010.2764 
        51.000          45.000  
 10  1 15 19  1 43.0000000  0  8G02G04G05G08G10G15G24G29
 109935927.87347  85664338.61747  20920128.9834   20920130.6554   20920129.3244 
        56.000          50.000  
 124119455.13847  96716443.79247  23619157.4854   23619161.4994   23619158.1104 
        50.000          42.000  
 113491755.04447  88435127.44947  21596765.6434   21596768.0374   21596764.9304 
        54.000          49.000  
 130279348.13947 101516363.70347  24791341.9484   24791347.1004   24791341.2074 
        43.000          37.000  
 115660665.06947  90125178.34647  22009505.2794   22009510.4894   22009506.5094 
        52.000          46.000  
 110301182.94747  85948958.14647  20989629.5424   20989633.0474   20989629.0474 
        55.000          50.000  
 124183606.41347  96766420.52747  23631376.7294   23631382.5524   23631377.1374 
        46.000          40.000  
 120075027.92347  93564945.97247  22849524.9594   22849527.7214   22849524.6774 
        51.000          45.000  
 10  1 15 19  1 44.0000000  0  8G02G04G05G08G10G15G24G29
 109935845.47247  85664274.40647  20920113.0914   20920115.0374   20920113.6314 
        56.000          50.000  
 124121120.89047  96717741.78147  23619474.1794   23619480.5054   23619475.0144 
        50.000          42.000  
 113492794.30647  88435937.26347  21596963.3084   21596965.6784   21596962.7254 
        54.000          49.000  
 130278740.78247 101515890.43847  24791226.6784   24791231.1794   24791225.8204 
        42.000          37.000  
 115662451.03447  90126570.00547  22009845.0744   22009850.0534   22009846.2794 
        52.000          46.000  
 110299205.33647  85947417.15147  20989253.2684   20989256.5784   20989252.8504 
        55.000          50.000  
 124181324.25047  96764642.21847  23630942.8334   23630947.8724   23630942.9254 
        46.000          40.000  
 120072476.81147  93562958.09147  22849038.9854   22849043.2264   22849039.1824 
        51.000          45.000  
 10  1 15 19  1 45.0000000  0  8G02G04G05G08G10G15G24G29
 109935763.42647  85664210.47247  20920097.7474   20920099.5104   20920097.9634 
        56.000          50.000  
 124122786.89747  96719039.96347  23619792.5874   23619797.2924   23619792.0334 
        49.000          42.000  
 113493833.63947  88436747.13047  21597161.0114   21597163.5304   21597160.5544 
        54.000          49.000  
 130278133.78447 101515417.45347  24791110.7294   24791116.0994   24791110.2654 
        43.000          37.000  
 115664237.03147  90127961.69147  22010185.1364   22010189.5124   22010186.0804 
        52.000          46.000  
 110297228.27047  85945876.58047  20988876.9224   20988879.9974   20988876.5744 
        55.000          50.000  
 124179042.02847  96762863.86447  23630508.5634   23630513.3454   23630508.7534 
        46.000          40.000  
 120069926.14147  93560970.55647  22848553.9554   22848557.2784   22848553.7844 
        50.000          45.000  
 10  1 15 19  1 46.0000000  0  8G02G04G05G08G10G15G24G29
 109935681.70247  85664146.78947  20920082.2594   20920083.8324   20920082.4244 
        57.000          50.000  
 124124453.15947  96720338.34747  23620108.6974   23620113.4344   23620109.2104 
        50.000          42.000  
 113494873.03147  88437557.04447  21597359.0134   21597361.7564   21597358.3564 
        55.000          49.000  
 130277527.14247 101514944.74547  24790995.5744   24791001.1554   24790995.0724 
        42.000          37.000  
 115666023.02547  90129353.37447  22010524.9094   22010529.9904   22010525.9614 
        52.000          46.000  
 110295251.73147  85944336.42147  20988500.8824   20988504.1364   20988500.4604 
        56.000          50.000  
 124176759.70747  96761085.43547  23630074.0114   23630079.1614   23630074.6674 
        46.000          40.000  
 120067375.86347  93558983.32747  22848069.3014   22848071.7714   22848068.5974 
        51.000          45.000  
 10  1 15 19  1 47.0000000  0  8G02G04G05G08G10G15G24G29
 109935600.37747  85664083.41947  20920066.4894   20920068.1744   20920066.9814 
        56.000          50.000  
 124126119.74447  96721636.98447  23620427.6324   23620430.3954   23620426.4194 
        50.000          42.000  
 113495912.53447  88438367.04647  21597556.5004   21597559.2374   21597556.2504 
        54.000          49.000  
 130276920.90047 101514472.34847  24790879.7074   24790886.1174   24790879.6824 
        42.000          37.000  
 115667809.08447  90130745.10747  22010864.4634   22010869.4774   22010865.8334 
        52.000          46.000  
 110293275.77847  85942796.71947  20988124.6294   20988128.0274   20988124.5074 
        55.000          50.000  
 124174477.35347  96759306.97947  23629639.3644   23629644.8534   23629640.5034 
        46.000          40.000  
 120064826.04647  93556996.45847  22847583.5514   22847586.8114   22847583.3004 
        51.000          45.000  
 10  1 15 19  1 48.0000000  0  8G02G04G05G08G10G15G24G29
 109935519.23147  85664020.18747  20920051.1844   20920053.0344   20920051.6254 
        56.000          50.000  
 124127786.40447  96722935.67747  23620742.0224   23620747.1524   23620743.6354 
        49.000          42.000  
 113496951.94547  88439176.97647  21597754.7894   21597756.9504   21597754.1254 
        54.000          49.000  
 130276314.82247 101514000.07747  24790764.2534   24790769.4474   24790764.5374 
        42.000          37.000  
 115669595.00147  90132136.73047  22011204.6804   22011209.7274   22011205.6654 
        52.000          46.000  
 110291300.20647  85941257.31147  20987748.6464   20987752.2424   20987748.5844 
        55.000          50.000  
 124172194.76147  96757528.33947  23629204.9024   23629210.6504   23629206.2824 
        46.000          40.000  
 120062276.47947  93555009.78047  22847098.1844   22847101.4314   22847098.1434 
        50.000          45.000  
 10  1 15 19  1 49.0000000  0  8G02G04G05G08G10G15G24G29
 109935438.55947  85663957.32547  20920035.6724   20920037.6474   20920036.3284 
        56.000          50.000  
 124129453.43747  96724234.66447  23621061.8804   23621064.6044   23621060.7404 
        49.000          42.000  
 113497991.55747  88439987.06347  21597952.3044   21597954.8094   21597951.9904 
        55.000          49.000  
 130275709.22947 101513528.18647  24790648.0074   24790654.2934   24790648.7824 
        42.000          37.000  
 115671381.05547  90133528.46047  22011544.2354   22011549.8724   22011545.5514 
        52.000          46.000  
 110289325.29747  85939718.42247  20987373.0044   20987376.5384   20987372.7784 
        55.000          50.000  
 124169912.19247  96755749.71447  23628770.3904   23628776.4534   23628772.0874 
        46.000          40.000  
 120059727.45347  93553023.52547  22846612.7354   22846616.5754   22846613.1164 
        51.000          45.000  
 10  1 15 19  1 50.0000000  0  8G02G04G05G08G10G15G24G29
 109935358.16647  85663894.68247  20920020.3024   20920022.4054   20920021.0274 
        56.000          50.000  
 124131120.66347  96725533.80447  23621377.9654   23621382.5414   23621378.0774 
        49.000          42.000  
 113499031.16147  88440797.14547  21598150.4844   21598152.4284   21598149.8244 
        54.000          49.000  
 130275103.95847 101513056.54647  24790532.8844   24790538.1414   24790533.4804 
        42.000          37.000  
 115673167.06847  90134920.15947  22011884.7544   22011889.9224   22011885.4044 
        52.000          46.000  
 110287350.87247  85938179.90947  20986997.5484   20987000.9844   20986997.1064 
        55.000          50.000  
 124167629.49047  96753970.98747  23628336.1084   23628342.5774   23628337.5904 
        46.000          40.000  
 120057178.77447  93551037.54447  22846128.2064   22846132.4824   22846128.1794 
        51.000          45.000  
 10  1 15 19  1 51.0000000  0  8G02G04G05G08G10G15G24G29
 109935278.09047  85663832.28547  20920005.3354   20920007.1014   20920005.8044 
        56.000          50.000  
 124132788.12447  96726833.12547  23621693.6474   23621698.8914   23621695.2474 
        49.000          42.000  
 113500070.82247  88441607.27247  21598348.0674   21598350.9574   21598347.7014 
        55.000          49.000  
 130274498.95747 101512585.11847  24790418.8114   24790423.4874   24790418.2314 
        42.000          37.000  
 115674953.06647  90136311.84547  22012223.8684   22012229.0784   22012225.2444 
        52.000          46.000  
 110285376.95547  85936641.79147  20986621.7834   20986624.8684   20986621.5294 
        56.000          50.000  
 124165346.67147  96752192.16747  23627901.0634   23627907.8264   23627903.0374 
        46.000          40.000  
 120054630.47947  93549051.85847  22845643.5444   22845646.9944   22845643.2004 
        50.000          45.000  
 10  1 15 19  1 52.0000000  0  8G02G04G05G08G10G15G24G29
 109935198.29347  85663770.10547  20919990.1484   20919991.9234   20919990.6024 
        56.000          50.000  
 124134455.79047  96728132.60147  23622013.2744   23622016.1214   23622012.5024 
        49.000          42.000  
 113501110.50147  88442417.41147  21598546.0194   21598548.0454   21598545.6264 
        54.000          49.000  
 130273894.26147 101512113.92847  24790302.4234   24790307.4944   24790302.7314 
        41.000          37.000  
 115676739.02147  90137703.49947  22012562.9834   22012568.4984   22012564.9214 
        52.000          46.000  
 110283403.50847  85935104.03947  20986246.4724   20986249.7874   20986246.1604 
        56.000          50.000  
 124163063.72147  96750413.24547  23627467.1284   23627473.9234   23627468.4934 
        46.000          40.000  
 120052082.55047  93547066.46247  22845158.6064   22845162.8254   22845158.4124 
        50.000          45.000  
 10  1 15 19  1 53.0000000  0  8G02G04G05G08G10G15G24G29
 109935119.06047  85663708.36547  20919974.9834   20919976.7364   20919975.5214 
        56.000          50.000  
 124136123.93347  96729432.45447  23622328.7694   23622334.7424   23622329.6794 
        49.000          42.000  
 113502150.45547  88443227.76447  21598743.7844   21598746.3664   21598743.5454 
        54.000          49.000  
 130273290.15147 101511643.19547  24790187.4644   24790193.0154   24790187.6334 
        42.000          37.000  
 115678525.20947  90139095.33447  22012903.5434   22012908.9124   22012904.7344 
        52.000          46.000  
 110281430.81747  85933566.87947  20985870.7404   20985874.0034   20985870.7954 
        55.000          50.000  
 124160780.89447  96748634.42047  23627032.7824   23627038.9624   23627034.0414 
        46.000          40.000  
 120049535.23647  93545081.54047  22844673.2674   22844677.0564   22844673.7104 
        51.000          45.000  
 10  1 15 19  1 54.0000000  0  8G02G04G05G08G10G15G24G29
 109935039.96247  85663646.73147  20919959.9594   20919961.8214   20919960.5064 
        56.000          50.000  
 124137792.13247  96730732.34947  23622647.7644   23622651.1364   23622647.0394 
        49.000          42.000  
 113503190.27847  88444038.01747  21598941.7914   21598944.2914   21598941.4434 
        54.000          49.000  
 130272686.16447 101511172.55947  24790073.2664   24790077.9814   24790072.7144 
        42.000          37.000  
 115680311.20947  90140487.02447  22013243.4754   22013248.7794   22013244.6494 
        52.000          46.000  
 110279458.46847  85932029.98347  20985495.4374   20985498.9014   20985495.4454 
        55.000          50.000  
 124158497.78547  96746855.37447  23626598.7884   23626604.4274   23626599.5234 
        46.000          40.000  
 120046988.14047  93543096.79047  22844188.9044   22844193.0184   22844189.0054 
        50.000          45.000  
 10  1 15 19  1 55.0000000  0  8G02G04G05G08G10G15G24G29
 109934961.23747  85663585.38747  20919944.9844   20919946.6584   20919945.4734 
        56.000          50.000  
 124139460.59747  96732032.45047  23622963.1374   23622968.9684   23622964.4504 
        49.000          42.000  
 113504230.19347  88444848.34047  21599139.5854   21599142.0784   21599139.4234 
        54.000          49.000  
 130272082.58147 101510702.23747  24789958.0634   24789963.4084   24789958.1304 
        42.000          37.000  
 115682097.24247  90141878.73647  22013583.4094   22013588.8474   22013584.4344 
        52.000          46.000  
 110277486.67947  85930493.52547  20985120.4244   20985123.8344   20985120.2034 
        55.000          50.000  
 124156214.60547  96745076.27447  23626163.8724   23626169.8094   23626165.0544 
        46.000          40.000  
 120044441.47547  93541112.37547  22843703.8514   22843708.0564   22843704.3954 
        51.000          45.000  
 10  1 15 19  1 56.0000000  0  8G02G04G05G08G10G15G24G29
 109934882.85747  85663524.31047  20919930.0774   20919931.9394   20919930.4724 
        56.000          50.000  
 124141129.30747  96733332.74247  23623281.5654   23623287.5314   23623281.8434 
        49.000          42.000  
 113505270.17147  88445658.71247  21599337.3374   21599339.9694   21599337.4144 
        54.000          49.000  
 130271479.32947 101510232.17347  24789843.1964   24789848.8034   24789843.4214 
        42.000          37.000  
 115683883.29047  90143270.46147  22013923.2954   22013928.2164   22013924.1784 
        52.000          46.000  
 110275515.42747  85928957.48447  20984745.0314   20984748.2474   20984745.0334 
        55.000          50.000  
 124153931.34947  96743297.11447  23625729.2184   23625735.0724   23625730.5254 
        47.000          40.000  
 120041895.22747  93539128.28647  22843219.6724   22843223.0924   22843219.9604 
        51.000          45.000  
 10  1 15 19  1 57.0000000  0  8G02G04G05G08G10G15G24G29
 109934804.87947  85663463.54747  20919915.3564   20919916.8374   20919915.5674 
        56.000          50.000  
 124142798.34847  96734633.29747  23623599.4844   23623604.1264   23623599.3984 
        49.000          42.000  
 113506310.29247  88446469.19847  21599535.3314   21599537.7804   21599535.4534 
        54.000          49.000  
 130270876.48847 101509762.42847  24789727.8364   24789734.2704   24789728.5054 
        42.000          37.000  
 115685669.42947  90144662.25647  22014263.3374   22014268.5994   22014263.9564 
        52.000          46.000  
 110273544.77847  85927421.91347  20984370.2044   20984373.1384   20984370.0124 
        55.000          50.000  
 124151648.07647  96741517.94147  23625294.6374   23625300.4384   23625295.7974 
        46.000          40.000  
 120039349.46247  93537144.57347  22842735.5534   22842738.6564   22842735.5224 
        51.000          45.000  
 10  1 15 19  1 58.0000000  0  8G02G04G05G08G10G15G24G29
 109934727.20047  85663403.01847  20919900.6144   20919902.3854   20919900.7464 
        56.000          50.000  
 124144467.56647  96735933.98547  23623917.7794   23623921.7214   23623917.1064 
        49.000          42.000  
 113507350.43047  88447279.69547  21599732.7964   21599736.0284   21599733.4104 
        55.000          49.000  
 130270273.93447 101509292.90447  24789612.7154   24789619.3934   24789613.6494 
        43.000          37.000  
 115687455.52447  90146054.01747  22014603.1124   22014608.3064   22014603.8404 
        52.000          46.000  
 110271574.62347  85925886.72947  20983995.1474   20983998.4234   20983995.0884 
        55.000          50.000  
 124149364.67147  96739738.66647  23624860.8454   23624866.4654   23624861.1014 
        46.000          40.000  
 120036804.04947  93535161.13747  22842250.7394   22842254.0514   22842251.1134 
        51.000          45.000  
 10  1 15 19  1 59.0000000  0  8G02G04G05G08G10G15G24G29
 109934649.83947  85663342.73647  20919885.4704   20919887.8184   20919886.0344 
        56.000          50.000  
 124146137.04547  96737234.87647  23624234.1104   23624239.6444   23624234.8704 
        49.000          42.000  
 113508390.60647  88448090.22247  21599930.9904   21599933.9544   21599931.4184 
        54.000          49.000  
 130269671.72747 101508823.65047  24789498.9634   24789504.6424   24789499.1554 
        42.000          37.000  
 115689241.60547  90147445.76647  22014943.5974   22014947.6754   22014943.8244 
        52.000          46.000  
 110269604.97647  85924351.94047  20983620.3534   20983623.8264   20983620.2274 
        55.000          50.000  
 124147081.15047  96737959.29847  23624426.3934   23624432.1774   23624426.6624 
        46.000          40.000  
 120034259.02547  93533178.00147  22841766.0544   22841770.4074   22841766.8624 
        51.000          45.000  
 10  1 15 19  2  0.0000000  0  8G02G04G05G08G10G15G24G29
 109934572.82647  85663282.72647  20919871.1664   20919872.9644   20919871.3274 
        56.000          50.000  
 124147806.76747  96738535.95647  23624552.7294   23624556.6704   23624552.5704 
        49.000          42.000  
 113509430.85647  88448900.80747  21600128.9544   21600131.9294   21600129.4074 
        54.000          49.000  
 130269069.87547 101508354.67347  24789384.9294   24789390.2534   24789384.8084 
        43.000          37.000  
 115691027.70547  90148837.53347  22015282.8574   22015287.8554   22015283.8004 
        52.000          46.000  
 110267635.87247  85922817.57547  20983245.5864   20983248.9124   20983245.5274 
        55.000          50.000  
 124144797.54647  96736179.86847  23623991.7854   23623997.1774   23623991.9584 
        46.000          40.000  
 120031714.42347  93531195.19547  22841282.0194   22841285.9594   22841282.7414 
        51.000          45.000  
 10  1 15 19  2  1.0000000  0  8G02G04G05G08G10G15G24G29
 109934496.14747  85663222.97447  20919856.4984   20919858.3174   20919856.7174 
        56.000          50.000  
 124149476.72747  96739837.22347  23624868.7944   23624873.9964   23624870.3294 
        49.000          42.000  
 113510471.15947  88449711.43447  21600326.8584   21600330.0744   21600327.3694 
        54.000          49.000  
 130268468.34047 101507885.94347  24789270.7634   24789276.4474   24789270.6374 
        43.000          37.000  
 115692813.81647  90150229.30847  22015622.8514   22015628.0604   22015623.7374 
        52.000          46.000  
 110265667.29147  85921283.61947  20982871.1604   20982874.3284   20982870.9894 
        55.000          50.000  
 124142513.87047  96734400.38047  23623557.3844   23623562.6154   23623557.3574 
        46.000          40.000  
 120029170.22147  93529212.70147  22840798.6684   22840802.1034   22840798.6184 
        51.000          45.000  
 10  1 15 19  2  2.0000000  0  8G02G04G05G08G10G15G24G29
 109934419.80947  85663163.48947  20919842.0834   20919843.6514   20919842.1794 
        56.000          50.000  
 124151146.96747  96741138.70647  23625189.0934   23625192.6694   23625188.1894 
        49.000          42.000  
 113511511.53647  88450522.11647  21600524.9084   21600527.5764   21600525.2704 
        54.000          49.000  
 130267867.14147 101507417.47447  24789156.1484   24789162.0884   24789156.5164 
        43.000          37.000  
 115694599.93647  90151621.08847  22015962.8884   22015967.3824   22015963.6694 
        52.000          46.000  
 110263699.24447  85919750.07647  20982496.8264   20982499.6454   20982496.5294 
        56.000          50.000  
 124140230.10047  96732620.82047  23623122.7504   23623128.4894   23623122.6734 
        46.000          40.000  
 120026626.44047  93527230.53447  22840314.4484   22840317.9634   22840314.6374 
        51.000          45.000  
 10  1 15 19  2  3.0000000  0  8G02G04G05G08G10G15G24G29
 109934343.76047  85663104.22847  20919827.6344   20919829.4634   20919827.7294 
        56.000          50.000  
 124152817.37847  96742440.32547  23625507.1014   23625512.2034   23625506.1744 
        49.000          43.000  
 113512551.93347  88451332.81647  21600722.6744   21600725.6354   21600723.2534 
        55.000          49.000  
 130267266.25347 101506949.24747  24789041.1644   24789048.6164   24789042.5564 
        43.000          37.000  
 115696386.01547  90153012.83847  22016303.2454   22016307.6024   22016303.5364 
        52.000          46.000  
 110261731.67747  85918216.90847  20982122.4994   20982125.5614   20982122.1164 
        55.000          50.000  
 124137946.16347  96730841.13047  23622688.4404   23622694.0674   23622687.9214 
        47.000          40.000  
 120024083.01247  93525248.64447  22839829.7644   22839833.6364   22839830.7364 
        51.000          45.000  
 10  1 15 19  2  4.0000000  0  8G02G04G05G08G10G15G24G29
 109934268.12547  85663045.29147  20919813.2644   20919814.9054   20919813.4064 
        56.000          50.000  
 124154488.10747  96743742.18947  23625822.9014   23625829.3294   23625824.2574 
        49.000          42.000  
 113513592.45047  88452143.60947  21600921.0064   21600923.7524   21600921.2694 
        55.000          49.000  
 130266665.80347 101506481.36347  24788927.3694   24788933.8234   24788928.4114 
        43.000          37.000  
 115698172.17447  90154404.64947  22016643.1284   22016647.6294   22016643.4804 
        52.000          46.000  
 110259764.72547  85916684.21747  20981748.0614   20981751.2724   20981747.7764 
        55.000          50.000  
 124135662.23247  96729061.44547  23622253.8434   23622259.6584   23622253.2344 
        46.000          40.000  
 120021540.06247  93523267.12647  22839346.7494   22839350.3254   22839346.8534 
        51.000          45.000  
 10  1 15 19  2  5.0000000  0  8G02G04G05G08G10G15G24G29
 109934192.75947  85662986.56347  20919798.8154   20919800.7094   20919799.1394 
        56.000          50.000  
 124156159.04347  96745044.21747  23626143.7794   23626147.4774   23626142.3564 
        49.000          42.000  
 113514632.96647  88452954.40047  21601118.9114   21601121.9164   21601119.2074 
        54.000          49.000  
 130266065.59547 101506013.66847  24788812.7934   24788818.9194   24788814.1424 
        43.000          37.000  
 115699958.27247  90155796.41447  22016982.4964   22016987.1454   22016983.3214 
        52.000          46.000  
 110257798.24147  85915151.89147  20981373.9204   20981376.9324   20981373.5674 
        55.000          50.000  
 124133378.14447  96727281.63947  23621819.5694   23621824.8834   23621818.5894 
        46.000          40.000  
 120018997.46147  93521285.87647  22838862.2494   22838866.1944   22838863.1694 
        51.000          45.000  
 10  1 15 19  2  6.0000000  0  8G02G04G05G08G10G15G24G29
 109934117.77947  85662928.13747  20919784.5804   20919786.2484   20919784.9274 
        56.000          50.000  
 124157830.24447  96746346.45247  23626458.9114   23626465.2304   23626460.5594 
        49.000          42.000  
 113515673.59147  88453765.27847  21601316.7364   21601319.8894   21601317.1114 
        54.000          49.000  
 130265465.78547 101505546.28447  24788698.8364   24788704.2204   24788699.9264 
        43.000          37.000  
 115701744.43147  90157188.22747  22017322.0774   22017327.0174   22017323.2154 
        52.000          46.000  
 110255832.34347  85913620.02347  20980999.6584   20981002.9044   20980999.5404 
        55.000          50.000  
 124131094.01547  96725501.80047  23621384.8424   23621389.4264   23621384.0564 
        46.000          40.000  
 120016455.31447  93519304.98347  22838379.1344   22838382.2374   22838379.4414 
        51.000          45.000  
 10  1 15 19  2  7.0000000  0  8G02G04G05G08G10G15G24G29
 109934043.08447  85662869.93447  20919770.2654   20919772.2854   20919770.7534 
        56.000          50.000  
 124159501.64047  96747648.84447  23626778.5234   23626783.8664   23626778.6504 
        49.000          42.000  
 113516714.22447  88454576.15947  21601514.6794   21601518.0384   21601515.0034 
        54.000          49.000  
 130264866.28147 101505079.14047  24788585.1174   24788589.9894   24788585.8094 
        43.000          37.000  
 115703530.54347  90158580.00347  22017661.7824   22017667.5414   22017663.0504 
        52.000          46.000  
 110253866.92247  85912088.52647  20980625.5584   20980629.2134   20980625.5404 
        55.000          50.000  
 124128809.73847  96723721.84747  23620949.7334   23620954.6614   23620949.5304 
        46.000          40.000  
 120013913.51947  93517324.36347  22837895.1954   22837898.8564   22837895.8274 
        51.000          45.000  
 10  1 15 19  2  8.0000000  0  8G02G04G05G08G10G15G24G29
 109933968.75647  85662812.01647  20919756.5454   20919757.9274   20919756.6784 
        56.000          50.000  
 124161173.33347  96748951.46447  23627096.0394   23627101.2484   23627096.5964 
        49.000          42.000  
 113517754.94647  88455387.11147  21601713.2404   21601715.6994   21601712.9654 
        54.000          49.000  
 130264267.11847 101504612.26047  24788470.9044   24788476.7914   24788471.7124 
        43.000          37.000  
 115705316.68547  90159971.80247  22018002.2954   22018007.0014   22018002.8904 
        52.000          46.000  
 110251902.05747  85910557.46247  20980251.8574   20980254.8044   20980251.5584 
        55.000          50.000  
 124126525.40447  96721941.84747  23620514.7904   23620519.6214   23620514.8564 
        46.000          40.000  
 120011372.15847  93515344.07947  22837410.9074   22837415.7444   22837412.2074 
        51.000          45.000  
 10  1 15 19  2  9.0000000  0  8G02G04G05G08G10G15G24G29
 109933894.79147  85662754.38147  20919742.1404   20919743.8494   20919742.7164 
        56.000          50.000  
 124162845.31347  96750254.30747  23627415.3214   23627419.5884   23627414.6364 
        49.000          42.000  
 113518795.76447  88456198.13747  21601910.8914   21601914.1124   21601910.9564 
        54.000          49.000  
 130263668.34847 101504145.68547  24788356.9244   24788362.6194   24788357.8444 
        42.000          37.000  
 115707102.87547  90161363.63947  22018342.5014   22018347.4694   22018342.7384 
        52.000          46.000  
 110249937.76247  85909026.84247  20979877.8104   20979881.3294   20979877.7354 
        55.000          50.000  
 124124241.00947  96720161.80047  23620080.5064   23620085.3544   23620080.2334 
        47.000          40.000  
 120008831.24247  93513364.14647  22836927.6214   22836931.5824   22836928.6854 
        51.000          45.000  
 10  1 15 19  2 10.0000000  0  8G02G04G05G08G10G15G24G29
 109933821.18947  85662697.03047  20919728.1684   20919729.9194   20919728.8054 
        57.000          50.000  
 124164517.55647  96751557.34947  23627732.5494   23627739.5584   23627732.6004 
        49.000          42.000  
 113519836.64447  88457009.21347  21602108.9514   21602112.1924   21602108.9774 
        54.000          49.000  
 130263069.94947 101503679.39947  24788243.8194   24788249.4264   24788244.0134 
        43.000          37.000  
 115708889.07547  90162755.48647  22018682.0664   22018686.7284   22018682.6814 
        52.000          46.000  
 110247974.01447  85907496.64947  20979504.2964   20979507.4374   20979503.9424 
        55.000          50.000  
 124121956.53947  96718381.69547  23619645.0114   23619651.1734   23619645.8804 
        47.000          40.000  
 120006290.74447  93511384.53947  22836444.1934   22836448.0904   22836445.2574 
        51.000          45.000  
 10  1 15 19  2 11.0000000  0  8G02G04G05G08G10G15G24G29
 109933747.90847  85662639.92947  20919714.0034   20919716.0554   20919714.9104 
        57.000          50.000  
 124166190.03047  96752860.57747  23628050.6834   23628057.5164   23628050.6984 
        49.000          42.000  
 113520877.57447  88457820.32647  21602307.2424   21602310.2484   21602307.0454 
        55.000          49.000  
 130262471.86247 101503213.35847  24788129.4734   24788135.3314   24788130.3754 
        43.000          37.000  
 115710675.26747  90164147.32547  22019022.0374   22019026.3854   22019022.5514 
        53.000          46.000  
 110246010.77647  85905966.85647  20979130.6254   20979134.1364   20979130.2574 
        56.000          50.000  
 124119671.94847  96716601.49547  23619210.4834   23619216.2234   23619211.0784 
        47.000          40.000  
 120003750.63747  93509405.23547  22835961.7004   22835964.9944   22835961.7724 
        51.000          45.000  
 10  1 15 19  2 12.0000000  0  8G02G04G05G08G10G15G24G29
 109933674.95347  85662583.08147  20919700.3294   20919702.0314   20919701.1124 
        57.000          50.000  
 124167862.71547  96754163.96547  23628368.9464   23628375.2964   23628368.8584 
        49.000          42.000  
 113521918.54447  88458631.47147  21602505.4274   21602508.6164   21602505.0444 
        54.000          49.000  
 130261874.09147 101502747.56047  24788016.0404   24788020.9444   24788016.4654 
        42.000          37.000  
 115712461.46147  90165539.16447  22019361.9094   22019366.6344   22019362.5044 
        52.000          46.000  
 110244048.07347  85904437.47947  20978757.0364   20978760.2304   20978756.7944 
        55.000          50.000  
 124117387.28047  96714821.23547  23618776.0214   23618780.9694   23618776.4454 
        47.000          40.000  
 120001210.92147  93507426.23747  22835477.5844   22835481.7774   22835478.5744 
        51.000          45.000  
 10  1 15 19  2 13.0000000  0  8G02G04G05G08G10G15G24G29
 109933602.22947  85662526.41347  20919686.7104   20919688.1644   20919687.3654 
        57.000          50.000  
 124169535.57047  96755467.47947  23628685.8464   23628691.9214   23628687.0824 
        49.000          42.000  
 113522959.48147  88459442.59047  21602703.3674   21602706.2834   21602703.0504 
        54.000          49.000  
 130261276.58047 101502281.96547  24787901.9114   24787907.9124   24787902.6614 
        42.000          37.000  
 115714247.54847  90166930.91947  22019702.1214   22019706.6474   22019702.4854 
        52.000          46.000  
 110242085.77847  85902908.41747  20978383.7544   20978387.1274   20978383.3364 
        55.000          50.000  
 124115102.40147  96713040.81147  23618341.4734   23618346.1414   23618341.8044 
        47.000          40.000  
 119998671.51247  93505447.47747  22834994.7014   22834998.7604   22834995.4724 
        51.000          45.000  
 10  1 15 19  2 14.0000000  0  8G02G04G05G08G10G15G24G29
 109933529.99147  85662470.12447  20919672.5394   20919674.4844   20919673.6184 
        56.000          50.000  
 124171208.80247  96756771.29147  23629004.7894   23629010.4754   23629005.5754 
        49.000          42.000  
 113524000.60947  88460253.86047  21602901.5674   21602904.1214   21602901.0804 
        54.000          49.000  
 130260679.56747 101501816.75947  24787789.0744   24787793.9934   24787788.7704 
        42.000          37.000  
 115716033.79847  90168322.80147  22020041.5144   22020046.5594   22020042.4064 
        52.000          46.000  
 110240124.18747  85901379.90747  20978010.4664   20978013.8724   20978010.1474 
        55.000          50.000  
 124112817.58647  96711260.43747  23617906.5694   23617912.2304   23617907.1334 
        47.000          40.000  
 119996132.66147  93503469.15447  22834512.0394   22834514.6964   22834512.3554 
        51.000          45.000  
 10  1 15 19  2 15.0000000  0  8G02G04G05G08G10G15G24G29
 109933457.99847  85662414.02647  20919659.0034   20919660.6764   20919659.9184 
        56.000          50.000  
 124172882.18647  96758075.22547  23629322.6614   23629331.8334   23629324.1394 
        49.000          42.000  
 113525041.71647  88461065.11147  21603099.3474   21603102.8884   21603099.2194 
        54.000          49.000  
 130260082.77647 101501351.72547  24787675.6524   24787680.3054   24787675.4184 
        42.000          37.000  
 115717819.96247  90169714.61747  22020381.8544   22020386.2364   22020382.3314 
        52.000          46.000  
 110238163.02947  85899851.73147  20977637.1294   20977640.4554   20977636.9244 
        55.000          50.000  
 124110532.58047  96709479.91447  23617471.5144   23617477.7394   23617472.4724 
        47.000          40.000  
 119993594.12447  93501491.07547  22834028.7164   22834031.4644   22834029.4024 
        51.000          45.000  
 10  1 15 19  2 16.0000000  0  8G02G04G05G08G10G15G24G29
 109933386.34147  85662358.18747  20919645.4324   20919646.9254   20919646.2124 
        57.000          50.000  
 124174555.84247  96759379.37347  23629643.0684   23629647.1194   23629642.7894 
        49.000          42.000  
 113526082.87347  88461876.40147  21603297.8844   21603300.4274   21603297.2404 
        54.000          48.000  
 130259486.34247 101500886.97147  24787562.0234   24787566.4674   24787561.8444 
        42.000          37.000  
 115719606.13747  90171106.44147  22020720.7794   22020725.9044   22020722.1684 
        52.000          46.000  
 110236202.39647  85898323.96547  20977264.1744   20977267.3244   20977263.8694 
        55.000          50.000  
 124108247.48247  96707699.31847  23617036.7784   23617042.1694   23617037.5864 
        47.000          40.000  
 119991055.99047  93499513.30847  22833544.5404   22833549.4174   22833546.4934 
        51.000          45.000  
 10  1 15 19  2 17.0000000  0  8G02G04G05G08G10G15G24G29
 109933315.16047  85662302.72347  20919631.8514   20919633.7334   20919632.6264 
        56.000          50.000  
 124176229.86747  96760683.80247  23629960.8994   23629967.1814   23629961.5034 
        49.000          42.000  
 113527124.22547  88462687.84447  21603495.8134   21603499.2324   21603495.3004 
        54.000          49.000  
 130258890.38747 101500422.58947  24787449.1724   24787453.5334   24787448.5074 
        42.000          37.000  
 115721392.45347  90172498.37647  22021061.2584   22021066.9664   22021062.1444 
        52.000          46.000  
 110234242.44447  85896796.73047  20976891.2284   20976894.0484   20976890.9374 
        55.000          50.000  
 124105962.43847  96705918.76447  23616601.4884   23616606.3174   23616602.7504 
        47.000          40.000  
 119988518.39647  93497535.96347  22833062.3174   22833066.1184   22833063.4404 
        51.000          45.000  
 10  1 15 19  2 18.0000000  0  8G02G04G05G08G10G15G24G29
 109933244.15347  85662247.39147  20919618.4404   20919619.9284   20919618.9794 
        56.000          50.000  
 124177903.98047  96761988.30547  23630279.1774   23630285.9874   23630279.9974 
        49.000          42.000  
 113528165.48847  88463499.21747  21603694.1154   21603696.9364   21603693.3674 
        54.000          49.000  
 130258294.62047 101499958.35547  24787335.7824   24787339.9594   24787335.6304 
        43.000          37.000  
 115723178.60647  90173890.18347  22021400.6804   22021405.2984   22021401.9794 
        52.000          46.000  
 110232282.85047  85895269.77347  20976518.4174   20976521.3354   20976518.1054 
        55.000          50.000  
 124103677.14847  96704138.01947  23616166.7584   23616171.0884   23616167.9444 
        47.000          40.000  
 119985981.05347  93495558.81247  22832579.7234   22832583.1284   22832580.6344 
        51.000          45.000  
 10  1 15 19  2 19.0000000  0  8G02G04G05G08G10G15G24G29
 109933173.57347  85662192.39247  20919604.9544   20919606.6144   20919605.4374 
        56.000          50.000  
 124179578.41047  96763293.05447  23630597.7344   23630602.1914   23630598.5794 
        49.000          42.000  
 113529206.88747  88464310.69747  21603891.9504   21603895.3594   21603891.4194 
        54.000          49.000  
 130257699.26547 101499494.44347  24787221.8034   24787226.7484   24787222.0784 
        42.000          37.000  
 115724964.86147  90175282.07347  22021740.9194   22021745.8734   22021741.7934 
        52.000          46.000  
 110230323.87347  85893743.29947  20976145.7344   20976148.9354   20976145.5024 
        55.000          50.000  
 124101391.84047  96702357.26047  23615731.4414   23615736.5904   23615733.1234 
        47.000          40.000  
 119983444.19947  93493582.04247  22832096.6174   22832100.4434   22832097.9014 
        51.000          45.000  
 10  1 15 19  2 20.0000000  0  8G02G04G05G08G10G15G24G29
 109933103.34247  85662137.66647  20919591.6074   20919593.5194   20919591.9724 
        56.000          50.000  
 124181253.12047  96764598.02147  23630916.9614   23630922.2624   23630917.3124 
        49.000          42.000  
 113530248.35347  88465122.22747  21604090.2764   21604093.3214   21604089.5974 
        54.000          49.000  
 130257104.28547 101499030.82247  24787107.9894   24787113.5114   24787108.6054 
        42.000          37.000  
 115726751.12447  90176673.96747  22022081.1114   22022085.7064   22022081.6604 
        52.000          46.000  
 110228365.44747  85892217.25347  20975772.8384   20975776.2094   20975772.8894 
        55.000          50.000  
 124099106.44347  96700576.43147  23615297.2074   23615302.2284   23615298.2384 
        47.000          40.000  
 119980907.75947  93491605.59447  22831614.6684   22831618.1794   22831615.2944 
        51.000          45.000  
 10  1 15 19  2 21.0000000  0  8G02G04G05G08G10G15G24G29
 109933033.42647  85662083.18547  20919578.0934   20919579.9744   20919578.6154 
        56.000          50.000  
 124182928.05747  96765903.16747  23631235.6364   23631240.5624   23631235.9524 
        49.000          42.000  
 113531289.85947  88465933.79147  21604288.3404   21604291.7174   21604287.7974 
        54.000          49.000  
 130256509.60847 101498567.43947  24786994.3394   24787000.0174   24786994.9404 
        42.000          37.000  
 115728537.38347  90178065.85947  22022420.3984   22022425.8744   22022421.5434 
        52.000          46.000  
 110226407.53947  85890691.60947  20975400.1834   20975403.5344   20975400.3544 
        55.000          50.000  
 124096820.94947  96698795.52647  23614862.6254   23614867.3584   23614863.2264 
        47.000          40.000  
 119978371.71947  93489629.45947  22831132.2274   22831134.4384   22831132.6564 
        51.000          45.000  
 10  1 15 19  2 22.0000000  0  8G02G04G05G08G10G15G24G29
 109932963.82647  85662028.95047  20919565.0004   20919566.7824   20919565.2904 
        56.000          50.000  
 124184603.20147  96767208.47347  23631554.1914   23631560.6384   23631554.7244 
        48.000          42.000  
 113532331.41047  88466745.39047  21604487.0244   21604489.6224   21604486.0194 
        54.000          49.000  
 130255915.26047 101498104.31147  24786880.2354   24786887.2864   24786881.6354 
        42.000          37.000  
 115730323.62147  90179457.73247  22022760.3734   22022765.7254   22022761.5024 
        52.000          46.000  
 110224450.13547  85889166.36047  20975027.7284   20975030.9984   20975027.8654 
        55.000          50.000  
 124094535.33647  96697014.52847  23614427.3924   23614431.9674   23614428.2624 
        47.000          40.000  
 119975836.05247  93487653.61447  22830648.6654   22830652.3124   22830650.0654 
        51.000          45.000  
 10  1 15 19  2 23.0000000  0  8G02G04G05G08G10G15G24G29
 109932894.65447  85661975.04947  20919551.6784   20919553.6674   20919552.0044 
        56.000          50.000  
 124186278.69947  96768514.05747  23631872.9684   23631877.3474   23631873.5164 
        49.000          42.000  
 113533373.10847  88467557.10447  21604684.9914   21604687.9104   21604684.2684 
        54.000          49.000  
 130255321.34647 101497641.52347  24786768.3634   24786774.2434   24786768.4144 
        42.000          37.000  
 115732109.95047  90180849.67647  22023100.2154   22023106.1624   22023101.4664 
        52.000          46.000  
 110222493.35247  85887641.59447  20974655.2374   20974658.6204   20974655.5104 
        55.000          50.000  
 124092249.73147  96695233.53747  23613992.0754   23613997.6564   23613993.2744 
        47.000          40.000  
 119973300.88447  93485678.15947  22830166.6564   22830170.9134   22830167.6424 
        51.000          45.000  
 10  1 15 19  2 24.0000000  0  8G02G04G05G08G10G15G24G29
 109932825.66847  85661921.29347  20919538.6314   20919540.2434   20919538.7834 
        56.000          50.000  
 124187954.27847  96769819.69847  23632191.6854   23632196.5874   23632192.4444 
        49.000          42.000  
 113534414.71947  88468368.74947  21604883.1034   21604886.0664   21604882.4194 
        54.000          49.000  
 130254727.62847 101497178.88647  24786656.0834   24786662.7284   24786655.4374 
        42.000          37.000  
 115733896.14147  90182241.51047  22023440.4364   22023445.3654   22023441.2924 
        52.000          46.000  
 110220536.95847  85886117.13247  20974283.1434   20974286.5554   20974283.2224 
        56.000          50.000  
 124089963.88647  96693452.36047  23613556.5244   23613562.2174   23613558.1944 
        47.000          40.000  
 119970765.97047  93483702.90347  22829684.6484   22829688.3214   22829685.1864 
        51.000          45.000  
 10  1 15 19  2 25.0000000  0  8G02G04G05G08G10G15G24G29
 109932757.10247  85661867.86547  20919525.4144   20919527.1884   20919525.6574 
        56.000          50.000  
 124189630.21447  96771125.61947  23632511.5094   23632517.0674   23632511.3394 
        49.000          42.000  
 113535456.47247  88469180.50447  21605080.8484   21605084.0464   21605080.6914 
        54.000          49.000  
 130254134.31947 101496716.56747  24786542.7494   24786549.6834   24786542.5474 
        42.000          37.000  
 115735682.42547  90183633.41947  22023780.1264   22023785.6234   22023781.1944 
        52.000          46.000  
 110218581.16647  85884593.13947  20973911.1364   20973914.3134   20973911.1684 
        56.000          50.000  
 124087678.01947  96691671.16547  23613121.8694   23613126.8854   23613123.0234 
        47.000          40.000  
 119968231.55047  93481728.03047  22829201.6674   22829205.5364   22829202.8024 
        51.000          45.000  
 10  1 15 19  2 26.0000000  0  8G02G04G05G08G10G15G24G29
 109932688.86047  85661814.69047  20919512.2384   20919514.4864   20919512.6564 
        56.000          50.000  
 124191306.36647  96772431.70647  23632829.9484   23632834.1654   23632830.2484 
        48.000          42.000  
 113536498.25647  88469992.28447  21605279.5994   21605282.5144   21605278.9654 
        54.000          49.000  
 130253541.34447 101496254.50847  24786430.3804   24786436.6874   24786429.7684 
        42.000          37.000  
 115737468.69447  90185025.31447  22024120.7764   22024125.3134   22024121.1744 
        52.000          46.000  
 110216625.90347  85883069.55947  20973538.8854   20973542.1904   20973539.1924 
        56.000          50.000  
 124085392.04747  96689889.88947  23612687.6264   23612692.2094   23612687.7594 
        47.000          40.000  
 119965697.51647  93479753.45847  22828719.0074   22828723.4924   22828720.4504 
        51.000          45.000  
 10  1 15 19  2 27.0000000  0  8G02G04G05G08G10G15G24G29
 109932621.02247  85661761.82947  20919499.7904   20919501.4544   20919499.7364 
        56.000          50.000  
 124192982.81547  96773738.03047  23633150.2694   23633153.8194   23633149.2054 
        49.000          42.000  
 113537540.16847  88470804.16447  21605478.1954   21605480.5444   21605477.2254 
        54.000          49.000  
 130252948.77247 101495792.76547  24786316.8994   24786323.5194   24786317.1094 
        42.000          37.000  
 115739255.03547  90186417.26747  22024460.0494   22024465.3984   22024461.0884 
        52.000          46.000  
 110214671.23847  85881546.44347  20973166.7574   20973170.1274   20973167.2644 
        55.000          50.000  
 124083106.05547  96688108.59647  23612252.9694   23612257.2014   23612252.7234 
        46.000          40.000  
 119963163.95647  93477779.25747  22828237.5554   22828241.7104   22828238.2914 
        51.000          45.000  
 10  1 15 19  2 28.0000000  0  8G02G04G05G08G10G15G24G29
 109932553.40847  85661709.14247  20919487.0554   20919488.4004   20919486.8874 
        56.000          50.000  
 124194659.40347  96775044.46447  23633467.4264   23633471.8014   23633468.1444 
        48.000          42.000  
 113538582.03947  88471616.01047  21605676.4384   21605678.9894   21605675.4854 
        54.000          49.000  
 130252356.42447 101495331.19447  24786204.4504   24786210.6584   24786204.4544 
        42.000          37.000  
 115741041.27747  90187809.14147  22024800.6714   22024804.7884   22024800.9894 
        52.000          46.000  
 110212716.98847  85880023.65147  20972795.2164   20972798.4094   20972795.4344 
        56.000          50.000  
 124080819.85547  96686327.14347  23611817.0204   23611822.6364   23611817.6274 
        46.000          40.000  
 119960630.69147  93475805.28647  22827756.1614   22827759.4064   22827756.1054 
        51.000          45.000  
 10  1 15 19  2 29.0000000  0  8G02G04G05G08G10G15G24G29
 109932486.26647  85661656.82447  20919473.8834   20919475.5054   20919474.1564 
        56.000          50.000  
 124196336.37247  96776351.19447  23633787.8284   23633791.7064   23633787.1544 
        48.000          42.000  
 113539624.09047  88472427.99447  21605874.3524   21605877.4694   21605873.8304 
        54.000          49.000  
 130251764.55947 101494870.00047  24786092.1004   24786097.9164   24786091.9964 
        42.000          37.000  
 115742827.64647  90189201.11947  22025139.9194   22025144.9954   22025140.9634 
        52.000          46.000  
 110210763.40847  85878501.38247  20972423.2294   20972426.3494   20972423.6624 
        56.000          50.000  
 124078533.70947  96684545.73247  23611382.5704   23611387.7034   23611382.4934 
        47.000          40.000  
 119958097.96447  93473831.73447  22827273.8284   22827277.5984   22827274.0454 
        51.000          45.000  
 10  1 15 19  2 30.0000000  0  8G02G04G05G08G10G15G24G29
 109932419.31947  85661604.65747  20919461.2574   20919463.0244   20919461.4904 
        56.000          50.000  
 124198013.44347  96777658.00147  23634106.7384   23634111.0754   23634106.2754 
        48.000          42.000  
 113540666.05247  88473239.91247  21606072.4714   21606075.3204   21606072.1314 
        54.000          49.000  
 130251172.87547 101494408.95047  24785977.3264   24785985.1534   24785979.4794 
        43.000          37.000  
 115744613.88347  90190592.99347  22025479.9694   22025484.8534   22025481.0084 
        52.000          46.000  
 110208810.22147  85876979.41847  20972051.6984   20972054.9044   20972052.0174 
        56.000          50.000  
 124076247.32047  96682764.13147  23610947.1754   23610952.6444   23610947.2584 
        46.000          40.000  
 119955565.49347  93471858.38347  22826792.1564   22826795.5114   22826792.0594 
        50.000          45.000  
 10  1 15 19  2 31.0000000  0  8G02G04G05G08G10G15G24G29
 109932352.81947  85661552.83947  20919448.3514   20919450.4814   20919448.8374 
        56.000          50.000  
 124199690.89747  96778965.10947  23634424.2024   23634429.7824   23634425.3284 
        48.000          42.000  
 113541708.20647  88474051.98047  21606270.8384   21606274.2714   21606270.5804 
        54.000          48.000  
 130250581.66547 101493948.26747  24785865.6364   24785872.2544   24785866.9624 
        42.000          37.000  
 115746400.23747  90191984.95547  22025819.1814   22025825.1394   22025821.0184 
        52.000          46.000  
 110206857.67647  85875457.95347  20971680.3874   20971683.3514   20971680.3864 
        56.000          50.000  
 124073960.95647  96680982.55147  23610511.9424   23610517.7414   23610512.0884 
        47.000          40.000  
 119953033.54947  93469885.44247  22826310.2334   22826313.7984   22826310.2714 
        51.000          45.000  
 10  1 15 19  2 32.0000000  0  8G02G04G05G08G10G15G24G29
 109932286.60747  85661501.24647  20919435.6344   20919437.5754   20919436.2224 
        56.000          50.000  
 124201368.52047  96780272.34347  23634744.3034   23634749.0614   23634744.4114 
        49.000          42.000  
 113542750.34147  88474864.03147  21606469.5584   21606472.3274   21606468.9924 
        54.000          48.000  
 130249990.75947 101493487.82347  24785753.4994   24785760.1444   24785754.7294 
        42.000          37.000  
 115748186.54147  90193376.88247  22026160.1904   22026164.9624   22026161.0664 
        52.000          46.000  
 110204905.59847  85873936.85447  20971308.9004   20971311.6904   20971308.9524 
        55.000          50.000  
 124071674.45647  96679200.86447  23610076.0464   23610081.5484   23610076.8034 
        47.000          40.000  
 119950501.94547  93467912.76447  22825828.0124   22825831.7524   22825828.4694 
        51.000          45.000  
 10  1 15 19  2 33.0000000  0  8G02G04G05G08G10G15G24G29
 109932220.78047  85661449.95347  20919423.3544   20919425.0154   20919423.6764 
        56.000          50.000  
 124203046.42847  96781579.80847  23635063.9784   23635068.1744   23635063.6634 
        48.000          42.000  
 113543792.57447  88475676.16147  21606667.7644   21606670.4564   21606667.4314 
        54.000          48.000  
 130249400.20647 101493027.65547  24785641.7634   24785647.5234   24785642.3274 
        42.000          37.000  
 115749972.89347  90194768.84447  22026499.2264   22026504.4414   22026501.0094 
        52.000          46.000  
 110202954.11047  85872416.21347  20970937.2844   20970940.5464   20970937.6374 
        56.000          50.000  
 124069387.90247  96677419.13547  23609641.6284   23609646.5854   23609641.5404 
        47.000          40.000  
 119947970.80847  93465940.44747  22825346.8544   22825349.9134   22825346.8074 
        51.000          45.000  
 10  1 15 19  2 34.0000000  0  8G02G04G05G08G10G15G24G29
 109932155.25547  85661398.89547  20919411.1734   20919412.7684   20919411.2234 
        56.000          50.000  
 124204724.56147  96782887.44447  23635382.4764   23635388.2234   23635383.0484 
        49.000          42.000  
 113544834.83547  88476488.31347  21606865.7444   21606869.0954   21606865.9684 
        54.000          48.000  
 130248809.98047 101492567.74147  24785529.3614   24785535.0664   24785529.8304 
        42.000          37.000  
 115751759.21947  90196160.78847  22026839.8434   22026844.9734   22026840.9964 
        52.000          46.000  
 110201003.11547  85870895.95747  20970566.3334   20970569.3014   20970566.3544 
        56.000          50.000  
 124067101.23547  96675637.31747  23609206.6334   23609211.6724   23609206.3344 
        46.000          40.000  
 119945440.04747  93463968.42947  22824865.2244   22824868.3854   22824865.1494 
        51.000          45.000  
 10  1 15 19  2 35.0000000  0  8G02G04G05G08G10G15G24G29
 109932090.07947  85661348.10847  20919398.5794   20919400.2384   20919398.8584 
        56.000          50.000  
 124206402.96847  96784195.28847  23635702.9064   23635706.0914   23635702.4084 
        48.000          42.000  
 113545877.17447  88477300.52647  21607064.4814   21607067.3944   21607064.4074 
        54.000          49.000  
 130248220.11147 101492108.10747  24785417.6834   24785423.6704   24785417.8204 
        42.000          37.000  
 115753545.55947  90197552.74047  22027179.5514   22027184.9274   22027180.9294 
        52.000          46.000  
 110199052.66647  85869376.12747  20970194.9154   20970198.2524   20970195.1244 
        56.000          50.000  
 124064814.48547  96673855.43347  23608771.7844   23608777.1314   23608771.1394 
        47.000          40.000  
 119942909.70547  93461996.73347  22824382.9314   22824387.1464   22824383.5014 
        51.000          45.000  
 10  1 15 19  2 36.0000000  0  8G02G04G05G08G10G15G24G29
 109932025.22047  85661297.56847  20919386.0094   20919387.9824   20919386.6034 
        56.000          50.000  
 124208081.61147  96785503.32147  23636022.7274   23636026.9054   23636021.8664 
        48.000          42.000  
 113546919.55547  88478112.77347  21607262.5904   21607265.5824   21607262.9254 
        54.000          48.000  
 130247630.56547 101491648.72647  24785304.8244   24785311.7634   24785305.9984 
        42.000          37.000  
 115755331.88647  90198944.68247  22027519.0684   22027524.7004   22027520.8914 
        52.000          46.000  
 110197102.72147  85867856.68947  20969823.9754   20969827.0274   20969824.0354 
        56.000          50.000  
 124062527.62547  96672073.46447  23608336.3224   23608341.7754   23608335.9124 
        47.000          40.000  
 119940379.75347  93460025.34147  22823902.1174   22823905.3934   22823901.8304 
        50.000          45.000  
 10  1 15 19  2 37.0000000  0  8G02G04G05G08G10G15G24G29
 109931960.69347  85661247.28647  20919373.7904   20919375.5164   20919374.3324 
        56.000          50.000  
 124209760.48047  96786811.53147  23636341.5244   23636346.8994   23636341.2404 
        48.000          42.000  
 113547961.97447  88478925.05047  21607460.8764   21607464.2384   21607461.3454 
        54.000          48.000  
 130247041.36347 101491189.61347  24785191.7744   24785199.4254   24785193.9074 
        42.000          37.000  
 115757118.20747  90200336.62247  22027859.3524   22027864.8024   22027860.8574 
        52.000          46.000  
 110195153.30547  85866337.66547  20969453.0464   20969456.2344   20969453.0934 
        55.000          50.000  
 124060240.67247  96670291.42247  23607900.9064   23607906.8304   23607900.6644 
        46.000          40.000  
 119937850.20047  93458054.26047  22823420.7214   22823423.9454   22823420.5384 
        51.000          45.000  
 10  1 15 19  2 38.0000000  0  8G02G04G05G08G10G15G24G29
 109931896.57247  85661197.32047  20919361.8544   20919363.5774   20919362.1384 
        56.000          50.000  
 124211439.67847  96788119.99447  23636661.4194   23636665.7224   23636660.8224 
        48.000          42.000  
 113549004.53947  88479737.43947  21607659.3794   21607662.1044   21607659.8144 
        55.000          48.000  
 130246452.57147 101490730.81647  24785079.8214   24785087.2904   24785081.7894 
        42.000          37.000  
 115758904.60847  90201728.62247  22028199.1894   22028204.6294   22028200.6754 
        52.000          46.000  
 110193204.49447  85864819.11047  20969081.9454   20969085.2424   20969082.2404 
        56.000          50.000  
 124057953.68947  96668509.35747  23607465.9434   23607471.3534   23607465.4654 
        47.000          40.000  
 119935321.13947  93456083.56247  22822938.9394   22822942.8044   22822939.1294 
        51.000          45.000  
 10  1 15 19  2 39.0000000  0  8G02G04G05G08G10G15G24G29
 109931832.77247  85661147.60747  20919349.4734   20919351.0824   20919350.0084 
        56.000          50.000  
 124213119.08947  96789428.62647  23636981.1934   23636984.9544   23636980.5744 
        48.000          42.000  
 113550047.12747  88480549.84647  21607857.5794   21607861.2384   21607858.1964 
        54.000          48.000  
 130245864.10147 101490272.27147  24784968.4004   24784975.3114   24784969.5734 
        42.000          37.000  
 115760691.00847  90203120.62547  22028539.0294   22028543.8514   22028540.5084 
        52.000          46.000  
 110191256.22747  85863300.98147  20968711.4204   20968714.5514   20968711.4834 
        55.000          50.000  
 124055666.61447  96666727.22047  23607030.3474   23607035.4224   23607030.3864 
        47.000          40.000  
 119932792.46047  93454113.16147  22822459.0114   22822461.9434   22822457.8654 
        51.000          45.000  
 10  1 15 19  2 40.0000000  0  8G02G04G05G08G10G15G24G29
 109931769.28747  85661098.13847  20919337.5834   20919339.4244   20919337.9134 
        56.000          50.000  
 124214798.73647  96790737.43947  23637300.2144   23637306.7124   23637300.2784 
        48.000          42.000  
 113551089.76047  88481362.28947  21608055.9354   21608059.1154   21608056.6294 
        54.000          48.000  
 130245275.94647 101489813.97047  24784856.7404   24784863.7654   24784857.4324 
        42.000          37.000  
 115762477.38947  90204512.61247  22028878.7334   22028883.6634   22028880.3394 
        52.000          46.000  
 110189308.45347  85861783.23747  20968340.5124   20968343.6654   20968340.8704 
        55.000          50.000  
 124053379.40747  96664944.98247  23606595.1354   23606600.4914   23606595.2994 
        47.000          40.000  
 119930264.18147  93452143.07547  22821977.0504   22821981.1164   22821976.8954 
        51.000          45.000  
 10  1 15 19  2 41.0000000  0  8G02G04G05G08G10G15G24G29
 109931706.08747  85661048.89147  20919325.5614   20919326.9914   20919325.8984 
        56.000          50.000  
 124216478.56747  96792046.39747  23637620.1034   23637624.9894   23637620.1054 
        49.000          42.000  
 113552132.39547  88482174.73247  21608254.5194   21608257.6494   21608255.0314 
        54.000          49.000  
 130244688.08747 101489355.89847  24784744.3804   24784751.5884   24784745.5694 
        43.000          37.000  
 115764263.71647  90205904.55547  22029218.9094   22029224.3564   22029220.2284 
        52.000          46.000  
 110187361.15047  85860265.85847  20967969.8974   20967973.2524   20967970.1944 
        56.000          50.000  
 124051092.06147  96663162.63547  23606160.2224   23606165.4594   23606160.2284 
        47.000          40.000  
 119927736.25047  93450173.26147  22821495.9094   22821499.5934   22821495.9724 
        51.000          45.000  
 10  1 15 19  2 42.0000000  0  8G02G04G05G08G10G15G24G29
 109931643.28747  85660999.95547  20919313.5734   20919315.1754   20919314.0084 
        56.000          50.000  
 124218158.73647  96793355.61847  23637939.8604   23637943.6514   23637939.8744 
        49.000          42.000  
 113553175.14247  88482987.26147  21608452.8734   21608456.2744   21608453.4054 
        54.000          49.000  
 130244100.64247 101488898.15047  24784632.5764   24784638.7044   24784633.7874 
        42.000          37.000  
 115766050.10747  90207296.54847  22029559.6334   22029563.9954   22029560.1504 
        52.000          46.000  
 110185414.45747  85858748.95547  20967599.6234   20967602.9434   20967599.7644 
        55.000          50.000  
 124048804.68747  96661380.26747  23605725.1704   23605730.3294   23605725.1894 
        47.000          40.000  
 119925208.77847  93448203.80347  22821015.8914   22821018.2264   22821014.9934 
        51.000          45.000  
 10  1 15 19  2 43.0000000  0  8G02G04G05G08G10G15G24G29
 109931580.78447  85660951.25147  20919301.4814   20919302.9064   20919302.1864 
        56.000          50.000  
 124219839.07547  96794664.97247  23638259.7244   23638265.3224   23638259.6654 
        49.000          42.000  
 113554217.91447  88483799.81047  21608651.3774   21608654.4304   21608651.7464 
        54.000          49.000  
 130243513.49247 101488440.62947  24784521.3814   24784525.7904   24784521.9954 
        42.000          37.000  
 115767836.45647  90208688.50547  22029898.5464   22029904.7304   22029900.1004 
        52.000          46.000  
 110183468.24847  85857232.42947  20967229.0184   20967232.5944   20967229.3604 
        55.000          50.000  
 124046517.17147  96659597.78847  23605290.0754   23605294.8534   23605290.2744 
        47.000          40.000  
 119922681.68047  93446234.63847  22820534.9094   22820537.5594   22820534.1304 
        51.000          45.000  
 10  1 15 19  2 44.0000000  0  8G02G04G05G08G10G15G24G29
 109931518.62947  85660902.81947  20919290.0764   20919291.4284   20919290.3554 
        56.000          50.000  
 124221519.67447  96795974.53447  23638579.5494   23638584.1874   23638579.4374 
        49.000          42.000  
 113555260.75447  88484612.41247  21608849.6754   21608853.1364   21608850.0744 
        54.000          48.000  
 130242926.68547 101487983.37847  24784409.5804   24784414.0744   24784410.4044 
        42.000          37.000  
 115769622.81547  90210080.47347  22030238.9684   22030243.7914   22030240.0674 
        52.000          46.000  
 110181522.58247  85855716.32747  20966858.6844   20966862.1124   20966859.0674 
        55.000          50.000  
 124044229.58447  96657815.25447  23604854.4734   23604858.9374   23604855.2174 
        47.000          40.000  
 119920154.99747  93444265.79247  22820053.9624   22820056.7784   22820053.3724 
        51.000          45.000  
 10  1 15 19  2 45.0000000  0  8G02G04G05G08G10G15G24G29
 109931456.87547  85660854.69847  20919277.9944   20919279.5514   20919278.5954 
        56.000          50.000  
 124223200.58447  96797284.33047  23638900.3894   23638904.5354   23638899.2874 
        48.000          42.000  
 113556303.70247  88485425.09947  21609048.2664   21609051.1414   21609048.5384 
        54.000          48.000  
 130242340.28847 101487526.44447  24784297.3074   24784303.4154   24784299.0774 
        42.000          37.000  
 115771409.25347  90211472.50047  22030578.7124   22030583.4844   22030580.0064 
        52.000          46.000  
 110179577.52147  85854200.69547  20966488.8764   20966492.3154   20966488.8034 
        55.000          50.000  
 124041941.96047  96656032.68947  23604419.7134   23604422.8554   23604420.2654 
        47.000          40.000  
 119917628.78547  93442297.31547  22819572.0654   22819576.6234   22819572.6034 
        51.000          45.000  
 10  1 15 19  2 46.0000000  0  8G02G04G05G08G10G15G24G29
 109931395.45847  85660806.84047  20919266.5374   20919267.9384   20919266.8504 
        56.000          50.000  
 124224881.73247  96798594.31747  23639218.8714   23639225.0744   23639219.1994 
        48.000          42.000  
 113557346.72247  88486237.84147  21609246.6694   21609249.7854   21609246.8944 
        54.000          49.000  
 130241754.24147 101487069.78447  24784186.5824   24784191.3634   24784187.5284 
        42.000          37.000  
 115773195.69047  90212864.52647  22030919.2064   22030924.1914   22030920.0294 
        52.000          46.000  
 110177632.99047  85852685.47747  20966118.6774   20966122.0214   20966118.7524 
        55.000          50.000  
 124039654.25647  96654250.06447  23603983.3904   23603988.5464   23603985.1174 
        47.000          40.000  
 119915102.98447  93440329.15947  22819091.9914   22819095.5904   22819091.9464 
        51.000          45.000  
 10  1 15 19  2 47.0000000  0  8G02G04G05G08G10G15G24G29
 109931334.36647  85660759.23747  20919254.8894   20919256.2274   20919255.1244 
        56.000          50.000  
 124226563.12547  96799904.49047  23639538.9614   23639544.2704   23639539.0944 
        48.000          42.000  
 113558389.77947  88487050.61347  21609445.0434   21609448.3244   21609445.3244 
        54.000          49.000  
 130241168.50247 101486613.36347  24784075.9204   24784080.3184   24784076.1754 
        42.000          37.000  
 115774982.12347  90214256.55047  22031258.1564   22031264.8024   22031260.0204 
        52.000          46.000  
 110175688.98247  85851170.66747  20965748.6494   20965752.3694   20965748.6974 
        55.000          50.000  
 124037366.43847  96652467.34947  23603547.9014   23603552.9604   23603549.8554 
        47.000          40.000  
 119912577.57347  93438361.30447  22818611.2414   22818614.4654   22818611.2544 
        50.000          45.000  
 10  1 15 19  2 48.0000000  0  8G02G04G05G08G10G15G24G29
 109931273.54347  85660711.84147  20919243.4964   20919244.7644   20919243.4654 
        56.000          50.000  
 124228244.67447  96801214.78547  23639858.8084   23639864.1174   23639858.9974 
        48.000          42.000  
 113559432.81847  88487863.37147  21609643.7964   21609646.9484   21609643.7314 
        54.000          49.000  
 130240583.04747 101486157.16547  24783964.5264   24783969.2004   24783964.5034 
        42.000          37.000  
 115776768.48147  90215648.51547  22031598.8104   22031603.8564   22031599.8734 
        52.000          46.000  
 110173745.43647  85849656.21547  20965378.9044   20965382.3814   20965378.8344 
        55.000          50.000  
 124035078.46347  96650684.51247  23603113.3184   23603118.6574   23603114.7954 
        47.000          40.000  
 119910052.50447  93436393.71547  22818131.0634   22818134.4204   22818130.7184 
        51.000          45.000  
 10  1 15 19  2 49.0000000  0  8G02G04G05G08G10G15G24G29
 109931213.13247  85660664.76847  20919231.6604   20919233.2974   20919231.9474 
        56.000          50.000  
 124229926.55647  96802525.33947  23640179.7584   23640183.9774   23640178.8974 
        48.000          42.000  
 113560475.99247  88488676.23347  21609842.1674   21609845.4784   21609842.1814 
        54.000          49.000  
 130239998.03847 101485701.31347  24783853.8884   24783858.2464   24783853.0394 
        42.000          37.000  
 115778554.91947  90217040.54447  22031938.4534   22031943.5824   22031939.7094 
        52.000          46.000  
 110171802.49447  85848142.23447  20965009.1494   20965012.5954   20965008.9934 
        55.000          50.000  
 124032790.46747  96648901.65947  23602677.5854   23602682.5374   23602679.2684 
        47.000          40.000  
 119907527.91647  93434426.50447  22817650.4354   22817653.8394   22817650.2514 
        51.000          45.000  
 10  1 15 19  2 50.0000000  0  8G02G04G05G08G10G15G24G29
 109931152.94047  85660617.86447  20919220.3314   20919221.9934   20919220.4654 
        57.000          50.000  
 124231608.58347  96803836.00247  23640498.3414   23640505.1654   23640498.7644 
        48.000          42.000  
 113561519.09747  88489489.04247  21610040.7164   21610044.0734   21610040.4674 
        54.000          49.000  
 130239413.24447 101485245.62847  24783741.0084   24783748.1324   24783741.4884 
        43.000          37.000  
 115780341.24047  90218432.48347  22032278.3484   22032284.0714   22032279.6874 
        52.000          46.000  
 110169859.97447  85846628.58147  20964639.7224   20964642.9044   20964639.3094 
        55.000          50.000  
 124030502.26347  96647118.64447  23602240.6704   23602246.9934   23602243.8484 
        47.000          40.000  
 119905003.62447  93432459.52147  22817170.5464   22817173.4904   22817169.8574 
        51.000          45.000  
 10  1 15 19  2 51.0000000  0  8G02G04G05G08G10G15G24G29
 109931093.22847  85660571.33647  20919209.0134   20919210.6274   20919209.1564 
        56.000          50.000  
 124233290.97847  96805146.95447  23640819.5694   23640823.7744   23640818.7044 
        48.000          42.000  
 113562562.39947  88490302.00647  21610239.4414   21610242.6694   21610238.9104 
        54.000          49.000  
 130238828.89047 101484790.28547  24783630.2174   24783636.6604   24783630.1314 
        42.000          37.000  
 115782127.69947  90219824.52947  22032618.7494   22032623.4944   22032619.6564 
        52.000          46.000  
 110167918.13347  85845115.46047  20964270.0944   20964273.3664   20964269.7594 
        55.000          50.000  
 124028214.11547  96645335.67447  23601805.9184   23601811.5564   23601808.3084 
        47.000          40.000  
 119902479.87747  93430492.96647  22816690.2254   22816693.1024   22816689.4354 
        51.000          45.000  
 10  1 15 19  2 52.0000000  0  8G02G04G05G08G10G15G24G29
 109931033.87147  85660525.08447  20919197.8174   20919198.9864   20919197.8974 
        56.000          50.000  
 124234973.64447  96806458.11747  23641138.0364   23641145.3114   23641138.8244 
        48.000          42.000  
 113563605.78447  88491115.03647  21610437.4334   21610441.2224   21610437.3734 
        54.000          49.000  
 130238244.95347 101484335.26847  24783519.0574   24783526.1354   24783518.7104 
        42.000          37.000  
 115783914.17947  90221216.59347  22032959.1364   22032963.7424   22032959.6274 
        52.000          46.000  
 110165976.84047  85843602.76547  20963900.8824   20963904.1144   20963900.2564 
        55.000          50.000  
 124025925.87647  96643552.63347  23601371.3474   23601375.8604   23601372.8464 
        47.000          40.000  
 119899956.55547  93428526.74347  22816209.7724   22816214.1864   22816209.1964 
        50.000          45.000  
 10  1 15 19  2 53.0000000  0  8G02G04G05G08G10G15G24G29
 109930974.81747  85660479.06847  20919186.3424   20919187.8634   20919186.6834 
        56.000          50.000  
 124236656.53047  96807769.45647  23641461.4334   23641465.4634   23641459.0544 
        48.000          42.000  
 113564649.17947  88491928.07047  21610636.0754   21610639.4724   21610635.8054 
        54.000          49.000  
 130237661.28747 101483880.46347  24783407.0204   24783413.9724   24783407.4384 
        41.000          37.000  
 115785700.63247  90222608.63547  22033298.9214   22033303.7934   22033299.5584 
        52.000          46.000  
 110164036.04347  85842090.45747  20963531.3334   20963534.8284   20963530.9344 
        55.000          50.000  
 124023637.54047  96641769.51847  23600935.5574   23600940.3674   23600937.3304 
        47.000          40.000  
 119897433.61147  93426560.81447  22815729.1994   22815733.3464   22815729.0034 
        50.000          45.000  
 10  1 15 19  2 54.0000000  0  8G02G04G05G08G10G15G24G29
 109930916.04147  85660433.26947  20919175.1564   20919176.8674   20919175.5054 
        56.000          50.000  
 124238339.59947  96809080.93447  23641779.0954   23641786.4834   23641779.4394 
        48.000          42.000  
 113565692.58147  88492741.11047  21610834.7474   21610838.5074   21610834.2004 
        54.000          48.000  
 130237077.93747 101483425.90447  24783296.0774   24783303.7914   24783296.4944 
        41.000          37.000  
 115787487.02247  90224000.62747  22033638.8194   22033643.3804   22033639.5554 
        52.000          46.000  
 110162095.72347  85840578.51947  20963161.9194   20963165.4584   20963161.7194 
        55.000          50.000  
 124021349.03247  96639986.26947  23600499.5544   23600504.8264   23600501.5824 
        47.000          40.000  
 119894911.01747  93424595.15847  22815249.5454   22815252.5064   22815249.0604 
        50.000          45.000  
 10  1 15 19  2 55.0000000  0  8G02G04G05G08G10G15G24G29
 109930857.64547  85660387.76447  20919163.9344   20919165.6134   20919164.4744 
        56.000          50.000  
 124240022.93547  96810392.62247  23642100.8604   23642106.0454   23642099.8044 
        48.000          42.000  
 113566736.06147  88493554.21147  21611033.4144   21611036.8104   21611032.7234 
        54.000          48.000  
 130236494.94547 101482971.62547  24783185.4804   24783194.3294   24783185.4424 
        41.000          37.000  
 115789273.45247  90225392.65047  22033978.4454   22033984.0974   22033979.5194 
        52.000          46.000  
 110160155.96147  85839067.01747  20962792.9384   20962796.5434   20962792.6514 
        55.000          50.000  
 124019060.46247  96638202.97147  23600064.6194   23600069.7904   23600066.0544 
        47.000          40.000  
 119892388.86147  93422629.84247  22814770.0014   22814774.1824   22814769.0294 
        51.000          45.000  
 10  1 15 19  2 56.0000000  0  8G02G04G05G08G10G15G24G29
 109930799.63647  85660342.56247  20919152.8364   20919154.4934   20919153.4884 
        56.000          50.000  
 124241706.56247  96811704.53947  23642420.4524   23642427.1764   23642420.2534 
        48.000          42.000  
 113567779.65147  88494367.39947  21611231.8544   21611235.1804   21611231.1934 
        54.000          48.000  
 130235912.37247 101482517.67347  24783073.2144   24783082.2864   24783074.2094 
        41.000          37.000  
 115791059.94547  90226784.72447  22034318.4644   22034323.3714   22034319.5174 
        52.000          46.000  
 110158216.80147  85837555.98347  20962423.8754   20962427.3334   20962423.6184 
        55.000          50.000  
 124016771.86347  96636419.65047  23599628.8244   23599634.9384   23599630.4424 
        47.000          40.000  
 119889867.17647  93420664.89447  22814289.6884   22814293.8384   22814289.2334 
        51.000          45.000  
 10  1 15 19  2 57.0000000  0  8G02G04G05G08G10G15G24G29
 109930741.91947  85660297.58947  20919142.1684   20919143.7284   20919142.6094 
        56.000          50.000  
 124243390.41547  96813016.63347  23642741.7744   23642746.4244   23642740.6364 
        48.000          42.000  
 113568823.26147  88495180.60147  21611430.4814   21611434.0044   21611429.7704 
        53.000          48.000  
 130235330.09047 101482063.94747  24782962.7334   24782970.8794   24782962.8184 
        41.000          36.000  
 115792846.38847  90228176.75647  22034658.6684   22034663.4184   22034659.5804 
        52.000          46.000  
 110156278.12047  85836045.32347  20962054.9374   20962058.4404   20962054.7274 
        55.000          50.000  
 124014483.12747  96634636.22347  23599193.1404   23599199.2744   23599194.5754 
        47.000          40.000  
 119887345.85447  93418700.22647  22813810.2394   22813813.9034   22813809.4384 
        50.000          45.000  
 10  1 15 19  2 58.0000000  0  8G02G04G05G08G10G15G24G29
 109930684.58847  85660252.91447  20919131.0244   20919132.5544   20919131.7064 
        56.000          50.000  
 124245074.56747  96814328.95547  23643062.5014   23643067.6104   23643061.1414 
        48.000          42.000  
 113569866.96047  88495993.87247  21611629.4834   21611632.3934   21611628.3854 
        54.000          48.000  
 130234748.16447 101481610.50047  24782849.8104   24782859.8874   24782851.5864 
        41.000          36.000  
 115794632.87547  90229568.82247  22034998.4984   22035003.6594   22034999.5994 
        52.000          46.000  
 110154340.01647  85834535.11347  20961686.2934   20961689.7234   20961685.7534 
        55.000          50.000  
 124012194.33947  96632852.75347  23598757.4374   23598763.1784   23598758.8474 
        46.000          40.000  
 119884824.97947  93416735.90747  22813331.0074   22813334.5474   22813329.8154 
        50.000          45.000  
 10  1 15 19  2 59.0000000  0  8G02G04G05G08G10G15G24G29
 109930627.53147  85660208.45347  20919119.8914   20919121.7704   20919120.9134 
        56.000          50.000  
 124246758.89147  96815641.41247  23643383.5474   23643388.0874   23643381.8894 
        48.000          42.000  
 113570910.66447  88496807.14647  21611827.8434   21611831.5114   21611826.9404 
        53.000          48.000  
 130234166.54447 101481157.29547  24782741.1794   24782748.5754   24782740.7194 
        40.000          36.000  
 115796419.31347  90230960.85247  22035338.6454   22035343.7944   22035339.5594 
        53.000          46.000  
 110152402.38547  85833025.27247  20961317.5824   20961321.1194   20961316.9654 
        55.000          50.000  
 124009905.40547  96631069.16947  23598322.5284   23598328.5734   23598323.0364 
        47.000          40.000  
 119882304.45447  93414771.86547  22812850.1594   22812854.2254   22812850.0674 
        50.000          45.000  
 10  1 15 19  3  0.0000000  0  8G02G04G05G08G10G15G24G29
 109930570.83547  85660164.27447  20919109.5454   20919110.8614   20919110.0884 
        56.000          50.000  
 124248443.46747  96816954.06747  23643701.6284   23643708.4824   23643702.5354 
        48.000          42.000  
 113571954.43847  88497620.47547  21612026.7914   21612030.1264   21612025.5664 
        54.000          48.000  
 130233585.29247 101480704.37947  24782631.1854   24782639.5294   24782630.3354 
        41.000          36.000  
 115798205.75947  90232352.88647  22035678.5554   22035683.0874   22035679.4184 
        52.000          46.000  
 110150465.30347  85831515.85647  20960948.7554   20960951.8434   20960948.3314 
        55.000          50.000  
 124007616.40047  96629285.52947  23597886.7874   23597892.7004   23597887.2434 
        47.000          40.000  
 119879784.36047  93412808.15247  22812371.2864   22812374.6864   22812370.5494 
        51.000          45.000  
 10  1 15 19  3  1.0000000  0  8G02G04G05G08G10G15G24G29
 109930514.46047  85660120.34547  20919098.5574   20919100.2104   20919099.2484 
        56.000          50.000  
 124250128.26947  96818266.89547  23644024.1494   23644028.1624   23644023.1944 
        48.000          42.000  
 113572998.24947  88498433.83247  21612225.0754   21612228.4424   21612224.2704 
        54.000          48.000  
 130233004.35547 101480251.70847  24782520.3034   24782528.8484   24782519.7554 
        41.000          36.000  
 115799992.20047  90233744.91547  22036018.5174   22036023.3944   22036019.2964 
        53.000          46.000  
 110148528.74347  85830006.84947  20960580.4644   20960584.1174   20960579.7104 
        55.000          50.000  
 124005327.28147  96627501.79847  23597451.4194   23597456.8234   23597451.4674 
        47.000          40.000  
 119877264.65247  93410844.74447  22811891.5694   22811895.1894   22811891.2264 
        51.000          45.000  
 10  1 15 19  3  2.0000000  0  8G02G04G05G08G10G15G24G29
 109930458.50247  85660076.74047  20919088.0384   20919089.5064   20919088.4904 
        56.000          50.000  
 124251813.40847  96819579.98647  23644344.5954   23644350.7964   23644343.9384 
        48.000          42.000  
 113574042.19347  88499247.29647  21612423.8244   21612427.3924   21612423.0294 
        54.000          48.000  
 130232423.88247 101479799.39847  24782411.6894   24782418.1244   24782409.9074 
        41.000          36.000  
 115801778.71547  90235137.00347  22036358.8254   22036363.4014   22036359.2744 
        53.000          46.000  
 110146592.79447  85828498.31747  20960211.8434   20960215.4124   20960211.3024 
        55.000          50.000  
 124003038.15347  96625718.06147  23597015.7654   23597020.9384   23597015.6454 
        47.000          40.000  
 119874745.43647  93408881.71647  22811412.0904   22811415.6824   22811411.8894 
        51.000          45.000  
 10  1 15 19  3  3.0000000  0  8G02G04G05G08G10G15G24G29
 109930402.81847  85660033.35047  20919077.2734   20919078.9254   20919077.7654 
        56.000          50.000  
 124253498.72147  96820893.21847  23644664.6324   23644669.4624   23644664.5964 
        48.000          41.000  
 113575086.13047  88500060.75447  21612622.4314   21612625.9444   21612621.7584 
        54.000          48.000  
 130231843.65347 101479347.27847  24782301.7034   24782308.2134   24782299.6204 
        41.000          36.000  
 115803565.17547  90236529.04947  22036698.4394   22036703.1304   22036699.2654 
        53.000          46.000  
 110144657.31247  85826990.15247  20959843.5004   20959847.0754   20959843.0344 
        55.000          50.000  
 124000748.87847  96623934.20847  23596579.1544   23596585.4604   23596579.7214 
        47.000          40.000  
 119872226.56047  93406918.95347  22810932.9994   22810937.1274   22810932.6754 
        50.000          45.000  
 10  1 15 19  3  4.0000000  0  8G02G04G05G08G10G15G24G29
 109930347.46547  85659990.21647  20919066.6134   20919068.5064   20919067.1554 
        56.000          50.000  
 124255184.27547  96822206.63547  23644984.5274   23644989.7524   23644985.1884 
        48.000          42.000  
 113576130.12247  88500874.25347  21612820.9504   21612824.6094   21612820.5004 
        54.000          48.000  
 130231263.77447 101478895.42847  24782191.0694   24782199.3004   24782189.5264 
        41.000          36.000  
 115805351.63247  90237921.09347  22037038.5234   22037043.4784   22037039.2924 
        52.000          46.000  
 110142722.36847  85825482.40347  20959475.3184   20959479.0634   20959474.8154 
        55.000          50.000  
 123998459.50547  96622150.28047  23596144.6004   23596150.3994   23596143.9864 
        46.000          40.000  
 119869708.09847  93404956.51547  22810453.2064   22810457.3954   22810453.4424 
        51.000          45.000  
 10  1 15 19  3  5.0000000  0  8G02G04G05G08G10G15G24G29
 109930292.51647  85659947.39847  20919056.2904   20919057.9094   20919056.6014 
        56.000          50.000  
 124256870.16047  96823520.31247  23645305.9824   23645311.1014   23645305.9124 
        48.000          41.000  
 113577174.23247  88501687.84747  21613019.9404   21613023.4804   21613019.1864 
        54.000          48.000  
 130230684.30547 101478443.89747  24782080.7954   24782088.6974   24782079.4834 
        40.000          36.000  
 115807138.15047  90239313.18547  22037378.3164   22037382.5624   22037379.3154 
        53.000          46.000  
 110140788.01847  85823975.11847  20959107.4374   20959110.9254   20959106.7624 
        55.000          50.000  
 123996170.09047  96620366.32147  23595709.8284   23595715.4054   23595708.3774 
        47.000          40.000  
 119867190.10547  93402994.44447  22809974.4264   22809978.5534   22809974.3604 
        51.000          45.000  
 10  1 15 19  3  6.0000000  0  8G02G04G05G08G10G15G24G29
 109930237.88347  85659904.82747  20919045.7264   20919047.6514   20919046.1344 
        56.000          50.000  
 124258556.24047  96824834.13747  23645626.6774   23645632.5934   23645626.7444 
        47.000          41.000  
 113578218.37647  88502501.46647  21613218.3824   21613221.8464   21613217.9854 
        54.000          48.000  
 130230105.13747 101477992.59947  24781969.9654   24781976.6524   24781969.2174 
        41.000          36.000  
 115808924.65447  90240705.26747  22037718.4734   22037722.8064   22037719.4004 
        53.000          46.000  
 110138854.18147  85822468.23347  20958739.5074   20958743.0534   20958738.7904 
        55.000          50.000  
 123993880.56247  96618582.27547  23595274.1544   23595278.4414   23595272.6154 
        47.000          40.000  
 119864672.50147  93401032.67547  22809495.9734   22809498.9534   22809495.3624 
        50.000          45.000  
 10  1 15 19  3  7.0000000  0  8G02G04G05G08G10G15G24G29
 109930183.57747  85659862.51147  20919035.5584   20919036.9134   20919035.7534 
        56.000          50.000  
 124260242.58047  96826148.16647  23645949.0334   23645953.0154   23645947.5544 
        48.000          41.000  
 113579262.56447  88503315.12047  21613417.0244   21613420.4904   21613416.7464 
        54.000          48.000  
 130229526.32347 101477541.57647  24781858.9564   24781865.7364   24781858.9084 
        41.000          36.000  
 115810711.15047  90242097.34347  22038058.3454   22038063.0234   22038059.4744 
        53.000          46.000  
 110136920.86247  85820961.74947  20958371.3774   20958374.9904   20958370.8104 
        55.000          50.000  
 123991590.95647  96616798.16747  23594837.9414   23594842.4274   23594836.9544 
        47.000          40.000  
 119862155.29247  93399071.21447  22809016.1444   22809019.8804   22809016.4304 
        50.000          45.000  
 10  1 15 19  3  8.0000000  0  8G02G04G05G08G10G15G24G29
 109930129.64247  85659820.48347  20919025.1954   20919026.8834   20919025.3974 
        56.000          50.000  
 124261929.20747  96827462.42047  23646268.7814   23646274.0284   23646268.3914 
        47.000          41.000  
 113580306.83947  88504128.84147  21613615.7354   21613619.3634   21613615.5064 
        54.000          48.000  
 130228947.88447 101477090.84647  24781748.8684   24781756.0464   24781748.7854 
        41.000          36.000  
 115812497.67347  90243489.44047  22038397.9074   22038403.0104   22038399.5404 
        53.000          46.000  
 110134988.12947  85819455.72447  20958003.5254   20958007.2284   20958002.9834 
        55.000          50.000  
 123989301.27647  96615014.00347  23594401.8854   23594407.4564   23594401.3364 
        47.000          40.000  
 119859638.52947  93397110.09947  22808538.0934   22808540.7134   22808537.5484 
        50.000          45.000  
 10  1 15 19  3  9.0000000  0  8G02G04G05G08G10G15G24G29
 109930075.98347  85659778.67047  20919015.1674   20919016.5974   20919015.0904 
        56.000          50.000  
 124263616.01247  96828776.81647  23646589.9254   23646595.0294   23646589.4014 
        47.000          42.000  
 113581351.10947  88504942.55847  21613814.6064   21613818.6154   21613814.2564 
        54.000          48.000  
 130228369.72547 101476640.33447  24781638.8004   24781645.4194   24781638.3934 
        41.000          36.000  
 115814284.14447  90244881.49547  22038737.9654   22038742.6974   22038739.5204 
        53.000          46.000  
 110133055.88147  85817950.07747  20957635.6934   20957639.5384   20957635.2934 
        55.000          50.000  
 123987011.46047  96613229.73347  23593966.1744   23593971.5824   23593965.6624 
        47.000          40.000  
 119857122.12247  93395149.26447  22808059.0434   22808061.2514   22808058.7254 
        50.000          45.000  
 10  1 15 19  3 10.0000000  0  8G02G04G05G08G10G15G24G29
 109930022.77347  85659737.20847  20919004.8754   20919006.4894   20919004.9184 
        56.000          50.000  
 124265303.16447  96830091.47947  23646910.2154   23646917.0964   23646910.4654 
        47.000          41.000  
 113582395.53947  88505756.40047  21614012.9074   21614017.2414   21614013.1004 
        54.000          48.000  
 130227792.00847 101476190.16747  24781530.2204   24781535.8354   24781528.6714 
        42.000          36.000  
 115816070.71147  90246273.62547  22039077.9584   22039082.9344   22039079.5374 
        53.000          46.000  
 110131124.25547  85816444.91547  20957268.5364   20957271.8464   20957267.6504 
        55.000          50.000  
 123984721.63747  96611445.45647  23593530.3684   23593535.9934   23593530.0304 
        47.000          40.000  
 119854606.22047  93393188.82447  22807579.8264   22807583.4734   22807580.0014 
        50.000          45.000  
 10  1 15 19  3 11.0000000  0  8G02G04G05G08G10G15G24G29
 109929969.78247  85659695.91547  20918994.8724   20918996.4794   20918994.8374 
        56.000          50.000  
 124266990.44047  96831406.23647  23647232.5204   23647237.2504   23647231.5384 
        48.000          41.000  
 113583439.90247  88506570.18847  21614211.4164   21614215.4844   21614211.9264 
        54.000          48.000  
 130227214.54847 101475740.20147  24781421.2304   24781426.8444   24781419.2284 
        41.000          36.000  
 115817857.16447  90247665.66847  22039418.0684   22039422.5794   22039419.5364 
        53.000          46.000  
 110129193.05847  85814940.08647  20956900.6384   20956904.3744   20956900.1744 
        55.000          50.000  
 123982431.60947  96609661.01847  23593094.9364   23593100.2324   23593094.4084 
        47.000          40.000  
 119852090.61347  93391228.61047  22807101.2614   22807104.2124   22807101.2714 
        50.000          45.000  
 10  1 15 19  3 12.0000000  0  8G02G04G05G08G10G15G24G29
 109929917.16147  85659654.91047  20918984.9654   20918986.3064   20918984.8744 
        56.000          50.000  
 124268678.00947  96832721.22347  23647552.6254   23647558.3484   23647552.7944 
        48.000          41.000  
 113584484.35947  88507384.05047  21614410.7084   21614414.3824   21614410.7414 
        54.000          48.000  
 130226637.43747 101475290.50747  24781311.0234   24781317.0884   24781309.9334 
        41.000          36.000  
 115819643.64847  90249057.73247  22039758.4544   22039762.6874   22039759.4984 
        53.000          46.000  
 110127262.42547  85813435.69847  20956533.4474   20956536.8594   20956532.8844 
        55.000          50.000  
 123980141.52247  96607876.53647  23592658.3484   23592664.4594   23592658.7074 
        47.000          40.000  
 119849575.44747  93389268.74647  22806622.6974   22806626.0204   22806622.5594 
        50.000          45.000  
 10  1 15 19  3 13.0000000  0  8G02G04G05G08G10G15G24G29
 109929864.91747  85659614.20147  20918974.6914   20918976.5404   20918975.0144 
        56.000          50.000  
 124270365.85147  96834036.42547  23647874.5434   23647878.7144   23647874.0894 
        47.000          41.000  
 113585528.91647  88508197.98847  21614609.2824   21614613.1884   21614609.4914 
        54.000          48.000  
 130226060.73847 101474841.13347  24781200.4534   24781207.2484   24781200.5584 
        41.000          36.000  
 115821430.18047  90250449.83547  22040098.3704   22040102.0464   22040099.5324 
        53.000          46.000  
 110125332.35547  85811931.74947  20956166.0884   20956169.5044   20956165.6724 
        55.000          50.000  
 123977851.39047  96606092.01447  23592222.7774   23592228.5624   23592223.0584 
        47.000          40.000  
 119847060.73247  93387309.22547  22806144.4624   22806148.1054   22806143.9224 
        50.000          45.000  
 10  1 15 19  3 14.0000000  0  8G02G04G05G08G10G15G24G29
 109929813.01847  85659573.75847  20918964.9764   20918966.6204   20918965.2504 
        56.000          50.000  
 124272053.95847  96835351.83047  23648197.0714   23648200.2284   23648195.3424 
        48.000          41.000  
 113586573.53847  88509011.98047  21614808.2474   21614811.5994   21614808.2874 
        54.000          48.000  
 130225484.36447 101474392.01547  24781090.6674   24781098.5164   24781091.2394 
        41.000          36.000  
 115823216.72547  90251841.94847  22040438.5394   22040442.5384   22040439.4674 
        53.000          46.000  
 110123402.83147  85810428.22447  20955798.8984   20955802.4494   20955798.5614 
        55.000          50.000  
 123975561.16147  96604307.41947  23591787.0614   23591792.1684   23591787.4114 
        48.000          40.000  
 119844546.44047  93385350.03847  22805665.4504   22805669.2374   22805665.5024 
        50.000          45.000  
 10  1 15 19  3 15.0000000  0  8G02G04G05G08G10G15G24G29
 109929761.43647  85659533.56447  20918955.2504   20918956.8124   20918955.5254 
        56.000          50.000  
 124273742.28547  96836667.40447  23648516.9424   23648523.1504   23648516.6984 
        48.000          41.000  
 113587618.18047  88509825.98647  21615007.0694   21615010.7794   21615007.1044 
        54.000          48.000  
 130224908.32847 101473943.16047  24780980.1254   24780989.3264   24780981.4504 
        41.000          36.000  
 115825003.23847  90253234.03547  22040778.0934   22040782.7934   22040779.4134 
        53.000          46.000  
 110121473.81747  85808925.09747  20955431.6844   20955435.4294   20955431.5514 
        55.000          50.000  
 123973270.83747  96602522.74847  23591350.2664   23591355.8294   23591351.7704 
        47.000          40.000  
 119842032.52847  93383391.14547  22805187.2084   22805189.7734   22805187.1324 
        50.000          45.000  
 10  1 15 19  3 16.0000000  0  8G02G04G05G08G10G15G24G29
 109929710.19847  85659493.63847  20918945.7324   20918947.2134   20918945.8514 
        56.000          50.000  
 124275430.85647  96837983.17147  23648838.4074   23648842.9014   23648838.1914 
        48.000          41.000  
 113588662.87647  88510640.03647  21615205.8134   21615209.4624   21615205.9014 
        54.000          48.000  
 130224332.66047 101473494.59147  24780869.6904   24780878.4194   24780871.5234 
        41.000          36.000  
 115826789.76047  90254626.12847  22041118.3554   22041123.1964   22041119.4054 
        53.000          46.000  
 110119545.34447  85807422.39147  20955064.8184   20955068.4924   20955064.6154 
        55.000          50.000  
 123970980.41947  96600738.00347  23590915.0474   23590921.3594   23590916.0104 
        47.000          40.000  
 119839519.02847  93381432.57647  22804709.2544   22804712.1174   22804708.7794 
        51.000          45.000  
 10  1 15 19  3 17.0000000  0  8G02G04G05G08G10G15G24G29
 109929659.24447  85659453.93347  20918935.8754   20918937.5734   20918936.2244 
        56.000          50.000  
 124277119.61647  96839299.08847  23649158.2184   23649163.7684   23649159.6164 
        48.000          41.000  
 113589707.58547  88511454.09647  21615405.0144   21615408.6344   21615404.6294 
        54.000          48.000  
 130223757.28047 101473046.24647  24780759.7424   24780767.6144   24780761.3554 
        40.000          36.000  
 115828576.23647  90256018.18847  22041457.5914   22041461.8184   22041459.2994 
        53.000          46.000  
 110117617.35847  85805920.06447  20954697.9564   20954701.4684   20954697.8064 
        55.000          50.000  
 123968689.86147  96598953.15047  23590479.3894   23590484.6584   23590480.2524 
        47.000          41.000  
 119837005.88747  93379474.28447  22804230.1784   22804233.6604   22804230.3734 
        50.000          45.000  
 10  1 15 19  3 18.0000000  0  8G02G04G05G08G10G15G24G29
 109929608.73347  85659414.57647  20918926.0464   20918927.6034   20918926.6404 
        56.000          50.000  
 124278808.72747  96840615.28147  23649481.5104   23649485.8044   23649481.0544 
        48.000          41.000  
 113590752.43947  88512268.26847  21615603.3454   21615606.9404   21615603.5314 
        54.000          48.000  
 130223182.34047 101472598.24247  24780649.7844   24780658.3334   24780651.3504 
        41.000          36.000  
 115830362.81447  90257410.32747  22041798.2624   22041802.1004   22041799.2354 
        53.000          46.000  
 110115689.99447  85804418.22447  20954331.4134   20954334.8164   20954330.9864 
        55.000          50.000  
 123966399.31047  96597168.30547  23590044.3794   23590049.3384   23590044.6704 
        47.000          41.000  
 119834493.25447  93377516.38847  22803752.7254   22803756.5574   22803752.1334 
        50.000          45.000  
 10  1 15 19  3 19.0000000  0  8G02G04G05G08G10G15G24G29
 109929558.56247  85659375.48247  20918916.6334   20918918.1204   20918917.1004 
        56.000          50.000  
 124280498.10947  96841931.68247  23649803.1444   23649806.9474   23649802.6294 
        48.000          42.000  
 113591797.35147  88513082.48647  21615802.6124   21615805.9154   21615802.4384 
        54.000          48.000  
 130222607.72347 101472150.49147  24780541.2544   24780549.5824   24780541.9254 
        40.000          36.000  
 115832149.38947  90258802.46347  22042137.8354   22042142.5264   22042139.1884 
        53.000          46.000  
 110113763.15847  85802916.79447  20953964.4144   20953968.1484   20953964.3134 
        55.000          50.000  
 123964108.66547  96595383.38947  23589607.5044   23589613.5064   23589608.7244 
        47.000          41.000  
 119831981.03047  93375558.81047  22803273.9494   22803278.2244   22803274.0684 
        50.000          45.000  
 10  1 15 19  3 20.0000000  0  8G02G04G05G08G10G15G24G29
 109929508.77147  85659336.68547  20918907.0114   20918908.8744   20918907.5954 
        56.000          50.000  
 124282187.75447  96843248.28447  23650123.8414   23650128.8764   23650124.1014 
        48.000          42.000  
 113592842.36547  88513896.78647  21616000.8504   21616004.7734   21616001.3544 
        54.000          48.000  
 130222033.53647 101471703.07047  24780432.5054   24780441.5394   24780432.7054 
        41.000          36.000  
 115833936.01147  90260194.63747  22042478.4024   22042482.1004   22042479.1014 
        53.000          46.000  
 110111836.89847  85801415.81447  20953598.1464   20953601.7934   20953597.7264 
        55.000          50.000  
 123961817.98047  96593598.44247  23589172.0444   23589177.4674   23589172.7484 
        47.000          41.000  
 119829469.26747  93373601.59147  22802796.6844   22802800.1824   22802796.1124 
        50.000          45.000  
 10  1 15 19  3 21.0000000  0  8G02G04G05G08G10G15G24G29
 109929459.12347  85659297.99747  20918897.6194   20918899.4774   20918898.1964 
        56.000          50.000  
 124283877.44947  96844564.93147  23650445.6904   23650451.5054   23650445.7284 
        48.000          42.000  
 113593887.22747  88514710.96347  21616200.3804   21616203.3874   21616200.2184 
        54.000          48.000  
 130221459.47447 101471255.74847  24780324.6054   24780333.4094   24780323.2214 
        41.000          36.000  
 115835722.44247  90261586.66147  22042817.9284   22042822.8504   22042818.9784 
        53.000          46.000  
 110109910.98747  85799915.10247  20953231.6474   20953235.0574   20953231.1684 
        55.000          50.000  
 123959526.99747  96591813.26347  23588736.6024   23588741.4244   23588736.8954 
        47.000          41.000  
 119826957.71847  93371644.53947  22802318.1054   22802321.7204   22802318.2004 
        50.000          45.000  
 10  1 15 19  3 22.0000000  0  8G02G04G05G08G10G15G24G29
 109929409.98247  85659259.70547  20918888.2464   20918890.0564   20918888.8014 
        56.000          50.000  
 124285567.56347  96845881.90247  23650766.1634   23650771.1934   23650767.1714 
        47.000          41.000  
 113594932.32247  88515525.32347  21616399.2914   21616402.4424   21616399.1104 
        54.000          48.000  
 130220885.92847 101470808.82747  24780216.0394   24780223.8834   24780214.0564 
        40.000          36.000  
 115837509.04247  90262978.81647  22043158.3844   22043162.1644   22043158.9174 
        53.000          46.000  
 110107985.76947  85798414.93447  20952865.0934   20952868.9694   20952864.7534 
        55.000          50.000  
 123957236.09547  96590028.14947  23588299.9074   23588305.9044   23588300.8974 
        47.000          40.000  
 119824446.74547  93369687.93647  22801840.3584   22801844.1904   22801840.4684 
        51.000          45.000  
 10  1 15 19  3 23.0000000  0  8G02G04G05G08G10G15G24G29
 109929361.16747  85659221.66747  20918878.9664   20918880.7144   20918879.5784 
        56.000          50.000  
 124287257.90747  96847199.05347  23651089.0134   23651093.3574   23651088.7384 
        48.000          42.000  
 113595977.45747  88516339.71347  21616597.6114   21616601.5314   21616597.9874 
        54.000          48.000  
 130220312.69747 101470362.15047  24780106.8514   24780113.3444   24780104.8184 
        40.000          36.000  
 115839295.63247  90264370.96447  22043497.4344   22043502.6834   22043498.7704 
        53.000          46.000  
 110106061.07147  85796915.17047  20952498.9234   20952502.5664   20952498.4614 
        55.000          50.000  
 123954945.10747  96588242.96847  23587863.4984   23587870.4284   23587864.9364 
        47.000          40.000  
 119821936.17047  93367731.64647  22801363.2844   22801366.4474   22801362.7484 
        50.000          45.000  
 10  1 15 19  3 24.0000000  0  8G02G04G05G08G10G15G24G29
 109929312.61347  85659183.83347  20918869.8034   20918871.4894   20918870.3314 
        56.000          50.000  
 124288948.43947  96848516.34947  23651410.0764   23651415.8104   23651410.4034 
        48.000          42.000  
 113597022.56447  88517154.08047  21616796.4694   21616800.0074   21616796.7614 
        54.000          48.000  
 130219739.74447 101469915.69047  24779997.9184   24780006.0974   24779995.7694 
        41.000          36.000  
 115841082.13147  90265763.04247  22043837.9754   22043842.4414   22043838.7154 
        53.000          46.000  
 110104136.83947  85795415.76947  20952132.9854   20952136.4244   20952132.2594 
        55.000          50.000  
 123952653.93847  96586457.64647  23587427.9564   23587433.9744   23587428.8164 
        47.000          40.000  
 119819425.92347  93365775.60847  22800885.1394   22800888.6674   22800885.0034 
        50.000          45.000  
 10  1 15 19  3 25.0000000  0  8G02G04G05G08G10G15G24G29
 109929264.45747  85659146.30847  20918860.4204   20918862.4614   20918861.1534 
        56.000          50.000  
 124290639.26647  96849833.87547  23651732.1304   23651737.3944   23651732.1494 
        48.000          42.000  
 113598067.79347  88517968.54547  21616995.7554   21616998.6864   21616995.6614 
        54.000          48.000  
 130219167.19147 101469469.54447  24779886.8594   24779897.0614   24779886.8504 
        41.000          36.000  
 115842868.71547  90267155.18547  22044178.3564   22044182.0444   22044178.7164 
        53.000          46.000  
 110102213.19447  85793916.82647  20951766.4134   20951770.6224   20951766.1634 
        55.000          50.000  
 123950362.73647  96584672.29847  23586991.8654   23586997.6624   23586992.6274 
        47.000          40.000  
 119816916.14847  93363819.93947  22800407.8284   22800411.3414   22800407.4874 
        50.000          45.000  
 10  1 15 19  3 26.0000000  0  8G02G04G05G08G10G15G24G29
 109929216.63447  85659109.04347  20918851.7374   20918853.2734   20918851.9994 
        56.000          50.000  
 124292330.33547  96851151.58747  23652054.9604   23652059.6724   23652054.0704 
        48.000          42.000  
 113599113.06347  88518783.04147  21617194.1184   21617197.9704   21617194.5324 
        54.000          48.000  
 130218595.01247 101469023.68947  24779778.3854   24779786.8874   24779777.9234 
        41.000          36.000  
 115844655.27947  90268547.31547  22044517.3984   22044522.0654   22044518.7374 
        53.000          46.000  
 110100290.06547  85792418.28547  20951400.9474   20951404.0914   20951400.1874 
        55.000          50.000  
 123948071.43647  96582886.87347  23586555.4394   23586561.0564   23586556.5184 
        47.000          41.000  
 119814406.79247  93361864.59847  22799929.3304   22799934.3974   22799930.0404 
        50.000          45.000  
 10  1 15 19  3 27.0000000  0  8G02G04G05G08G10G15G24G29
 109929169.17747  85659072.06347  20918842.5694   20918844.3644   20918842.9204 
        56.000          50.000  
 124294021.65247  96852469.49347  23652376.2114   23652382.4844   23652376.0054 
        49.000          42.000  
 113600158.41247  88519597.59947  21617393.3844   21617397.3224   21617393.4304 
        54.000          48.000  
 130218023.19847 101468578.11847  24779670.3184   24779679.3364   24779669.4314 
        42.000          36.000  
 115846441.86747  90269939.46147  22044858.3384   22044862.3714   22044858.7264 
        53.000          46.000  
 110098367.51847  85790920.19847  20951034.9094   20951038.4854   20951034.3914 
        55.000          50.000  
 123945780.07747  96581101.40247  23586119.7364   23586125.3714   23586120.2514 
        47.000          41.000  
 119811897.86447  93359909.59247  22799452.9014   22799456.2854   22799452.6604 
        51.000          45.000  
 10  1 15 19  3 28.0000000  0  8G02G04G05G08G10G15G24G29
 109929122.07447  85659035.35847  20918833.4774   20918835.4074   20918833.8944 
        56.000          50.000  
 124295713.23047  96853787.60247  23652698.4574   23652703.6924   23652698.0424 
        48.000          42.000  
 113601203.83347  88520412.21347  21617592.4534   21617595.4234   21617592.2614 
        54.000          48.000  
 130217451.71947 101468132.81247  24779560.9634   24779570.5424   24779560.8594 
        41.000          36.000  
 115848228.46747  90271331.62047  22045197.4234   22045202.1274   22045198.6734 
        53.000          46.000  
 110096445.49547  85789422.51847  20950669.2714   20950672.6324   20950668.6724 
        55.000          50.000  
 123943488.63847  96579315.86547  23585683.6264   23585689.5704   23585684.0854 
        47.000          41.000  
 119809389.36147  93357954.91447  22798975.5224   22798979.1884   22798975.2954 
        51.000          45.000  
 10  1 15 19  3 29.0000000  0  8G02G04G05G08G10G15G24G29
 109929075.28147  85658998.89647  20918824.7014   20918826.7524   20918824.9124 
        56.000          50.000  
 124297405.05247  96855105.90447  23653020.1074   23653024.7134   23653020.0044 
        48.000          42.000  
 113602249.27747  88521226.84447  21617791.2524   21617794.6524   21617791.1984 
        54.000          48.000  
 130216880.60447 101467687.78947  24779452.3934   24779462.8124   24779452.3594 
        41.000          36.000  
 115850015.04447  90272723.75747  22045537.3654   22045542.4304   22045538.6154 
        52.000          46.000  
 110094523.98847  85787925.24147  20950303.7264   20950307.1844   20950303.0794 
        55.000          50.000  
 123941197.07047  96577530.22847  23585248.0994   23585253.8924   23585247.9634 
        47.000          41.000  
 119806881.24347  93356000.53847  22798498.0704   22798501.3494   22798498.1004 
        51.000          45.000  
 10  1 15 19  3 30.0000000  0  8G02G04G05G08G10G15G24G29
 109929028.78947  85658962.66847  20918816.0044   20918817.4254   20918816.0734 
        56.000          50.000  
 124299097.07447  96856424.36447  23653341.8414   23653347.1674   23653342.0954 
        48.000          42.000  
 113603294.74547  88522041.49447  21617990.5094   21617993.7034   21617990.1384 
        54.000          48.000  
 130216309.75847 101467242.97647  24779343.7184   24779353.5744   24779343.7254 
        41.000          36.000  
 115851801.58247  90274115.86647  22045878.1904   22045882.5914   22045878.5504 
        53.000          46.000  
 110092602.97247  85786428.34847  20949937.9194   20949941.5604   20949937.6154 
        55.000          50.000  
 123938905.38847  96575744.50247  23584812.0454   23584817.7324   23584811.8834 
        47.000          41.000  
 119804373.49547  93354046.44647  22798021.5524   22798025.1754   22798020.8364 
        50.000          45.000  
 10  1 15 19  3 31.0000000  0  8G02G04G05G08G10G15G24G29
 109928982.71047  85658926.76347  20918807.1904   20918808.6094   20918807.3054 
        56.000          50.000  
 124300789.41747  96857743.07047  23653664.4414   23653670.7174   23653664.2654 
        48.000          42.000  
 113604340.33447  88522856.23947  21618189.1434   21618192.5444   21618189.0364 
        54.000          48.000  
 130215739.34947 101466798.50347  24779236.3714   24779246.2744   24779235.3744 
        41.000          36.000  
 115853588.20347  90275508.03947  22046216.9084   22046222.9054   22046218.5594 
        52.000          46.000  
 110090682.57047  85784931.93147  20949572.4614   20949576.2224   20949572.2104 
        55.000          50.000  
 123936613.66547  96573958.74247  23584375.6264   23584382.4344   23584375.6964 
        47.000          41.000  
 119801866.23247  93352092.73547  22797543.2504   22797547.7524   22797543.7604 
        50.000          45.000  
 10  1 15 19  3 32.0000000  0  8G02G04G05G08G10G15G24G29
 109928936.96147  85658891.11547  20918798.2444   20918800.2694   20918798.6084 
        56.000          50.000  
 124302481.98347  96859061.95447  23653985.0024   23653992.6334   23653986.2744 
        48.000          42.000  
 113605385.97347  88523671.02247  21618388.2484   21618391.7184   21618387.9124 
        54.000          48.000  
 130215169.24347 101466354.26747  24779127.8854   24779136.5804   24779127.1094 
        41.000          36.000  
 115855374.80947  90276900.19947  22046557.3394   22046562.3244   22046558.5434 
        52.000          46.000  
 110088762.68947  85783435.92247  20949207.4234   20949210.5674   20949206.9014 
        55.000          50.000  
 123934321.86847  96572172.92347  23583939.4994   23583945.0984   23583939.4094 
        47.000          41.000  
 119799359.36647  93350139.33547  22797067.4044   22797070.1554   22797066.7694 
        50.000          45.000  
 10  1 15 19  3 33.0000000  0  8G02G04G05G08G10G15G24G29
 109928891.52147  85658855.70747  20918789.6954   20918791.6094   20918789.9314 
        56.000          50.000  
 124304174.76947  96860381.01047  23654308.0184   23654314.5424   23654308.5744 
        48.000          42.000  
 113606431.62847  88524485.81647  21618587.0834   21618590.8424   21618586.8734 
        54.000          48.000  
 130214599.49647 101465910.30947  24779019.3974   24779027.3244   24779019.0094 
        41.000          36.000  
 115857161.38447  90278292.33647  22046897.1204   22046902.0504   22046898.5514 
        52.000          46.000  
 110086843.30847  85781940.30047  20948841.7734   20948845.6354   20948841.6704 
        55.000          50.000  
 123932029.92547  96570386.99247  23583503.1634   23583508.5724   23583503.0264 
        47.000          41.000  
 119796852.87047  93348186.22047  22796589.7224   22796593.2514   22796589.7484 
        50.000          45.000  
 10  1 15 19  3 34.0000000  0  8G02G04G05G08G10G15G24G29
 109928846.51847  85658820.64247  20918781.0894   20918783.1644   20918781.3904 
        56.000          50.000  
 124305867.88847  96861700.32547  23654630.9554   23654636.1144   23654630.6004 
        48.000          42.000  
 113607477.42647  88525300.72547  21618786.3444   21618789.2074   21618785.8244 
        54.000          48.000  
 130214030.16347 101465466.67347  24778910.8714   24778917.9944   24778910.6724 
        41.000          36.000  
 115858948.04047  90279684.53147  22047237.1174   22047242.0704   22047238.4964 
        53.000          46.000  
 110084924.55647  85780445.17047  20948476.6604   20948480.3574   20948476.5254 
        55.000          50.000  
 123929737.98947  96568601.06747  23583067.0494   23583072.7424   23583066.7884 
        47.000          41.000  
 119794346.88747  93346233.50447  22796112.4534   22796116.3114   22796112.9624 
        50.000          45.000  
 10  1 15 19  3 35.0000000  0  8G02G04G05G08G10G15G24G29
 109928801.75347  85658785.76047  20918772.6794   20918774.3504   20918772.8404 
        56.000          50.000  
 124307561.14447  96863019.74547  23654952.8014   23654958.1624   23654952.7444 
        48.000          42.000  
 113608523.17647  88526115.59547  21618985.2294   21618988.4104   21618984.7464 
        54.000          48.000  
 130213461.07847 101465023.22847  24778802.4074   24778810.6534   24778802.0924 
        42.000          36.000  
 115860734.59247  90281076.64947  22047577.2864   22047582.1714   22047578.5334 
        53.000          46.000  
 110083006.22747  85778950.37047  20948111.7114   20948115.3444   20948111.4674 
        55.000          50.000  
 123927445.87447  96566815.00347  23582630.7054   23582636.3444   23582630.4014 
        47.000          40.000  
 119791841.21047  93344281.02947  22795635.6424   22795639.6044   22795635.9974 
        50.000          45.000  
 10  1 15 19  3 36.0000000  0  8G02G04G05G08G10G15G24G29
 109928757.33847  85658751.14947  20918764.4104   20918766.0454   20918764.4084 
        56.000          50.000  
 124309254.66747  96864339.37247  23655274.7974   23655278.8894   23655275.0244 
        48.000          42.000  
 113609568.98947  88526930.51447  21619184.3604   21619187.7314   21619183.6994 
        54.000          48.000  
 130212892.33847 101464580.05147  24778694.3094   24778703.0934   24778693.8504 
        41.000          36.000  
 115862521.15847  90282468.77847  22047916.7824   22047922.1174   22047918.4994 
        52.000          46.000  
 110081088.45047  85777455.99847  20947746.8024   20947750.4824   20947746.5484 
        55.000          50.000  
 123925153.65047  96565028.85547  23582194.7074   23582200.4814   23582194.1874 
        47.000          40.000  
 119789335.94947  93342328.87647  22795158.3994   22795163.2154   22795159.1904 
        50.000          45.000  
 10  1 15 19  3 37.0000000  0  8G02G04G05G08G10G15G24G29
 109928713.34247  85658716.86647  20918756.0474   20918757.7784   20918756.1044 
        56.000          50.000  
 124310948.50447  96865659.24547  23655597.2984   23655602.5654   23655597.4034 
        48.000          42.000  
 113610614.93347  88527745.53447  21619383.3754   21619386.6504   21619382.7384 
        54.000          48.000  
 130212324.05747 101464137.23347  24778585.2834   24778595.3414   24778585.7474 
        41.000          36.000  
 115864307.80647  90283860.97347  22048256.6174   22048261.6964   22048258.4274 
        52.000          46.000  
 110079171.28347  85775962.10347  20947381.8334   20947385.5534   20947381.7554 
        55.000          50.000  
 123922861.42647  96563242.70947  23581759.5964   23581764.7564   23581757.9804 
        46.000          40.000  
 119786831.18247  93340377.11247  22794682.5884   22794686.1184   22794682.3644 
        50.000          45.000  
 10  1 15 19  3 38.0000000  0  8G02G04G05G08G10G15G24G29
 109928669.65647  85658682.82347  20918747.5534   20918749.3434   20918747.8364 
        56.000          50.000  
 124312642.55747  96866979.28447  23655917.7024   23655924.6494   23655919.6634 
        49.000          42.000  
 113611660.90747  88528560.57847  21619582.5784   21619585.5694   21619581.8394 
        54.000          48.000  
 130211756.06747 101463694.64247  24778476.8984   24778487.0504   24778477.7264 
        41.000          37.000  
 115866094.42547  90285253.14247  22048597.4084   22048602.3964   22048598.4234 
        52.000          46.000  
 110077254.62247  85774468.60247  20947017.4244   20947020.8964   20947017.0284 
        55.000          50.000  
 123920569.09747  96561456.48047  23581323.2894   23581328.2444   23581321.7284 
        47.000          40.000  
 119784326.79347  93338425.64147  22794206.1674   22794209.8944   22794205.6954 
        50.000          45.000  
 10  1 15 19  3 39.0000000  0  8G02G04G05G08G10G15G24G29
 109928626.22747  85658648.98047  20918739.4984   20918741.1454   20918739.6404 
        56.000          50.000  
 124314336.77547  96868299.45347  23656241.8234   23656246.9264   23656242.2594 
        48.000          42.000  
 113612706.83847  88529375.59047  21619781.3364   21619784.2994   21619780.8914 
        54.000          48.000  
 130211188.33447 101463252.25247  24778369.2404   24778380.0374   24778369.9784 
        42.000          37.000  
 115867880.95647  90286645.24347  22048937.6074   22048941.6944   22048938.4064 
        52.000          46.000  
 110075338.42447  85772975.46247  20946652.6564   20946656.2114   20946652.4714 
        55.000          50.000  
 123918276.57647  96559670.10247  23580886.8104   23580891.0264   23580885.5594 
        47.000          40.000  
 119781822.74247  93336474.43447  22793729.0114   22793733.1254   22793729.1164 
        50.000          45.000  
 10  1 15 19  3 40.0000000  0  8G02G04G05G08G10G15G24G29
 109928583.22947  85658615.47547  20918731.1154   20918732.8404   20918731.5494 
        56.000          50.000  
 124316031.31947  96869619.87647  23656564.3064   23656569.8194   23656564.8144 
        48.000          42.000  
 113613752.92247  88530190.71947  21619980.4664   21619983.9334   21619979.9684 
        54.000          48.000  
 130210621.07247 101462810.23047  24778261.7384   24778272.2814   24778262.1394 
        42.000          37.000  
 115869667.59347  90288037.42847  22049277.2194   22049281.8564   22049278.3584 
        52.000          46.000  
 110073422.83947  85771482.79847  20946288.1484   20946291.8104   20946288.0544 
        55.000          50.000  
 123915984.06847  96557883.73547  23580450.1324   23580454.5784   23580449.3304 
        47.000          41.000  
 119779319.19047  93334523.61547  22793252.5564   22793256.6674   22793252.5754 
        50.000          45.000  
 10  1 15 19  3 41.0000000  0  8G02G04G05G08G10G15G24G29
 109928540.58047  85658582.24047  20918723.1264   20918724.7494   20918723.5164 
        56.000          50.000  
 124317726.12647  96870940.50647  23656886.3514   23656890.7544   23656887.2204 
        48.000          42.000  
 113614799.06147  88531005.89247  21620179.8104   21620182.8254   21620179.0024 
        54.000          48.000  
 130210054.13247 101462368.45847  24778153.4244   24778162.8164   24778154.2034 
        41.000          37.000  
 115871454.22847  90289429.61347  22049616.9714   22049621.5934   22049618.3884 
        52.000          46.000  
 110071507.80347  85769990.56347  20945923.7144   20945927.1644   20945923.6744 
        55.000          50.000  
 123913691.47147  96556097.29647  23580012.5684   23580018.7524   23580013.2254 
        47.000          41.000  
 119776816.06747  93332573.13247  22792776.4584   22792780.0014   22792776.1754 
        50.000          45.000  
 10  1 15 19  3 42.0000000  0  8G02G04G05G08G10G15G24G29
 109928498.30647  85658549.29847  20918715.1464   20918716.7494   20918715.5014 
        56.000          50.000  
 124319421.19547  96872261.34047  23657209.3664   23657215.4064   23657209.5864 
        48.000          42.000  
 113615845.28247  88531821.12847  21620379.0144   21620381.7254   21620378.0694 
        54.000          48.000  
 130209487.60747 101461927.01247  24778046.0704   24778054.9884   24778046.1854 
        42.000          37.000  
 115873240.90147  90290821.82747  22049956.3674   22049961.6414   22049958.4854 
        52.000          46.000  
 110069593.34347  85768498.77647  20945559.5844   20945562.8774   20945559.4234 
        55.000          50.000  
 123911398.82147  96554310.81747  23579577.5964   23579583.4794   23579577.1824 
        47.000          40.000  
 119774313.38147  93330622.99047  22792300.1374   22792304.4174   22792299.7714 
        50.000          45.000  
 10  1 15 19  3 43.0000000  0  8G02G04G05G08G10G15G24G29
 109928456.31147  85658516.57547  20918707.0694   20918708.6044   20918707.4734 
        56.000          50.000  
 124321116.48847  96873582.35247  23657531.6564   23657537.5754   23657532.0854 
        48.000          42.000  
 113616891.49647  88532636.35947  21620577.8044   21620580.9324   21620577.2034 
        54.000          48.000  
 130208921.33647 101461485.76447  24777938.5404   24777947.7954   24777938.4804 
        42.000          37.000  
 115875027.51547  90292213.99347  22050297.2114   22050302.2504   22050298.4914 
        52.000          46.000  
 110067679.34347  85767007.34747  20945195.1874   20945198.5384   20945195.2794 
        55.000          50.000  
 123909106.02547  96552524.22147  23579141.8244   23579147.6404   23579140.9684 
        47.000          41.000  
 119771811.03947  93328673.11347  22791824.4604   22791827.9374   22791823.4494 
        50.000          45.000  
 10  1 15 19  3 44.0000000  0  8G02G04G05G08G10G15G24G29
 109928414.65547  85658484.11747  20918699.1954   20918700.8044   20918699.6414 
        56.000          50.000  
 124322812.00147  96874903.53347  23657854.9044   23657860.2384   23657854.7944 
        48.000          42.000  
 113617937.75247  88533451.62347  21620777.0684   21620780.3884   21620776.4014 
        54.000          48.000  
 130208355.41447 101461044.78847  24777830.7194   24777838.9864   24777831.1444 
        42.000          37.000  
 115876814.12447  90293606.15547  22050637.4474   22050641.5654   22050638.4134 
        52.000          46.000  
 110065765.88347  85765516.34047  20944831.0844   20944834.5454   20944831.2394 
        55.000          50.000  
 123906813.12347  96550737.54147  23578705.5534   23578709.8634   23578704.8824 
        47.000          40.000  
 119769309.11547  93326723.56247  22791348.1804   22791352.2334   22791347.2824 
        50.000          45.000  
 10  1 15 19  3 45.0000000  0  8G02G04G05G08G10G15G24G29
 109928373.37347  85658451.94847  20918691.4944   20918692.9674   20918691.8284 
        56.000          50.000  
 124324507.76847  96876224.90847  23658177.3274   23658181.7924   23658177.4874 
        48.000          42.000  
 113618984.07547  88534266.93947  21620976.4574   21620979.2754   21620975.7014 
        54.000          48.000  
 130207789.85647 101460604.09547  24777723.2874   24777731.8734   24777723.7924 
        42.000          37.000  
 115878600.74147  90294998.32147  22050976.8074   22050982.3984   22050978.3044 
        52.000          46.000  
 110063852.96647  85764025.75547  20944466.9634   20944470.7274   20944467.2504 
        55.000          50.000  
 123904520.15147  96548950.80947  23578268.3664   23578273.5874   23578268.6974 
        47.000          41.000  
 119766807.61947  93324774.34647  22790872.3894   22790876.2924   22790871.1504 
        50.000          45.000  
 10  1 15 19  3 46.0000000  0  8G02G04G05G08G10G15G24G29
 109928332.47447  85658420.08047  20918683.8014   20918685.2414   20918684.0654 
        56.000          50.000  
 124326203.84647  96877546.52547  23658499.8664   23658504.7074   23658500.2434 
        48.000          42.000  
 113620030.50447  88535082.33647  21621175.1334   21621178.4244   21621174.9934 
        54.000          48.000  
 130207224.69747 101460163.71347  24777615.4624   24777623.8694   24777616.5774 
        42.000          37.000  
 115880387.40947  90296390.52947  22051316.7384   22051322.4354   22051318.1734 
        52.000          46.000  
 110061940.63747  85762535.62947  20944103.0734   20944106.6064   20944103.3924 
        55.000          50.000  
 123902227.13647  96547164.04447  23577831.5264   23577837.7004   23577832.6404 
        47.000          41.000  
 119764306.57047  93322825.47647  22790395.6144   22790400.4164   22790395.2624 
        50.000          45.000  
 10  1 15 19  3 47.0000000  0  8G02G04G05G08G10G15G24G29
 109928291.88247  85658388.44947  20918675.8304   20918677.5214   20918676.3144 
        56.000          50.000  
 124327900.12447  96878868.29847  23658822.2694   23658828.8844   23658822.8994 
        48.000          42.000  
 113621076.94747  88535897.74747  21621374.4144   21621377.7904   21621374.2184 
        54.000          48.000  
 130206659.81347 101459723.54347  24777508.5574   24777517.0844   24777509.3214 
        42.000          37.000  
 115882174.04447  90297782.71047  22051657.1154   22051661.5514   22051658.0814 
        52.000          46.000  
 110060028.80547  85761045.88947  20943739.3944   20943742.8174   20943739.5974 
        55.000          50.000  
 123899934.00847  96545377.19247  23577394.8444   23577400.5764   23577396.3004 
        47.000          41.000  
 119761805.91447  93320876.91447  22789920.4564   22789923.6744   22789919.4414 
        50.000          46.000  
 10  1 15 19  3 48.0000000  0  8G02G04G05G08G10G15G24G29
 109928251.66247  85658357.10947  20918668.0784   20918669.7374   20918668.6264 
        56.000          50.000  
 124329596.68947  96880190.29147  23659145.9734   23659150.3334   23659145.7054 
        48.000          42.000  
 113622123.47347  88536713.22347  21621573.5374   21621576.6334   21621573.4394 
        54.000          48.000  
 130206095.33147 101459283.68647  24777401.2824   24777410.0154   24777402.3124 
        41.000          37.000  
 115883960.70547  90299174.91347  22051997.5044   22052002.0524   22051998.0444 
        52.000          46.000  
 110058117.54547  85759556.59647  20943375.5544   20943379.2634   20943375.8944 
        55.000          50.000  
 123897640.79847  96543590.27747  23576958.4094   23576964.7364   23576959.9254 
        47.000          41.000  
 119759305.69747  93318928.69447  22789443.8964   22789447.7224   22789443.8024 
        50.000          45.000  
 10  1 15 19  3 49.0000000  0  8G02G04G05G08G10G15G24G29
 109928211.71847  85658325.98247  20918660.5234   20918662.1914   20918660.9864 
        56.000          50.000  
 124331293.42647  96881512.41847  23659469.6904   23659473.9634   23659468.5424 
        48.000          42.000  
 113623169.99047  88537528.69147  21621772.5964   21621776.2644   21621772.6534 
        54.000          48.000  
 130205531.14447 101458844.05847  24777293.1004   24777302.2294   24777294.9864 
        42.000          37.000  
 115885747.30847  90300567.06947  22052336.4954   22052341.8934   22052338.0124 
        52.000          46.000  
 110056206.75347  85758067.66947  20943012.1184   20943015.4944   20943012.3664 
        55.000          50.000  
 123895347.44947  96541803.25647  23576522.4884   23576528.6484   23576523.5874 
        47.000          41.000  
 119756805.82947  93316980.74147  22788968.9804   22788972.9844   22788968.2624 
        50.000          45.000  
 10  1 15 19  3 50.0000000  0  8G02G04G05G08G10G15G24G29
 109928172.13147  85658295.13447  20918653.2324   20918654.6474   20918653.4544 
        56.000          50.000  
 124332990.42847  96882834.75747  23659791.4434   23659795.6194   23659791.3984 
        48.000          42.000  
 113624216.58947  88538344.22247  21621971.8204   21621974.8834   21621971.9384 
        54.000          48.000  
 130204967.30047 101458404.69947  24777185.1884   24777193.3734   24777187.5984 
        42.000          37.000  
 115887533.92947  90301959.24047  22052677.0064   22052682.0024   22052678.0514 
        52.000          46.000  
 110054296.52047  85756579.17547  20942648.3554   20942652.0604   20942648.8724 
        55.000          50.000  
 123893054.03547  96540016.18447  23576086.5464   23576092.0524   23576087.2574 
        47.000          41.000  
 119754306.40047  93315033.13147  22788492.5884   22788497.5324   22788492.6914 
        50.000          45.000  
 10  1 15 19  3 51.0000000  0  8G02G04G05G08G10G15G24G29
 109928132.94547  85658264.59847  20918645.7234   20918647.1014   20918646.0034 
        56.000          50.000  
 124334687.71747  96884157.31847  23660113.8484   23660120.1244   23660114.3414 
        48.000          42.000  
 113625263.28147  88539159.82647  21622171.1644   21622174.1834   21622171.1894 
        54.000          48.000  
 130204403.87647 101457965.66547  24777077.4624   24777086.5214   24777080.5024 
        42.000          37.000  
 115889320.60347  90303351.45447  22053017.6544   22053021.7154   22053018.1314 
        52.000          46.000  
 110052386.87647  85755091.14347  20942285.4154   20942288.5394   20942285.5554 
        55.000          50.000  
 123890760.57947  96538229.07847  23575649.9374   23575654.9074   23575650.8294 
        47.000          41.000  
 119751807.43747  93313085.88647  22788018.1004   22788020.6814   22788017.1584 
        50.000          45.000  
 10  1 15 19  3 52.0000000  0  8G02G04G05G08G10G15G24G29
 109928094.09247  85658234.32347  20918638.4104   20918640.1654   20918638.7124 
        57.000          50.000  
 124336385.28047  96885480.09147  23660437.3644   23660442.7814   23660437.5414 
        48.000          42.000  
 113626310.02547  88539975.47047  21622369.9534   21622373.2494   21622370.4954 
        54.000          48.000  
 130203840.76047 101457526.87347  24776969.3964   24776979.2034   24776973.2824 
        41.000          37.000  
 115891107.26547  90304743.66147  22053356.9114   22053362.5004   22053358.1454 
        52.000          46.000  
 110050477.75947  85753603.51947  20941921.7434   20941925.2534   20941922.1884 
        55.000          50.000  
 123888467.03747  96536441.90647  23575213.1794   23575219.0514   23575214.4654 
        47.000          41.000  
 119749308.88247  93311138.96147  22787542.4014   22787546.4754   22787541.7024 
        50.000          45.000  
 10  1 15 19  3 53.0000000  0  8G02G04G05G08G10G15G24G29
 109928055.52847  85658204.27147  20918630.9894   20918632.4314   20918631.4844 
        57.000          50.000  
 124338083.03747  96886803.01547  23660761.6364   23660766.4034   23660760.7404 
        48.000          42.000  
 113627356.77347  88540791.12047  21622569.3884   21622572.4704   21622569.7144 
        54.000          48.000  
 130203277.99747 101457088.35747  24776862.9754   24776871.9074   24776866.1894 
        42.000          37.000  
 115892893.88647  90306135.83247  22053697.2654   22053701.6724   22053698.1234 
        52.000          46.000  
 110048569.13147  85752116.27747  20941558.7714   20941562.4434   20941558.9474 
        55.000          50.000  
 123886173.33547  96534654.60847  23574775.7524   23574781.9084   23574777.8964 
        48.000          41.000  
 119746810.68947  93309192.31547  22787066.1544   22787070.2174   22787066.2634 
        50.000          45.000  
 10  1 15 19  3 54.0000000  0  8G02G04G05G08G10G15G24G29
 109928017.35647  85658174.52547  20918623.6474   20918625.1874   20918624.3194 
        56.000          50.000  
 124339781.09947  96888126.18247  23661083.1114   23661089.1884   23661083.9274 
        48.000          42.000  
 113628403.61147  88541606.83847  21622768.4954   21622771.9224   21622768.9744 
        54.000          48.000  
 130202715.58847 101456650.11747  24776755.4074   24776764.7974   24776758.7394 
        41.000          37.000  
 115894680.55047  90307528.03847  22054037.9514   22054042.1204   22054038.0804 
        52.000          46.000  
 110046661.09347  85750629.49347  20941195.7724   20941198.8644   20941195.8354 
        55.000          50.000  
 123883879.60847  96532867.28847  23574339.4744   23574346.0764   23574341.3174 
        47.000          41.000  
 119744312.96247  93307246.03547  22786591.1134   22786595.4474   22786590.8144 
        50.000          45.000  
 10  1 15 19  3 55.0000000  0  8G02G04G05G08G10G15G24G29
 109927979.49947  85658145.02747  20918616.7154   20918617.8634   20918617.1134 
        57.000          50.000  
 124341479.37347  96889449.51547  23661406.7934   23661411.3344   23661407.0064 
        48.000          42.000  
 113629450.48947  88542422.58747  21622967.7834   21622970.7644   21622968.1824 
        54.000          48.000  
 130202153.54147 101456212.15847  24776648.2444   24776657.9154   24776651.3144 
        40.000          37.000  
 115896467.19047  90308920.22447  22054376.7974   22054382.4924   22054378.0804 
        52.000          46.000  
 110044753.57047  85749143.11247  20940832.6624   20940836.1604   20940832.7744 
        55.000          50.000  
 123881585.77147  96531079.88547  23573904.5304   23573909.1164   23573904.9264 
        47.000          41.000  
 119741815.62847  93305300.06247  22786115.5614   22786119.9784   22786115.3274 
        50.000          45.000  
 10  1 15 19  3 56.0000000  0  8G02G04G05G08G10G15G24G29
 109927941.99847  85658115.80647  20918609.5964   20918610.8084   20918610.0264 
        56.000          50.000  
 124343177.90747  96890773.04947  23661730.2724   23661735.8874   23661730.1724 
        48.000          42.000  
 113630497.43447  88543238.38847  21623167.2214   21623170.4524   21623167.4574 
        54.000          48.000  
 130201591.83447 101455774.46447  24776542.5084   24776551.5604   24776544.0454 
        41.000          37.000  
 115898253.84247  90310312.41747  22054717.3394   22054720.7084   22054718.0904 
        52.000          46.000  
 110042846.60147  85747657.16347  20940469.7884   20940473.1914   20940469.8454 
        55.000          50.000  
 123879291.85447  96529292.41647  23573468.1104   23573472.9724   23573468.2234 
        47.000          41.000  
 119739318.73647  93303354.43347  22785641.5344   22785645.2974   22785640.0614 
        50.000          45.000  
 10  1 15 19  3 57.0000000  0  8G02G04G05G08G10G15G24G29
 109927904.82847  85658086.84247  20918602.3204   20918603.6784   20918602.9744 
        57.000          50.000  
 124344876.66547  96892096.75947  23662052.4484   23662058.1414   23662053.3454 
        49.000          42.000  
 113631544.41647  88544054.21847  21623366.4244   21623369.3654   21623366.6894 
        55.000          48.000  
 130201030.48047 101455337.04547  24776435.9684   24776444.3644   24776436.8994 
        41.000          37.000  
 115900040.48247  90311704.60447  22055057.2354   22055061.4734   22055058.0914 
        52.000          46.000  
 110040940.16047  85746171.62447  20940106.9824   20940110.3344   20940107.0004 
        55.000          50.000  
 123876997.83147  96527504.86747  23573029.7584   23573036.7124   23573031.5534 
        47.000          41.000  
 119736822.23247  93301409.10747  22785165.6164   22785169.8694   22785165.0474 
        50.000          46.000  
 10  1 15 19  3 58.0000000  0  8G02G04G05G08G10G15G24G29
 109927867.97047  85658058.12247  20918595.6354   20918596.8204   20918595.9894 
        56.000          50.000  
 124346575.63347  96893420.63147  23662376.3694   23662381.8014   23662376.5814 
        48.000          42.000  
 113632591.43347  88544870.07647  21623565.5124   21623568.8264   21623565.9334 
        55.000          48.000  
 130200469.43747 101454899.86747  24776329.6584   24776337.7374   24776329.9144 
        41.000          37.000  
 115901827.10047  90313096.77247  22055396.9024   22055401.3454   22055398.0664 
        52.000          46.000  
 110039034.23047  85744686.48447  20939744.3154   20939747.8304   20939744.2424 
        55.000          50.000  
 123874703.70347  96525717.23547  23572594.8814   23572599.7064   23572595.0054 
        47.000          41.000  
 119734326.12847  93299464.09247  22784691.2844   22784695.2914   22784690.0464 
        50.000          45.000  
 10  1 15 19  3 59.0000000  0  8G02G04G05G08G10G15G24G29
 109927831.51947  85658029.71947  20918588.3324   20918589.7884   20918589.0464 
        56.000          50.000  
 124348274.94547  96894744.77347  23662699.6684   23662704.7364   23662699.9774 
        48.000          42.000  
 113633638.56747  88545686.02447  21623765.0514   21623768.1674   21623765.2604 
        54.000          48.000  
 130199908.81747 101454463.02047  24776222.6944   24776230.2094   24776222.9814 
        42.000          37.000  
 115903613.77647  90314488.98847  22055736.9964   22055741.8254   22055738.0304 
        52.000          46.000  
 110037128.89747  85743201.81047  20939381.7014   20939385.1894   20939381.6124 
        55.000          50.000  
 123872409.55347  96523929.59047  23572157.4784   23572163.0244   23572158.2624 
        47.000          41.000  
 119731830.49247  93297519.44247  22784215.7214   22784219.5994   22784215.1524 
        50.000          45.000  
 10  1 15 19  4  0.0000000  0  8G02G04G05G08G10G15G24G29
 109927795.35047  85658001.53647  20918581.6344   20918582.9544   20918582.1374 
        56.000          50.000  
 124349974.44047  96896069.05447  23663023.3314   23663029.5804   23663023.3354 
        48.000          42.000  
 113634685.68047  88546501.95747  21623964.3154   21623967.5074   21623964.5334 
        54.000          48.000  
 130199348.47247 101454026.38847  24776116.8004   24776124.6674   24776116.2284 
        41.000          37.000  
 115905400.39147  90315881.15447  22056077.3064   22056081.4634   22056077.9714 
        52.000          46.000  
 110035224.04347  85741717.51047  20939019.1854   20939022.4904   20939019.1934 
        55.000          50.000  
 123870115.24347  96522141.81747  23571720.8704   23571727.7874   23571721.5004 
        47.000          41.000  
 119729335.20947  93295575.06747  22783740.7714   22783745.4004   22783740.3704 
        50.000          46.000  
 10  1 15 19  4  1.0000000  0  8G02G04G05G08G10G15G24G29
 109927759.66647  85657973.72947  20918575.1104   20918576.2534   20918575.3054 
        56.000          50.000  
 124351674.32447  96897393.64047  23663346.7514   23663352.4124   23663346.8234 
        48.000          42.000  
 113635732.99347  88547318.04547  21624163.2924   21624166.3924   21624163.8044 
        55.000          48.000  
 130198788.63047 101453590.14947  24776010.8514   24776018.6434   24776010.0614 
        42.000          37.000  
 115907187.15347  90317273.43647  22056416.5144   22056421.4314   22056417.9604 
        52.000          46.000  
 110033319.87147  85740233.74047  20938656.9134   20938660.3104   20938656.8414 
        55.000          50.000  
 123867821.00347  96520354.09847  23571283.8004   23571290.6864   23571284.8954 
        47.000          41.000  
 119726840.48647  93293631.12647  22783266.5804   22783269.9034   22783265.6644 
        50.000          46.000  
 10  1 15 19  4  2.0000000  0  8G02G04G05G08G10G15G24G29
 109927724.19847  85657946.09147  20918567.8474   20918569.2894   20918568.5344 
        57.000          50.000  
 124353374.33047  96898718.32047  23663669.4174   23663676.3534   23663670.2274 
        48.000          42.000  
 113636780.23547  88548134.07847  21624362.4994   21624365.5264   21624363.0914 
        55.000          48.000  
 130198229.00947 101453154.08347  24775904.7304   24775911.9564   24775903.9594 
        42.000          37.000  
 115908973.78647  90318665.62047  22056757.4224   22056761.3454   22056757.8314 
        52.000          46.000  
 110031416.10147  85738750.28447  20938294.6694   20938297.9784   20938294.6554 
        55.000          50.000  
 123865526.52047  96518566.19147  23570847.6324   23570854.0044   23570848.0474 
        47.000          41.000  
 119724346.03747  93291687.39947  22782792.1694   22782795.9494   22782790.8894 
        50.000          46.000  
 10  1 15 19  4  3.0000000  0  8G02G04G05G08G10G15G24G29
 109927689.04047  85657918.69347  20918561.4664   20918562.6474   20918561.8704 
        57.000          50.000  
 124355074.54247  96900043.15747  23663994.5704   23663998.1684   23663993.6424 
        49.000          42.000  
 113637827.50947  88548950.13647  21624562.0554   21624565.0414   21624562.3784 
        55.000          49.000  
 130197669.70747 101452718.26747  24775798.1364   24775805.9194   24775798.1184 
        42.000          37.000  
 115910760.39447  90320057.78147  22057097.0374   22057101.8534   22057097.7074 
        52.000          46.000  
 110029512.85347  85737267.23447  20937932.7404   20937935.9844   20937932.5144 
        55.000          50.000  
 123863231.94347  96516778.20747  23570411.8714   23570417.1404   23570411.4434 
        47.000          41.000  
 119721851.98647  93289743.98147  22782317.4044   22782320.9684   22782316.3784 
        50.000          45.000  
 10  1 15 19  4  4.0000000  0  8G02G04G05G08G10G15G24G29
 109927654.31647  85657891.63347  20918554.9734   20918555.9734   20918555.2644 
        57.000          50.000  
 124356775.07247  96901368.24147  23664317.7914   23664323.2764   23664317.4274 
        48.000          42.000  
 113638874.91347  88549766.29447  21624761.9234   21624764.4394   21624761.6374 
        55.000          49.000  
 130197110.85647 101452282.80047  24775691.0994   24775699.6614   24775692.0834 
        42.000          37.000  
 115912547.08147  90321450.00547  22057436.4314   22057441.2754   22057437.6554 
        52.000          46.000  
 110027610.22247  85735784.66447  20937570.2994   20937573.7044   20937570.4914 
        55.000          50.000  
 123860937.35847  96514990.22047  23569974.6324   23569980.3924   23569974.8974 
        46.000          41.000  
 119719358.43147  93287800.95247  22781842.9604   22781846.8194   22781842.0434 
        50.000          46.000  
 10  1 15 19  4  5.0000000  0  8G02G04G05G08G10G15G24G29
 109927619.94547  85657864.84847  20918548.3164   20918549.5014   20918548.7754 
        57.000          50.000  
 124358475.87347  96902693.53547  23664640.9604   23664647.0204   23664641.1594 
        48.000          42.000  
 113639922.37847  88550582.50147  21624960.7294   21624963.8044   21624960.8664 
        55.000          48.000  
 130196552.34547 101451847.59847  24775584.5634   24775593.3254   24775585.9614 
        42.000          37.000  
 115914333.78747  90322842.24447  22057777.0494   22057781.3364   22057777.5884 
        52.000          46.000  
 110025708.14247  85734302.52447  20937208.5414   20937211.4094   20937208.5564 
        55.000          50.000  
 123858642.69847  96513202.17347  23569537.1224   23569543.2914   23569538.1374 
        47.000          41.000  
 119716865.30347  93285858.25747  22781367.8504   22781372.4684   22781367.8014 
        50.000          46.000  
 10  1 15 19  4  6.0000000  0  8G02G04G05G08G10G15G24G29
 109927585.84747  85657838.27747  20918541.5954   20918542.9764   20918542.3174 
        57.000          50.000  
 124360176.83847  96904018.95947  23664965.6204   23664970.9534   23664965.0154 
        49.000          42.000  
 113640969.81747  88551398.68547  21625160.2344   21625163.0944   21625160.1384 
        54.000          48.000  
 130195994.12147 101451412.62047  24775478.4384   24775486.4054   24775479.8154 
        42.000          37.000  
 115916120.41947  90324234.42447  22058116.4814   22058121.0814   22058117.5594 
        52.000          46.000  
 110023806.53047  85732820.75047  20936846.3954   20936850.0264   20936846.7064 
        55.000          50.000  
 123856347.88047  96511414.00547  23569101.0074   23569106.4924   23569101.2594 
        46.000          41.000  
 119714372.51647  93283915.82647  22780893.9044   22780898.1204   22780893.5874 
        50.000          46.000  
 10  1 15 19  4  7.0000000  0  8G02G04G05G08G10G15G24G29
 109927552.09147  85657811.97247  20918535.3274   20918536.7094   20918535.9554 
        57.000          50.000  
 124361878.08347  96905344.60047  23665288.9654   23665294.2984   23665288.8594 
        49.000          42.000  
 113642017.32547  88552214.92547  21625359.2734   21625362.2934   21625359.3504 
        54.000          48.000  
 130195436.25947 101450977.92347  24775372.1734   24775380.9284   24775373.6284 
        42.000          37.000  
 115917907.05347  90325626.60547  22058457.0904   22058461.1004   22058457.5494 
        52.000          46.000  
 110021905.45447  85731339.39247  20936484.8584   20936488.1184   20936484.8914 
        55.000          50.000  
 123854052.97547  96509625.76847  23568663.0824   23568668.6904   23568664.5054 
        47.000          41.000  
 119711880.14247  93281973.71647  22780419.1984   22780423.1264   22780419.4064 
        50.000          46.000  
 10  1 15 19  4  8.0000000  0  8G02G04G05G08G10G15G24G29
 109927518.72947  85657785.97547  20918529.0294   20918530.3494   20918529.6734 
        57.000          50.000  
 124363579.63447  96906670.48347  23665612.9454   23665618.4354   23665612.7794 
        49.000          42.000  
 113643064.93247  88553031.24247  21625558.5704   21625561.7384   21625558.6314 
        54.000          48.000  
 130194878.77847 101450543.52347  24775265.9914   24775275.0214   24775267.5434 
        43.000          37.000  
 115919693.73147  90327018.81947  22058796.9284   22058801.3794   22058797.5364 
        52.000          46.000  
 110020004.97347  85729858.49947  20936123.1494   20936126.5584   20936123.1604 
        55.000          50.000  
 123851758.01747  96507837.49147  23568227.3464   23568233.8444   23568227.9184 
        47.000          41.000  
 119709388.24147  93280031.97547  22779945.5814   22779949.0074   22779945.4054 
        50.000          46.000  
 10  1 15 19  4  9.0000000  0  8G02G04G05G08G10G15G24G29
 109927485.72347  85657760.25847  20918522.6224   20918524.1374   20918523.4854 
        57.000          50.000  
 124365281.41547  96907996.54647  23665935.8064   23665940.6274   23665936.6244 
        49.000          42.000  
 113644112.60647  88553847.61247  21625757.9814   21625761.0764   21625757.9604 
        54.000          48.000  
 130194321.66447 101450109.40847  24775159.5474   24775167.9544   24775161.2584 
        42.000          37.000  
 115921480.43447  90328411.05447  22059136.7954   22059140.9514   22059137.5824 
        52.000          46.000  
 110018105.03847  85728378.03247  20935761.5284   20935765.1134   20935761.5854 
        55.000          50.000  
 123849463.01047  96506049.17647  23567790.5944   23567795.9614   23567791.1994 
        47.000          41.000  
 119706896.76147  93278090.56447  22779471.1134   22779474.9244   22779471.3014 
        50.000          46.000  
 10  1 15 19  4 10.0000000  0  8G02G04G05G08G10G15G24G29
 109927453.02947  85657734.78247  20918516.6564   20918517.8094   20918517.2994 
        57.000          50.000  
 124366983.40747  96909322.77547  23666260.5094   23666264.7354   23666260.4364 
        48.000          42.000  
 113645160.29647  88554663.99347  21625957.5054   21625960.3174   21625957.2964 
        54.000          49.000  
 130193764.86247 101449675.53747  24775053.4504   24775062.1704   24775055.2874 
        42.000          37.000  
 115923267.09347  90329803.25347  22059476.7824   22059481.9664   22059477.5644 
        52.000          46.000  
 110016205.61547  85726897.96347  20935400.4174   20935403.7894   20935400.0974 
        55.000          50.000  
 123847167.86847  96504260.75647  23567354.2234   23567359.8494   23567354.3774 
        47.000          41.000  
 119704405.67447  93276149.45847  22778997.2664   22779001.3434   22778997.4324 
        50.000          46.000  
 10  1 15 19  4 11.0000000  0  8G02G04G05G08G10G15G24G29
 109927420.63447  85657709.53947  20918509.9974   20918511.6204   20918511.1624 
        57.000          50.000  
 124368685.62147  96910649.17847  23666584.3554   23666589.6014   23666584.4934 
        49.000          42.000  
 113646207.99947  88555480.38647  21626157.0434   21626159.6874   21626156.6704 
        54.000          49.000  
 130193208.36847 101449241.90547  24774947.3384   24774955.6244   24774948.8494 
        42.000          37.000  
 115925053.72147  90331195.43047  22059816.3034   22059821.2164   22059817.6444 
        52.000          46.000  
 110014306.68847  85725418.28147  20935038.6754   20935042.2044   20935038.6634 
        55.000          50.000  
 123844872.60047  96502472.23747  23566917.0874   23566923.1504   23566917.4164 
        47.000          41.000  
 119701914.95847  93274208.64347  22778522.5934   22778527.6244   22778523.5854 
        50.000          46.000  
 10  1 15 19  4 12.0000000  0  8G02G04G05G08G10G15G24G29
 109927388.70847  85657684.66447  20918504.2364   20918505.7064   20918505.1044 
        57.000          50.000  
 124370388.21147  96911975.87447  23666909.0304   23666914.5684   23666908.5264 
        49.000          42.000  
 113647255.88547  88556296.92147  21626356.5854   21626359.3014   21626356.0044 
        54.000          49.000  
 130192652.37247 101448808.66247  24774841.9694   24774849.3054   24774842.9724 
        42.000          37.000  
 115926840.46747  90332587.69847  22060157.3574   22060161.7094   22060157.7444 
        52.000          46.000  
 110012408.42747  85723939.11947  20934677.3504   20934680.9214   20934677.4014 
        55.000          50.000  
 123842577.37747  96500683.75147  23566480.9064   23566486.5024   23566480.6894 
        47.000          41.000  
 119699424.78047  93272268.24647  22778050.0724   22778053.8044   22778049.7894 
        50.000          46.000  
 10  1 15 19  4 13.0000000  0  8G02G04G05G08G10G15G24G29
 109927357.02647  85657659.97747  20918497.9004   20918499.5254   20918499.0114 
        56.000          50.000  
 124372090.94147  96913302.67847  23667232.1764   23667237.2954   23667232.5694 
        48.000          42.000  
 113648303.72547  88557113.42047  21626556.0984   21626558.5294   21626555.4144 
        55.000          49.000  
 130192096.62447 101448375.61347  24774737.1664   24774743.4984   24774737.2494 
        42.000          37.000  
 115928627.12447  90333979.90047  22060496.9834   22060501.6664   22060497.7704 
        52.000          46.000  
 110010510.60747  85722460.30047  20934316.3144   20934320.0164   20934316.2714 
        55.000          50.000  
 123840281.96447  96498895.11747  23566044.0204   23566050.1494   23566043.8584 
        47.000          41.000  
 119696934.92347  93270328.09747  22777574.9704   22777579.5984   22777575.9754 
        50.000          46.000  
 10  1 15 19  4 14.0000000  0  8G02G04G05G08G10G15G24G29
 109927325.67947  85657635.55047  20918492.2874   20918493.4974   20918492.9574 
        56.000          50.000  
 124373793.92347  96914629.67647  23667556.4054   23667562.7804   23667556.5994 
        49.000          42.000  
 113649351.60847  88557929.95047  21626754.9754   21626757.8714   21626754.8394 
        54.000          48.000  
 130191541.20947 101447942.82247  24774631.2024   24774638.1814   24774631.5814 
        42.000          37.000  
 115930413.77247  90335372.09347  22060837.2154   22060841.7244   22060837.7804 
        52.000          46.000  
 110008613.31547  85720981.89047  20933955.5494   20933958.9314   20933955.2224 
        55.000          50.000  
 123837986.46547  96497106.41647  23565606.8844   23565612.8234   23565607.0064 
        47.000          41.000  
 119694445.47447  93268388.26847  22777102.6364   22777105.7994   22777102.3844 
        50.000          46.000  
 10  1 15 19  4 15.0000000  0  8G02G04G05G08G10G15G24G29
 109927294.69047  85657611.40147  20918486.0624   20918487.8134   20918486.8874 
        56.000          50.000  
 124375497.19047  96915956.89547  23667880.7104   23667885.6314   23667880.5934 
        48.000          42.000  
 113650399.56247  88558746.53747  21626954.7584   21626957.3244   21626954.2064 
        54.000          48.000  
 130190986.15247 101447510.31047  24774525.3804   24774532.7254   24774526.0724 
        42.000          37.000  
 115932200.42147  90336764.29047  22061176.2664   22061181.3584   22061177.7934 
        52.000          46.000  
 110006716.58047  85719503.91647  20933594.5184   20933597.8954   20933594.3324 
        55.000          50.000  
 123835690.87847  96495317.64647  23565170.4614   23565176.0044   23565170.1874 
        47.000          41.000  
 119691956.46247  93266448.77947  22776628.1104   22776631.9934   22776628.8144 
        50.000          46.000  
 10  1 15 19  4 16.0000000  0  8G02G04G05G08G10G15G24G29
 109927264.17647  85657587.62447  20918480.2354   20918481.9814   20918480.9404 
        56.000          50.000  
 124377200.81547  96917284.39347  23668205.9264   23668210.7304   23668204.7954 
        49.000          42.000  
 113651447.69247  88559563.26347  21627154.1124   21627156.9504   21627153.7984 
        54.000          49.000  
 130190431.58047 101447078.17847  24774420.3524   24774427.0404   24774420.4634 
        43.000          37.000  
 115933987.21847  90338156.60047  22061516.8264   22061521.5884   22061517.8984 
        52.000          46.000  
 110004820.50647  85718026.45647  20933233.3564   20933237.1084   20933233.4544 
        55.000          50.000  
 123833395.32747  96493528.90447  23564733.1984   23564739.3774   23564733.2694 
        47.000          41.000  
 119689467.99347  93264509.71247  22776154.8184   22776159.0064   22776155.2564 
        50.000          45.000  
 10  1 15 19  4 17.0000000  0  8G02G04G05G08G10G15G24G29
 109927233.83947  85657563.98347  20918474.2254   20918476.2644   20918475.0424 
        56.000          50.000  
 124378904.51947  96918611.94947  23668530.0744   23668534.5794   23668529.0564 
        48.000          42.000  
 113652495.71047  88560379.90047  21627353.5774   21627356.1734   21627353.3084 
        54.000          48.000  
 130189877.20247 101446646.19747  24774315.4144   24774322.7634   24774314.9114 
        42.000          37.000  
 115935773.83747  90339548.77447  22061856.9754   22061861.0764   22061857.8774 
        52.000          46.000  
 110002924.80947  85716549.29047  20932872.6374   20932876.1504   20932872.7674 
        55.000          50.000  
 123831099.55547  96491739.99247  23564296.6934   23564302.9974   23564296.5414 
        46.000          41.000  
 119686979.77847  93262570.84347  22775681.4614   22775685.0514   22775681.8294 
        50.000          46.000  
 10  1 15 19  4 18.0000000  0  8G02G04G05G08G10G15G24G29
 109927203.90347  85657540.65547  20918468.8084   20918470.3164   20918469.2384 
        56.000          50.000  
 124380608.52747  96919939.74647  23668852.7644   23668858.2404   23668853.3744 
        49.000          42.000  
 113653543.82647  88561196.61347  21627552.9044   21627555.8134   21627552.7834 
        54.000          48.000  
 130189323.23547 101446214.53447  24774209.2524   24774217.5874   24774209.3684 
        41.000          37.000  
 115937560.52147  90340940.99547  22062196.1914   22062201.4824   22062197.8614 
        52.000          46.000  
 110001029.71447  85715072.59347  20932512.0994   20932515.7334   20932512.1694 
        55.000          50.000  
 123828803.71447  96489951.02747  23563860.0124   23563866.0614   23563859.8794 
        47.000          41.000  
 119684492.02647  93260632.33447  22775208.6114   22775211.5314   22775208.4544 
        50.000          45.000  
 10  1 15 19  4 19.0000000  0  8G02G04G05G08G10G15G24G29
 109927174.30747  85657517.59247  20918463.1754   20918464.9574   20918463.5054 
        56.000          50.000  
 124382312.75847  96921267.71747  23669177.7264   23669182.7864   23669177.7064 
        49.000          42.000  
 113654591.99847  88562013.37147  21627752.7774   21627755.0034   21627752.2344 
        54.000          48.000  
 130188769.59047 101445783.12247  24774103.9104   24774111.7504   24774103.9694 
        42.000          37.000  
 115939347.18347  90342333.20047  22062536.5874   22062540.4964   22062537.8554 
        52.000          46.000  
 109999135.14347  85713596.30447  20932151.7474   20932155.0354   20932151.6544 
        55.000          50.000  
 123826507.79547  96488162.00247  23563422.7164   23563428.6144   23563423.0144 
        47.000          41.000  
 119682004.68147  93258694.14447  22774734.7994   22774738.1514   22774735.1114 
        50.000          45.000  
 10  1 15 19  4 20.0000000  0  8G02G04G05G08G10G15G24G29
 109927145.09847  85657494.83147  20918457.5774   20918459.2224   20918457.9054 
        57.000          50.000  
 124384017.29647  96922595.92547  23669503.1774   23669505.3794   23669502.0874 
        49.000          42.000  
 113655640.26047  88562830.19747  21627951.9394   21627954.1204   21627951.7254 
        55.000          49.000  
 130188216.36947 101445352.04247  24773998.3524   24774006.0234   24773998.8854 
        42.000          37.000  
 115941133.89447  90343725.44347  22062876.5274   22062881.2614   22062877.8414 
        52.000          46.000  
 109997241.15547  85712120.47047  20931791.0424   20931795.0344   20931791.2634 
        56.000          50.000  
 123824211.82347  96486372.93447  23562985.2384   23562991.9364   23562986.2894 
        47.000          41.000  
 119679517.79547  93256756.31247  22774260.7174   22774265.5604   22774261.8374 
        50.000          45.000  
 10  1 15 19  4 21.0000000  0  8G02G04G05G08G10G15G24G29
 109927116.16947  85657472.28947  20918451.9974   20918453.9924   20918452.3554 
        56.000          50.000  
 124385722.00847  96923924.26947  23669826.3044   23669830.6944   23669826.3864 
        48.000          42.000  
 113656688.51347  88563647.01747  21628151.6544   21628154.0024   21628151.2714 
        55.000          48.000  
 130187663.41047 101444921.16647  24773893.1634   24773900.9174   24773893.8064 
        42.000          37.000  
 115942920.54647  90345117.64047  22063216.3344   22063221.7154   22063217.8534 
        52.000          46.000  
 109995347.65147  85710645.01247  20931430.9034   20931434.4264   20931431.0034 
        55.000          50.000  
 123821915.73247  96484583.77647  23562547.6924   23562554.5214   23562549.2314 
        47.000          41.000  
 119677031.27447  93254818.76447  22773788.3344   22773791.6884   22773788.6684 
        50.000          46.000  
 10  1 15 19  4 22.0000000  0  8G02G04G05G08G10G15G24G29
 109927087.57947  85657450.00947  20918446.6094   20918448.4614   20918446.8114 
        56.000          50.000  
 124387426.99647  96925252.83347  23670150.5484   23670155.2324   23670150.7374 
        48.000          42.000  
 113657736.81547  88564463.87547  21628350.6914   21628353.3944   21628350.7244 
        55.000          48.000  
 130187110.81747 101444490.57547  24773788.6514   24773795.5324   24773788.8594 
        42.000          37.000  
 115944707.18747  90346509.82947  22063556.7304   22063560.9114   22063557.8364 
        52.000          46.000  
 109993454.67147  85709169.96247  20931070.8054   20931074.2384   20931070.8424 
        55.000          50.000  
 123819619.50247  96482794.50747  23562111.6754   23562117.3994   23562112.1944 
        47.000          41.000  
 119674545.15547  93252881.53047  22773314.5154   22773318.4904   22773315.6444 
        50.000          45.000  
 10  1 15 19  4 23.0000000  0  8G02G04G05G08G10G15G24G29
 109927059.45747  85657428.09547  20918441.1444   20918443.1014   20918441.4844 
        56.000          50.000  
 124389132.35147  96926581.67947  23670475.7864   23670479.7304   23670475.1244 
        49.000          42.000  
 113658785.29447  88565280.87047  21628550.6804   21628552.9954   21628550.3054 
        54.000          48.000  
 130186558.68847 101444060.34547  24773683.3374   24773690.5954   24773683.8504 
        42.000          37.000  
 115946493.95947  90347902.11547  22063896.1434   22063900.9084   22063897.7794 
        52.000          46.000  
 109991562.36247  85707695.43747  20930710.7554   20930714.2254   20930710.7704 
        55.000          50.000  
 123817323.34247  96481005.29447  23561674.8824   23561680.3994   23561675.4164 
        47.000          41.000  
 119672059.59247  93250944.72947  22772842.1174   22772845.6274   22772842.5994 
        50.000          46.000  
 10  1 15 19  4 24.0000000  0  8G02G04G05G08G10G15G24G29
 109927031.54147  85657406.34047  20918436.0174   20918437.9184   20918436.0804 
        56.000          50.000  
 124390837.83747  96927910.63047  23670799.3574   23670803.5404   23670799.5124 
        49.000          42.000  
 113659833.67747  88566097.79147  21628749.9144   21628752.6074   21628749.8204 
        54.000          48.000  
 130186006.77447 101443630.28447  24773577.4444   24773585.1144   24773578.6944 
        42.000          37.000  
 115948280.57147  90349294.28047  22064236.5014   22064241.1044   22064237.6194 
        52.000          46.000  
 109989670.44647  85706221.21647  20930350.5134   20930354.0354   20930350.7364 
        55.000          50.000  
 123815026.94047  96479215.89147  23561238.7254   23561244.8624   23561238.4494 
        47.000          41.000  
 119669574.29447  93249008.13247  22772369.0964   22772373.6444   22772369.7054 
        50.000          46.000  
 10  1 15 19  4 25.0000000  0  8G02G04G05G08G10G15G24G29
 109927004.11347  85657384.96947  20918430.9404   20918432.5834   20918430.7894 
        56.000          50.000  
 124392543.68547  96929239.86547  23671123.1444   23671129.4764   23671124.2824 
        49.000          42.000  
 113660882.26747  88566914.87647  21628949.4114   21628951.6304   21628949.3594 
        55.000          48.000  
 130185455.35947 101443200.61047  24773471.9844   24773480.3744   24773473.5724 
        42.000          37.000  
 115950067.33947  90350686.56747  22064575.6284   22064581.2564   22064577.5324 
        52.000          46.000  
 109987779.21047  85704747.52747  20929990.8324   20929994.4024   20929990.7774 
        55.000          50.000  
 123812730.60847  96477426.54347  23560801.1724   23560806.9274   23560801.4104 
        47.000          41.000  
 119667089.55747  93247071.97447  22771896.4994   22771900.9964   22771896.8794 
        50.000          46.000  
 10  1 15 19  4 26.0000000  0  8G02G04G05G08G10G15G24G29
 109926976.92947  85657363.78547  20918425.2934   20918427.4684   20918425.6404 
        56.000          50.000  
 124394249.68647  96930569.21747  23671448.4124   23671454.1204   23671449.1504 
        48.000          42.000  
 113661930.80147  88567731.91747  21629148.7894   21629151.4484   21629148.8734 
        54.000          48.000  
 130184904.17847 101442771.12047  24773366.8114   24773375.1734   24773368.6164 
        42.000          37.000  
 115951854.00047  90352078.77047  22064917.1634   22064921.6974   22064917.4734 
        52.000          46.000  
 109985888.41747  85703274.18447  20929630.8654   20929634.4964   20929630.8934 
        55.000          50.000  
 123810434.09047  96475637.04947  23560364.2944   23560368.9754   23560364.3214 
        47.000          41.000  
 119664605.14447  93245136.07047  22771423.2404   22771427.1104   22771423.9824 
        50.000          46.000  
 10  1 15 19  4 27.0000000  0  8G02G04G05G08G10G15G24G29
 109926950.11547  85657342.89047  20918420.3634   20918422.3604   20918420.5724 
        56.000          50.000  
 124395955.94247  96931898.76647  23671773.2574   23671777.8824   23671773.8684 
        49.000          42.000  
 113662979.41247  88568549.01947  21629348.6284   21629351.4394   21629348.3784 
        54.000          48.000  
 130184353.39947 101442341.94247  24773263.2224   24773270.4064   24773264.0104 
        42.000          37.000  
 115953640.68447  90353470.99247  22065256.3744   22065260.7584   22065257.3944 
        52.000          46.000  
 109983998.18947  85701801.28047  20929271.1454   20929274.6714   20929271.0944 
        55.000          50.000  
 123808137.49647  96473847.49747  23559926.5874   23559932.2354   23559927.0824 
        47.000          41.000  
 119662121.16747  93243200.50547  22770950.6634   22770954.9424   22770951.2014 
        50.000          46.000  
 10  1 15 19  4 28.0000000  0  8G02G04G05G08G10G15G24G29
 109926923.56247  85657322.19847  20918415.5334   20918417.2704   20918415.5444 
        56.000          50.000  
 124397662.36747  96933228.44847  23672098.2384   23672103.4694   23672098.5624 
        48.000          42.000  
 113664027.99447  88569366.09647  21629548.1884   21629550.3034   21629547.8944 
        54.000          48.000  
 130183802.87047 101441912.96047  24773158.7484   24773165.2204   24773159.1504 
        41.000          37.000  
 115955427.28947  90354863.15247  22065596.5724   22065601.5744   22065597.3454 
        52.000          46.000  
 109982108.42147  85700328.73647  20928911.5394   20928915.2244   20928911.4244 
        55.000          50.000  
 123805840.75247  96472057.82747  23559489.5884   23559495.1564   23559489.7404 
        46.000          41.000  
 119659637.53247  93241265.20447  22770478.6664   22770483.0914   22770478.4914 
        50.000          46.000  
 10  1 15 19  4 29.0000000  0  8G02G04G05G08G10G15G24G29
 109926897.48947  85657301.88247  20918410.4064   20918412.1274   20918410.6394 
        56.000          50.000  
 124399369.18647  96934558.43547  23672423.4934   23672427.9744   23672423.1424 
        49.000          42.000  
 113665076.76647  88570183.32147  21629747.6884   21629750.1784   21629747.3854 
        54.000          48.000  
 130183252.83447 101441484.36247  24773054.3594   24773061.0094   24773054.5814 
        41.000          37.000  
 115957214.04247  90356255.42747  22065936.5944   22065941.5874   22065937.3054 
        52.000          46.000  
 109980219.33747  85698856.72247  20928552.0354   20928555.7234   20928551.8984 
        55.000          50.000  
 123803544.03047  96470268.17147  23559051.9854   23559058.8384   23559052.5354 
        46.000          41.000  
 119657154.45447  93239330.33947  22770006.3484   22770009.8834   22770005.9094 
        50.000          46.000  
 10  1 15 19  4 30.0000000  0  8G02G04G05G08G10G15G24G29
 109926871.68947  85657281.77847  20918405.4154   20918407.5804   20918405.8124 
        56.000          50.000  
 124401076.16147  96935888.54547  23672748.5384   23672752.7914   23672748.0074 
        48.000          42.000  
 113666125.51447  88571000.52647  21629947.1004   21629949.7964   21629946.9204 
        54.000          48.000  
 130182703.07047 101441055.97747  24772948.8734   24772956.3434   24772949.8414 
        41.000          37.000  
 115959000.70147  90357647.63047  22066276.3164   22066281.8484   22066277.2724 
        52.000          46.000  
 109978330.71547  85697385.06947  20928192.7634   20928196.3444   20928192.4904 
        55.000          50.000  
 123801247.17247  96468478.41347  23558614.9384   23558621.7454   23558615.1664 
        46.000          41.000  
 119654671.71047  93237395.73547  22769533.2714   22769537.7484   22769533.4594 
        50.000          46.000  
 10  1 15 19  4 31.0000000  0  8G02G04G05G08G10G15G24G29
 109926846.22347  85657261.93447  20918400.9164   20918402.4484   20918401.0424 
        56.000          50.000  
 124402783.39747  96937218.85547  23673072.8674   23673078.2754   23673072.9964 
        49.000          42.000  
 113667174.31047  88571817.76947  21630146.6134   21630149.3424   21630146.5164 
        54.000          48.000  
 130182153.65447 101440627.86147  24772844.9274   24772852.1804   24772845.1214 
        42.000          37.000  
 115960787.36447  90359039.83547  22066616.0864   22066621.5514   22066617.2074 
        52.000          46.000  
 109976442.61547  85695913.82347  20927833.5644   20927836.9864   20927833.1764 
        55.000          50.000  
 123798950.20347  96466688.56747  23558178.1344   23558183.9164   23558177.9644 
        47.000          41.000  
 119652189.39047  93235461.46147  22769061.0244   22769064.4734   22769061.0774 
        50.000          46.000  
 10  1 15 19  4 32.0000000  0  8G02G04G05G08G10G15G24G29
 109926821.12147  85657242.37447  20918396.0064   20918398.0184   20918396.2944 
        56.000          50.000  
 124404490.88147  96938549.35847  23673397.8244   23673401.5494   23673397.9204 
        48.000          42.000  
 113668223.17447  88572635.06347  21630346.5664   21630349.0264   21630346.1344 
        54.000          48.000  
 130181604.60647 101440200.03247  24772740.1074   24772747.8784   24772740.4804 
        41.000          37.000  
 115962574.03847  90360432.05047  22066956.6404   22066961.2124   22066957.2184 
        52.000          46.000  
 109974555.08147  85694443.01747  20927474.4204   20927477.8164   20927474.0064 
        55.000          50.000  
 123796653.17147  96464898.67347  23557741.6244   23557747.1954   23557740.7494 
        46.000          41.000  
 119649707.48847  93233527.51247  22768588.0794   22768592.7184   22768588.7404 
        50.000          46.000  
 10  1 15 19  4 33.0000000  0  8G02G04G05G08G10G15G24G29
 109926796.44347  85657223.14447  20918391.0394   20918392.8644   20918391.5594 
        56.000          50.000  
 124406198.69447  96939880.11847  23673722.4574   23673728.4394   23673722.9944 
        49.000          42.000  
 113669272.16547  88573452.45747  21630545.9464   21630548.2384   21630545.7574 
        54.000          48.000  
 130181056.01647 101439772.56147  24772635.7414   24772643.9154   24772636.0344 
        42.000          37.000  
 115964360.78947  90361824.32247  22067295.9914   22067300.9164   22067297.2364 
        52.000          46.000  
 109972668.16547  85692972.69347  20927115.1374   20927118.4594   20927114.8754 
        55.000          50.000  
 123794356.13747  96463108.77647  23557304.5904   23557311.1754   23557303.8034 
        46.000          41.000  
 119647226.09447  93231593.96047  22768116.3304   22768120.7744   22768116.5864 
        50.000          46.000  
 10  1 15 19  4 34.0000000  0  8G02G04G05G08G10G15G24G29
 109926772.03547  85657204.12447  20918386.6404   20918388.2574   20918386.9044 
        56.000          50.000  
 124407906.70447  96941211.03147  23674048.5554   23674053.5644   23674048.0864 
        49.000          42.000  
 113670321.13547  88574269.83647  21630745.2604   21630747.8524   21630745.4244 
        54.000          48.000  
 130180507.67447 101439345.28247  24772531.4964   24772539.8974   24772531.8084 
        42.000          37.000  
 115966147.46747  90363216.53847  22067636.0884   22067641.3224   22067637.2504 
        52.000          46.000  
 109970781.71147  85691502.72847  20926756.2934   20926759.7314   20926755.8444 
        55.000          50.000  
 123792058.92447  96461318.74047  23556866.7924   23556872.8314   23556866.5644 
        46.000          41.000  
 119644745.03847  93229660.67147  22767644.8894   22767648.7364   22767644.4924 
        50.000          46.000  
 10  1 15 19  4 35.0000000  0  8G02G04G05G08G10G15G24G29
 109926747.92947  85657185.34147  20918381.9564   20918383.7414   20918382.3554 
        56.000          50.000  
 124409614.90547  96942542.09547  23674372.3844   23674378.7684   23674373.2754 
        48.000          42.000  
 113671370.10847  88575087.21647  21630945.3124   21630947.7094   21630945.0654 
        54.000          48.000  
 130179959.64947 101438918.25047  24772427.3274   24772435.6474   24772427.4944 
        42.000          37.000  
 115967934.09447  90364608.71547  22067975.7994   22067980.2484   22067977.2784 
        52.000          46.000  
 109968895.75147  85690033.14947  20926397.1724   20926400.7934   20926396.9284 
        55.000          50.000  
 123789761.59547  96459528.61347  23556430.0844   23556436.5824   23556429.6294 
        47.000          41.000  
 119642264.35947  93227727.67247  22767172.7164   22767176.7484   22767172.4204 
        50.000          46.000  
 10  1 15 19  4 36.0000000  0  8G02G04G05G08G10G15G24G29
 109926724.24847  85657166.88947  20918377.5794   20918379.3904   20918377.8764 
        56.000          50.000  
 124411323.42447  96943873.40647  23674698.5904   23674704.0194   23674698.5364 
        48.000          42.000  
 113672419.22247  88575904.70847  21631144.8804   21631147.3704   21631144.7374 
        55.000          48.000  
 130179412.05947 101438491.55947  24772323.7964   24772331.6564   24772323.3964 
        41.000          37.000  
 115969720.81547  90366000.96747  22068316.6594   22068321.7534   22068317.2834 
        52.000          46.000  
 109967010.41647  85688564.05847  20926038.5504   20926042.2244   20926038.2374 
        55.000          50.000  
 123787464.27047  96457738.49047  23555993.1104   23555999.0434   23555992.7494 
        46.000          41.000  
 119639784.18347  93225795.06947  22766700.1974   22766703.4764   22766700.3954 
        50.000          45.000  
 10  1 15 19  4 37.0000000  0  8G02G04G05G08G10G15G24G29
 109926700.88547  85657148.68447  20918373.3374   20918374.8264   20918373.4614 
        56.000          50.000  
 124413032.15047  96945204.87747  23675023.3314   23675029.0064   23675023.6544 
        49.000          42.000  
 113673468.34647  88576722.20847  21631344.3104   21631346.6664   21631344.4264 
        54.000          48.000  
 130178864.77347 101438065.10547  24772219.2214   24772227.2344   24772219.1314 
        41.000          37.000  
 115971507.49047  90367393.17947  22068656.4784   22068661.4574   22068657.3234 
        52.000          46.000  
 109965125.57847  85687095.35347  20925679.9054   20925683.5204   20925679.4654 
        55.000          50.000  
 123785166.78847  96455948.24547  23555554.7874   23555561.7244   23555555.6754 
        47.000          41.000  
 119637304.38647  93223862.75847  22766228.8594   22766232.5964   22766228.3344 
        50.000          45.000  
 10  1 15 19  4 38.0000000  0  8G02G04G05G08G10G15G24G29
 109926677.91747  85657130.78747  20918368.6514   20918370.4154   20918369.0814 
        56.000          50.000  
 124414741.18847  96946536.59247  23675348.9004   23675354.5814   23675348.7994 
        48.000          43.000  
 113674517.57447  88577539.78847  21631544.0244   21631546.9324   21631544.1324 
        54.000          48.000  
 130178317.92147 101437638.99247  24772115.1054   24772122.9824   24772115.3094 
        42.000          37.000  
 115973294.22447  90368785.44247  22068996.5634   22069000.9814   22068997.2984 
        52.000          46.000  
 109963241.34047  85685627.11847  20925321.5044   20925324.9364   20925320.8654 
        55.000          50.000  
 123782869.30147  96454157.99847  23555118.5794   23555124.7674   23555118.5414 
        47.000          41.000  
 119634825.06047  93221930.81747  22765756.3794   22765761.0774   22765756.4794 
        50.000          46.000  
 10  1 15 19  4 39.0000000  0  8G02G04G05G08G10G15G24G29
 109926655.15947  85657113.05347  20918364.3224   20918365.8764   20918364.8034 
        57.000          50.000  
 124416450.33347  96947868.39647  23675674.0704   23675679.8244   23675673.8964 
        48.000          43.000  
 113675566.72347  88578357.30747  21631743.7704   21631746.3084   21631743.8254 
        54.000          48.000  
 130177771.26947 101437213.03547  24772011.2154   24772017.9824   24772011.1714 
        42.000          37.000  
 115975080.82347  90370177.59747  22069336.3904   22069340.9684   22069337.3194 
        52.000          46.000  
 109961357.51147  85684159.19947  20924962.7264   20924966.3744   20924962.3424 
        55.000          50.000  
 123780571.58747  96452367.57247  23554681.7934   23554688.4854   23554681.4604 
        47.000          41.000  
 119632346.02347  93219999.09947  22765285.1514   22765288.3794   22765284.7774 
        50.000          46.000  
 10  1 15 19  4 40.0000000  0  8G02G04G05G08G10G15G24G29
 109926632.87647  85657095.68747  20918360.0404   20918362.0094   20918360.5494 
        57.000          50.000  
 124418159.90147  96949200.53147  23675998.9304   23676005.1284   23675999.0844 
        48.000          42.000  
 113676616.06047  88579174.97147  21631943.1864   21631945.8894   21631943.5354 
        54.000          48.000  
 130177225.10447 101436787.45647  24771907.3264   24771914.1954   24771907.1474 
        42.000          37.000  
 115976867.54647  90371569.85347  22069676.1694   22069681.4794   22069677.2954 
        52.000          46.000  
 109959474.35447  85682691.80547  20924604.4984   20924608.0864   20924603.9214 
        55.000          50.000  
 123778273.91047  96450577.17647  23554244.2714   23554251.4314   23554244.4444 
        47.000          41.000  
 119629867.53947  93218067.81247  22764813.3884   22764817.3354   22764813.1124 
        50.000          46.000  
 10  1 15 19  4 41.0000000  0  8G02G04G05G08G10G15G24G29
 109926610.98847  85657078.63147  20918355.9974   20918357.6634   20918356.3864 
        56.000          50.000  
 124419869.74347  96950532.87547  23676323.4374   23676330.3234   23676324.3364 
        48.000          43.000  
 113677665.49047  88579992.71047  21632143.1274   21632145.5964   21632143.2754 
        54.000          48.000  
 130176679.34047 101436362.18947  24771803.1434   24771810.1054   24771803.2504 
        41.000          37.000  
 115978654.32947  90372962.15247  22070016.6584   22070021.1184   22070017.3384 
        52.000          45.000  
 109957591.78347  85681224.86947  20924246.1264   20924249.7764   20924245.6154 
        55.000          50.000  
 123775976.19747  96448786.75447  23553806.5274   23553812.8974   23553807.4724 
        47.000          41.000  
 119627389.52147  93216136.88747  22764341.3304   22764345.3934   22764341.5254 
        50.000          46.000  
 10  1 15 19  4 42.0000000  0  8G02G04G05G08G10G15G24G29
 109926589.28647  85657061.72147  20918351.8644   20918353.5774   20918352.2624 
        56.000          50.000  
 124421579.66447  96951865.28147  23676650.1884   23676655.5954   23676649.6654 
        48.000          42.000  
 113678714.81647  88580810.36547  21632342.6904   21632345.6114   21632342.9264 
        55.000          48.000  
 130176133.75947 101435937.06447  24771699.4114   24771706.1264   24771699.5984 
        42.000          37.000  
 115980440.94147  90374354.31647  22070355.8264   22070361.5374   22070357.3604 
        52.000          45.000  
 109955709.59747  85679758.23247  20923888.3744   20923891.4044   20923887.3584 
        55.000          50.000  
 123773678.25947  96446996.15347  23553369.2804   23553375.8144   23553370.2424 
        47.000          41.000  
 119624911.76347  93214206.16647  22763870.4434   22763873.8704   22763870.0174 
        50.000          45.000  
 10  1 15 19  4 43.0000000  0  8G02G04G05G08G10G15G24G29
 109926568.02447  85657045.15347  20918347.6024   20918349.1574   20918348.1444 
        56.000          50.000  
 124423289.94947  96953197.97247  23676975.6644   23676982.2694   23676974.9524 
        48.000          42.000  
 113679764.27447  88581628.12547  21632542.6364   21632544.9014   21632542.6804 
        54.000          48.000  
 130175588.61947 101435512.28347  24771595.7224   24771602.4524   24771595.6834 
        42.000          37.000  
 115982227.64947  90375746.55647  22070696.6294   22070701.8554   22070697.3224 
        52.000          46.000  
 109953828.03647  85678292.08247  20923529.7024   20923533.8934   20923529.1834 
        55.000          50.000  
 123771380.30147  96445205.53847  23552932.2324   23552938.7944   23552932.9784 
        47.000          41.000  
 119622434.52147  93212275.85047  22763398.2594   22763402.1614   22763398.6224 
        50.000          46.000  
 10  1 15 19  4 44.0000000  0  8G02G04G05G08G10G15G24G29
 109926547.06947  85657028.82447  20918343.8924   20918345.4254   20918344.1174 
        56.000          50.000  
 124425000.41547  96954530.79847  23677300.9414   23677307.5664   23677300.4004 
        48.000          42.000  
 113680813.75647  88582445.90347  21632742.1404   21632744.7864   21632742.3574 
        55.000          48.000  
 130175043.81247 101435087.76047  24771491.7084   24771499.3494   24771491.9674 
        42.000          37.000  
 115984014.31847  90377138.76547  22071035.8534   22071041.4134   22071037.3624 
        52.000          46.000  
 109951946.98347  85676826.32847  20923171.9734   20923175.7744   20923171.1574 
        55.000          50.000  
 123769082.22647  96443414.83547  23552494.2974   23552501.1344   23552495.6944 
        47.000          41.000  
 119619957.66047  93210345.83147  22762927.6854   22762931.8244   22762927.3504 
        50.000          46.000  
 10  1 15 19  4 45.0000000  0  8G02G04G05G08G10G15G24G29
 109926526.53947  85657012.82647  20918339.9284   20918341.5554   20918340.2444 
        56.000          50.000  
 124426711.24747  96955863.91647  23677625.5544   23677631.9534   23677625.8834 
        48.000          42.000  
 113681863.36747  88583263.78247  21632942.3624   21632944.4824   21632942.0124 
        54.000          49.000  
 130174499.42847 101434663.56847  24771387.3924   24771395.1464   24771388.3114 
        42.000          37.000  
 115985801.06147  90378531.03247  22071376.4474   22071381.1584   22071377.3494 
        52.000          46.000  
 109950066.55147  85675361.05847  20922813.9834   20922817.6994   20922813.2304 
        55.000          50.000  
 123766784.16547  96441624.14247  23552057.6144   23552063.8344   23552058.5404 
        47.000          41.000  
 119617481.29447  93208416.19547  22762456.4424   22762459.5914   22762456.0534 
        50.000          46.000  
 10  1 15 19  4 46.0000000  0  8G02G04G05G08G10G15G24G29
 109926506.29947  85656997.05547  20918335.9584   20918337.5294   20918336.3704 
        57.000          50.000  
 124428422.26147  96957197.16947  23677951.4214   23677957.0154   23677951.4954 
        48.000          42.000  
 113682912.97647  88584081.65847  21633141.4054   21633144.3764   21633141.7134 
        55.000          49.000  
 130173955.33647 101434239.60147  24771283.8964   24771291.8144   24771285.0524 
        42.000          37.000  
 115987587.75147  90379923.25847  22071716.3434   22071721.3334   22071717.3744 
        52.000          46.000  
 109948186.60047  85673896.16147  20922456.5384   20922460.1874   20922455.3864 
        55.000          50.000  
 123764485.93547  96439833.31847  23551620.3944   23551626.2164   23551621.2474 
        47.000          41.000  
 119615005.29747  93206486.84847  22761985.4154   22761989.2664   22761984.8624 
        50.000          46.000  
 10  1 15 19  4 47.0000000  0  8G02G04G05G08G10G15G24G29
 109926486.38447  85656981.53747  20918332.2794   20918333.8464   20918332.6024 
        56.000          50.000  
 124430133.49147  96958530.59047  23678277.6344   23678283.2004   23678277.2044 
        48.000          42.000  
 113683962.61747  88584899.56047  21633341.2144   21633343.8724   21633341.4064 
        54.000          48.000  
 130173411.60947 101433815.91947  24771180.6814   24771188.3834   24771181.3654 
        42.000          37.000  
 115989374.41847  90381315.46547  22072055.9954   22072061.3834   22072057.4374 
        52.000          46.000  
 109946307.16747  85672431.66847  20922099.1184   20922102.4234   20922097.7414 
        55.000          50.000  
 123762187.61947  96438042.42547  23551183.2964   23551188.3694   23551183.9284 
        47.000          41.000  
 119612529.69547  93204557.80647  22761513.8454   22761517.2074   22761513.7884 
        50.000          46.000  
 10  1 15 19  4 48.0000000  0  8G02G04G05G08G10G15G24G29
 109926466.89347  85656966.35047  20918328.4024   20918330.2884   20918328.9054 
        56.000          50.000  
 124431845.03847  96959864.25747  23678603.7704   23678609.4044   23678603.0524 
        48.000          42.000  
 113685012.37647  88585717.55347  21633541.3564   21633544.0944   21633541.1284 
        54.000          48.000  
 130172868.29947 101433392.56347  24771077.1264   24771084.8254   24771077.7954 
        42.000          37.000  
 115991161.14847  90382707.72347  22072395.5134   22072401.3724   22072397.4384 
        52.000          45.000  
 109944428.34047  85670967.64847  20921741.1964   20921745.0244   20921740.3074 
        55.000          50.000  
 123759889.27947  96436251.51047  23550746.4404   23550751.9304   23550746.4024 
        47.000          41.000  
 119610054.58247  93202629.14747  22761043.0864   22761046.4594   22761042.7074 
        50.000          46.000  
 10  1 15 19  4 49.0000000  0  8G02G04G05G08G10G15G24G29
 109926447.63647  85656951.34347  20918324.8924   20918326.4874   20918325.3014 
        56.000          50.000  
 124433556.71447  96961198.02747  23678929.3014   23678934.6094   23678929.0384 
        48.000          42.000  
 113686062.06547  88586535.49147  21633741.2724   21633743.7194   21633740.8504 
        55.000          49.000  
 130172325.20247 101432969.37247  24770974.1724   24770981.6594   24770974.5014 
        42.000          37.000  
 115992947.77447  90384099.89747  22072736.4474   22072740.9844   22072737.3544 
        52.000          45.000  
 109942549.93047  85669503.95347  20921384.1994   20921387.4324   20921382.8934 
        55.000          50.000  
 123757590.74447  96434460.44547  23550308.2784   23550315.1854   23550309.0064 
        47.000          41.000  
 119607579.77347  93200700.72347  22760571.8284   22760576.3984   22760571.8194 
        50.000          46.000  
 10  1 15 19  4 50.0000000  0  8G02G04G05G08G10G15G24G29
 109926428.79547  85656936.66147  20918321.1424   20918322.7544   20918321.7154 
        56.000          50.000  
 124435268.71647  96962532.05247  23679254.4634   23679260.9344   23679254.8754 
        48.000          42.000  
 113687111.87747  88587353.52847  21633940.6964   21633942.9744   21633940.6274 
        54.000          49.000  
 130171782.55247 101432546.53047  24770871.8134   24770877.1034   24770871.2424 
        42.000          37.000  
 115994734.46347  90385492.12347  22073076.0084   22073081.3854   22073077.3034 
        52.000          45.000  
 109940672.14147  85668040.74247  20921026.6114   20921030.1694   20921025.6454 
        55.000          50.000  
 123755292.19747  96432669.37347  23549870.3194   23549877.9654   23549871.4354 
        47.000          41.000  
 119605105.45247  93198772.68247  22760101.6294   22760104.7314   22760100.9604 
        50.000          46.000  
 10  1 15 19  4 51.0000000  0  8G02G04G05G08G10G15G24G29
 109926410.28747  85656922.24047  20918317.6204   20918319.1924   20918318.1534 
        56.000          50.000  
 124436980.96347  96963866.27047  23679581.3654   23679586.1614   23679580.7544 
        48.000          42.000  
 113688161.72947  88588171.59547  21634140.2574   21634143.4324   21634140.2894 
        54.000          49.000  
 130171240.25347 101432123.96147  24770768.8354   24770774.4974   24770768.3104 
        42.000          37.000  
 115996521.14647  90386884.34647  22073415.4014   22073421.9724   22073417.2614 
        52.000          46.000  
 109938794.88447  85666577.94547  20920669.2474   20920672.9704   20920668.5294 
        55.000          50.000  
 123752993.54647  96430878.21647  23549432.9594   23549439.8544   23549433.7664 
        47.000          41.000  
 119602631.55147  93196844.96747  22759630.7254   22759633.4164   22759630.1594 
        50.000          46.000  
 10  1 15 19  4 52.0000000  0  8G02G04G05G08G10G15G24G29
 109926392.11647  85656908.07947  20918313.9424   20918316.0014   20918314.6134 
        56.000          50.000  
 124438693.45247  96965200.68247  23679905.6864   23679912.0854   23679906.5944 
        48.000          43.000  
 113689211.62947  88588989.69847  21634339.7994   21634342.8904   21634340.0294 
        54.000          49.000  
 130170698.29747 101431701.65947  24770666.0754   24770671.2614   24770665.5864 
        42.000          37.000  
 115998307.81447  90388276.55347  22073756.3204   22073761.4704   22073757.2214 
        52.000          46.000  
 109936918.15847  85665115.56147  20920312.2064   20920315.6754   20920311.4624 
        55.000          50.000  
 123750694.81347  96429086.99347  23548996.2324   23549002.2444   23548996.1754 
        47.000          41.000  
 119600158.05347  93194917.56647  22759159.0654   22759163.4694   22759159.4434 
        50.000          46.000  
 10  1 15 19  4 53.0000000  0  8G02G04G05G08G10G15G24G29
 109926374.32947  85656894.21947  20918310.9454   20918312.4144   20918311.1354 
        56.000          50.000  
 124440406.20147  96966535.29147  23680232.9634   23680238.6754   23680232.3044 
        48.000          43.000  
 113690261.61547  88589807.86947  21634540.0744   21634542.5614   21634539.7614 
        55.000          49.000  
 130170156.73847 101431279.66747  24770562.9184   24770567.3124   24770562.5074 
        42.000          37.000  
 116000094.52147  90389668.79247  22074095.7424   22074101.1594   22074097.1594 
        52.000          46.000  
 109935042.01047  85663653.62947  20919955.1494   20919958.8494   20919954.4704 
        55.000          50.000  
 123748396.02547  96427295.72947  23548558.6524   23548564.8644   23548558.5464 
        47.000          41.000  
 119597685.00847  93192990.51747  22758689.7234   22758693.0144   22758688.7394 
        50.000          46.000  
 10  1 15 19  4 54.0000000  0  8G02G04G05G08G10G15G24G29
 109926356.89147  85656880.63147  20918307.4024   20918309.1164   20918307.6754 
        56.000          50.000  
 124442119.21647  96967870.10847  23680557.1794   23680564.5474   23680558.2274 
        48.000          43.000  
 113691311.64947  88590626.07947  21634739.7234   21634742.5964   21634739.5014 
        54.000          49.000  
 130169615.52547 101430857.94347  24770460.4064   24770464.6314   24770459.5954 
        42.000          37.000  
 116001881.22147  90391061.02747  22074435.5714   22074442.0824   22074437.1214 
        52.000          46.000  
 109933166.40947  85662192.12347  20919598.3694   20919601.8944   20919597.6194 
        55.000          50.000  
 123746097.13647  96425504.38847  23548121.1924   23548127.0584   23548120.9874 
        47.000          41.000  
 119595212.38947  93191063.80547  22758218.8004   22758221.7264   22758218.1224 
        50.000          46.000  
 10  1 15 19  4 55.0000000  0  8G02G04G05G08G10G15G24G29
 109926339.72647  85656867.25647  20918304.3924   20918306.0134   20918304.4044 
        56.000          50.000  
 124443832.42147  96969205.07447  23680885.2574   23680890.4774   23680884.1324 
        48.000          43.000  
 113692361.66047  88591444.26847  21634939.8874   21634942.3224   21634939.2784 
        54.000          49.000  
 130169074.59947 101430436.44547  24770355.8434   24770362.3854   24770356.7464 
        42.000          37.000  
 116003667.84547  90392453.20147  22074776.9014   22074781.4084   22074777.0324 
        52.000          45.000  
 109931291.26947  85660730.97647  20919241.3564   20919244.8254   20919240.8244 
        55.000          50.000  
 123743798.09747  96423712.92947  23547684.0754   23547689.5064   23547683.4674 
        47.000          41.000  
 119592740.10447  93189137.34947  22757748.3074   22757751.8114   22757747.6284 
        50.000          46.000  
 10  1 15 19  4 56.0000000  0  8G02G04G05G08G10G15G24G29
 109926323.01947  85656854.23747  20918301.2044   20918302.7974   20918301.2204 
        56.000          50.000  
 124445545.95847  96970540.29747  23681210.0964   23681216.9804   23681210.2764 
        48.000          43.000  
 113693411.82847  88592262.58047  21635139.5354   21635142.3124   21635139.0734 
        55.000          49.000  
 130168534.13347 101430015.30147  24770252.7454   24770259.5784   24770253.8134 
        43.000          37.000  
 116005454.58747  90393845.47147  22075115.7384   22075121.5254   22075116.8854 
        52.000          46.000  
 109929416.78347  85659270.34047  20918884.4694   20918888.3034   20918884.1444 
        55.000          50.000  
 123741499.09347  96421921.49947  23547246.2164   23547252.8524   23547245.9754 
        47.000          41.000  
 119590268.35647  93187211.31147  22757277.6594   22757280.8344   22757277.1834 
        50.000          46.000  
 10  1 15 19  4 57.0000000  0  8G02G04G05G08G10G15G24G29
 109926306.62247  85656841.46047  20918297.8194   20918299.7844   20918298.2034 
        56.000          50.000  
 124447259.71847  96971875.69247  23681537.0264   23681542.8854   23681536.4184 
        48.000          43.000  
 113694462.02247  88593080.91247  21635339.3994   21635341.9724   21635338.9554 
        54.000          49.000  
 130167993.97047 101429594.39647  24770151.9094   24770157.1334   24770151.2104 
        42.000          37.000  
 116007241.29347  90395237.71147  22075456.6834   22075461.9024   22075456.8614 
        52.000          46.000  
 109927542.81247  85657810.10447  20918528.1594   20918531.7384   20918527.6374 
        55.000          50.000  
 123739199.95847  96420129.96647  23546809.7884   23546814.7804   23546808.4544 
        47.000          41.000  
 119587797.00147  93185285.58247  22756807.6994   22756810.9004   22756806.9454 
        50.000          46.000  
 10  1 15 19  4 58.0000000  0  8G02G04G05G08G10G15G24G29
 109926290.55947  85656828.94247  20918295.0574   20918296.7064   20918295.2514 
        56.000          50.000  
 124448973.70647  96973211.26647  23681862.9754   23681869.0784   23681862.6784 
        49.000          43.000  
 113695512.23947  88593899.26147  21635538.9454   21635541.8714   21635538.7794 
        54.000          49.000  
 130167454.17747 101429173.78047  24770050.0654   24770053.5534   24770048.3754 
        43.000          37.000  
 116009027.97747  90396629.93347  22075795.9394   22075801.3104   22075796.9264 
        52.000          45.000  
 109925669.35847  85656350.27047  20918171.5844   20918175.1074   20918171.1984 
        55.000          50.000  
 123736900.73847  96418338.36847  23546371.2534   23546377.4304   23546370.8904 
        48.000          41.000  
 119585326.04047  93183360.15747  22756337.3714   22756341.4984   22756336.8524 
        50.000          46.000  
 10  1 15 19  4 59.0000000  0  8G02G04G05G08G10G15G24G29
 109926274.90247  85656816.74347  20918292.4014   20918294.1124   20918292.3124 
        56.000          50.000  
 124450688.01947  96974547.08947  23682189.1884   23682194.9294   23682188.8984 
        49.000          43.000  
 113696562.57647  88594717.70647  21635738.8934   21635741.8194   21635738.5994 
        54.000          49.000  
 130166914.80547 101428753.49047  24769948.2674   24769951.4914   24769945.8524 
        43.000          37.000  
 116010814.72647  90398022.20847  22076135.9154   22076141.3304   22076136.9474 
        52.000          45.000  
 109923796.50547  85654890.90647  20917815.2674   20917818.7654   20917814.8704 
        55.000          50.000  
 123734601.46247  96416546.72547  23545932.9124   23545940.0054   23545933.3914 
        47.000          41.000  
 119582855.56447  93181435.11047  22755866.6784   22755870.8814   22755866.8114 
        50.000          45.000  
 10  1 15 19  5  0.0000000  0  8G02G04G05G08G10G15G24G29
 109926259.49747  85656804.73847  20918289.2134   20918290.8234   20918289.4094 
        56.000          50.000  
 124452402.49047  96975883.03547  23682514.6254   23682520.8554   23682515.1504 
        49.000          43.000  
 113697612.87347  88595536.11847  21635938.8864   21635941.3174   21635938.5074 
        54.000          49.000  
 130166375.66947 101428333.38547  24769844.7524   24769848.8354   24769843.2304 
        42.000          37.000  
 116012601.37947  90399414.40347  22076476.0784   22076481.0504   22076476.9704 
        52.000          46.000  
 109921924.10847  85653431.89647  20917458.8714   20917462.4294   20917458.6484 
        55.000          50.000  
 123732302.03147  96414754.96547  23545495.3164   23545502.2154   23545495.8764 
        47.000          41.000  
 119580385.41747  93179510.32047  22755396.7454   22755400.4474   22755396.8734 
        50.000          46.000  
 10  1 15 19  5  1.0000000  0  8G02G04G05G08G10G15G24G29
 109926244.46047  85656793.02047  20918286.4124   20918288.0364   20918286.5824 
        56.000          50.000  
 124454117.21447  96977219.18047  23682841.5834   23682848.3394   23682841.5484 
        49.000          43.000  
 113698663.23647  88596354.58247  21636138.6204   21636141.6004   21636138.3574 
        54.000          49.000  
 130165836.90147 101427913.56647  24769740.9404   24769747.1074   24769740.5924 
        42.000          37.000  
 116014388.04247  90400806.60547  22076815.7104   22076821.7164   22076817.0174 
        52.000          46.000  
 109920052.27047  85651973.32147  20917102.7074   20917106.3204   20917102.5314 
        55.000          50.000  
 123730002.50247  96412963.12247  23545057.7214   23545065.7264   23545058.6414 
        47.000          41.000  
 119577915.70747  93177585.87347  22754927.0584   22754930.4174   22754926.9494 
        50.000          45.000  
 10  1 15 19  5  2.0000000  0  8G02G04G05G08G10G15G24G29
 109926229.82547  85656781.61547  20918283.3874   20918284.9004   20918283.8474 
        57.000          50.000  
 124455832.24547  96978555.56747  23683167.4964   23683174.3354   23683168.0864 
        49.000          43.000  
 113699713.70947  88597173.13247  21636338.8244   21636341.7214   21636338.2844 
        54.000          49.000  
 130165298.55447 101427494.07647  24769638.6844   24769645.1094   24769638.2924 
        43.000          37.000  
 116016174.76247  90402198.85447  22077156.1014   22077160.8234   22077156.9994 
        52.000          46.000  
 109918181.02247  85650515.20547  20916746.6454   20916750.1784   20916746.5104 
        55.000          50.000  
 123727702.97347  96411171.28347  23544621.6934   23544627.3364   23544621.2264 
        47.000          41.000  
 119575446.46447  93175661.78647  22754457.5154   22754460.5474   22754457.1684 
        50.000          46.000  
 10  1 15 19  5  3.0000000  0  8G02G04G05G08G10G15G24G29
 109926215.44247  85656770.40647  20918280.9004   20918282.5764   20918281.2294 
        57.000          50.000  
 124457547.42247  96979892.06647  23683494.5174   23683499.4054   23683494.5474 
        49.000          43.000  
 113700764.13447  88597991.64347  21636538.7354   21636541.5894   21636538.2624 
        54.000          49.000  
 130164760.46347 101427074.78447  24769536.2014   24769541.5344   24769536.0974 
        42.000          37.000  
 116017961.38247  90403591.02447  22077496.7354   22077501.2954   22077496.9614 
        52.000          46.000  
 109916310.22947  85649057.44447  20916390.7074   20916394.1624   20916390.5774 
        55.000          50.000  
 123725403.24947  96409379.29147  23544183.8894   23544189.5954   23544184.0294 
        47.000          41.000  
 119572977.56147  93173737.96147  22753987.1844   22753990.8904   22753987.3914 
        50.000          46.000  
 10  1 15 19  5  4.0000000  0  8G02G04G05G08G10G15G24G29
 109926201.56047  85656759.58847  20918278.3634   20918279.7114   20918278.6864 
        57.000          50.000  
 124459262.98347  96981228.86547  23683820.3034   23683826.9264   23683821.0504 
        48.000          42.000  
 113701814.76247  88598810.31547  21636738.7834   21636741.4464   21636738.2184 
        54.000          49.000  
 130164222.85747 101426655.87047  24769433.1234   24769439.9054   24769433.9864 
        42.000          37.000  
 116019748.15347  90404983.31347  22077835.8434   22077841.6294   22077836.9984 
        52.000          46.000  
 109914440.12047  85647600.21647  20916034.9284   20916038.2014   20916034.7984 
        55.000          50.000  
 123723103.59147  96407587.34947  23543745.2334   23543752.3814   23543746.5944 
        48.000          41.000  
 119570509.22247  93171814.58147  22753517.3814   22753521.6384   22753517.7994 
        50.000          46.000  
 10  1 15 19  5  5.0000000  0  8G02G04G05G08G10G15G24G29
 109926187.93147  85656748.96847  20918275.5004   20918277.0304   20918276.2804 
        57.000          50.000  
 124460978.71847  96982565.80247  23684147.0694   23684154.0714   23684147.4864 
        48.000          43.000  
 113702865.34247  88599628.94947  21636938.5074   21636941.3714   21636938.1344 
        54.000          49.000  
 130163685.54447 101426237.18847  24769330.6324   24769337.7914   24769331.7244 
        42.000          37.000  
 116021534.82647  90406375.52447  22078176.2234   22078181.5774   22078177.0054 
        52.000          46.000  
 109912570.46647  85646143.34347  20915678.6964   20915682.5134   20915679.0684 
        55.000          50.000  
 123720803.75547  96405795.27147  23543308.0184   23543313.2734   23543309.0594 
        47.000          41.000  
 119568041.22047  93169891.46547  22753048.3584   22753051.3424   22753048.1754 
        50.000          46.000  
 10  1 15 19  5  6.0000000  0  8G02G04G05G08G10G15G24G29
 109926174.58247  85656738.56547  20918273.0744   20918274.7024   20918273.7734 
        57.000          50.000  
 124462694.64847  96983902.89247  23684473.1084   23684480.1064   23684473.9324 
        48.000          43.000  
 113703915.90647  88600447.56947  21637138.3364   21637141.2784   21637138.0134 
        54.000          49.000  
 130163148.51847 101425818.72747  24769229.3104   24769235.1944   24769229.8344 
        43.000          37.000  
 116023321.43147  90407767.68347  22078515.9494   22078521.1954   22078517.0834 
        52.000          46.000  
 109910701.27547  85644686.83147  20915323.2264   20915326.7904   20915323.3044 
        55.000          50.000  
 123718503.75747  96404003.06647  23542870.3134   23542876.1254   23542871.6304 
        47.000          41.000  
 119565573.56747  93167968.62047  22752578.4814   22752581.9104   22752578.6384 
        50.000          46.000  
