     2.10           Observation         M (Mixed)           RINEX VERSION / TYPE
teqc  2002Mar14                         03/29/2008 23:03:54 PGM / RUN BY / DATE
ONSA                                                        MARKER NAME
SWEPOS              LMV                                     OBSERVER / AGENCY
AGOMET9N0N4         JPS E_GGD           2.3 Feb,17,2004 p4b2REC # / TYPE / VERS
020                 AOAD/M_B        OSOD                    ANT # / TYPE
  3370658.8318   711876.9387  5349786.7450                  APPROX POSITION XYZ
        0.9950        0.0000        0.0000                  ANTENNA: DELTA H/E/N
     1     1                                                WAVELENGTH FACT L1/2
     7    C1    L1    L2    P1    P2    S1    S2            # / TYPES OF OBSERV
    30.000                                                  INTERVAL
  2005     8    12     0     0    0.0000000     GPS         TIME OF FIRST OBS
10402M004                                                   MARKER NUMBER
    13                                                      LEAP SECONDS
MSWin2000|IAx86-PII|bcc32 5.0|MSWin95/98/NT/2000|486/DX+    COMMENT
teqc  2002Mar14                         20050812 00:00:19UTCCOMMENT
Forced Modulo Decimation to 30 seconds                      COMMENT
IMoS GFileSrv 3.34  Lantmäteriet        11.08.2005          COMMENT
Edited by GPSTK Rinex Editor ver 3.5 6/21/2007 on 2008/03/26COMMENT
Edited by GPSTK Rinex Editor ver 3.5 6/21/2007 on 2008/03/29COMMENT
                                                            END OF HEADER
 05  8 12  0  0  0.0000000  0 10G03G08G15G18G19G21G22G26G27G29
  20577208.082 8 108134015.042 8  84260271.34546  20577207.498 6  20577210.550 6
        52.000          41.000  
  24487640.402 5 128683400.659 5 100272803.63441  24487638.930 1  24487642.868 1
        39.000          17.000  
  20111422.332 8 105686239.090 8  82352968.15346  20111421.022 6  20111424.429 6
        51.000          43.000  
  21582085.426 7 113414648.496 7  88375065.06945  21582085.234 5  21582086.922 5
        48.000          39.000  
  22588169.792 7 118701659.420 7  92494803.29345  22588167.947 4  22588169.358 5
        47.000          35.000  
  22074139.521 7 116000399.639 7  90389976.19744  22074139.159 4  22074140.959 4
        47.000          33.000  
  22307510.849 7 117226769.222 7  91345554.75644  22307510.492 4  22307511.191 4
        48.000          34.000  
  23652225.622 4 124293289.475 4         0.000           0.000           0.000  
        34.000           0.000  
  24426322.074 5 128361202.776 5 100021732.56242  24426321.557 2  24426326.971 2
        39.000          20.000  
  24283237.867 5 127609290.819 5  99435812.73241  24283236.495 1  24283241.613 1
        36.000          13.000  
 05  8 12  0  0 30.0000000  0 10G03G08G15G18G19G21G22G26G27G29
  20570132.897 8 108096835.997 8  84231300.66146  20570132.450 6  20570135.277 6
        51.000          41.000  
  24478721.699 6 128636539.199 6 100236288.23041  24478721.357 1  24478723.829 1
        40.000          17.000  
  20114144.837 8 105700546.658 8  82364116.91446  20114143.874 6  20114147.049 6
        52.000          43.000  
  21577273.118 8 113389356.476 8  88355357.00645  21577272.280 5  21577273.868 5
        50.000          38.000  
  22571582.762 7 118614492.860 7  92426881.31045  22571580.767 5  22571581.728 5
        47.000          35.000  
  22089186.097 7 116079467.335 7  90451587.39144  22089185.681 4  22089186.943 4
        47.000          34.000  
  22291504.196 7 117142657.391 7  91280013.08044  22291504.526 4  22291505.000 4
        47.000          34.000  
  23649184.764 5 124277298.925 5         0.000           0.000           0.000  
        36.000           0.000  
  24428591.163 5 128373128.702 5 100031025.46941  24428590.547 1  24428595.351 1
        38.000          19.000  
  24285533.909 5 127621360.503 5  99445217.76241  24285533.864 1  24285537.940 1
        38.000          15.000  
 05  8 12  0  1  0.0000000  0 10G03G08G15G18G19G21G22G26G27G29
  20563146.983 8 108060124.390 8  84202694.22146  20563146.602 6  20563149.610 6
        52.000          41.000  
  24469911.320 5 128590241.519 5 100200212.13941  24469911.810 1  24469915.155 1
        38.000          19.000  
  20116965.745 8 105715373.327 8  82375670.16146  20116965.193 6  20116968.555 6
        52.000          43.000  
  21572571.334 8 113364649.365 8  88336104.71445  21572570.656 5  21572572.559 5
        50.000          38.000  
  22555036.266 7 118527545.816 7  92359130.37144  22555035.157 4  22555035.722 4
        47.000          34.000  
  22104289.371 7 116158834.302 7  90513431.77144  22104288.504 4  22104290.146 4
        47.000          33.000  
  22275572.818 7 117058932.098 7  91214772.61244  22275571.964 4  22275572.606 4
        46.000          34.000  
  23646266.341 4 124261974.718 4  96827529.40741  23646266.496 1  23646269.223 1
        33.000          10.000  
  24430960.256 6 128385569.501 6 100040719.61542  24430959.785 2  24430963.538 2
        41.000          20.000  
  24287941.348 5 127634005.836 5  99455071.24841  24287940.588 1  24287943.536 1
        38.000          17.000  
 05  8 12  0  1 30.0000000  0 10G03G08G15G18G19G21G22G26G27G29
  20556250.498 8 108023881.511 8  84174453.01946  20556249.875 6  20556252.891 6
        52.000          41.000  
  24461206.671 5 128544509.032 5 100164576.40041  24461207.125 1  24461212.499 1
        37.000          16.000  
  20119886.683 8 105730718.281 8  82387627.27246  20119885.313 6  20119888.532 6
        52.000          43.000  
  21567980.788 8 113340528.014 8  88317308.86845  21567980.468 5  21567982.347 5
        52.000          39.000  
  22538532.740 7 118440819.748 7  92291551.62145  22538532.010 5  22538532.702 5
        46.000          35.000  
  22119448.511 7 116238498.505 7  90575507.76144  22119448.246 4  22119450.040 4
        47.000          33.000  
  22259713.266 7 116975595.547 7  91149835.06445  22259713.287 4  22259714.091 5
        48.000          35.000  
  23643479.307 5 124247317.837 5  96816108.47941  23643477.422 1  23643481.414 1
        35.000           8.000  
  24433424.738 6 128398524.142 6 100050814.12842  24433424.925 2  24433428.063 2
        40.000          20.000  
  24290455.704 5 127647226.360 5  99465372.93541  24290456.603 1  24290460.186 1
        39.000          17.000  
 05  8 12  0  2  0.0000000  0 10G03G08G15G18G19G21G22G26G27G29
  20549443.236 8 107988108.453 8  84146577.91246  20549442.412 6  20549445.320 6
        52.000          41.000  
  24452612.835 5 128499343.141 5 100129382.28541  24452612.319 1  24452616.214 1
        37.000          16.000  
  20122904.517 8 105746580.538 8  82399987.47846  20122903.691 6  20122907.000 6
        53.000          42.000  
  21563502.119 8 113316992.382 8  88298969.43045  21563501.812 5  21563503.384 5
        51.000          38.000  
  22522072.137 7 118354316.517 7  92224146.51645  22522070.872 5  22522072.048 5
        47.000          35.000  
  22134665.118 7 116318458.578 7  90637814.30744  22134664.381 4  22134666.023 4
        48.000          33.000  
  22243929.762 7 116892650.142 7  91085202.29044  22243929.476 4  22243929.732 4
        48.000          34.000  
  23640817.152 5 124233329.110 5  96805208.11841  23640818.651 1  23640817.657 1
        35.000           9.000  
  24435987.362 5 128411992.060 5 100061308.64241  24435987.772 1  24435990.348 1
        38.000          19.000  
  24293083.142 6 127661021.874 6  99476122.63341  24293082.359 1  24293083.901 1
        40.000          18.000  
 05  8 12  0  2 30.0000000  0 10G03G08G15G18G19G21G22G26G27G29
  20542725.010 8 107952806.308 8  84119069.75046  20542724.303 6  20542727.612 6
        52.000          42.000  
  24444128.105 5 128454745.876 5 100094631.14741  24444126.701 1  24444131.514 1
        39.000          17.000  
  20126021.548 8 105762959.586 8  82412750.37446  20126020.491 6  20126023.882 6
        52.000          43.000  
  21559135.291 8 113294043.970 8  88281087.55545  21559134.939 5  21559136.928 5
        50.000          38.000  
  22505653.347 7 118268037.669 7  92156916.26744  22505652.062 4  22505653.866 4
        46.000          34.000  
  22149936.772 7 116398712.478 7  90700349.80944  22149936.176 4  22149937.560 4
        47.000          33.000  
  22228220.765 7 116810098.368 7  91020876.24144  22228220.784 4  22228220.961 4
        49.000          34.000  
  23638282.765 4 124220009.495 4  96794829.24741  23638279.616 1  23638280.318 1
        33.000           6.000  
  24438648.821 5 128425972.567 5 100072202.56542  24438647.287 1  24438651.999 2
        39.000          20.000  
  24295816.406 6 127675391.859 6  99487319.98341  24295816.097 1  24295819.344 1
        40.000          19.000  
 05  8 12  0  3  0.0000000  0 10G03G08G15G18G19G21G22G26G27G29
  20536097.084 8 107917976.142 8  84091929.36546  20536096.528 6  20536099.620 6
        52.000          41.000  
  24435749.432 5 128410718.818 5 100060324.36641  24435747.139 1  24435753.561 1
        38.000          18.000  
  20129236.416 8 105779854.535 8  82425915.27446  20129235.421 6  20129238.871 6
        53.000          42.000  
  21554880.316 8 113271683.509 8  88263663.81945  21554879.917 5  21554881.736 5
        50.000          39.000  
  22489278.124 7 118181984.903 7  92089862.17945  22489277.081 5  22489278.058 5
        47.000          35.000  
  22165264.587 7 116479258.530 7  90763112.97244  22165263.409 4  22165264.129 4
        46.000          32.000  
  22212586.972 7 116727942.437 7  90956858.63545  22212586.571 4  22212587.064 5
        49.000          35.000  
  23635874.123 4 124207359.685 4         0.000           0.000           0.000  
        34.000           0.000  
  24441406.421 6 128440464.812 6 100083495.21042  24441405.745 2  24441408.903 2
        40.000          20.000  
  24298661.386 6 127690335.962 6  99498964.76841  24298660.543 1  24298662.701 1
        40.000          19.000  
 05  8 12  0  3 30.0000000  0 10G03G08G15G18G19G21G22G26G27G29
  20529559.263 8 107883619.433 8  84065157.91146  20529558.764 6  20529561.761 6
        52.000          41.000  
  24427479.604 5 128367263.808 5 100026463.33841  24427478.925 1  24427483.173 1
        39.000          19.000  
  20132549.688 8 105797264.650 8  82439481.60346  20132548.668 6  20132552.011 6
        52.000          43.000  
  21550737.595 7 113249911.815 7  88246698.87445  21550736.885 5  21550738.657 5
        48.000          39.000  
  22472946.413 7 118096159.835 7  92022985.50745  22472945.159 5  22472946.061 5
        48.000          35.000  
  22180646.313 7 116560095.004 7  90826102.42944  22180645.794 4  22180647.224 4
        48.000          32.000  
  22197029.075 7 116646184.702 7  90893151.32245  22197028.748 5  22197028.990 5
        49.000          35.000  
  23633597.068 5 124195380.612 5  96775637.82241  23633601.544 1  23633599.122 1
        35.000          14.000  
  24444260.210 6 128455467.922 6 100095185.93842  24444259.495 2  24444264.632 2
        40.000          20.000  
  24301614.022 6 127705853.689 6  99511056.49842  24301612.766 2  24301616.372 2
        40.000          20.000  
 05  8 12  0  4  0.0000000  0 10G03G08G15G18G19G21G22G26G27G29
  20523111.694 8 107849737.227 8  84038756.19346  20523111.195 6  20523114.124 6
        51.000          41.000  
  24419320.196 5 128324382.491 5  99993049.38341  24419319.804 1  24419323.282 1
        39.000          19.000  
  20135960.404 8 105815189.152 8  82453448.74846  20135959.583 6  20135962.876 6
        52.000          43.000  
  21546706.536 8 113228729.342 8  88230193.06345  21546705.827 5  21546707.767 5
        51.000          38.000  
  22456658.116 7 118010563.960 7  91956287.44345  22456656.890 5  22456658.031 5
        47.000          35.000  
  22196084.278 7 116641220.191 7  90889316.85744  22196083.286 4  22196084.939 4
        48.000          32.000  
  22181546.847 7 116564827.859 7  90829756.38545  22181546.688 4  22181547.513 5
        49.000          35.000  
  23631445.254 5 124184072.846 5  96766826.49741  23631441.469 1  23631450.229 1
        35.000           2.000  
  24447212.592 5 128470981.511 5 100107274.47641  24447212.200 1  24447215.081 1
        39.000          19.000  
  24304674.417 5 127721944.680 5  99523594.91342  24304674.901 2  24304678.187 2
        39.000          21.000  
 05  8 12  0  4 30.0000000  0 10G03G08G15G18G19G21G22G26G27G29
  20516755.059 8 107816330.759 8  84012725.18646  20516754.118 6  20516756.993 6
        51.000          41.000  
  24411271.285 6 128282075.926 6  99960083.26841  24411270.363 1  24411272.398 1
        41.000          19.000  
  20139469.303 8 105833627.193 8  82467816.05446  20139468.315 6  20139471.537 6
        52.000          43.000  
  21542788.000 8 113208136.488 8  88214146.70145  21542787.322 5  21542789.122 5
        51.000          39.000  
  22440413.697 7 117925199.011 7  91889769.30645  22440412.449 5  22440413.584 5
        48.000          35.000  
  22211576.654 7 116722632.132 7  90952754.72744  22211575.785 4  22211577.707 4
        46.000          32.000  
  22166143.010 7 116483874.244 7  90766675.65845  22166141.900 5  22166142.435 5
        48.000          35.000  
  23629420.644 5 124173437.154 5  96758538.96441  23629419.317 1  23629422.740 1
        37.000          15.000  
  24450263.120 5 128487004.401 5 100119759.84042  24450261.158 1  24450265.140 2
        38.000          20.000  
  24307845.909 5 127738608.332 5  99536579.57742  24307845.332 2  24307849.319 2
        39.000          21.000  
 05  8 12  0  5  0.0000000  0 10G03G08G15G18G19G21G22G26G27G29
  20510488.203 8 107783401.204 8  83987065.79246  20510487.758 6  20510490.845 6
        52.000          42.000  
  24403328.355 5 128240346.019 5  99927566.46741  24403327.257 1  24403330.043 1
        39.000          19.000  
  20143075.442 8 105852577.906 8  82482582.84246  20143074.289 6  20143077.617 6
        52.000          43.000  
  21538981.471 8 113188133.666 8  88198560.10145  21538980.751 5  21538982.609 5
        50.000          38.000  
  22424213.580 7 117840066.699 7  91823432.45445  22424212.076 5  22424213.501 5
        47.000          35.000  
  22227122.947 7 116804329.212 7  91016414.78544  22227122.093 4  22227123.442 4
        46.000          32.000  
  22150814.386 7 116403325.882 7  90703910.71744  22150813.601 4  22150814.739 4
        49.000          34.000  
  23627526.817 4 124163474.413 4         0.000           0.000           0.000  
        31.000           0.000  
  24453408.452 5 128503535.730 5 100132641.39841  24453407.336 1  24453411.878 1
        38.000          19.000  
  24311125.942 5 127755844.132 5  99550010.05642  24311126.157 2  24311127.770 2
        37.000          21.000  
 05  8 12  0  5 30.0000000  0 10G03G08G15G18G19G21G22G26G27G29
  20504313.040 8 107750949.615 8  83961778.84346  20504312.480 6  20504315.479 6
        51.000          41.000  
  24395498.409 6 128199194.320 6  99895500.23141  24395496.681 1  24395500.470 1
        40.000          19.000  
  20146779.034 8 105872040.522 8  82497748.52346  20146778.013 6  20146781.225 6
        52.000          43.000  
  21535288.110 8 113168722.393 8  88183434.44545  21535286.892 5  21535288.871 5
        50.000          39.000  
  22408058.186 7 117755168.514 7  91757278.04745  22408057.030 5  22408057.718 5
        48.000          35.000  
  22242723.742 7 116886309.870 7  91080295.80144  22242722.982 4  22242724.664 4
        47.000          33.000  
  22135564.544 8 116323185.472 8  90641463.66045  22135563.813 4  22135564.022 5
        50.000          35.000  
  23625755.025 4 124154184.847 4         0.000           0.000           0.000  
        33.000           0.000  
  24456649.083 5 128520575.022 5 100145918.78341  24456649.301 1  24456653.970 1
        38.000          19.000  
  24314514.705 5 127773651.607 5  99563885.99142  24314514.558 2  24314517.242 2
        37.000          20.000  
 05  8 12  0  6  0.0000000  0 10G03G08G15G18G19G21G22G26G27G29
  20498228.768 8 107718977.115 8  83936865.20946  20498228.302 6  20498231.506 6
        52.000          41.000  
  24387777.802 5 128158622.322 5  99863885.69841  24387776.703 1  24387779.282 1
        39.000          19.000  
  20150579.407 8 105892014.350 8  82513312.54446  20150578.981 6  20150582.149 6
        53.000          43.000  
  21531706.502 8 113149902.714 8  88168769.76945  21531705.751 5  21531707.637 5
        51.000          39.000  
  22391947.817 7 117670506.241 7  91691307.44945  22391945.902 5  22391946.884 5
        47.000          35.000  
  22258376.653 7 116968571.901 7  91144396.08044  22258376.424 4  22258377.727 4
        47.000          32.000  
  22120391.403 7 116243455.147 7  90579336.13945  22120391.099 4  22120392.304 5
        49.000          35.000  
  23624116.921 4 124145569.574 4  96736819.89741  23624118.115 1  23624118.261 1
        34.000           9.000  
  24459988.574 5 128538121.245 5 100159591.22441  24459987.018 1  24459991.765 1
        39.000          19.000  
  24318011.870 5 127792030.248 5  99578207.04242  24318012.283 2  24318013.710 2
        39.000          20.000  
 05  8 12  0  6 30.0000000  0 10G03G08G15G18G19G21G22G26G27G29
  20492236.171 8 107687484.640 8  83912325.61746  20492235.396 6  20492238.277 6
        50.000          41.000  
  24380167.373 5 128118631.665 5  99832724.16941  24380166.039 1  24380169.033 1
        38.000          18.000  
  20154477.879 8 105912498.270 8  82529274.04146  20154477.011 6  20154479.986 6
        51.000          43.000  
  21528238.001 8 113131674.925 8  88154566.30145  21528237.342 5  21528238.931 5
        50.000          38.000  
  22375881.981 7 117586081.379 7  91625521.84845  22375880.544 5  22375881.318 5
        47.000          35.000  
  22274085.203 7 117051113.950 7  91208714.55044  22274083.992 4  22274085.259 4
        46.000          32.000  
  22105297.460 7 116164137.351 7  90517530.08845  22105297.553 5  22105298.660 5
        49.000          35.000  
  23622607.269 4 124137628.710 4  96730632.26441  23622596.191 1  23622610.266 1
        33.000           6.000  
  24463423.343 6 128556173.620 6 100173657.99741  24463424.059 1  24463427.619 1
        40.000          19.000  
  24321618.082 5 127810979.312 5  99592972.50342  24321617.465 2  24321622.792 2
        38.000          20.000  
 05  8 12  0  7  0.0000000  0 10G03G08G15G18G19G21G22G26G27G29
  20486334.818 8 107656473.296 8  83888160.94146  20486334.190 6  20486337.366 6
        51.000          41.000  
  24372668.133 6 128079223.518 6  99802016.52041  24372667.655 1  24372672.430 1
        40.000          18.000  
  20158472.772 8 105933491.454 8  82545632.37146  20158471.779 6  20158474.927 6
        52.000          43.000  
  21524882.377 8 113114039.722 8  88140824.59145  21524881.447 5  21524883.101 5
        51.000          38.000  
  22359861.591 7 117501895.339 7  91559922.35445  22359860.352 5  22359861.659 5
        47.000          35.000  
  22289846.028 7 117133934.241 7  91273249.83144  22289844.341 4  22289845.653 4
        48.000          32.000  
  22090283.471 7 116085234.675 7  90456047.50545  22090283.107 5  22090283.984 5
        49.000          35.000  
  23621222.969 4 124130363.147 4  96724970.76841  23621224.739 1  23621230.250 1
        34.000           4.000  
  24466956.665 6 128574731.061 6 100188118.35141  24466955.055 1  24466958.700 1
        40.000          19.000  
  24325331.977 5 127830498.403 5  99608182.18041  24325331.850 1  24325333.952 1
        38.000          19.000  
 05  8 12  0  7 30.0000000  0 10G03G08G15G18G19G21G22G26G27G29
  20480525.133 8 107625944.245 8  83864372.06946  20480524.592 6  20480527.593 6
        53.000          41.000  
  24365278.663 6 128040399.531 6  99771764.06641  24365277.146 1  24365281.635 1
        40.000          17.000  
  20162564.226 8 105954993.085 8  82562386.88746  20162563.327 6  20162566.509 6
        53.000          43.000  
  21521639.040 8 113096998.003 8  88127545.33745  21521638.198 5  21521640.052 5
        52.000          39.000  
  22343887.443 7 117417950.211 7  91494510.57745  22343886.336 5  22343886.879 5
        48.000          36.000  
  22305657.727 7 117217031.080 7  91338000.61644  22305656.359 4  22305658.327 4
        46.000          32.000  
  22075348.200 7 116006748.999 7  90394889.84445  22075347.981 5  22075348.199 5
        49.000          35.000  
  23619969.632 5 124123773.317 5  96719835.82441  23619971.328 1  23619974.266 1
        35.000          10.000  
  24470583.322 6 128593792.752 6 100202971.62142  24470583.033 1  24470586.829 2
        40.000          20.000  
  24329156.653 5 127850586.802 5  99623835.44341  24329155.756 1  24329158.374 1
        38.000          18.000  
 05  8 12  0  8  0.0000000  0 10G03G08G15G18G19G21G22G26G27G29
  20474808.199 8 107595898.573 8  83840959.86246  20474807.140 6  20474810.281 6
        52.000          41.000  
  24358004.932 6 128002161.206 6  99741968.03341  24358003.270 1  24358006.242 1
        40.000          19.000  
  20166752.881 8 105977002.290 8  82579536.91746  20166751.583 6  20166754.664 6
        52.000          42.000  
  21518509.223 8 113080550.015 8  88114728.72645  21518508.307 5  21518510.144 5
        51.000          39.000  
  22327958.989 7 117334247.325 7  91429287.55245  22327957.804 5  22327958.843 5
        47.000          35.000  
  22321523.665 7 117300402.696 7  91402965.50644  22321522.142 4  22321523.333 4
        47.000          32.000  
  22060493.036 7 115928682.547 7  90334058.85245  22060492.405 4  22060492.406 5
        49.000          35.000  
  23618843.195 4 124117859.764 4  96715227.85141  23618844.958 1  23618845.019 1
        33.000          11.000  
  24474306.718 5 128613357.635 5 100218216.98341  24474305.743 1  24474309.621 1
        38.000          19.000  
  24333086.813 5 127871243.824 5  99639931.82241  24333085.547 1  24333088.015 1
        38.000          15.000  
 05  8 12  0  8 30.0000000  0 10G03G08G15G18G19G21G22G26G27G29
  20469182.443 8 107566337.574 8  83817925.32246  20469182.029 6  20469185.023 6
        52.000          41.000  
  24350837.692 5 127964509.602 5  99712629.12041  24350837.927 1  24350842.822 1
        39.000          19.000  
  20171036.835 8 105999518.084 8  82597081.70146  20171036.137 6  20171039.389 6
        52.000          43.000  
  21515492.156 8 113064695.907 8  88102374.89045  21515491.496 5  21515492.994 5
        51.000          39.000  
  22312078.150 7 117250788.710 7  91364254.89545  22312076.125 5  22312077.512 5
        47.000          36.000  
  22337439.409 7 117384046.829 7  91468142.74744  22337438.956 4  22337440.947 4
        47.000          32.000  
  22045717.560 7 115851038.116 7  90273556.71645  22045716.986 5  22045717.745 5
        49.000          35.000  
  23617848.392 5 124112622.902 5  96711147.21741  23617847.994 1  23617849.878 1
        35.000           9.000  
  24478124.608 6 128633424.614 6 100233853.60141  24478125.751 2  24478127.175 1
        41.000          19.000  
  24337124.954 5 127892468.796 5  99656470.68341  24337124.888 1  24337128.090 1
        39.000          18.000  
 05  8 12  0  9  0.0000000  0 10G03G08G15G18G19G21G22G26G27G29
  20463649.692 8 107537262.240 8  83795269.22446  20463649.068 6  20463652.021 6
        53.000          41.000  
  24343784.282 5 127927446.392 5  99683748.65142  24343785.275 2  24343788.290 2
        39.000          20.000  
  20175418.241 8 106022539.617 8  82615020.55646  20175417.072 6  20175420.287 6
        52.000          43.000  
  21512588.529 8 113049436.275 8  88090484.28545  21512587.458 5  21512589.319 5
        50.000          38.000  
  22296242.635 7 117167575.874 7  91299413.73245  22296241.393 5  22296242.364 5
        48.000          36.000  
  22353407.981 7 117467962.464 7  91533531.53844  22353407.647 4  22353409.719 4
        47.000          31.000  
  22031023.437 7 115773817.896 7  90213385.13245  22031023.036 5  22031023.333 5
        49.000          35.000  
  23616978.841 5 124108063.232 5  96707594.23641  23616979.298 1  23616984.596 1
        35.000          11.000  
  24482038.356 5 128653992.955 5 100249880.92542  24482039.663 2  24482042.183 2
        37.000          20.000  
  24341272.270 5 127914261.047 5  99673451.66641  24341271.548 1  24341275.210 1
        39.000          18.000  
 05  8 12  0  9 30.0000000  0 10G03G08G15G18G19G21G22G26G27G29
  20458209.511 8 107508673.401 8  83772992.20746  20458208.943 6  20458211.732 6
        52.000          41.000  
  24336844.201 5 127890972.877 5  99655327.76841  24336844.046 1  24336847.534 1
        38.000          19.000  
  20179895.111 8 106046065.936 8  82633352.75346  20179894.032 6  20179897.179 6
        53.000          43.000  
  21509797.478 7 113034772.262 7  88079057.80045  21509796.843 5  21509798.852 5
        49.000          39.000  
  22280454.690 7 117084610.379 7  91234765.30345  22280453.646 5  22280454.544 5
        49.000          36.000  
  22369428.132 7 117552147.558 7  91599130.29944  22369427.552 4  22369429.488 4
        45.000          31.000  
  22016409.702 7 115697024.068 7  90153545.80445  22016409.263 5  22016409.726 5
        49.000          35.000  
  23616241.727 5 124104181.153 5  96704569.15741  23616242.201 1  23616244.761 1
        36.000          10.000  
  24486049.324 5 128675061.617 5 100266298.05942  24486047.723 2  24486050.722 2
        39.000          20.000  
  24345525.758 5 127936620.015 5  99690874.22341  24345525.239 1  24345529.199 1
        39.000          19.000  
 05  8 12  0 10  0.0000000  0 10G03G08G15G18G19G21G22G26G27G29
  20452861.882 8 107480572.255 8  83751095.21746  20452861.341 6  20452864.374 6
        52.000          42.000  
  24330016.698 5 127855090.174 5  99627367.24641  24330017.207 1  24330019.487 1
        37.000          19.000  
  20184467.736 8 106070096.009 8  82652077.48746  20184466.623 6  20184470.010 6
        53.000          42.000  
  21507120.689 8 113020703.881 8  88068095.43045  21507120.005 5  21507121.863 5
        51.000          39.000  
  22264713.826 7 117001893.840 7  91170310.87445  22264712.901 5  22264714.255 5
        48.000          36.000  
  22385498.871 7 117636600.373 7  91664937.67744  22385498.047 4  22385499.721 4
        46.000          31.000  
  22001878.041 7 115620658.637 7  90094040.28545  22001877.189 5  22001877.863 5
        49.000          35.000  
  23615629.789 5 124100976.994 5  96702072.37241  23615633.200 1  23615635.418 1
        37.000          10.000  
  24490153.135 6 128696629.574 6 100283104.26041  24490151.811 1  24490154.719 1
        41.000          19.000  
  24349889.924 6 127959544.873 6  99708737.74341  24349888.985 1  24349892.619 1
        40.000          19.000  
 05  8 12  0 10 30.0000000  0 10G03G08G15G18G19G21G22G26G27G29
  20447607.687 8 107452959.747 8  83729578.97646  20447606.856 6  20447609.469 6
        52.000          41.000  
  24323301.070 5 127819800.013 5  99599868.40441  24323301.098 1  24323302.979 1
        39.000          18.000  
  20189136.138 8 106094628.884 8  82671194.01046  20189135.008 6  20189138.346 6
        52.000          42.000  
  21504556.779 8 113007231.015 8  88057597.10945  21504556.282 5  21504557.998 5
        51.000          39.000  
  22249021.801 7 116919427.992 7  91106051.78945  22249020.358 5  22249021.418 5
        49.000          36.000  
  22401621.306 7 117721318.962 7  91730952.15344  22401619.698 4  22401620.915 4
        47.000          31.000  
  21987427.982 7 115544723.957 7  90034870.43445  21987427.852 5  21987427.820 5
        49.000          36.000  
  23615149.388 5 124098451.004 5  96700104.13541  23615149.726 1  23615152.699 1
        37.000          11.000  
  24494350.854 6 128718695.840 6 100300298.74742  24494350.494 1  24494354.578 2
        40.000          20.000  
  24354359.927 5 127983034.736 5  99727041.53041  24354357.791 1  24354362.605 1
        38.000          19.000  
 05  8 12  0 11  0.0000000  0 10G03G08G15G18G19G21G22G26G27G29
  20442446.494 8 107425836.891 8  83708444.29146  20442445.545 6  20442448.519 6
        52.000          41.000  
  24316699.052 5 127785103.285 5  99572831.99741  24316697.748 1  24316700.807 1
        39.000          19.000  
  20193899.674 8 106119663.735 8  82690701.69046  20193899.063 6  20193902.368 6
        51.000          43.000  
  21502106.331 8 112994354.471 8  88047563.45745  21502105.968 5  21502107.570 5
        51.000          39.000  
  22233377.395 7 116837214.508 7  91041989.34345  22233376.305 5  22233376.495 5
        49.000          37.000  
  22417792.306 7 117806301.802 7  91797172.53144  22417791.268 4  22417793.135 4
        46.000          31.000  
  21973060.044 8 115469222.198 8  89976037.90345  21973059.868 5  21973060.591 5
        50.000          36.000  
  23614800.806 5 124096603.802 5  96698664.71741  23614798.531 1  23614801.702 1
        37.000          11.000  
  24498644.254 5 128741259.381 5 100317880.75041  24498643.261 2  24498647.373 1
        39.000          19.000  
  24358937.144 5 128007088.869 5  99745784.99141  24358937.237 1  24358940.210 1
        39.000          19.000  
 05  8 12  0 11 30.0000000  0 10G03G08G15G18G19G21G22G26G27G29
  20437378.043 8 107399204.653 8  83687691.90046  20437377.665 6  20437380.824 6
        52.000          42.000  
  24310208.804 5 127751001.686 5  99546259.34242  24310209.821 2  24310211.547 2
        39.000          20.000  
  20198759.460 8 106145199.414 8  82710599.62246  20198758.311 6  20198761.667 6
        53.000          42.000  
  21499769.894 8 112982074.114 8  88037994.34845  21499769.174 5  21499770.763 5
        51.000          38.000  
  22217780.227 7 116755255.019 7  90978124.82245  22217779.185 5  22217780.305 5
        48.000          36.000  
  22434014.275 7 117891547.270 7  91863597.57744  22434013.204 4  22434014.936 4
        46.000          31.000  
  21958775.818 7 115394155.886 7  89917544.69145  21958775.209 5  21958776.016 5
        49.000          36.000  
  23614574.190 4 124095435.392 4  96697754.26841  23614577.048 1  23614582.205 1
        33.000          11.000  
  24503033.788 6 128764319.135 6 100335849.37342  24503031.685 1  24503037.992 2
        41.000          20.000  
  24363619.660 5 128031706.653 5  99764967.64541  24363620.637 1  24363623.211 1
        37.000          17.000  
 05  8 12  0 12  0.0000000  0 10G03G08G15G18G19G21G22G26G27G29
  20432403.923 8 107373063.996 8  83667322.56446  20432403.202 6  20432406.293 6
        52.000          41.000  
  24303833.271 5 127717496.342 5  99520151.27541  24303832.989 1  24303836.307 1
        39.000          19.000  
  20203713.369 8 106171235.023 8  82730887.11346  20203712.652 6  20203716.122 6
        52.000          43.000  
  21497546.350 8 112970390.835 8  88028890.50645  21497545.814 5  21497547.444 5
        51.000          39.000  
  22202232.588 7 116673551.461 7  90914459.72945  22202231.425 5  22202232.593 5
        48.000          37.000  
  22450285.092 7 117977053.522 7  91930225.81544  22450284.684 4  22450286.126 4
        46.000          30.000  
  21944574.149 7 115319527.010 7  89859392.33845  21944573.989 5  21944574.671 5
        49.000          36.000  
  23614483.200 5 124094946.078 5  96697373.03341  23614480.949 1  23614482.882 1
        35.000           9.000  
  24507515.470 6 128787873.942 6 100354203.79641  24507515.546 1  24507517.641 1
        40.000          18.000  
  24368412.662 5 128056887.053 5  99784588.74741  24368412.941 1  24368416.675 1
        37.000          17.000  
 05  8 12  0 12 30.0000000  0 10G03G08G15G18G19G21G22G26G27G29
  20427523.064 8 107347416.052 8  83647337.15846  20427522.621 6  20427525.729 6
        52.000          42.000  
  24297570.480 5 127684588.261 5  99494508.63442  24297569.937 2  24297574.044 2
        37.000          20.000  
  20208763.488 8 106197769.659 8  82751563.45546  20208762.226 6  20208765.504 6
        53.000          42.000  
  21495436.910 8 112959304.837 8  88020252.07645  21495436.199 5  21495438.058 5
        51.000          39.000  
  22186733.941 7 116592105.302 7  90850995.19945  22186733.032 5  22186733.588 5
        48.000          37.000  
  22466606.041 7 118062818.904 7  91997055.99243  22466604.800 3  22466605.492 3
        46.000          29.000  
  21930456.146 7 115245337.884 7  89801582.65145  21930455.881 5  21930456.803 5
        49.000          36.000  
  23614520.382 5 124095136.267 5  96697521.27741  23614522.684 1  23614520.111 1
        36.000           8.000  
  24512091.180 5 128811922.423 5 100372942.87941  24512091.300 1  24512093.037 1
        39.000          17.000  
  24373310.691 5 128082629.200 5  99804647.57041  24373311.465 1  24373315.701 1
        37.000          17.000  
 05  8 12  0 13  0.0000000  0 10G03G08G15G18G19G21G22G26G27G29
  20422736.700 8 107322261.756 8  83627736.41446  20422736.010 6  20422738.977 6
        52.000          41.000  
  24291421.249 5 127652278.570 5  99469332.27041  24291423.119 1  24291426.789 1
        38.000          19.000  
  20213907.083 8 106224802.258 8  82772627.82446  20213906.385 6  20213909.594 6
        52.000          43.000  
  21493441.320 8 112948816.778 8  88012079.56945  21493440.279 5  21493442.049 5
        50.000          39.000  
  22171285.095 7 116510918.120 7  90787732.46945  22171283.580 5  22171284.512 5
        48.000          37.000  
  22482974.728 7 118148841.868 7  92064086.87143  22482974.202 3  22482975.853 3
        45.000          29.000  
  21916423.111 8 115171590.616 8  89744117.26445  21916422.372 5  21916423.164 5
        50.000          36.000  
  23614684.878 4 124096006.074 4  96698198.93041  23614686.591 1  23614686.278 1
        34.000           8.000  
  24516762.304 5 128836463.833 5 100392066.06641  24516761.081 1  24516766.192 1
        39.000          18.000  
  24378315.955 5 128108932.373 5  99825143.57541  24378315.585 1  24378319.451 1
        36.000          17.000  
 05  8 12  0 13 30.0000000  0 10G03G08G15G18G19G21G22G26G27G29
  20418044.082 8 107297602.022 8  83608521.04446  20418043.184 6  20418045.991 6
        52.000          42.000  
  24285389.924 6 127620568.672 6  99444623.28441  24285388.817 2  24285391.857 1
        41.000          19.000  
  20219145.987 8 106252331.709 8  82794079.34746  20219144.976 6  20219148.326 6
        52.000          43.000  
  21491558.913 8 112938925.967 8  88004372.45445  21491558.108 5  21491559.698 5
        51.000          39.000  
  22155884.472 7 116429991.521 7  90724672.80645  22155883.648 5  22155884.767 5
        49.000          37.000  
  22499392.787 7 118235120.160 7  92131316.70044  22499392.395 4  22499395.299 4
        45.000          30.000  
  21902473.679 7 115098287.431 7  89686997.90845  21902473.143 5  21902473.712 5
        49.000          36.000  
  23614981.323 4 124097555.581 4  96699406.33141  23614982.202 1  23614986.253 1
        33.000           8.000  
  24521525.624 5 128861497.013 5 100411572.42741  24521525.411 1  24521527.563 1
        39.000          18.000  
  24383428.562 5 128135795.651 5  99846075.97441  24383428.169 1  24383431.131 1
        36.000          17.000  
 05  8 12  0 14  0.0000000  0 10G03G08G15G18G19G21G22G26G27G29
  20413445.670 8 107273437.863 8  83589691.83146  20413445.082 6  20413447.926 6
        52.000          42.000  
  24279469.758 5 127589459.767 5  99420382.62341  24279470.009 1  24279471.545 1
        39.000          19.000  
  20224479.229 8 106280357.103 8  82815917.31346  20224478.048 6  20224481.281 6
        53.000          43.000  
  21489790.484 8 112929633.223 8  87997131.37045  21489789.784 5  21489791.470 5
        51.000          39.000  
  22140535.180 7 116349327.421 7  90661817.67345  22140533.888 5  22140534.452 5
        49.000          38.000  
  22515859.656 7 118321652.424 7  92198744.41744  22515859.225 3  22515860.359 4
        46.000          30.000  
  21888609.712 7 115025430.625 7  89630226.38745  21888609.037 5  21888609.660 5
        49.000          36.000  
  23615404.290 5 124099784.963 5  96701143.46341  23615401.831 1  23615408.684 1
        35.000           8.000  
  24526383.168 6 128887020.302 6 100431460.68641  24526380.820 1  24526384.841 1
        40.000          19.000  
  24388646.447 5 128163218.159 5  99867444.17541  24388646.301 1  24388651.645 1
        38.000          18.000  
 05  8 12  0 14 30.0000000  0 10G03G08G15G18G19G21G22G26G27G29
  20408941.392 8 107249770.432 8  83571249.68046  20408941.001 6  20408944.255 6
        52.000          41.000  
  24273664.339 6 127558952.866 6  99396611.05541  24273663.618 1  24273667.688 1
        40.000          19.000  
  20229906.151 8 106308877.456 8  82838140.96746  20229905.285 6  20229908.429 6
        53.000          43.000  
  21488135.917 8 112920938.473 8  87990356.25345  21488135.294 5  21488136.816 5
        51.000          39.000  
  22125235.347 7 116268927.464 7  90599168.36445  22125234.431 5  22125235.361 5
        48.000          37.000  
  22532374.553 7 118408436.868 7  92266368.65144  22532374.114 4  22532375.400 4
        45.000          30.000  
  21874830.210 7 114953022.037 7  89573804.12645  21874829.929 5  21874830.641 5
        48.000          36.000  
  23615956.690 5 124102694.409 5  96703410.60341  23615955.829 1  23615963.297 1
        35.000           9.000  
  24531333.010 6 128913032.853 6 100451730.19342  24531332.118 2  24531335.765 2
        41.000          20.000  
  24393971.574 5 128191198.896 5  99889247.30741  24393970.582 1  24393975.163 1
        38.000          18.000  
 05  8 12  0 15  0.0000000  0 10G03G08G15G18G19G21G22G26G27G29
  20404532.998 8 107226600.527 8  83553195.22046  20404532.254 6  20404535.021 6
        52.000          41.000  
  24267973.504 6 127529048.739 6  99373309.12541  24267973.129 1  24267976.947 1
        41.000          19.000  
  20235427.718 8 106337891.816 8  82860749.56346  20235426.574 6  20235429.841 6
        52.000          43.000  
  21486595.135 7 112912841.243 7  87984046.72745  21486594.468 5  21486595.805 5
        49.000          38.000  
  22109986.727 7 116188793.480 7  90536726.30645  22109985.367 5  22109986.031 5
        48.000          38.000  
  22548937.281 6 118495471.829 6  92334188.11044  22548936.643 3  22548936.808 4
        44.000          30.000  
  21861137.413 8 114881064.043 8  89517732.98345  21861136.918 5  21861137.459 5
        50.000          36.000  
  23616641.334 5 124106283.812 5  96706207.52141  23616641.192 1  23616645.620 1
        36.000          10.000  
  24536376.106 5 128939533.476 5 100472380.07641  24536374.430 1  24536379.162 1
        39.000          19.000  
  24399402.557 5 128219736.782 5  99911484.57541  24399403.240 1  24399405.539 1
        36.000          18.000  
 05  8 12  0 15 30.0000000  0 10G03G08G15G18G19G21G22G26G27G29
  20400218.584 8 107203928.889 8  83535529.01446  20400217.914 6  20400220.800 6
        51.000          42.000  
  24262398.483 6 127499748.887 6  99350478.10941  24262396.809 1  24262400.748 1
        41.000          19.000  
  20241042.723 8 106367398.941 8  82883742.12946  20241041.623 6  20241044.846 6
        52.000          42.000  
  21485168.147 8 112905342.846 8  87978203.82945  21485167.154 5  21485168.951 5
        50.000          39.000  
  22094787.788 7 116108926.916 7  90474492.62745  22094787.067 5  22094788.097 5
        47.000          38.000  
  22565546.233 7 118582755.588 7  92402201.41544  22565545.519 3  22565547.735 4
        45.000          30.000  
  21847530.012 7 114809558.501 7  89462014.39345  21847529.787 5  21847530.832 5
        49.000          37.000  
  23617450.579 4 124110553.271 4  96709534.30441  23617452.827 1  23617455.222 1
        34.000          10.000  
  24541510.255 5 128966520.926 5 100493409.26441  24541509.191 1  24541513.917 1
        38.000          17.000  
  24404939.660 5 128248830.951 5  99934155.34341  24404938.927 1  24404942.919 1
        36.000          17.000  
 05  8 12  0 16  0.0000000  0 10G03G08G15G18G19G21G22G26G27G29
  20395999.213 8 107181756.426 8  83518251.78146  20395998.502 6  20396001.696 6
        52.000          42.000  
  24256937.769 6 127471054.197 6  99328118.61641  24256937.327 1  24256941.502 1
        40.000          19.000  
  20246751.246 8 106397397.744 8  82907117.82246  20246750.140 6  20246753.312 6
        53.000          42.000  
  21483855.463 8 112898443.059 8  87972827.37245  21483854.301 5  21483856.292 5
        51.000          38.000  
  22079641.205 7 116029329.291 7  90412468.51545  22079640.217 5  22079641.097 5
        48.000          38.000  
  22582202.394 6 118670286.296 6  92470407.14243  22582201.602 3  22582203.867 3
        44.000          29.000  
  21834009.691 8 114738507.744 8  89406650.18645  21834009.253 5  21834010.055 5
        50.000          37.000  
  23618394.880 4 124115502.967 4  96713391.20141  23618394.511 1  23618400.552 1
        33.000          11.000  
  24546739.488 5 128993994.272 5 100514817.05841  24546739.459 1  24546742.071 1
        39.000          18.000  
  24410580.369 5 128278480.567 5  99957258.90341  24410580.342 1  24410585.237 1
        35.000          17.000  
 05  8 12  0 16 30.0000000  0 10G03G08G15G18G19G21G22G26G27G29
  20391875.354 8 107160084.279 8  83501364.39746  20391874.475 6  20391877.572 6
        52.000          42.000  
  24251592.080 6 127442965.414 6  99306231.28441  24251590.603 1  24251596.993 1
        40.000          19.000  
  20252552.807 8 106427887.246 8  82930875.88246  20252552.143 6  20252555.355 6
        52.000          42.000  
  21482655.564 8 112892142.044 8  87967917.51645  21482655.242 5  21482657.144 5
        50.000          39.000  
  22064545.911 7 115950002.776 7  90350655.65045  22064544.983 5  22064545.618 5
        49.000          38.000  
  22598905.427 7 118758062.234 7  92538803.96243  22598904.381 3  22598906.940 3
        45.000          29.000  
  21820575.954 7 114667914.006 7  89351642.08645  21820575.792 5  21820576.389 5
        49.000          36.000  
  23619463.432 4 124121132.667 4  96717777.95141  23619462.045 1  23619467.743 1
        33.000           8.000  
  24552060.149 6 129021951.851 6 100536602.16642  24552059.427 2  24552063.196 2
        41.000          20.000  
  24416327.971 4 128308684.319 4  99980794.29041  24416327.589 1  24416330.736 1
        34.000          16.000  
 05  8 12  0 17  0.0000000  0 10G03G08G15G18G19G21G22G26G27G29
  20387846.662 8 107138913.208 8  83484867.46146  20387845.736 6  20387848.733 6
        52.000          42.000  
  24246362.852 6 127415483.959 6  99284817.14141  24246360.948 1  24246364.727 1
        41.000          17.000  
  20258448.568 8 106458866.348 8  82955015.44446  20258447.380 6  20258450.478 6
        53.000          42.000  
  21481570.810 8 112886439.455 8  87963473.94645  21481570.013 5  21481571.920 5
        50.000          39.000  
  22049502.736 7 115870948.834 7  90289055.18045  22049501.377 5  22049502.058 5
        48.000          37.000  
  22615655.832 7 118846081.938 7  92607390.75143  22615655.162 3  22615657.089 3
        46.000          29.000  
  21807229.902 7 114597779.173 7  89296991.58745  21807229.668 5  21807230.313 5
        49.000          37.000  
  23620666.732 5 124127442.477 5  96722694.71841  23620667.718 1  23620668.917 1
        36.000          10.000  
  24557471.139 5 129050392.528 5 100558763.73641  24557470.985 2  24557474.907 1
        37.000          19.000  
  24422180.875 5 128339441.303 5 100004760.75141  24422179.395 1  24422181.980 1
        35.000          16.000  
 05  8 12  0 17 30.0000000  0 10G03G08G15G18G19G21G22G26G27G29
  20383913.289 8 107118243.975 8  83468761.57346  20383912.542 6  20383915.506 6
        52.000          42.000  
  24241249.566 6 127388610.798 6  99263877.04241  24241248.041 1  24241251.764 1
        40.000          18.000  
  20264435.829 8 106490333.745 8  82979535.49946  20264435.271 6  20264438.557 6
        51.000          42.000  
  21480599.860 8 112881334.919 8  87959496.37845  21480598.750 5  21480600.556 5
        51.000          39.000  
  22034510.881 8 115792169.083 8  90227668.37145  22034510.031 5  22034511.078 5
        50.000          37.000  
  22632451.855 7 118934343.490 7  92676165.97943  22632451.088 3  22632451.631 3
        45.000          29.000  
  21793971.731 8 114528105.042 8  89242700.07345  21793971.118 5  21793971.597 5
        50.000          37.000  
  23621996.117 5 124134432.258 5  96728141.26641  23621998.781 1  23622001.981 1
        36.000          12.000  
  24562974.372 5 129079314.665 5 100581300.47741  24562974.357 1  24562975.992 1
        39.000          18.000  
  24428139.002 5 128370750.550 5 100029157.58441  24428139.037 1  24428140.812 1
        36.000          16.000  
 05  8 12  0 18  0.0000000  0 10G03G08G15G18G19G21G22G26G27G29
  20380075.920 8 107098077.359 8  83453047.33346  20380074.980 6  20380077.824 6
        53.000          42.000  
  24236249.492 5 127362346.691 5  99243411.54641  24236248.770 1  24236254.188 1
        39.000          19.000  
  20270517.400 8 106522288.330 8  83004435.17946  20270515.998 6  20270519.387 6
        53.000          43.000  
  21479742.919 8 112876830.277 8  87955986.28145  21479741.723 5  21479743.000 5
        51.000          39.000  
  22019572.442 8 115713665.440 8  90166496.71545  22019571.128 5  22019572.326 5
        50.000          37.000  
  22649293.250 7 119022845.200 7  92745128.36043  22649292.267 3  22649293.635 3
        45.000          29.000  
  21780800.912 8 114458894.379 8  89188769.70245  21780801.005 5  21780801.382 5
        51.000          37.000  
  23623456.818 5 124142101.814 5  96734117.52841  23623459.010 1  23623459.710 1
        37.000          10.000  
  24568569.787 5 129108717.273 5 100604211.55741  24568569.977 1  24568572.225 1
        39.000          18.000  
  24434203.294 5 128402610.899 5 100053983.79941  24434202.825 1  24434204.172 1
        36.000          18.000  
 05  8 12  0 18 30.0000000  0 10G03G08G15G18G19G21G22G26G27G29
  20376333.841 8 107078414.254 8  83437725.43746  20376333.234 6  20376336.142 6
        52.000          41.000  
  24231370.507 6 127336692.886 6  99223421.56241  24231369.602 1  24231372.382 1
        40.000          19.000  
  20276690.491 8 106554729.004 8  83029713.63046  20276689.270 6  20276692.628 6
        52.000          42.000  
  21478999.375 8 112872923.973 8  87952942.41945  21478998.488 5  21478999.927 5
        51.000          39.000  
  22004686.668 7 115635439.383 7  90105541.34845  22004685.720 5  22004686.201 5
        49.000          38.000  
  22666179.884 7 119111585.594 7  92814276.70343  22666178.800 3  22666180.135 3
        46.000          29.000  
  21767719.255 8 114390148.781 8  89135201.71745  21767718.789 5  21767719.441 5
        50.000          38.000  
  23625047.393 5 124150451.087 5  96740623.41641  23625043.373 1  23625050.630 1
        37.000          12.000  
  24574255.736 5 129138599.067 5 100627496.08441  24574255.202 1  24574259.491 1
        37.000          19.000  
  24440369.007 5 128435021.253 5 100079238.67041  24440366.519 1  24440371.419 1
        36.000          16.000  
 05  8 12  0 19  0.0000000  0 10G03G08G15G18G19G21G22G26G27G29
  20372688.228 8 107059255.588 8  83422796.60846  20372687.436 6  20372690.468 6
        52.000          42.000  
  24226603.618 6 127311650.003 6  99203907.60341  24226603.209 1  24226606.685 1
        40.000          19.000  
  20282956.190 8 106587654.785 8  83055370.08946  20282954.966 6  20282958.013 6
        52.000          43.000  
  21478370.040 8 112869616.605 8  87950365.26745  21478368.948 5  21478370.355 5
        51.000          39.000  
  21989853.301 7 115557492.883 7  90044803.81745  21989852.305 5  21989853.442 5
        48.000          38.000  
  22683111.433 6 119200563.170 6  92883609.86143  22683110.536 3  22683112.005 3
        44.000          29.000  
  21754726.918 8 114321870.446 8  89081997.83045  21754726.081 5  21754726.763 5
        50.000          37.000  
  23626763.949 5 124159479.783 5  96747658.75841  23626763.389 1  23626769.131 1
        35.000          12.000  
  24580035.114 5 129168958.185 5 100651152.52641  24580033.953 1  24580036.086 1
        38.000          19.000  
  24446639.846 5 128467980.611 5 100104925.51241  24446641.446 1  24446643.340 1
        36.000          13.000  
 05  8 12  0 19 30.0000000  0 10G03G08G15G18G19G21G22G26G27G29
  20369138.168 8 107040602.167 8  83408261.47846  20369137.971 6  20369140.798 6
        52.000          42.000  
  24221954.137 5 127287219.104 5  99184870.57042  24221953.599 2  24221957.652 2
        39.000          20.000  
  20289313.242 8 106621064.670 8  83081403.76746  20289312.542 6  20289315.574 6
        51.000          42.000  
  21477854.358 8 112866908.142 8  87948254.77445  21477853.676 5  21477855.104 5
        50.000          39.000  
  21975074.741 7 115479827.516 7  89984285.35845  21975073.529 5  21975074.298 5
        49.000          38.000  
  22700088.040 7 119289775.481 7  92953125.97243  22700087.773 3  22700087.836 3
        45.000          28.000  
  21741822.373 8 114254061.081 8  89029159.37945  21741822.494 5  21741822.946 5
        50.000          37.000  
  23628611.600 4 124169188.008 4  96755223.59141  23628609.541 1  23628614.717 1
        34.000          13.000  
  24585901.420 5 129199793.542 5 100675180.06941  24585900.979 1  24585904.290 1
        39.000          18.000  
  24453018.316 5 128501487.679 5 100131045.58541  24453018.273 1  24453022.536 1
        36.000          14.000  
 05  8 12  0 20  0.0000000  0 10G03G08G15G18G19G21G22G26G27G29
  20365684.795 8 107022454.856 8  83394120.71046  20365684.410 6  20365687.497 6
        52.000          41.000  
  24217421.676 6 127263400.677 6  99166310.70241  24217420.468 1  24217424.341 1
        40.000          19.000  
  20295763.205 8 106654957.245 8  83107813.57246  20295762.009 6  20295765.476 6
        53.000          42.000  
  21477453.263 8 112864798.906 8  87946611.21645  21477452.162 5  21477453.952 5
        50.000          39.000  
  21960349.386 7 115402444.868 7  89923987.19045  21960348.079 5  21960348.971 5
        48.000          38.000  
  22717108.759 7 119379221.250 7  93022824.00543  22717108.119 3  22717108.789 3
        45.000          28.000  
  21729008.893 8 114186722.973 8  88976688.14745  21729008.379 5  21729008.710 5
        50.000          37.000  
  23630586.326 5 124179575.328 5  96763317.64541  23630586.734 1  23630591.972 1
        36.000          13.000  
  24591859.755 5 129231103.708 5 100699577.64341  24591858.289 1  24591863.354 1
        39.000          17.000  
  24459498.710 5 128535541.134 5 100157594.90341  24459496.704 1  24459500.972 1
        35.000           9.000  
 05  8 12  0 20 30.0000000  0 10G03G08G15G18G19G21G22G26G27G29
  20362328.045 8 107004814.424 8  83380374.91646  20362327.715 6  20362330.676 6
        52.000          42.000  
  24213006.099 6 127240195.977 6  99148229.16041  24213006.258 1  24213008.276 1
        41.000          19.000  
  20302304.074 8 106689331.409 8  83134598.63846  20302303.231 6  20302306.425 6
        53.000          43.000  
  21477165.266 8 112863288.247 8  87945434.08845  21477164.684 5  21477166.263 5
        52.000          39.000  
  21945677.838 7 115325346.550 7  89863910.58345  21945676.652 5  21945677.346 5
        49.000          38.000  
  22734173.408 7 119468898.705 7  93092702.52643  22734172.705 3  22734174.066 3
        45.000          28.000  
  21716284.406 7 114119857.964 7  88924585.55445  21716284.098 5  21716284.820 5
        49.000          37.000  
  23632694.633 5 124190641.381 5  96771940.55841  23632694.710 1  23632697.454 1
        38.000          14.000  
  24597908.261 5 129262887.651 5 100724344.37941  24597907.037 1  24597909.898 1
        38.000          18.000  
  24466082.217 4 128570140.038 4 100184568.86741  24466081.829 1  24466088.745 1
        34.000           8.000  
 05  8 12  0 21  0.0000000  0 10G03G08G15G18G19G21G22G26G27G29
  20359067.935 8 106987681.731 8  83367024.76646  20359067.248 6  20359070.403 6
        52.000          42.000  
  24208707.363 5 127217605.482 5  99130626.16841  24208706.531 1  24208709.010 1
        39.000          18.000  
  20308936.914 8 106724186.127 8  83161758.15546  20308935.842 6  20308939.037 6
        52.000          43.000  
  21476992.064 8 112862376.214 8  87944723.42645  21476991.071 5  21476992.713 5
        51.000          39.000  
  21931061.147 8 115248534.604 8  89804057.11545  21931060.000 5  21931060.865 5
        50.000          38.000  
  22751282.264 6 119558806.062 6  93162760.19243  22751281.675 3  22751283.557 3
        44.000          28.000  
  21703650.773 8 114053468.135 8  88872853.24045  21703650.783 5  21703651.136 5
        51.000          37.000  
  23634929.153 5 124202385.991 5  96781092.11041  23634928.824 1  23634934.026 1
        36.000          13.000  
  24604045.664 5 129295143.633 5 100749478.91841  24604044.356 1  24604049.342 1
        38.000          18.000  
  24472769.747 5 128605283.055 5 100211968.07841  24472770.722 1  24472767.820 1
        36.000          11.000  
 05  8 12  0 21 30.0000000  0 10G03G08G15G18G19G21G22G26G27G29
  20355904.776 8 106971057.433 8  83354070.76746  20355903.833 6  20355906.881 6
        52.000          42.000  
  24204525.059 5 127195630.235 5  99113502.60341  24204525.369 1  24204527.599 1
        38.000          19.000  
  20315661.140 8 106759520.201 8  83189291.20246  20315659.748 6  20315662.993 6
        52.000          42.000  
  21476932.005 8 112862062.406 8  87944478.90845  21476931.293 5  21476933.154 5
        50.000          39.000  
  21916498.413 7 115172010.504 7  89744427.95945  21916497.542 5  21916498.990 5
        49.000          38.000  
  22768435.111 7 119648941.907 7  93232995.91043  22768433.400 3  22768436.034 3
        45.000          28.000  
  21691108.385 8 113987555.532 8  88821492.79545  21691107.723 5  21691108.399 5
        50.000          37.000  
  23637294.411 5 124214808.731 5  96790772.18141  23637290.218 1  23637294.723 1
        37.000          13.000  
  24610274.117 5 129327870.229 5 100774980.13841  24610271.895 1  24610277.425 1
        37.000          18.000  
  24479558.824 4 128640968.927 4 100239789.13241  24479558.685 1  24479564.505 1
        34.000           7.000  
 05  8 12  0 22  0.0000000  0 10G03G08G15G18G19G21G22G26G27G29
  20352837.978 8 106954942.503 8  83341513.68046  20352837.290 6  20352840.142 6
        52.000          42.000  
  24200461.627 6 127174270.766 6  99096858.85842  24200459.287 2  24200464.721 2
        40.000          20.000  
  20322475.564 8 106795332.406 8  83217196.82046  20322474.616 6  20322477.670 6
        52.000          43.000  
  21476985.731 8 112862347.056 8  87944700.71145  21476985.434 5  21476987.241 5
        51.000          39.000  
  21901992.530 7 115095776.153 7  89685024.57745  21901991.185 5  21901991.726 5
        49.000          39.000  
  22785630.888 6 119739304.358 6  93303408.19543  22785629.764 3  22785631.430 3
        44.000          28.000  
  21678656.321 8 113922122.031 8  88770505.66745  21678656.346 5  21678657.049 5
        50.000          37.000  
  23639785.402 5 124227909.490 5  96800980.52941  23639785.726 1  23639790.543 1
        39.000          16.000  
  24616588.676 5 129361065.985 5 100800846.94841  24616589.032 1  24616592.994 1
        36.000          17.000  
  24486453.581 5 128677196.651 5 100268031.85441  24486458.158 1  24486457.815 1
        37.000          11.000  
 05  8 12  0 22 30.0000000  0 10G03G08G15G18G19G21G22G26G27G29
  20349868.497 8 106939337.621 8  83329354.03246  20349867.921 6  20349870.567 6
        51.000          42.000  
  24196513.209 6 127153528.032 6  99080695.71841  24196514.132 1  24196517.412 1
        40.000          19.000  
  20329381.013 8 106831621.606 8  83245474.11746  20329380.098 6  20329383.318 6
        52.000          42.000  
  21477153.979 7 112863229.824 7  87945388.58545  21477153.482 5  21477155.011 5
        49.000          39.000  
  21887540.648 8 115019833.172 8  89625848.23545  21887538.990 5  21887540.521 5
        50.000          38.000  
  22802869.335 7 119829891.834 7  93373995.84043  22802867.996 3  22802870.302 3
        45.000          28.000  
  21666296.996 8 113857169.445 8  88719893.27345  21666296.313 5  21666297.019 5
        51.000          38.000  
  23642408.765 5 124241687.701 5  96811716.80341  23642407.402 1  23642411.224 1
        39.000          15.000  
  24622998.782 5 129394729.579 5 100827078.33541  24622996.561 1  24622998.627 1
        36.000          17.000  
  24493449.952 5 128713964.775 5 100296695.04441  24493450.269 1  24493456.418 1
        35.000           9.000  
 05  8 12  0 23  0.0000000  0 10G03G08G15G18G19G21G22G26G27G29
  20346995.746 8 106924243.428 8  83317592.32646  20346995.532 6  20346998.377 6
        52.000          42.000  
  24192682.811 6 127133402.823 6  99065013.75041  24192681.628 2  24192687.967 1
        40.000          19.000  
  20336377.256 8 106868386.523 8  83274122.11046  20336376.166 6  20336379.663 6
        53.000          42.000  
  21477435.381 8 112864710.156 8  87946542.08845  21477435.299 5  21477436.790 5
        51.000          39.000  
  21873144.510 7 114944183.052 7  89566900.09145  21873143.579 5  21873144.513 5
        49.000          38.000  
  22820148.921 7 119920702.313 7  93444757.24643  22820148.102 3  22820149.042 3
        45.000          27.000  
  21654027.737 8 113792699.811 8  88669657.21045  21654027.999 5  21654028.715 5
        50.000          38.000  
  23645156.226 5 124256142.930 5  96822980.59441  23645157.785 1  23645161.091 1
        38.000          15.000  
  24629490.825 5 129428859.306 5 100853672.90541  24629491.615 1  24629494.329 1
        39.000          17.000  
  24500550.328 5 128751271.856 5 100325778.73741  24500550.135 1  24500552.228 1
        37.000           9.000  
 05  8 12  0 23 30.0000000  0 10G03G08G15G18G19G21G22G26G27G29
  20344221.087 8 106909660.622 8  83306229.10146  20344220.445 6  20344223.282 6
        52.000          42.000  
  24188971.952 6 127113895.366 6  99049813.13742  24188971.409 2  24188973.168 2
        42.000          20.000  
  20343463.734 8 106905626.151 8  83303140.00046  20343462.753 6  20343466.032 6
        52.000          42.000  
  21477831.603 8 112866789.315 8  87948162.21045  21477830.891 5  21477832.540 5
        51.000          38.000  
  21858805.317 7 114868827.997 7  89508181.88145  21858803.792 5  21858805.255 5
        49.000          39.000  
  22837471.932 6 120011734.394 6  93515691.35043  22837471.076 3  22837472.618 3
        44.000          27.000  
  21641852.594 8 113728714.986 8  88619798.91945  21641851.894 5  21641852.650 5
        51.000          37.000  
  23648039.135 5 124271274.753 5  96834771.61841  23648037.253 1  23648040.821 1
        39.000          18.000  
  24636074.428 5 129463453.758 5 100880629.64741  24636075.185 1  24636076.090 1
        39.000          18.000  
  24507752.620 5 128789116.925 5 100355281.22941  24507752.255 1  24507757.274 1
        36.000          10.000  
 05  8 12  0 24  0.0000000  0 10G03G08G15G18G19G21G22G26G27G29
  20341543.495 8 106895589.934 8  83295264.93446  20341542.616 6  20341545.876 6
        52.000          42.000  
  24185377.264 6 127095006.630 6  99035094.70641  24185376.474 1  24185379.142 1
        41.000          18.000  
  20350640.070 8 106943338.824 8  83332526.50046  20350639.105 6  20350642.399 6
        52.000          42.000  
  21478340.799 8 112869465.765 8  87950247.76445  21478340.388 5  21478341.880 5
        52.000          38.000  
  21844521.257 7 114793769.455 7  89449694.71145  21844520.672 5  21844521.802 5
        49.000          39.000  
  22854836.326 7 120102986.657 7  93586797.02043  22854836.294 3  22854836.755 3
        45.000          27.000  
  21629769.605 8 113665217.053 8  88570320.02845  21629768.822 5  21629769.045 5
        51.000          38.000  
  23651047.294 6 124287082.719 6  96847089.48241  23651048.887 1  23651048.329 1
        40.000          17.000  
  24642745.176 5 129498511.439 5 100907947.33941  24642744.572 1  24642747.953 1
        38.000          18.000  
  24515055.164 5 128827498.527 5 100385200.75641  24515055.690 1  24515059.959 1
        37.000          11.000  
 05  8 12  0 24 30.0000000  0 10G03G08G15G18G19G21G22G26G27G29
  20338963.638 8 106882032.038 8  83284700.34046  20338962.988 6  20338965.792 6
        51.000          41.000  
  24181900.738 6 127076736.982 6  99020858.65141  24181899.779 1  24181903.290 1
        40.000          19.000  
  20357906.180 8 106981523.259 8  83362280.59946  20357905.424 6  20357908.608 6
        51.000          42.000  
  21478963.995 8 112872739.372 8  87952798.63345  21478963.235 5  21478964.559 5
        50.000          39.000  
  21830295.735 7 114719009.163 7  89391439.95245  21830294.364 5  21830295.400 5
        48.000          39.000  
  22872243.549 7 120194457.354 7  93658072.89543  22872243.068 3  22872243.524 3
        45.000          27.000  
  21617779.249 8 113602207.319 8  88521221.54345  21617778.519 5  21617779.059 5
        50.000          38.000  
  23654183.557 6 124303566.311 6  96859933.84141  23654182.541 1  23654185.783 1
        40.000          19.000  
  24649505.019 5 129534030.757 5 100935624.71741  24649502.779 1  24649509.235 1
        38.000          19.000  
  24522462.887 5 128866415.124 5 100415537.56341  24522459.987 1  24522461.373 1
        39.000          11.000  
 05  8 12  0 25  0.0000000  0 10G03G08G15G18G19G21G22G26G27G29
  20336481.096 8 106868987.667 8  83274535.89546  20336480.465 6  20336483.523 6
        51.000          42.000  
  24178542.055 6 127059087.161 6  99007105.51041  24178541.544 1  24178543.070 1
        40.000          19.000  
  20365262.502 8 107020178.481 8  83392401.55046  20365261.163 6  20365264.545 6
        52.000          42.000  
  21479700.019 8 112876609.497 8  87955814.31845  21479699.349 5  21479701.214 5
        50.000          39.000  
  21816126.265 7 114644548.931 7  89333418.99045  21816125.070 5  21816126.238 5
        49.000          39.000  
  22889689.540 6 120286144.524 6  93729517.42443  22889688.710 3  22889692.057 3
        43.000          27.000  
  21605882.072 8 113539688.415 8  88472505.52845  21605881.422 5  21605882.158 5
        51.000          38.000  
  23657448.533 5 124320725.019 5  96873304.28641  23657447.893 1  23657452.066 1
        39.000          17.000  
  24656351.567 5 129570009.802 5 100963660.26841  24656350.038 1  24656354.541 1
        39.000          18.000  
  24529967.088 5 128905865.718 5 100446290.41241  24529967.906 1  24529968.690 1
        36.000          10.000  
 05  8 12  0 25 30.0000000  0 10G03G08G15G18G19G21G22G26G27G29
  20334096.949 8 106856457.716 8  83264772.30246  20334096.212 6  20334099.172 6
        52.000          42.000  
  24175302.298 6 127042057.681 6  98993835.77342  24175301.531 2  24175305.138 2
        40.000          20.000  
  20372707.264 8 107059303.227 8  83422888.36546  20372706.337 6  20372709.660 6
        52.000          42.000  
  21480550.237 8 112881076.425 8  87959295.04645  21480549.363 5  21480550.997 5
        51.000          39.000  
  21802014.324 8 114570390.356 8  89275633.10345  21802013.435 5  21802014.165 5
        51.000          39.000  
  22907178.933 6 120378046.668 6  93801129.45143  22907177.963 3  22907179.725 3
        44.000          27.000  
  21594078.428 8 113477661.743 8  88424173.08145  21594078.489 5  21594078.599 5
        51.000          38.000  
  23660841.452 5 124338558.279 5  96887200.29641  23660842.943 1  23660843.232 1
        38.000          16.000  
  24663284.899 5 129606447.600 5 100992053.37241  24663284.392 1  24663286.581 1
        39.000          18.000  
  24537577.468 5 128945848.662 5 100477456.67341  24537573.636 1  24537583.390 1
        35.000           6.000  
 05  8 12  0 26  0.0000000  0 10G03G08G15G18G19G21G22G26G27G29
  20331810.639 8 106844442.557 8  83255409.84346  20331809.816 6  20331812.737 6
        52.000          42.000  
  24172180.173 6 127025649.183 6  98981049.97942  24172179.325 2  24172181.965 2
        40.000          21.000  
  20380241.878 8 107098896.370 8  83453740.16946  20380240.846 6  20380244.268 6
        52.000          42.000  
  21481513.880 8 112886140.043 8  87963240.74045  21481512.847 5  21481514.806 5
        51.000          39.000  
  21787960.312 7 114496535.101 7  89218083.55545  21787959.317 5  21787960.163 5
        49.000          39.000  
  22924707.933 7 120470161.757 7  93872907.43243  22924707.797 3  22924708.395 3
        45.000          27.000  
  21582369.516 8 113416129.208 8  88376225.66745  21582369.162 5  21582369.491 5
        51.000          38.000  
  23664362.821 5 124357065.415 5  96901621.41341  23664362.236 1  23664366.187 1
        38.000          17.000  
  24670306.100 5 129643342.236 5 101020802.45741  24670304.674 1  24670310.068 1
        39.000          18.000  
  24545285.501 4 128986362.536 4 100509037.18941  24545286.581 1  24545289.153 1
        34.000           8.000  
 05  8 12  0 26 30.0000000  0 10G03G08G15G18G19G21G22G26G27G29
  20329621.951 8 106832943.031 8  83246449.18246  20329621.572 6  20329624.446 6
        50.000          41.000  
  24169174.216 6 127009862.139 6  98968748.38842  24169172.597 2  24169178.111 2
        40.000          20.000  
  20387864.528 8 107138956.697 8  83484956.00046  20387863.972 6  20387867.366 6
        51.000          42.000  
  21482590.508 7 112891799.407 7  87967650.64345  21482589.813 5  21482591.845 5
        49.000          39.000  
  21773964.040 7 114422985.056 7  89160771.84745  21773962.799 5  21773963.793 5
        48.000          39.000  
  22942276.765 6 120562488.468 6  93944850.33543  22942276.118 3  22942277.770 3
        44.000          27.000  
  21570754.435 8 113355092.535 8  88328664.63645  21570754.367 5  21570754.629 5
        50.000          38.000  
  23668012.962 5 124376245.870 5  96916567.22241  23668014.411 1  23668016.464 1
        37.000          16.000  
  24677413.466 5 129680691.971 5 101049906.20441  24677411.634 1  24677415.231 1
        37.000          18.000  
  24553096.984 5 129027405.974 5 100541029.01741  24553095.912 1  24553100.918 1
        36.000           8.000  
 05  8 12  0 27  0.0000000  0 10G03G08G15G18G19G21G22G26G27G29
  20327531.810 8 106821959.785 8  83237890.80846  20327531.411 6  20327534.559 6
        51.000          42.000  
  24166288.828 6 126994697.085 6  98956931.45041  24166287.992 1  24166291.487 1
        41.000          19.000  
  20395577.247 8 107179482.785 8  83516534.76846  20395575.862 6  20395579.006 6
        52.000          42.000  
  21483781.750 8 112898055.045 8  87972525.16345  21483780.435 5  21483782.317 5
        51.000          39.000  
  21760026.468 8 114349741.819 8  89103699.19845  21760025.286 5  21760026.099 5
        50.000          39.000  
  22959885.896 6 120655025.026 6  94016956.74343  22959884.921 3  22959887.382 3
        44.000          26.000  
  21559234.753 8 113294553.436 8  88281491.33445  21559234.006 5  21559234.315 5
        51.000          38.000  
  23671790.198 5 124396098.885 5  96932037.11241  23671792.392 1  23671794.632 1
        37.000          17.000  
  24684608.387 5 129718495.599 5 101079363.54041  24684605.340 1  24684610.646 1
        38.000          18.000  
  24561007.008 5 129068977.803 5 100573432.29541  24561007.836 1  24561011.239 1
        37.000           9.000  
 05  8 12  0 27 30.0000000  0 10G03G08G15G18G19G21G22G26G27G29
  20325540.220 8 106811493.344 8  83229735.14146  20325539.873 6  20325542.758 6
        52.000          42.000  
  24163522.012 6 126980154.109 6  98945599.30642  24163521.739 2  24163523.809 2
        40.000          20.000  
  20403377.122 8 107220473.388 8  83548475.49846  20403376.060 6  20403379.381 6
        52.000          42.000  
  21485084.912 8 112904906.218 8  87977863.74745  21485084.195 5  21485085.904 5
        51.000          39.000  
  21746147.256 8 114276807.292 8  89046867.10645  21746146.156 5  21746147.187 5
        50.000          39.000  
  22977535.039 6 120747770.154 6  94089225.66443  22977534.000 3  22977536.307 3
        43.000          26.000  
  21547809.656 8 113234514.064 8  88234707.42745  21547808.986 5  21547809.298 5
        51.000          39.000  
  23675697.931 5 124416623.943 5  96948030.66641  23675696.099 1  23675700.600 1
        37.000          17.000  
  24691885.279 5 129756751.077 5 101109172.95241  24691885.956 1  24691889.170 1
        38.000          18.000  
  24569018.989 5 129111076.141 5 100606245.38241  24569020.361 1  24569019.630 1
        36.000           8.000  
 05  8 12  0 28  0.0000000  0 10G03G08G15G18G19G21G22G26G27G29
  20323646.909 8 106801544.394 8  83221982.71646  20323646.527 6  20323649.650 6
        52.000          41.000  
  24160872.881 6 126966233.829 6  98934752.35842  24160872.365 2  24160876.150 2
        41.000          21.000  
  20411265.279 8 107261926.984 8  83580776.99746  20411264.534 6  20411267.904 6
        52.000          42.000  
  21486501.912 8 112912352.528 8  87983666.08445  21486501.156 5  21486503.071 5
        51.000          39.000  
  21732327.168 8 114204182.841 8  88990276.63245  21732326.232 5  21732327.365 5
        50.000          39.000  
  22995222.321 6 120840721.754 6  94161655.47043  22995222.030 3  22995224.559 3
        43.000          26.000  
  21536479.610 8 113174975.661 8  88188313.88145  21536479.130 5  21536479.396 5
        52.000          39.000  
  23679730.921 5 124437820.195 5  96964547.20741  23679729.530 1  23679733.797 1
        38.000          16.000  
  24699252.901 5 129795456.773 5 101139333.23841  24699252.429 1  24699255.711 1
        38.000          18.000  
  24577129.227 5 129153699.831 5 100639467.64941  24577126.430 1  24577130.060 1
        35.000           8.000  
 05  8 12  0 28 30.0000000  0 10G03G08G15G18G19G21G22G26G27G29
  20321852.457 8 106792113.471 8  83214633.94346  20321851.914 6  20321854.863 6
        52.000          41.000  
  24158343.012 6 126952936.959 6  98924391.15042  24158343.337 2  24158344.496 2
        40.000          20.000  
  20419241.487 8 107303842.476 8  83613438.42046  20419240.777 6  20419244.036 6
        52.000          42.000  
  21488031.842 8 112920393.000 8  87989931.38845  21488031.200 5  21488032.811 5
        50.000          39.000  
  21718566.930 8 114131870.552 8  88933929.40746  21718565.937 5  21718566.745 6
        50.000          40.000  
  23012950.863 6 120933878.220 6  94234244.88743  23012949.693 3  23012951.047 3
        43.000          26.000  
  21525245.441 8 113115940.540 8  88142312.51045  21525244.984 5  21525245.558 5
        50.000          39.000  
  23683891.846 5 124459686.898 5  96981586.21341  23683891.787 1  23683895.408 1
        36.000          16.000  
  24706703.443 5 129834611.552 5 101169843.51041  24706702.536 1  24706707.733 1
        38.000          17.000  
  24585338.826 5 129196847.010 5 100673097.75341  24585344.618 1  24585343.068 1
        35.000           8.000  
 05  8 12  0 29  0.0000000  0 10G03G08G15G18G19G21G22G26G27G29
  20320156.470 8 106783201.139 8  83207689.27546  20320155.988 6  20320159.107 6
        52.000          42.000  
  24155931.162 6 126940264.051 6  98914516.16641  24155930.641 1  24155933.443 1
        40.000          18.000  
  20427305.803 8 107346218.671 8  83646458.83446  20427304.660 6  20427308.166 6
        53.000          42.000  
  21489675.189 8 112929027.588 8  87996659.63445  21489674.132 5  21489675.936 5
        51.000          39.000  
  21704865.887 8 114059872.148 8  88877826.76145  21704864.667 5  21704865.878 5
        50.000          39.000  
  23030716.456 6 121027238.669 6  94306993.28643  23030715.246 3  23030717.008 3
        43.000          26.000  
  21514107.142 8 113057410.292 8  88096704.54045  21514107.019 5  21514107.648 5
        51.000          39.000  
  23688180.628 5 124482223.396 5  96999147.13141  23688180.396 1  23688182.796 1
        39.000          17.000  
  24714238.973 5 129874212.958 5 101200701.73341  24714238.159 1  24714242.854 1
        39.000          18.000  
  24593650.355 5 129240516.525 5 100707135.12841  24593649.610 1  24593656.122 1
        37.000          10.000  
 05  8 12  0 29 30.0000000  0 10G03G08G15G18G19G21G22G26G27G29
  20318559.359 8 106774807.849 8  83201149.05546  20318558.668 6  20318561.937 6
        52.000          42.000  
  24153638.585 6 126928214.931 6  98905127.23641  24153636.809 1  24153641.568 1
        40.000          19.000  
  20435456.995 8 107389054.153 8  83679837.12946  20435455.994 6  20435459.316 6
        51.000          42.000  
  21491431.028 8 112938255.879 8  88003850.50945  21491430.471 5  21491432.202 5
        50.000          39.000  
  21691225.335 7 113988189.249 7  88821969.96646  21691224.111 5  21691225.097 6
        49.000          40.000  
  23048520.632 6 121120800.419 6  94379898.52743  23048519.553 3  23048521.461 3
        42.000          27.000  
  21503065.879 8 112999386.614 8  88051491.30145  21503065.458 5  21503066.049 5
        51.000          39.000  
  23692596.144 5 124505428.929 5  97017229.31341  23692597.379 1  23692597.294 1
        38.000          17.000  
  24721859.680 5 129914259.609 5 101231906.85341  24721858.971 1  24721862.063 1
        38.000          18.000  
  24602059.763 5 129284706.572 5 100741575.93941  24602060.665 1  24602060.234 1
        38.000          10.000  
 05  8 12  0 30  0.0000000  0 10G03G08G15G18G19G21G22G26G27G29
  20317060.894 8 106766934.230 8  83195013.77546  20317060.505 6  20317063.358 6
        51.000          42.000  
  24151462.714 5 126916790.034 5  98896224.73441  24151463.726 1  24151466.937 1
        39.000          19.000  
  20443695.459 8 107432347.760 8  83713572.40946  20443694.392 6  20443697.769 6
        52.000          41.000  
  21493299.804 8 112948077.259 8  88011503.53445  21493299.231 5  21493301.037 5
        51.000          39.000  
  21677645.022 8 113916823.412 8  88766360.23246  21677643.538 6  21677644.567 6
        50.000          40.000  
  23066362.583 6 121214562.272 6  94452959.72343  23066362.596 3  23066363.480 3
        44.000          25.000  
  21492120.522 8 112941871.117 8  88006674.05145  21492120.422 5  21492121.117 5
        51.000          38.000  
  23697139.320 5 124529302.488 5  97035832.12841  23697141.201 1  23697141.774 1
        35.000          10.000  
  24729563.044 5 129954749.619 5 101263457.53241  24729564.429 1  24729568.548 1
        39.000          18.000  
  24610565.573 5 129329415.864 5 100776420.24541  24610565.270 1  24610572.363 1
        35.000           6.000  
 05  8 12  0 30 30.0000000  0 10G03G08G15G18G19G21G22G26G27G29
  20315662.070 8 106759580.920 8  83189283.92646  20315661.042 6  20315664.227 6
        52.000          42.000  
  24149408.221 5 126905989.797 5  98887808.96242  24149407.580 1  24149411.483 2
        39.000          20.000  
  20452020.584 8 107476097.983 8  83747663.48246  20452019.668 6  20452023.167 6
        52.000          42.000  
  21495281.495 8 112958491.243 8  88019618.33045  21495281.113 5  21495282.804 5
        51.000          39.000  
  21664124.866 7 113845776.549 7  88710999.04446  21664123.613 6  21664124.882 6
        49.000          40.000  
  23084241.915 6 121308522.772 6  94526175.69443  23084242.205 3  23084243.603 3
        43.000          26.000  
  21481273.170 8 112884865.437 8  87962254.05545  21481272.486 5  21481273.192 5
        50.000          38.000  
  23701807.656 5 124553843.153 5  97054954.67341  23701808.880 1  23701811.726 1
        35.000          14.000  
  24737353.611 5 129995681.382 5 101295352.39241  24737351.501 1  24737357.213 1
        38.000          18.000  
  24619172.511 5 129374642.499 5 100811668.89541  24619174.540 1  24619179.123 1
        35.000           7.000  
 05  8 12  0 31  0.0000000  0 10G03G08G15G18G19G21G22G26G27G29
  20314361.862 8 106752748.468 8  83183959.94546  20314361.013 6  20314363.985 6
        50.000          42.000  
  24147473.969 6 126895814.347 6  98879880.08242  24147471.568 2  24147474.554 2
        42.000          21.000  
  20460432.952 8 107520303.551 8  83782109.38646  20460431.939 6  20460435.134 6
        53.000          41.000  
  21497376.266 8 112969496.886 8  88028194.16545  21497375.423 5  21497377.178 5
        50.000          39.000  
  21650666.363 8 113775050.399 8  88655887.77346  21650664.961 6  21650666.105 6
        50.000          40.000  
  23102159.894 6 121402680.430 6  94599545.29743  23102160.402 2  23102161.024 3
        42.000          25.000  
  21470522.464 8 112828370.942 8  87918232.37945  21470522.210 5  21470522.432 5
        51.000          39.000  
  23706606.083 5 124579050.371 5  97074596.71041  23706606.741 1  23706607.900 1
        37.000          16.000  
  24745226.347 5 130037053.481 5 101327590.39341  24745224.511 1  24745229.905 1
        39.000          17.000  
  24627878.530 5 129420385.266 5 100847317.60041  24627879.498 1  24627878.283 1
        38.000          10.000  
 05  8 12  0 31 30.0000000  0 10G03G08G15G18G19G21G22G26G27G29
  20313160.749 8 106746437.377 8  83179042.21046  20313159.985 6  20313163.061 6
        51.000          42.000  
  24145655.286 6 126886264.204 6  98872438.41442  24145654.133 2  24145656.958 2
        41.000          21.000  
  20468931.199 8 107564963.089 8  83816909.02146  20468930.253 6  20468933.634 6
        53.000          42.000  
  21499583.083 8 112981093.846 8  88037230.75645  21499582.583 5  21499583.961 5
        51.000          39.000  
  21637268.608 8 113704646.678 8  88601027.73846  21637267.741 6  21637268.487 6
        50.000          40.000  
  23120116.830 6 121497032.866 6  94673066.65543  23120115.044 3  23120115.246 3
        43.000          25.000  
  21459869.942 8 112772390.116 8  87874610.96545  21459869.374 5  21459869.824 5
        52.000          38.000  
  23711530.942 5 124604922.937 5  97094757.09941  23711529.521 1  23711531.814 1
        39.000          16.000  
  24753183.214 5 130078863.724 5 101360169.82341  24753183.490 1  24753187.069 1
        39.000          17.000  
  24636681.490 4 129466642.259 4 100883361.89541  24636679.333 1  24636686.118 1
        34.000          16.000  
 05  8 12  0 32  0.0000000  0 10G03G08G15G18G19G21G22G26G27G29
  20312058.658 8 106740648.140 8  83174531.11746  20312058.287 6  20312061.552 6
        52.000          41.000  
  24143956.548 5 126877339.410 5  98865484.03742  24143956.664 2  24143959.912 2
        38.000          20.000  
  20477515.622 8 107610075.192 8  83852061.31446  20477514.894 6  20477518.243 6
        52.000          42.000  
  21501902.779 8 112993282.192 8  88046728.17345  21501901.440 5  21501903.334 5
        51.000          39.000  
  21623933.222 8 113634567.199 8  88546420.35946  21623932.007 6  21623932.688 6
        50.000          40.000  
  23138106.563 6 121591578.979 6  94746738.92143  23138105.989 3  23138107.438 3
        42.000          25.000  
  21449314.654 8 112716924.192 8  87831390.78145  21449314.401 5  21449315.045 5
        50.000          38.000  
  23716579.195 5 124631459.935 5  97115435.26641  23716578.798 1  23716582.463 1
        37.000          17.000  
  24761222.423 6 130121110.347 6 101393089.25641  24761221.974 1  24761224.705 1
        40.000          18.000  
  24645581.490 5 129513411.862 5 100919805.74241  24645580.356 1  24645584.494 1
        35.000          14.000  
 05  8 12  0 32 30.0000000  0 10G03G08G15G18G19G21G22G26G27G29
  20311057.077 8 106735381.271 8  83170427.06546  20311056.207 6  20311059.015 6
        52.000          42.000  
  24142376.316 6 126869040.035 6  98859016.99942  24142375.351 2  24142380.909 2
        40.000          21.000  
  20486186.309 8 107655638.590 8  83887565.25946  20486185.350 6  20486188.728 6
        52.000          42.000  
  21504333.583 8 113006061.354 8  88056685.96045  21504333.243 5  21504334.943 5
        50.000          39.000  
  21610659.274 7 113564813.643 7  88492066.94046  21610658.221 6  21610659.415 6
        49.000          40.000  
  23156134.625 6 121686317.169 6  94820560.87743  23156134.178 3  23156135.344 3
        42.000          25.000  
  21438858.211 8 112661974.448 8  87788572.81345  21438857.975 5  21438858.419 5
        51.000          39.000  
  23721756.432 5 124658660.500 5  97136630.54141  23721755.322 1  23721756.531 1
        38.000          17.000  
  24769345.699 6 130163791.522 6 101426347.33541  24769343.991 1  24769347.115 1
        40.000          18.000  
  24654577.656 5 129560692.505 5 100956647.74841  24654575.611 1  24654580.806 1
        37.000          13.000  
 05  8 12  0 33  0.0000000  0 10G03G08G15G18G19G21G22G26G27G29
  20310154.134 8 106730637.170 8  83166730.36546  20310153.490 6  20310156.563 6
        52.000          42.000  
  24140915.660 5 126861366.405 5  98853037.56342  24140915.821 1  24140920.970 2
        39.000          20.000  
  20494942.638 8 107701651.884 8  83923419.76346  20494941.399 6  20494944.676 6
        52.000          41.000  
  21506878.039 8 113019430.342 8  88067103.35745  21506877.237 5  21506879.198 5
        51.000          39.000  
  21597448.297 7 113495387.568 7  88437968.71246  21597446.944 6  21597448.058 6
        49.000          40.000  
  23174198.227 6 121781245.948 6  94894531.34443  23174198.025 3  23174199.813 3
        42.000          25.000  
  21428500.752 8 112607542.708 8  87746158.48045  21428499.878 5  21428500.312 5
        51.000          39.000  
  23727058.725 5 124686523.557 5  97158341.98741  23727056.725 1  23727060.176 1
        39.000          17.000  
  24777547.512 5 130206905.575 5 101459942.70241  24777547.045 1  24777550.979 1
        37.000          17.000  
  24663672.559 5 129608482.647 5 100993886.80741  24663672.422 1  24663675.264 1
        37.000          14.000  
 05  8 12  0 33 30.0000000  0 10G03G08G15G18G19G21G22G26G27G29
  20309351.093 8 106726416.248 8  83163441.34146  20309350.215 6  20309353.148 6
        53.000          42.000  
  24139576.595 6 126854318.626 6  98847545.80042  24139575.038 2  24139579.180 2
        41.000          20.000  
  20503783.463 8 107748113.777 8  83959623.83946  20503782.709 6  20503786.067 6
        52.000          42.000  
  21509534.090 8 113033387.923 8  88077979.39845  21509533.373 5  21509535.070 5
        50.000          39.000  
  21584299.355 8 113426290.860 8  88384127.12446  21584298.174 6  21584299.103 6
        50.000          40.000  
  23192298.155 6 121876362.978 6  94968648.49342  23192297.845 2  23192300.373 2
        41.000          24.000  
  21418240.836 7 112553630.748 7  87704149.16845  21418240.735 5  21418241.228 5
        49.000          39.000  
  23732486.482 6 124715047.983 6  97180568.76641  23732485.959 1  23732488.093 1
        40.000          19.000  
  24785835.445 5 130250450.647 5 101493873.88541  24785834.645 1  24785837.986 1
        37.000          16.000  
  24672862.344 5 129656780.627 5 101031521.56741  24672861.889 1  24672866.579 1
        37.000          14.000  
 05  8 12  0 34  0.0000000  0 10G03G08G15G18G19G21G22G26G27G29
  20308646.873 8 106722719.004 8  83160560.37146  20308646.676 6  20308649.399 6
        52.000          42.000  
  24138354.369 6 126847896.597 6  98842541.61341  24138353.428 1  24138355.442 1
        40.000          19.000  
  20512710.442 8 107795022.761 8  83996176.29446  20512709.159 6  20512712.661 6
        52.000          42.000  
  21512302.076 8 113047934.116 8  88089314.10645  21512301.331 5  21512303.337 5
        50.000          39.000  
  21571213.673 8 113357525.279 8  88330543.56246  21571212.466 6  21571213.423 6
        51.000          40.000  
  23210434.767 6 121971667.479 6  95042911.72842  23210434.039 2  23210434.995 2
        42.000          24.000  
  21408081.520 8 112500239.534 8  87662545.64945  21408081.048 5  21408081.312 5
        52.000          39.000  
  23738039.441 5 124744232.952 5  97203310.34242  23738039.472 2  23738042.128 2
        37.000          21.000  
  24794203.556 5 130294424.693 5 101528139.40241  24794200.919 1  24794205.303 1
        38.000          17.000  
  24682150.413 5 129705584.546 5 101069550.55341  24682149.612 1  24682152.819 1
        36.000          12.000  
 05  8 12  0 34 30.0000000  0 10G03G08G15G18G19G21G22G26G27G29
  20308043.484 8 106719545.885 8  83158087.81146  20308042.629 6  20308045.839 6
        50.000          42.000  
  24137250.378 6 126842100.569 6  98838025.28241  24137249.438 2  24137254.144 1
        41.000          19.000  
  20521721.542 8 107842377.725 8  84033076.26746  20521720.695 6  20521724.145 6
        52.000          42.000  
  21515182.352 8 113063068.051 8  88101106.78545  21515181.455 5  21515183.316 5
        50.000          39.000  
  21558190.968 8 113289092.667 8  88277219.46546  21558190.301 6  21558191.031 6
        50.000          40.000  
  23228605.826 6 122067157.082 6  95117319.19843  23228606.379 3  23228606.733 3
        42.000          25.000  
  21398021.113 8 112447371.312 8  87621349.65045  21398020.463 5  21398020.506 5
        50.000          39.000  
  23743720.582 6 124774077.142 6  97226565.54542  23743719.055 2  23743721.267 2
        41.000          21.000  
  24802653.211 5 130338825.929 5 101562737.79341  24802650.948 1  24802654.236 1
        39.000          17.000  
  24691531.872 5 129754892.723 5 101107972.50841  24691531.652 1  24691532.802 1
        37.000          14.000  
 05  8 12  0 35  0.0000000  0 10G03G08G15G18G19G21G22G26G27G29
  20307539.270 8 106716897.242 8  83156023.93246  20307538.661 6  20307541.818 6
        53.000          42.000  
  24136268.234 6 126836931.013 6  98833997.04642  24136267.177 2  24136269.739 2
        40.000          21.000  
  20530817.873 8 107890177.106 8  84070322.53946  20530816.561 6  20530819.846 6
        51.000          42.000  
  21518173.461 8 113078788.593 8  88113356.57245  21518173.053 5  21518174.644 5
        50.000          39.000  
  21545232.809 7 113220994.317 7  88224155.81746  21545231.620 6  21545232.521 6
        49.000          40.000  
  23246812.443 6 122162830.476 6  95191869.91243  23246811.590 3  23246812.943 3
        43.000          25.000  
  21388059.414 8 112395027.601 8  87580562.35845  21388059.695 5  21388059.893 5
        51.000          39.000  
  23749523.427 5 124804579.446 5  97250333.53242  23749521.982 2  23749526.780 2
        39.000          20.000  
  24811182.667 5 130383652.572 5 101597667.62841  24811181.618 1  24811185.083 1
        39.000          18.000  
  24701012.237 6 129804703.507 6 101146786.05341  24701013.369 1  24701012.800 1
        40.000          16.000  
 05  8 12  0 35 30.0000000  0 10G03G08G15G18G19G21G22G26G27G29
  20307135.086 8 106714773.610 8  83154369.15646  20307134.504 6  20307137.649 6
        52.000          42.000  
  24135403.125 6 126832387.316 6  98830456.48742  24135401.781 2  24135405.537 2
        40.000          20.000  
  20539997.343 8 107938419.553 8  84107914.05146  20539996.834 6  20540000.043 6
        51.000          41.000  
  21521277.437 8 113095095.590 8  88126063.32745  21521276.171 5  21521277.903 5
        50.000          39.000  
  21532337.884 8 113153232.242 8  88171354.21146  21532336.828 6  21532337.825 6
        50.000          40.000  
  23265053.477 6 122258686.241 6  95266562.71643  23265053.073 3  23265054.123 3
        43.000          25.000  
  21378199.398 8 112343209.703 8  87540184.78445  21378198.990 5  21378199.423 5
        50.000          39.000  
  23755452.121 6 124835738.799 6  97274613.52742  23755451.738 2  23755454.824 2
        41.000          21.000  
  24819793.501 5 130428902.870 5 101632927.61241  24819793.370 1  24819797.189 1
        39.000          18.000  
  24710585.262 5 129855015.277 5 101185989.97341  24710585.702 1  24710589.206 1
        37.000          15.000  
 05  8 12  0 36  0.0000000  0 10G03G08G15G18G19G21G22G26G27G29
  20306831.257 8 106713175.221 8  83153123.65846  20306830.345 6  20306833.358 6
        51.000          42.000  
  24134657.478 6 126828469.907 6  98827403.96641  24134655.396 1  24134660.154 1
        40.000          18.000  
  20549262.524 8 107987103.590 8  84145849.65746  20549261.288 6  20549264.283 6
        52.000          41.000  
  21524491.208 7 113111988.498 7  88139226.64045  21524490.633 5  21524492.027 5
        49.000          38.000  
  21519507.532 8 113085808.216 8  88118816.01846  21519506.589 6  21519507.534 6
        50.000          40.000  
  23283327.249 6 122354722.782 6  95341396.36343  23283327.259 3  23283328.455 3
        42.000          25.000  
  21368439.029 8 112291919.078 8  87500218.07345  21368438.733 5  21368439.095 5
        51.000          39.000  
  23761508.682 6 124867554.125 6  97299404.69242  23761506.652 2  23761509.622 2
        40.000          21.000  
  24828484.285 5 130474574.498 5 101668515.92341  24828485.264 1  24828486.490 1
        38.000          16.000  
  24720254.424 5 129905826.226 5 101225583.01141  24720255.132 1  24720256.063 1
        37.000          13.000  
 05  8 12  0 36 30.0000000  0 10G03G08G15G18G19G21G22G26G27G29
  20306626.869 8 106712102.776 8  83152287.98846  20306626.349 6  20306629.215 6
        51.000          42.000  
  24134029.210 5 126825178.766 5  98824839.43241  24134029.057 2  24134033.186 1
        39.000          19.000  
  20558610.466 8 108036227.763 8  84184128.23346  20558609.276 6  20558612.354 6
        52.000          41.000  
  21527817.188 7 113129465.981 7  88152845.46345  21527816.438 5  21527818.102 5
        49.000          38.000  
  21506742.123 8 113018723.824 8  88066542.47546  21506740.773 6  21506741.896 6
        51.000          40.000  
  23301638.616 6 122450938.331 6  95416369.51242  23301637.483 2  23301637.709 2
        44.000          24.000  
  21358779.510 8 112241157.022 8  87460663.23845  21358779.081 5  21358779.191 5
        52.000          39.000  
  23767685.175 5 124900024.089 5  97324705.96142  23767684.711 2  23767688.516 2
        39.000          22.000  
  24837254.259 5 130520666.083 5 101704431.43641  24837254.514 1  24837258.332 1
        37.000          16.000  
  24730019.687 5 129957134.315 5 101265563.32641  24730019.450 1  24730021.322 1
        39.000          15.000  
 05  8 12  0 37  0.0000000  0 10G03G08G15G18G19G21G22G26G27G29
  20306522.936 8 106711556.448 8  83151862.27646  20306522.292 6  20306525.242 6
        52.000          42.000  
  24133524.359 6 126822513.380 6  98822762.52741  24133522.469 1  24133527.683 1
        41.000          19.000  
  20568041.541 8 108085790.877 8  84222748.83946  20568040.755 6  20568043.901 6
        52.000          41.000  
  21531254.481 8 113147527.623 8  88166919.48445  21531253.442 5  21531255.221 5
        50.000          38.000  
  21494041.302 8 112951981.000 8  88014535.08446  21494040.138 6  21494041.082 6
        50.000          41.000  
  23319980.321 6 122547331.541 6  95491481.10042  23319979.224 2  23319981.265 2
        42.000          24.000  
  21349220.446 8 112190925.359 8  87421521.69145  21349220.010 5  21349220.536 5
        50.000          39.000  
  23773988.439 5 124933147.565 5  97350516.48042  23773988.331 2  23773990.900 2
        38.000          20.000  
  24846105.283 5 130567175.435 5 101740672.49741  24846105.276 1  24846108.065 1
        38.000          14.000  
  24739877.230 5 130008938.171 5 101305929.95441  24739877.144 1  24739876.665 1
        39.000          13.000  
 05  8 12  0 37 30.0000000  0 10G03G08G15G18G19G21G22G26G27G29
  20306519.240 8 106711536.632 8  83151846.83746  20306518.795 6  20306521.599 6
        51.000          42.000  
  24133135.013 5 126820473.988 5  98821173.42941  24133135.630 1  24133137.221 1
        38.000          19.000  
  20577556.657 8 108135791.475 8  84261710.34846  20577555.728 6  20577558.617 6
        52.000          42.000  
  21534801.730 8 113166172.638 8  88181448.07245  21534801.258 5  21534803.202 5
        51.000          39.000  
  21481405.663 8 112885581.316 8  87962795.07946  21481404.482 6  21481405.553 6
        50.000          40.000  
  23338356.911 6 122643900.500 6  95566729.63242  23338355.804 2  23338356.602 2
        43.000          23.000  
  21339763.120 8 112141225.211 8  87382794.32245  21339762.536 5  21339762.764 5
        51.000          39.000  
  23780415.265 6 124966923.145 6  97376835.09842  23780414.230 2  23780418.651 2
        41.000          20.000  
  24855034.844 5 130614100.415 5 101777237.42341  24855033.731 1  24855036.440 1
        36.000          14.000  
  24749828.049 5 130061235.607 5 101346681.14441  24749826.353 1  24749832.964 1
        38.000          15.000  
 05  8 12  0 38  0.0000000  0 10G03G08G15G18G19G21G22G26G27G29
  20306615.852 8 106712043.469 8  83152241.77946  20306615.113 6  20306618.024 6
        53.000          42.000  
  24132866.668 6 126819060.711 6  98820072.12642  24132866.078 2  24132868.875 2
        40.000          20.000  
  20587154.462 8 108186227.861 8  84301011.42846  20587153.217 6  20587156.128 6
        52.000          42.000  
  21538460.722 8 113185399.580 8  88196430.11045  21538460.078 5  21538461.980 5
        51.000          38.000  
  21468835.826 8 112819526.471 8  87911323.78846  21468834.737 6  21468835.848 6
        50.000          40.000  
  23356766.509 6 122740644.138 6  95642114.29042  23356765.799 2  23356767.276 2
        41.000          23.000  
  21330406.261 8 112092058.109 8  87344482.30745  21330406.033 5  21330406.957 5
        51.000          39.000  
  23786967.175 5 125001349.639 5  97403660.96042  23786966.579 2  23786969.885 2
        39.000          20.000  
  24864041.345 5 130661439.174 5 101814124.80641  24864041.241 1  24864045.966 1
        37.000          14.000  
  24759874.495 5 130114024.913 5 101387815.64241  24759873.615 1  24759876.125 1
        38.000          13.000  
 05  8 12  0 38 30.0000000  0 10G03G08G15G18G19G21G22G26G27G29
  20306812.289 8 106713077.416 8  83153047.44846  20306811.899 6  20306814.673 6
        51.000          41.000  
  24132717.069 6 126818273.094 6  98819458.42242  24132716.513 2  24132719.296 2
        42.000          20.000  
  20596834.470 8 108237098.790 8  84340651.11046  20596833.341 6  20596836.791 6
        51.000          41.000  
  21542230.093 8 113205208.239 8  88211865.43245  21542229.617 5  21542231.421 5
        50.000          38.000  
  21456332.225 7 112753818.393 7  87860122.68646  21456330.923 6  21456331.705 6
        48.000          40.000  
  23375209.626 6 122837560.224 6  95717633.32842  23375208.988 2  23375208.969 2
        42.000          22.000  
  21321152.491 8 112043425.716 8  87306586.95445  21321151.827 5  21321152.349 5
        51.000          39.000  
  23793642.932 5 125036425.675 5  97430992.94142  23793643.154 2  23793644.462 2
        39.000          21.000  
  24873130.494 5 130709189.493 5 101851332.82841  24873127.521 1  24873133.181 1
        38.000          15.000  
  24770010.830 5 130167304.212 5 101429331.95941  24770009.276 1  24770014.071 1
        36.000          14.000  
 05  8 12  0 39  0.0000000  0 10G03G08G15G18G19G21G22G26G27G29
  20307109.192 8 106714638.590 8  83154263.94646  20307108.852 6  20307111.762 6
        52.000          42.000  
  24132686.692 6 126818111.509 6  98819332.53342  24132684.943 2  24132687.769 2
        40.000          20.000  
  20606597.260 8 108288402.760 8  84380628.22346  20606596.254 6  20606599.690 6
        52.000          41.000  
  21546110.383 8 113225597.831 8  88227753.43945  21546109.467 5  21546111.366 5
        51.000          38.000  
  21443894.643 8 112688458.461 8  87809192.87746  21443892.972 6  21443894.267 6
        50.000          40.000  
  23393683.847 6 122934647.602 6  95793285.82742  23393683.168 2  23393684.135 2
        42.000          22.000  
  21311999.818 8 111995329.308 8  87269109.24245  21311999.348 5  21311999.916 5
        51.000          39.000  
  23800440.252 5 125072149.921 5  97458830.02242  23800440.426 2  23800443.119 2
        38.000          20.000  
  24882293.876 5 130757349.602 5 101888860.19341  24882294.360 1  24882297.488 1
        39.000          17.000  
  24780243.180 5 130221071.803 5 101471228.71341  24780244.644 1  24780248.085 1
        38.000          13.000  
 05  8 12  0 39 30.0000000  0 10G03G08G15G18G19G21G22G26G27G29
  20307506.882 8 106716727.575 8  83155891.72546  20307506.423 6  20307509.368 6
        51.000          42.000  
  24132774.539 6 126818575.411 6  98819694.03942  24132772.324 2  24132776.463 2
        40.000          20.000  
  20616442.692 8 108340138.308 8  84420941.63746  20616441.391 6  20616444.384 6
        53.000          42.000  
  21550100.403 8 113246567.257 8  88244093.25445  21550099.888 5  21550101.770 5
        50.000          38.000  
  21431522.917 7 112623448.672 7  87758535.90846  21431522.300 6  21431523.419 6
        49.000          41.000  
  23412191.639 6 123031904.703 6  95869070.56042  23412191.418 2  23412192.157 2
        41.000          22.000  
  21302949.728 8 111947769.900 8  87232049.97545  21302949.085 5  21302949.689 5
        51.000          39.000  
  23807360.223 6 125108521.123 6  97487171.22442  23807359.706 2  23807364.026 2
        40.000          20.000  
  24891536.493 5 130805917.843 5 101926705.56841  24891534.312 1  24891539.625 1
        37.000          15.000  
  24790568.661 5 130275325.683 5 101513504.48541  24790569.823 1  24790570.526 1
        39.000          14.000  
 05  8 12  0 40  0.0000000  0 10G03G08G15G18G19G21G22G26G27G29
  20308005.087 8 106719344.485 8  83157930.87846  20308004.622 6  20308007.320 6
        53.000          42.000  
  24132981.299 5 126819664.266 5  98820542.47142  24132979.656 2  24132984.194 2
        39.000          20.000  
  20626368.952 8 108392303.851 8  84461590.10446  20626368.175 6  20626371.386 6
        52.000          41.000  
  21554200.954 8 113268115.520 8  88260884.11645  21554200.465 5  21554202.220 5
        50.000          38.000  
  21419219.131 8 112558790.701 8  87708153.08546  21419218.191 6  21419219.379 6
        51.000          40.000  
  23430731.637 6 123129329.719 6  95944986.13842  23430728.353 2  23430732.653 2
        41.000          22.000  
  21294001.199 8 111900749.341 8  87195410.59945  21294001.417 5  21294001.786 5
        51.000          39.000  
  23814405.377 5 125145537.705 5  97516015.33642  23814405.420 2  23814407.170 2
        39.000          20.000  
  24900856.901 5 130854892.158 5 101964867.35641  24900855.856 1  24900859.501 1
        37.000          13.000  
  24800984.485 5 130330064.004 5 101556157.76041  24800984.017 1  24800985.987 1
        38.000          13.000  
 05  8 12  0 40 30.0000000  0 10G03G08G15G18G19G21G22G26G27G29
  20308603.606 8 106722489.746 8  83160381.73346  20308602.938 6  20308605.767 6
        53.000          42.000  
  24133307.320 5 126821378.055 5  98821877.89142  24133307.270 2  24133309.350 2
        39.000          20.000  
  20636377.274 8 108444898.023 8  84502572.57246  20636376.268 6  20636379.748 6
        51.000          41.000  
  21558411.568 8 113290241.991 8  88278125.51845  21558411.082 5  21558412.530 5
        52.000          38.000  
  21406982.246 8 112494486.349 8  87658045.80546  21406981.494 6  21406982.429 6
        50.000          40.000  
  23449300.845 6 123226921.143 6  96021031.36942  23449299.648 2  23449303.212 2
        40.000          22.000  
  21285157.064 8 111854268.566 8  87159191.83345  21285156.380 5  21285156.896 5
        52.000          39.000  
  23821571.872 5 125183198.521 5  97545361.40141  23821570.232 1  23821574.796 1
        38.000          19.000  
  24910252.884 5 130904270.142 5 102003343.74541  24910253.498 1  24910254.221 1
        36.000          14.000  
  24811493.824 6 130385284.967 6 101599187.04141  24811494.777 1  24811495.406 1
        40.000          13.000  
 05  8 12  0 41  0.0000000  0 10G03G08G15G18G19G21G22G26G27G29
  20309302.908 8 106726163.551 8  83163244.43546  20309302.077 6  20309304.852 6
        52.000          42.000  
  24133753.124 6 126823716.641 6  98823700.17542  24133752.804 2  24133754.679 2
        41.000          20.000  
  20646466.904 8 108497919.484 8  84543887.99846  20646465.859 6  20646469.253 6
        51.000          41.000  
  21562731.807 8 113312945.420 8  88295816.51045  21562731.312 5  21562733.079 5
        51.000          38.000  
  21394814.037 8 112430537.196 8  87608215.30146  21394812.485 6  21394813.736 6
        51.000          41.000  
  23467905.130 6 123324677.698 6  96097205.32742  23467905.004 2  23467904.206 2
        41.000          22.000  
  21276414.452 8 111808328.883 8  87123394.68346  21276414.472 5  21276414.717 6
        51.000          40.000  
  23828859.469 5 125221502.066 5  97575208.30841  23828860.750 1  23828863.751 1
        36.000          17.000  
  24919724.340 5 130954049.763 5 102042133.07941  24919724.071 1  24919728.977 1
        37.000          13.000  
  24822094.428 5 130440986.514 5 101642590.85341  24822094.572 1  24822095.031 1
        39.000          14.000  
 05  8 12  0 41 30.0000000  0 10G03G08G15G18G19G21G22G26G27G29
  20310102.401 8 106730366.022 8  83166519.09046  20310101.837 6  20310104.607 6
        51.000          42.000  
  24134316.711 6 126826679.661 6  98826009.02742  24134315.444 2  24134320.802 2
        40.000          20.000  
  20656637.905 8 108551366.787 8  84585535.24246  20656636.629 6  20656640.207 6
        52.000          41.000  
  21567161.892 8 113336224.824 8  88313956.30945  21567161.285 5  21567163.068 5
        52.000          39.000  
  21382712.754 8 112366944.667 8  87558662.69646  21382711.331 6  21382712.015 6
        51.000          41.000  
  23486537.454 6 123422597.472 6  96173506.39042  23486536.011 2  23486538.570 2
        41.000          23.000  
  21267775.614 8 111762932.003 8  87088020.49446  21267775.551 5  21267776.048 6
        52.000          40.000  
  23836271.637 5 125260446.597 5  97605554.68141  23836270.587 1  23836273.459 1
        37.000          17.000  
  24929273.184 5 131004228.954 5 102081233.79241  24929273.602 1  24929277.375 1
        35.000          13.000  
  24832784.042 6 130497166.581 6 101686367.62341  24832783.219 1  24832785.431 1
        40.000          14.000  
 05  8 12  0 42  0.0000000  0 10G03G08G15G18G19G21G22G26G27G29
  20311002.555 8 106735097.368 8  83170205.85146  20311002.098 6  20311004.915 6
        52.000          42.000  
  24134998.972 5 126830266.890 5  98828804.26441  24134998.089 2  24135002.997 1
        38.000          19.000  
  20666888.745 8 108605238.439 8  84627513.15546  20666888.110 6  20666891.538 6
        51.000          41.000  
  21571701.137 8 113360078.973 8  88332543.96345  21571700.445 5  21571702.257 5
        51.000          38.000  
  21370679.542 8 112303711.067 8  87509389.76546  21370678.187 6  21370679.373 6
        50.000          41.000  
  23505202.082 6 123520679.289 6  96249933.81842  23505201.324 2  23505203.548 2
        42.000          23.000  
  21259240.718 8 111718079.007 8  87053070.12845  21259240.247 5  21259240.912 5
        52.000          39.000  
  23843803.626 5 125300030.958 5  97636399.61941  23843803.487 1  23843807.724 1
        37.000          18.000  
  24938898.079 5 131054805.659 5 102120644.20041  24938898.457 1  24938900.662 1
        37.000          13.000  
  24843565.442 5 130553823.342 5 101730515.72141  24843563.098 1  24843566.049 1
        38.000          12.000  
 05  8 12  0 42 30.0000000  0 10G03G08G15G18G19G21G22G26G27G29
  20312004.016 8 106740357.851 8  83174304.92246  20312003.057 6  20312005.907 6
        51.000          42.000  
  24135800.870 6 126834477.897 6  98832085.56141  24135799.002 1  24135803.629 1
        40.000          18.000  
  20677221.233 8 108659533.036 8  84669820.63746  20677220.194 6  20677223.153 6
        52.000          41.000  
  21576349.958 8 113384507.628 8  88351579.28245  21576349.216 5  21576350.737 5
        51.000          38.000  
  21358715.293 8 112240837.809 8  87460397.63046  21358713.857 6  21358714.845 6
        51.000          41.000  
  23523897.382 6 123618921.269 6  96326486.00842  23523897.616 2  23523896.946 2
        42.000          23.000  
  21250809.403 8 111673771.084 8  87018544.48546  21250808.843 6  21250809.388 6
        52.000          40.000  
  23851458.194 5 125340253.287 5  97667741.66241  23851457.003 1  23851460.611 1
        38.000          18.000  
  24948598.197 5 131105777.648 5 102160362.62941  24948600.291 1  24948600.652 1
        36.000          11.000  
  24854435.685 5 130610954.872 5 101775033.83941  24854433.482 1  24854440.663 1
        38.000           9.000  
 05  8 12  0 43  0.0000000  0 10G03G08G15G18G19G21G22G26G27G29
  20313105.617 8 106746147.726 8  83178816.51146  20313104.914 6  20313107.923 6
        53.000          42.000  
  24136719.592 6 126839312.415 6  98835852.72041  24136718.723 1  24136723.325 1
        40.000          19.000  
  20687633.143 8 108714248.954 8  84712456.42446  20687632.314 6  20687635.568 6
        52.000          41.000  
  21581108.279 8 113409509.222 8  88371061.04445  21581107.224 5  21581108.425 5
        51.000          39.000  
  21346819.372 8 112178326.503 8  87411687.52946  21346818.177 6  21346819.111 6
        50.000          41.000  
  23542623.163 6 123717321.568 6  96403161.55642  23542621.842 2  23542623.194 2
        41.000          23.000  
  21242481.792 8 111630009.506 8  86984444.57146  21242481.317 6  21242481.668 6
        52.000          40.000  
  23859233.662 6 125381112.205 6  97699579.77742  23859233.809 1  23859236.410 2
        41.000          20.000  
  24958373.095 5 131157143.592 5 102200388.08141  24958373.305 1  24958375.746 1
        35.000          11.000  
  24865398.306 5 130668559.348 5 101819920.40841  24865397.828 1  24865400.411 1
        37.000          15.000  
 05  8 12  0 43 30.0000000  0 10G03G08G15G18G19G21G22G26G27G29
  20314307.848 8 106752467.185 8  83183740.76746  20314307.386 6  20314310.264 6
        52.000          42.000  
  24137758.933 6 126844769.939 6  98840105.37541  24137757.857 1  24137761.224 1
        40.000          19.000  
  20698125.206 8 108769384.699 8  84755419.34646  20698124.348 6  20698127.345 6
        52.000          41.000  
  21585974.572 8 113435082.294 8  88390988.11645  21585973.404 5  21585975.035 5
        51.000          39.000  
  21334993.299 7 112116178.792 7  87363260.74946  21334992.092 6  21334992.963 6
        49.000          41.000  
  23561377.177 6 123815879.243 6  96479959.72542  23561376.328 2  23561377.559 2
        41.000          23.000  
  21234258.197 8 111586795.340 8  86950771.20845  21234257.873 5  21234258.289 5
        52.000          39.000  
  23867129.470 5 125422606.329 5  97731912.86642  23867129.553 2  23867131.766 2
        39.000          20.000  
  24968221.419 5 131208900.901 5 102240718.46741  24968221.752 1  24968225.491 1
        35.000          12.000  
  24876448.124 5 130726634.552 5 101865173.85541  24876445.660 1  24876454.587 1
        38.000          15.000  
 05  8 12  0 44  0.0000000  0 10G03G08G15G18G19G21G22G26G27G29
  20315611.766 8 106759316.218 8  83189077.66946  20315610.879 6  20315613.691 6
        53.000          42.000  
  24138915.340 5 126850849.968 5  98844843.04941  24138914.456 1  24138917.529 1
        39.000          19.000  
  20708696.690 8 108824938.736 8  84798708.20646  20708695.665 6  20708699.072 6
        51.000          40.000  
  21590949.019 8 113461226.658 8  88411360.35745  21590948.205 5  21590949.972 5
        50.000          38.000  
  21323236.631 8 112054396.976 8  87315119.07846  21323235.473 6  21323236.188 6
        51.000          41.000  
  23580161.197 6 123914592.489 6  96556879.12542  23580161.543 2  23580163.456 2
        41.000          22.000  
  21226139.708 8 111544130.050 8  86917525.54346  21226138.886 5  21226139.288 6
        51.000          40.000  
  23875147.288 6 125464733.891 6  97764739.52242  23875146.809 2  23875149.121 2
        40.000          22.000  
  24978143.939 5 131261047.465 5 102281352.10641  24978142.439 1  24978148.949 1
        35.000          13.000  
  24887588.571 5 130785178.543 5 101910792.56741  24887586.667 1  24887594.842 1
        37.000          13.000  
 05  8 12  0 44 30.0000000  0 10G03G08G15G18G19G21G22G26G27G29
  20317015.541 8 106766694.911 8  83194827.29946  20317014.998 6  20317017.819 6
        51.000          41.000  
  24140190.704 5 126857552.134 5  98850065.55441  24140191.394 2  24140195.267 1
        37.000          19.000  
  20719348.139 8 108880909.596 8  84842321.86746  20719346.586 6  20719349.924 6
        51.000          40.000  
  21596032.462 8 113487940.925 8  88432176.67345  21596031.838 5  21596033.927 5
        50.000          38.000  
  21311549.624 7 111992982.402 7  87267263.57346  21311548.466 6  21311549.570 6
        49.000          41.000  
  23598975.589 6 124013459.935 6  96633918.68142  23598974.816 2  23598975.482 2
        41.000          21.000  
  21218125.085 8 111502014.729 8  86884708.42946  21218124.682 6  21218125.236 6
        50.000          40.000  
  23883283.986 6 125507493.228 6  97798058.50042  23883282.568 2  23883286.704 2
        40.000          21.000  
  24988141.335 5 131313580.963 5 102322287.23941  24988142.069 1  24988143.842 1
        36.000          13.000  
  24898819.282 5 130844189.224 5 101956774.91941  24898819.556 1  24898822.569 1
        37.000          13.000  
 05  8 12  0 45  0.0000000  0 10G03G08G15G18G19G21G22G26G27G29
  20318520.494 8 106774603.766 8  83200990.04046  20318519.908 6  20318522.718 6
        52.000          42.000  
  24141584.671 5 126864875.939 5  98855772.40141  24141583.590 2  24141588.913 1
        38.000          19.000  
  20730077.623 8 108937295.877 8  84886259.23546  20730076.654 6  20730079.863 6
        50.000          41.000  
  21601224.723 8 113515224.242 8  88453436.40345  21601223.554 5  21601225.588 5
        50.000          38.000  
  21299933.609 8 111931936.718 8  87219695.51346  21299932.076 6  21299932.966 6
        52.000          41.000  
  23617817.079 5 124112479.841 5  96711077.04742  23617816.791 2  23617819.853 2
        39.000          21.000  
  21210215.480 8 111460450.360 8  86852320.63046  21210215.055 6  21210215.710 6
        52.000          40.000  
  23891540.791 6 125550882.785 6  97831868.47041  23891539.226 1  23891543.261 1
        40.000          19.000  
  24998210.988 4 131366499.217 4 102363522.22041  24998212.451 1  24998214.065 1
        34.000          13.000  
  24910137.204 5 130903664.476 5 102003119.20541  24910137.687 1  24910139.816 1
        37.000          14.000  
 05  8 12  0 45 30.0000000  0 10G03G08G15G18G19G21G22G26G27G29
  20320126.404 8 106783042.663 8  83207565.80346  20320125.876 6  20320128.655 6
        53.000          42.000  
  24143096.783 5 126872821.001 5  98861963.33841  24143096.731 1  24143099.881 1
        38.000          19.000  
  20740886.382 8 108994096.008 8  84930519.07746  20740885.456 6  20740888.695 6
        52.000          41.000  
  21606524.462 8 113543074.854 8  88475138.18445  21606523.406 5  21606525.416 5
        51.000          38.000  
  21288387.041 8 111871261.494 8  87172416.12546  21288385.861 6  21288386.793 6
        51.000          41.000  
  23636689.093 6 124211651.117 6  96788353.33842  23636688.501 2  23636690.410 2
        41.000          20.000  
  21202411.357 8 111419437.924 8  86820362.91046  21202410.912 6  21202411.145 6
        52.000          40.000  
  23899915.456 5 125594900.705 5  97866168.13041  23899914.260 1  23899921.478 1
        37.000          19.000  
  25008354.805 5 131419800.255 5 102405055.51541  25008354.500 1  25008359.817 1
        36.000          13.000  
  24921544.314 6 130963602.698 6 102049824.36841  24921543.446 1  24921547.929 1
        40.000          17.000  
 05  8 12  0 46  0.0000000  0 10G03G08G15G18G19G21G22G26G27G29
  20321833.069 8 106792011.547 8  83214554.53846  20321832.456 6  20321835.528 6
        52.000          42.000  
  24144726.739 5 126881386.700 5  98868637.94341  24144726.805 1  24144730.218 1
        39.000          19.000  
  20751773.907 8 109051308.418 8  84975100.17846  20751772.559 6  20751776.136 6
        52.000          41.000  
  21611931.864 8 113571491.725 8  88497281.21045  21611930.942 5  21611933.068 5
        51.000          38.000  
  21276911.866 8 111810958.541 8  87125426.81846  21276910.619 6  21276911.468 6
        51.000          41.000  
  23655588.645 6 124310971.554 6  96865745.88141  23655588.770 1  23655589.929 1
        41.000          19.000  
  21194711.798 8 111378978.982 8  86788836.48146  21194711.727 6  21194712.117 6
        51.000          40.000  
  23908412.551 5 125639545.442 5  97900956.22842  23908411.219 2  23908415.282 2
        36.000          20.000  
  25018570.549 5 131473481.788 5 102446885.20841  25018568.377 1  25018572.420 1
        35.000          13.000  
  24933035.657 5 131024001.339 5 102096888.22841  24933035.813 1  24933036.945 1
        39.000          16.000  
 05  8 12  0 46 30.0000000  0 10G03G08G15G18G19G21G22G26G27G29
  20323640.724 8 106801510.627 8  83221956.42046  20323640.274 6  20323643.077 6
        52.000          42.000  
  24146474.625 5 126890572.488 5  98875795.72441  24146474.252 1  24146475.906 1
        38.000          19.000  
  20762739.107 8 109108931.602 8  85020001.36446  20762737.884 6  20762741.220 6
        50.000          40.000  
  21617446.694 8 113600474.397 8  88519865.11945  21617446.341 5  21617448.012 5
        50.000          38.000  
  21265507.712 8 111751029.655 8  87078728.99246  21265506.601 6  21265507.369 6
        50.000          42.000  
  23674517.972 6 124410439.886 6  96943253.68142  23674517.884 2  23674519.336 2
        41.000          20.000  
  21187118.362 8 111339074.620 8  86757742.19746  21187118.042 6  21187118.592 6
        51.000          40.000  
  23917024.530 5 125684815.391 5  97936231.51141  23917024.054 1  23917030.108 1
        36.000          19.000  
  25028857.877 5 131527541.783 5 102489009.84841  25028857.032 1  25028860.563 1
        35.000          13.000  
  24944618.411 5 131084858.682 5 102144309.50741  24944617.621 1  24944621.379 1
        39.000          15.000  
 05  8 12  0 47  0.0000000  0 10G03G08G15G18G19G21G22G26G27G29
  20325549.192 8 106811539.947 8  83229771.47046  20325548.663 6  20325551.463 6
        52.000          42.000  
  24148340.262 5 126900377.431 5  98883435.94041  24148338.214 1  24148342.132 1
        38.000          18.000  
  20773782.178 8 109166964.096 8  85065221.48446  20773780.836 6  20773784.318 6
        51.000          40.000  
  21623069.576 8 113630021.020 8  88542888.46845  21623069.052 5  21623070.675 5
        51.000          38.000  
  21254174.936 8 111691476.373 8  87032323.84446  21254173.718 6  21254174.510 6
        50.000          42.000  
  23693473.862 5 124510054.694 5  97020875.57641  23693472.802 1  23693473.858 1
        38.000          18.000  
  21179630.847 8 111299725.870 8  86727080.84546  21179630.527 6  21179630.796 6
        51.000          40.000  
  23925759.161 5 125730708.714 5  97971992.50742  23925758.124 2  23925761.494 2
        39.000          20.000  
  25039216.675 4 131581978.165 4 102531427.87441  25039214.649 1  25039216.151 1
        34.000          12.000  
  24956283.222 5 131146172.601 5 102192086.57141  24956284.654 1  24956286.716 1
        38.000          16.000  
 05  8 12  0 47 30.0000000  0 10G03G08G15G18G19G21G22G26G27G29
  20327558.719 8 106822099.650 8  83237999.80846  20327557.950 6  20327561.060 6
        52.000          42.000  
  24150324.503 5 126910801.204 5  98891558.36441  24150323.284 1  24150325.884 1
        38.000          17.000  
  20784902.635 8 109225404.530 8  85110759.47946  20784901.864 6  20784905.280 6
        51.000          40.000  
  21628799.640 8 113660130.593 8  88566350.47245  21628798.574 5  21628800.034 5
        50.000          38.000  
  21242914.393 8 111632300.607 8  86986212.85946  21242913.068 6  21242914.157 6
        50.000          41.000  
  23712457.409 6 124609814.614 6  97098610.59041  23712457.818 1  23712458.578 1
        42.000          19.000  
  21172248.737 8 111260933.778 8  86696853.25546  21172248.554 6  21172248.613 6
        52.000          40.000  
  23934610.710 5 125777223.485 5  98008237.75541  23934611.062 1  23934615.061 1
        38.000          19.000  
  25049648.216 5 131636788.445 5 102574137.19241  25049647.168 1  25049646.340 1
        35.000          13.000  
  24968039.012 5 131207940.749 5 102240217.60341  24968037.462 1  24968040.555 1
        37.000          13.000  
 05  8 12  0 48  0.0000000  0 10G03G08G15G18G19G21G22G26G27G29
  20329669.186 8 106833189.710 8  83246641.41646  20329668.543 6  20329671.477 6
        52.000          42.000  
  24152426.476 6 126921842.844 6  98900162.25341  24152425.220 1  24152429.950 1
        40.000          19.000  
  20796101.016 7 109284251.479 7  85156614.24846  20796099.980 6  20796103.520 6
        49.000          40.000  
  21634635.545 8 113690802.044 8  88590250.31445  21634635.150 5  21634636.583 5
        50.000          38.000  
  21231725.355 8 111573503.732 8  86940397.12546  21231724.311 6  21231725.296 6
        51.000          42.000  
  23731468.496 6 124709718.086 6  97176457.41942  23731467.396 2  23731469.805 2
        40.000          20.000  
  21164972.950 8 111222699.435 8  86667060.28146  21164972.575 6  21164973.369 6
        51.000          40.000  
  23943580.373 5 125824358.065 5  98044965.96941  23943579.552 1  23943585.067 1
        37.000          19.000  
  25060145.986 4 131691970.461 4 102617136.16741  25060146.365 1  25060150.681 1
        33.000          11.000  
  24979878.984 5 131270160.967 5 102288700.85941  24979878.434 1  24979880.325 1
        39.000          13.000  
 05  8 12  0 48 30.0000000  0 10G03G08G15G18G19G21G22G26G27G29
  20331880.246 8 106844810.231 8  83255696.36646  20331879.824 6  20331882.687 6
        52.000          42.000  
  24154644.347 5 126933502.100 5  98909247.34241  24154643.318 1  24154646.826 1
        39.000          19.000  
  20807375.805 8 109343503.133 8  85202784.37146  20807375.148 6  20807378.438 6
        51.000          40.000  
  21640578.851 8 113722034.010 8  88614586.91945  21640578.425 5  21640580.243 5
        50.000          38.000  
  21220609.419 8 111515087.753 8  86894878.17946  21220608.280 6  21220609.107 6
        50.000          42.000  
  23750507.086 6 124809763.456 6  97254414.82742  23750507.208 1  23750507.152 2
        40.000          20.000  
  21157803.586 8 111185023.716 8  86637702.60746  21157803.244 6  21157803.681 6
        52.000          40.000  
  23952668.160 5 125872110.474 5  98082175.63141  23952667.925 1  23952670.079 1
        38.000          17.000  
  25070718.659 4 131747521.965 4 102660423.05441  25070716.978 1  25070723.171 1
        32.000          10.000  
  24991804.952 5 131332831.352 5 102337534.88141  24991803.085 1  24991808.003 1
        37.000          16.000  
 05  8 12  0 49  0.0000000  0 10G03G08G15G18G19G21G22G26G27G29
  20334192.860 8 106856961.210 8  83265164.66746  20334192.107 6  20334194.889 6
        52.000          42.000  
  24156979.117 5 126945778.408 5  98918813.29041  24156979.361 1  24156983.171 1
        38.000          19.000  
  20818728.379 8 109403157.897 8  85249268.59346  20818727.140 6  20818730.494 6
        51.000          40.000  
  21646628.042 8 113753825.408 8  88639359.43545  21646628.058 5  21646629.752 5
        50.000          38.000  
  21209565.964 8 111457054.309 8  86849657.32446  21209564.830 6  21209565.682 6
        50.000          42.000  
  23769570.223 6 124909949.117 6  97332481.55241  23769570.806 1  23769572.032 1
        41.000          19.000  
  21150740.751 8 111147907.350 8  86608780.79446  21150740.146 6  21150740.409 6
        52.000          40.000  
  23961870.231 5 125920479.137 5  98119865.44541  23961871.294 1  23961875.402 1
        37.000          18.000  
  25081358.582 4 131803440.727 4 102703996.09841  25081357.188 1  25081360.336 1
        33.000          10.000  
  25003816.601 5 131395949.615 5 102386717.83641  25003816.111 1  25003820.607 1
        38.000          14.000  
 05  8 12  0 49 30.0000000  0 10G03G08G15G18G19G21G22G26G27G29
  20336606.282 8 106869642.626 8  83275046.28446  20336605.399 6  20336608.074 6
        52.000          42.000  
  24159432.612 5 126958670.339 5  98928858.97941  24159432.805 1  24159436.278 1
        38.000          18.000  
  20830156.756 8 109463214.378 8  85296065.85246  20830155.501 6  20830158.907 6
        51.000          40.000  
  21652784.265 8 113786174.929 8  88664566.86145  21652783.843 5  21652785.678 5
        50.000          38.000  
  21198596.070 8 111399405.116 8  86804735.88246  21198594.838 6  21198595.503 6
        51.000          42.000  
  23788662.653 5 125010273.976 5  97410656.75341  23788662.537 1  23788663.651 1
        39.000          19.000  
  21143784.082 8 111111352.064 8  86580296.16646  21143783.963 6  21143784.322 6
        52.000          40.000  
  23971190.465 5 125969462.078 5  98158033.96741  23971191.245 1  23971194.983 1
        35.000          17.000  
  25092071.329 4 131859724.642 4 102747853.70441  25092061.106 1  25092075.001 1
        32.000           5.000  
  25015912.352 6 131459513.727 6 102436248.23241  25015913.295 1  25015913.926 1
        40.000          16.000  
 05  8 12  0 50  0.0000000  0 10G03G08G15G18G19G21G22G26G27G29
  20339119.827 8 106882854.525 8  83285341.26946  20339119.485 6  20339122.420 6
        51.000          42.000  
  24162004.148 5 126972178.265 5  98939384.65741  24162002.751 1  24162007.994 1
        38.000          18.000  
  20841660.999 8 109523670.843 8  85343174.78346  20841659.888 6  20841663.288 6
        51.000          40.000  
  21659046.233 7 113819081.327 7  88690208.21145  21659045.715 5  21659047.310 5
        48.000          38.000  
  21187698.783 8 111342141.590 8  86760114.95746  21187697.587 6  21187698.726 6
        51.000          42.000  
  23807779.816 6 125110736.254 6  97488939.06542  23807778.928 2  23807780.425 2
        41.000          21.000  
  21136934.871 8 111075358.340 8  86552249.12946  21136934.399 6  21136934.915 6
        53.000          40.000  
  23980631.589 5 126019057.299 5  98196679.62741  23980629.722 1  23980634.507 1
        38.000          18.000  
  25102850.609 4 131916371.457 4 102791994.12041  25102855.633 1  25102856.667 1
        32.000           1.000  
  25028091.578 5 131523521.560 5 102486124.45441  25028089.863 1  25028095.870 1
        37.000          15.000  
 05  8 12  0 50 30.0000000  0 10G03G08G15G18G19G21G22G26G27G29
  20341735.068 8 106896596.794 8  83296049.52946  20341734.547 6  20341737.340 6
        51.000          42.000  
  24164690.610 5 126986300.717 5  98950389.09241  24164689.420 1  24164694.946 1
        36.000          18.000  
  20853241.656 8 109584525.967 8  85390594.34246  20853240.526 6  20853243.626 6
        51.000          40.000  
  21665413.988 7 113852543.145 7  88716282.35645  21665413.578 5  21665415.106 5
        49.000          38.000  
  21176875.508 8 111285265.464 8  86715795.90246  21176874.309 6  21176875.354 6
        51.000          42.000  
  23826924.351 6 125211334.536 6  97567327.30742  23826923.561 2  23826924.071 2
        42.000          22.000  
  21130192.595 8 111039927.049 8  86524640.35546  21130192.173 6  21130192.457 6
        51.000          40.000  
  23990183.482 5 126069262.924 5  98235800.87741  23990183.784 1  23990187.529 1
        38.000          17.000  
  25113697.398 4 131973378.645 4         0.000           0.000           0.000  
        31.000           0.000  
  25040355.734 5 131587970.928 5 102536344.65141  25040355.694 1  25040357.781 1
        37.000          14.000  
 05  8 12  0 51  0.0000000  0 10G03G08G15G18G19G21G22G26G27G29
  20344451.237 8 106910869.315 8  83307170.96946  20344450.508 6  20344453.431 6
        52.000          42.000  
  24167495.711 5 127001037.181 5  98961872.09741  24167495.633 1  24167497.271 1
        38.000          18.000  
  20864897.637 8 109645778.054 8  85438323.24646  20864896.478 6  20864899.697 6
        51.000          40.000  
  21671886.553 8 113886558.612 8  88742787.91545  21671886.164 5  21671887.834 5
        51.000          37.000  
  21166126.422 8 111228778.655 8  86671780.21246  21166125.433 6  21166126.692 6
        50.000          42.000  
  23846091.976 6 125312067.020 6  97645820.15342  23846090.987 2  23846093.409 2
        41.000          21.000  
  21123557.194 8 111005059.194 8  86497470.61046  21123557.123 6  21123557.346 6
        51.000          40.000  
  23999854.002 5 126120077.149 5  98275396.35641  23999854.889 1  23999857.590 1
        39.000          19.000  
  25124612.743 4 132030743.924 4         0.000           0.000           0.000  
        32.000           0.000  
  25052705.020 5 131652859.714 5 102586907.33141  25052703.648 1  25052706.463 1
        37.000          15.000  
 05  8 12  0 51 30.0000000  0 10G03G08G15G18G19G21G22G26G27G29
  20347267.952 8 106925672.195 8  83318705.67946  20347267.312 6  20347270.303 6
        52.000          42.000  
  24170416.677 5 127016386.363 5  98973832.49741  24170416.436 1  24170420.345 1
        38.000          19.000  
  20876628.611 8 109707425.444 8  85486360.17046  20876627.414 5  20876630.860 6
        51.000          40.000  
  21678465.177 8 113921127.244 8  88769724.51145  21678464.500 5  21678466.396 5
        50.000          38.000  
  21155451.779 8 111172682.738 8  86628069.11146  21155450.683 6  21155451.556 6
        50.000          42.000  
  23865285.673 6 125412932.990 6  97724416.99742  23865285.851 2  23865287.797 2
        40.000          21.000  
  21117029.626 8 110970755.830 8  86470740.73846  21117029.291 6  21117029.689 6
        52.000          40.000  
  24009638.973 5 126171497.824 5  98315464.36941  24009638.463 1  24009642.430 1
        38.000          18.000  
  25135597.291 3 132088465.253 3         0.000           0.000           0.000  
        29.000           0.000  
  25065134.080 5 131718185.304 5 102637810.37841  25065132.127 1  25065137.106 1
        36.000          14.000  
 05  8 12  0 52  0.0000000  0 10G03G08G15G18G19G21G22G26G27G29
  20350185.772 8 106941005.183 8  83330653.46046  20350185.136 6  20350187.986 6
        50.000          42.000  
  24173453.500 5 127032347.793 5  98986269.98741  24173452.654 1  24173456.266 1
        39.000          19.000  
  20888434.166 8 109769466.722 8  85534704.01846  20888433.368 6  20888436.366 6
        51.000          40.000  
  21685148.153 8 113956247.431 8  88797090.90245  21685147.541 5  21685149.627 5
        51.000          38.000  
  21144852.381 8 111116979.261 8  86584663.80846  21144850.686 6  21144851.791 6
        50.000          42.000  
  23884506.237 6 125513931.451 6  97803117.07342  23884505.448 2  23884506.887 2
        42.000          21.000  
  21110609.438 8 110937017.682 8  86444451.28346  21110609.208 6  21110609.453 6
        53.000          40.000  
  24019540.010 5 126223522.913 5  98356003.41141  24019538.727 1  24019539.972 1
        38.000          18.000  
  25146647.154 3 132146540.064 3         0.000           0.000           0.000  
        28.000           0.000  
  25077650.199 5 131783945.908 5 102689052.38341  25077650.383 1  25077653.868 1
        39.000          14.000  
 05  8 12  0 52 30.0000000  0  9G03G08G15G18G19G21G22G26G29
  20353204.279 8 106956868.080 8  83343014.15546  20353203.535 6  20353206.617 6
        52.000          42.000  
  24176608.053 6 127048920.396 6  98999183.70441  24176607.404 1  24176610.016 1
        41.000          17.000  
  20900315.690 8 109831900.352 8  85583353.60145  20900314.512 6  20900317.627 5
        52.000          39.000  
  21691936.001 8 113991917.635 8  88824885.87245  21691935.403 5  21691937.394 5
        50.000          38.000  
  21134327.164 8 111061669.926 8  86541565.62846  21134325.637 6  21134326.646 6
        51.000          42.000  
  23903750.770 6 125615059.252 6  97881917.92942  23903749.429 2  23903751.713 2
        41.000          21.000  
  21104297.185 8 110903845.760 8  86418603.04646  21104296.637 6  21104296.854 6
        52.000          40.000  
  24029554.782 5 126276150.688 5  98397012.05141  24029553.865 1  24029557.234 1
        39.000          19.000  
  25090245.555 5 131850139.085 5 102740631.42841  25090245.748 1  25090249.131 1
        36.000          15.000  
 05  8 12  0 53  0.0000000  0  9G03G08G15G18G19G21G22G26G29
  20356323.831 8 106973261.035 8  83355787.88046  20356323.218 6  20356326.202 6
        52.000          42.000  
  24179877.100 5 127066103.555 5  99012573.14841  24179876.623 1  24179878.322 1
        39.000          17.000  
  20912270.284 8 109894724.826 8  85632307.72846  20912269.485 5  20912273.016 6
        51.000          40.000  
  21698828.942 8 114028136.508 8  88853108.37345  21698827.766 5  21698829.494 5
        50.000          37.000  
  21123877.383 8 111006756.475 8  86498775.92446  21123876.095 6  21123876.956 6
        51.000          42.000  
  23923018.920 6 125716315.417 6  97960818.82042  23923017.401 2  23923020.123 2
        42.000          21.000  
  21098092.492 8 110871240.891 8  86393196.67646  21098092.308 6  21098092.588 6
        52.000          40.000  
  24039683.060 5 126329379.039 5  98438488.66641  24039682.629 1  24039686.403 1
        38.000          19.000  
  25102922.702 4 131916762.678 4 102792545.93341  25102921.566 1  25102924.658 1
        32.000          10.000  
 05  8 12  0 53 30.0000000  0  9G03G08G15G18G19G21G22G26G29
  20359544.257 8 106990183.823 8  83368974.46746  20359543.603 6  20359546.523 6
        51.000          42.000  
  24183262.982 5 127083896.071 5  99026437.42641  24183262.141 1  24183266.383 1
        39.000          19.000  
  20924299.179 8 109957938.445 8  85681565.09346  20924298.139 5  20924301.994 6
        51.000          40.000  
  21705825.423 8 114064902.693 8  88881757.35145  21705824.265 5  21705825.943 5
        50.000          37.000  
  21113502.755 8 110952240.300 8  86456295.79446  21113501.882 6  21113502.893 6
        50.000          42.000  
  23942307.942 5 125817698.324 5  98039818.48041  23942308.519 2  23942311.377 1
        39.000          19.000  
  21091996.091 8 110839203.353 8  86368232.38246  21091995.523 6  21091996.077 6
        52.000          41.000  
  24049926.943 5 126383205.858 5  98480431.57441  24049925.318 1  24049928.565 1
        39.000          17.000  
  25115685.058 5 131983814.733 5 102844794.21041  25115683.653 1  25115687.402 1
        35.000          15.000  
 05  8 12  0 54  0.0000000  0  9G03G08G15G18G19G21G22G26G29
  20362865.224 8 107007636.417 8  83382573.88446  20362864.556 6  20362867.579 6
        52.000          42.000  
  24186765.044 6 127102296.816 6  99040775.64842  24186764.562 1  24186767.770 2
        40.000          20.000  
  20936402.395 8 110021539.580 8  85731124.42845  20936401.360 5  20936404.601 5
        50.000          39.000  
  21712925.217 7 114102214.849 7  88910831.75145  21712924.343 5  21712926.062 5
        49.000          37.000  
  21103205.149 8 110898123.285 8  86414126.69246  21103203.857 6  21103204.718 6
        51.000          42.000  
  23961627.054 5 125919207.178 5  98118916.29841  23961625.972 1  23961628.339 1
        39.000          19.000  
  21086007.428 8 110807734.696 8  86343711.36546  21086007.250 6  21086007.775 6
        52.000          40.000  
  24060283.008 5 126437629.104 5  98522839.32541  24060283.342 1  24060284.644 1
        38.000          18.000  
  25128520.256 4 132051292.557 4 102897374.35441  25128523.165 1  25128526.534 1
        33.000          10.000  
 05  8 12  0 54 30.0000000  0  9G03G08G15G18G19G21G22G26G29
  20366287.377 8 107025618.404 8  83396585.81946  20366286.492 6  20366289.478 6
        52.000          42.000  
  24190383.095 6 127121304.862 6  99055587.10941  24190381.944 2  24190384.230 1
        42.000          19.000  
  20948578.253 8 110085526.865 8  85780984.64246  20948577.859 6  20948580.958 6
        50.000          40.000  
  21720129.629 8 114140071.429 8  88940330.38445  21720128.342 5  21720129.852 5
        51.000          37.000  
  21092982.932 8 110844407.181 8  86372269.99746  21092981.815 6  21092982.891 6
        50.000          42.000  
  23980966.188 5 126020840.166 5  98198110.81941  23980966.817 1  23980969.215 1
        38.000          19.000  
  21080127.836 8 110776835.471 8  86319634.05446  21080127.431 6  21080127.635 6
        51.000          40.000  
  24070751.444 5 126492646.839 5  98565710.24241  24070752.742 1  24070754.863 1
        38.000          17.000  
  25141446.659 5 132119194.189 5 102950284.71741  25141445.309 1  25141449.008 1
        35.000          11.000  
 05  8 12  0 55  0.0000000  0  9G03G08G15G18G19G21G22G26G29
  20369809.641 8 107044129.636 8  83411010.15046  20369809.040 6  20369811.925 6
        51.000          42.000  
  24194114.547 6 127140919.683 6  99070871.43141  24194113.193 1  24194116.341 1
        40.000          18.000  
  20960828.567 8 110149898.851 8  85831144.63246  20960827.529 5  20960830.712 6
        50.000          40.000  
  21727435.577 7 114178471.078 7  88970252.19545  21727435.252 5  21727436.991 5
        49.000          37.000  
  21082838.301 8 110791093.333 8  86330726.74246  21082836.732 6  21082837.441 6
        51.000          42.000  
  24000330.556 5 126122596.439 5  98277401.38341  24000329.785 1  24000331.509 1
        39.000          19.000  
  21074356.445 8 110746506.423 8  86296001.05046  21074355.932 6  21074356.176 6
        52.000          41.000  
  24081332.247 5 126548256.747 5  98609042.65541  24081332.416 1  24081337.007 1
        38.000          18.000  
  25154446.117 4 132187517.114 4 103003523.39441  25154446.473 1  25154447.341 1
        32.000           9.000  
 05  8 12  0 55 30.0000000  0  9G03G08G15G18G19G21G22G26G29
  20373432.888 8 107063170.131 8  83425846.89846  20373432.408 6  20373435.150 6
        52.000          42.000  
  24197962.802 5 127161139.941 5  99086627.48841  24197961.671 1  24197964.625 1
        39.000          18.000  
  20973151.080 8 110214653.887 8  85881603.09545  20973149.757 5  20973153.116 5
        51.000          39.000  
  21734846.144 8 114217412.270 8  89000595.98945  21734845.429 5  21734847.174 5
        50.000          37.000  
  21072769.373 8 110738183.596 8  86289498.38446  21072768.354 6  21072769.210 6
        51.000          42.000  
  24019715.780 5 126224474.016 5  98356786.49141  24019715.319 1  24019719.272 1
        37.000          19.000  
  21068693.535 8 110716748.269 8  86272812.89446  21068692.980 6  21068693.404 6
        52.000          40.000  
  24092028.859 5 126604456.672 5  98652834.75141  24092028.544 1  24092030.836 1
        37.000          17.000  
  25167525.661 4 132256259.248 4 103057088.76141  25167521.213 1  25167524.710 1
        32.000           7.000  
 05  8 12  0 56  0.0000000  0  9G03G08G15G18G19G21G22G26G29
  20377157.281 8 107082739.724 8  83441095.92846  20377156.203 6  20377159.271 6
        53.000          42.000  
  24201925.081 5 127181964.381 5  99102854.33241  24201924.273 1  24201928.121 1
        39.000          18.000  
  20985545.700 8 110279790.015 8  85932358.52145  20985544.736 6  20985548.431 5
        51.000          39.000  
  21742358.970 8 114256893.610 8  89031360.67145  21742358.391 5  21742360.333 5
        50.000          37.000  
  21062778.152 8 110685679.322 8  86248585.97246  21062777.090 6  21062777.748 6
        52.000          42.000  
  24039126.311 5 126326471.657 5  98436265.14941  24039126.060 1  24039129.188 1
        36.000          17.000  
  21063139.613 8 110687561.740 8  86250070.16346  21063138.981 6  21063139.493 6
        53.000          40.000  
  24102835.058 5 126661244.537 5  98697084.98441  24102834.142 1  24102837.852 1
        38.000          18.000  
  25180688.153 4 132325418.010 4 103110978.78441  25180684.941 1  25180694.172 1
        31.000          10.000  
 05  8 12  0 56 30.0000000  0  9G03G08G15G18G19G21G22G26G29
  20380981.628 8 107102838.269 8  83456757.12746  20380980.965 6  20380983.925 6
        52.000          42.000  
  24206001.778 5 127203392.332 5  99119551.44541  24206000.292 1  24206004.773 1
        39.000          18.000  
  20998013.543 8 110345305.785 8  85983409.75945  20998012.091 5  20998015.428 5
        51.000          39.000  
  21749974.922 8 114296913.380 8  89062544.89945  21749974.139 5  21749976.019 5
        51.000          37.000  
  21052864.442 8 110633582.337 8  86207990.91546  21052863.485 6  21052864.046 6
        52.000          42.000  
  24058558.714 5 126428587.427 5  98515835.84541  24058557.305 1  24058561.487 1
        37.000          17.000  
  21057693.914 8 110658947.496 8  86227773.36946  21057693.770 6  21057694.323 6
        52.000          40.000  
  24113753.760 5 126718618.226 5  98741791.69241  24113752.672 1  24113756.372 1
        38.000          15.000  
  25193927.952 5 132394991.331 5 103165191.86641  25193924.911 1  25193928.370 1
        35.000          12.000  
 05  8 12  0 57  0.0000000  0 10G03G08G11G15G18G19G21G22G26G29
  20384906.668 8 107123465.239 8  83472830.09246  20384906.102 6  20384909.170 6
        52.000          42.000  
  24210195.348 6 127225422.766 6  99136718.00141  24210193.280 1  24210197.506 1
        40.000          18.000  
  24892635.623 3 130811699.873 3         0.000           0.000           0.000  
        29.000           0.000  
  21010552.219 8 110411199.585 8  86034755.57545  21010551.099 5  21010554.534 5
        50.000          39.000  
  21757692.879 8 114337470.022 8  89094147.48345  21757691.834 5  21757693.348 5
        50.000          37.000  
  21043028.487 8 110581894.351 8  86167714.57146  21043027.336 6  21043028.318 6
        50.000          42.000  
  24078012.321 5 126530820.055 5  98595497.63241  24078012.828 1  24078015.994 1
        37.000          17.000  
  21052358.323 8 110630906.224 8  86205923.03646  21052357.785 6  21052358.273 6
        52.000          40.000  
  24124778.353 4 126776575.581 4  98786953.21141  24124781.276 1  24124781.134 1
        34.000          16.000  
  25207241.929 4 132464976.686 4 103219725.86741  25207242.991 1  25207247.713 1
        32.000          14.000  
 05  8 12  0 57 30.0000000  0 10G03G08G11G15G18G19G21G22G26G29
  20388932.159 8 107144620.347 8  83489314.59246  20388931.861 6  20388934.834 6
        51.000          43.000  
  24214502.186 5 127248054.336 5  99154352.98842  24214501.316 2  24214504.441 2
        38.000          20.000  
  24872287.375 3 130704766.346 3         0.000           0.000           0.000  
        28.000           0.000  
  21023163.124 8 110477470.021 8  86086394.86945  21023162.125 5  21023165.536 5
        50.000          39.000  
  21765512.241 8 114378562.278 8  89126167.42245  21765511.483 5  21765513.223 5
        50.000          37.000  
  21033270.825 8 110530616.875 8  86127758.10346  21033269.580 6  21033270.456 6
        51.000          43.000  
  24097491.378 6 126633168.453 6  98675249.59741  24097489.862 1  24097489.740 1
        40.000          17.000  
  21047131.547 8 110603438.390 8  86184519.54346  21047130.811 6  21047131.347 6
        51.000          41.000  
  24135923.464 5 126835114.313 5  98832567.79141  24135923.029 1  24135924.256 1
        39.000          15.000  
  25220641.594 5 132535371.723 5 103274579.17841  25220642.464 1  25220643.247 1
        37.000          14.000  
 05  8 12  0 58  0.0000000  0 10G03G08G11G15G18G19G21G22G26G29
  20393058.605 8 107166303.402 8  83506210.47346  20393058.058 6  20393060.926 6
        51.000          42.000  
  24218921.467 5 127271285.635 5  99172455.33741  24218921.659 1  24218924.919 1
        38.000          18.000  
  24851952.417 4 130597894.932 4         0.000           0.000           0.000  
        32.000           0.000  
  21035845.373 8 110544115.382 8  86138326.31445  21035844.259 5  21035847.604 5
        50.000          39.000  
  21773433.095 8 114420188.504 8  89158603.44645  21773432.601 5  21773434.384 5
        50.000          37.000  
  21023591.059 8 110479751.654 8  86088122.86546  21023590.071 6  21023591.034 6
        50.000          43.000  
  24116988.767 5 126735631.220 5  98755090.71841  24116987.256 1  24116988.479 1
        39.000          17.000  
  21042014.044 8 110576545.152 8  86163563.79446  21042013.520 6  21042013.849 6
        52.000          40.000  
  24147170.091 5 126894232.044 5  98878633.53241  24147171.441 1  24147172.579 1
        38.000          17.000  
  25234113.960 5 132606174.224 5 103329750.00941  25234112.937 1  25234117.474 1
        36.000          14.000  
 05  8 12  0 58 30.0000000  0 10G03G08G11G15G18G19G21G22G26G29
  20397285.120 8 107188514.242 8  83523517.61946  20397284.559 6  20397287.544 6
        53.000          42.000  
  24223458.222 5 127295115.466 5  99191024.05241  24223456.793 1  24223459.462 1
        39.000          18.000  
  24831627.295 4 130491087.214 4         0.000           0.000           0.000  
        32.000           0.000  
  21048598.358 8 110611134.192 8  86190548.74745  21048597.345 5  21048601.146 5
        51.000          39.000  
  21781455.898 8 114462347.459 8  89191454.57445  21781455.271 5  21781456.774 5
        51.000          37.000  
  21013990.807 8 110429300.519 8  86048810.30046  21013989.803 6  21013990.519 6
        52.000          42.000  
  24136506.674 5 126838206.916 5  98835019.82641  24136506.070 1  24136509.800 1
        38.000          17.000  
  21037005.526 8 110550226.764 8  86143055.97046  21037005.047 6  21037005.413 6
        53.000          40.000  
  24158530.345 5 126953926.845 5  98925148.90641  24158529.934 1  24158533.953 1
        35.000          17.000  
  25247662.743 5 132677381.987 5 103385236.57041  25247664.781 1  25247668.356 1
        35.000          14.000  
 05  8 12  0 59  0.0000000  0 10G03G08G11G15G18G19G21G22G26G29
  20401612.209 8 107211252.574 8  83541235.79246  20401611.649 6  20401614.497 6
        52.000          42.000  
  24228105.427 5 127319542.852 5  99210058.39641  24228104.069 1  24228107.381 1
        39.000          17.000  
  24811315.656 4 130384344.388 4         0.000           0.000           0.000  
        32.000           0.000  
  21061422.638 8 110678524.724 8  86243060.84345  21061421.662 5  21061424.849 5
        51.000          39.000  
  21789578.402 7 114505036.609 7  89224718.85045  21789578.610 5  21789580.008 5
        48.000          36.000  
  21004469.214 8 110379264.637 8  86009821.30346  21004468.171 6  21004468.827 6
        52.000          42.000  
  24156048.809 6 126940894.044 6  98915035.74441  24156047.366 1  24156050.544 1
        40.000          16.000  
  21032106.346 8 110524483.730 8  86122996.47846  21032106.257 6  21032106.752 6
        51.000          41.000  
  24170000.446 5 127014195.987 5  98972111.83641  24169999.772 1  24170002.158 1
        37.000          14.000  
  25261291.388 5 132748992.180 5 103441036.72941  25261288.639 1  25261295.629 1
        35.000          12.000  
 05  8 12  0 59 30.0000000  0 10G03G08G11G15G18G19G21G22G26G29
  20406039.495 8 107234517.982 8  83559364.67746  20406038.666 6  20406041.723 6
        51.000          42.000  
  24232866.590 5 127344566.577 5  99229557.42741  24232865.798 1  24232870.403 1
        39.000          18.000  
  24791015.767 4 130277667.415 4         0.000           0.000           0.000  
        33.000           0.000  
  21074316.984 8 110746285.323 8  86295861.30545  21074315.770 5  21074319.147 5
        51.000          39.000  
  21797803.179 8 114548255.332 8  89258395.76645  21797802.702 5  21797804.116 5
        50.000          36.000  
  20995027.307 8 110329645.528 8  85971157.06346  20995026.013 6  20995026.760 6
        52.000          42.000  
  24175610.211 6 127043690.439 6  98995136.83141  24175608.854 1  24175611.856 1
        40.000          17.000  
  21027317.152 8 110499316.753 8  86103385.85346  21027317.092 6  21027317.690 6
        51.000          41.000  
  24181577.288 5 127075037.614 5  99019520.85941  24181577.089 1  24181581.202 1
        38.000          16.000  
  25274996.217 5 132821002.691 5 103497148.73241  25274995.809 1  25274994.838 1
        35.000          12.000  
 05  8 12  1  0  0.0000000  0 10G03G08G11G15G18G19G21G22G26G29
  20410566.867 8 107258310.187 8  83577904.05646  20410566.151 6  20410569.343 6
        53.000          42.000  
  24237742.638 6 127370185.460 6  99249520.17341  24237740.618 1  24237744.521 1
        41.000          19.000  
  24770726.797 4 130171057.816 4         0.000           0.000           0.000  
        32.000           0.000  
  21087281.685 8 110814414.306 8  86348948.83445  21087280.640 5  21087283.558 5
        50.000          39.000  
  21806127.584 7 114592002.204 7  89292484.24845  21806127.050 5  21806129.269 5
        49.000          36.000  
  20985664.286 8 110280444.966 8  85932818.97046  20985663.414 6  20985664.406 6
        51.000          42.000  
  24195191.238 6 127146595.223 6  99075322.37841  24195190.455 1  24195192.030 1
        40.000          18.000  
  21022638.223 8 110474726.481 8  86084224.61046  21022637.636 6  21022638.371 6
        52.000          41.000  
  24193262.462 5 127136449.283 5  99067374.07541  24193262.453 1  24193266.757 1
        37.000          17.000  
  25288773.647 4 132893411.272 4 103553570.98641  25288773.312 1  25288776.470 1
        34.000          10.000  
 05  8 12  1  0 30.0000000  0 10G03G08G11G15G18G19G21G22G26G29
  20415194.912 8 107282628.813 8  83596853.62846  20415194.012 6  20415197.000 6
        52.000          42.000  
  24242730.463 5 127396398.049 5  99269945.56041  24242730.443 1  24242733.523 1
        39.000          18.000  
  24750452.502 4 130064516.545 4         0.000           0.000           0.000  
        33.000           0.000  
  21100315.541 7 110882910.165 7  86402322.22145  21100314.708 5  21100318.023 5
        49.000          38.000  
  21814552.367 7 114636274.976 7  89326982.52045  21814552.426 5  21814554.127 5
        49.000          37.000  
  20976381.728 8 110231664.623 8  85894808.31146  20976380.737 6  20976381.728 6
        50.000          43.000  
  24214794.309 6 127249607.157 6  99155591.39941  24214793.354 1  24214795.134 1
        41.000          17.000  
  21018068.209 8 110450713.266 8  86065513.02246  21018068.351 6  21018068.598 6
        51.000          41.000  
  24205057.482 5 127198428.596 5  99115669.65341  24205056.797 1  24205059.803 1
        37.000          18.000  
  25302628.073 4 132966215.974 4 103610301.97741  25302628.920 1  25302629.135 1
        34.000          10.000  
 05  8 12  1  1  0.0000000  0 10G03G08G11G15G18G19G21G22G26G29
  20419922.506 8 107307473.523 8  83616213.13446  20419921.733 6  20419924.731 6
        52.000          42.000  
  24247831.536 6 127423202.702 6  99290832.25041  24247830.294 1  24247833.836 1
        40.000          17.000  
  24730194.128 5 129958045.002 5         0.000           0.000           0.000  
        36.000           0.000  
  21113419.716 8 110951771.380 8  86455980.31345  21113418.714 5  21113421.854 5
        51.000          39.000  
  21823078.003 8 114681072.072 8  89361889.35145  21823077.452 5  21823078.298 5
        50.000          36.000  
  20967179.510 8 110183306.210 8  85857126.43746  20967178.410 6  20967179.373 6
        50.000          42.000  
  24234417.179 6 127352725.065 6  99235943.00041  24234416.568 1  24234417.565 1
        40.000          18.000  
  21013608.955 8 110427277.815 8  86047251.63146  21013608.594 6  21013608.867 6
        51.000          40.000  
  24216958.957 5 127260973.198 5  99164405.65241  24216957.002 1  24216962.038 1
        36.000          16.000  
  25316558.200 5 133039413.542 5 103667339.06141  25316557.427 1  25316562.459 1
        35.000          11.000  
 05  8 12  1  1 30.0000000  0 10G03G08G11G15G18G19G21G22G26G29
  20424749.639 8 107332844.058 8  83635982.38246  20424749.491 6  20424752.572 6
        51.000          42.000  
  24253044.050 5 127450598.783 5  99312179.86941  24253043.439 1  24253047.042 1
        39.000          17.000  
  24709944.611 5 129851644.379 5         0.000           0.000           0.000  
        36.000           0.000  
  21126592.554 8 111020996.369 8  86509921.85745  21126591.885 5  21126595.140 5
        51.000          38.000  
  21831701.872 8 114726391.755 8  89397203.39545  21831701.383 5  21831702.693 5
        50.000          37.000  
  20958057.675 8 110135370.908 8  85819774.25446  20958056.696 6  20958057.668 6
        51.000          42.000  
  24254059.047 6 127455947.316 6  99316375.92141  24254058.627 1  24254059.145 1
        40.000          17.000  
  21009259.514 8 110404420.465 8  86029440.72046  21009259.193 6  21009259.527 6
        51.000          41.000  
  24228968.351 5 127324080.951 5  99213580.53841  24228967.452 1  24228971.155 1
        38.000          15.000  
  25330558.223 4 133113002.008 4 103724680.72341  25330557.111 1  25330564.590 1
        31.000           9.000  
 05  8 12  1  2  0.0000000  0 10G03G08G11G15G18G19G21G22G26G29
  20429678.028 8 107358739.990 8  83656161.02946  20429677.411 6  20429680.616 6
        52.000          42.000  
  24258370.413 5 127478584.699 5  99333987.08641  24258369.383 1  24258373.340 1
        37.000          17.000  
  24689710.863 5 129745315.583 5         0.000           0.000           0.000  
        36.000           0.000  
  21139834.689 8 111090583.568 8  86564145.65445  21139833.401 5  21139837.104 5
        50.000          38.000  
  21840424.695 8 114772232.627 8  89432923.56745  21840424.317 5  21840425.942 5
        50.000          36.000  
  20949016.596 8 110087860.382 8  85782753.06846  20949015.777 6  20949016.556 6
        50.000          43.000  
  24273719.886 6 127559272.564 6  99396889.13541  24273718.056 1  24273722.861 1
        40.000          17.000  
  21005019.895 8 110382141.645 8  86012080.61846  21005019.483 6  21005019.791 6
        52.000          41.000  
  24241084.583 5 127387749.218 5  99263192.26941  24241083.228 1  24241086.059 1
        36.000          13.000  
  25344637.829 4 133186978.851 4 103782324.97641  25344638.428 1  25344640.269 1
        34.000          11.000  
 05  8 12  1  2 30.0000000  0 10G03G08G11G15G18G19G21G22G26G29
  20434705.880 8 107385160.908 8  83676748.75146  20434705.128 6  20434708.145 6
        53.000          42.000  
  24263806.078 5 127507158.923 5  99356252.73641  24263807.362 1  24263810.037 1
        39.000          16.000  
  24669493.679 5 129639060.272 5         0.000           0.000           0.000  
        36.000           0.000  
  21153145.821 8 111160531.342 8  86618650.41245  21153144.649 5  21153147.878 5
        51.000          38.000  
  21849247.378 8 114818592.812 8  89469048.38445  21849246.469 5  21849247.997 5
        51.000          36.000  
  20940057.115 8 110040776.341 8  85746064.20946  20940055.993 6  20940056.843 6
        52.000          42.000  
  24293402.518 6 127662699.144 6  99477481.23141  24293400.706 1  24293404.659 1
        41.000          17.000  
  21000890.644 8 110360441.907 8  85995171.74646  21000890.323 6  21000890.462 6
        53.000          40.000  
  24253306.808 5 127451975.766 5  99313238.94641  24253305.222 1  24253310.314 1
        39.000          15.000  
  25358786.873 4 133261341.530 4 103840269.96141  25358785.896 1  25358792.892 1
        33.000          11.000  
 05  8 12  1  3  0.0000000  0 10G03G08G11G15G18G19G21G22G26G29
  20439833.218 8 107412106.233 8  83697745.10746  20439832.712 6  20439835.462 6
        52.000          42.000  
  24269357.531 6 127536320.052 6  99378975.67841  24269356.229 1  24269359.799 1
        40.000          16.000  
  24649286.862 5 129532879.633 5         0.000           0.000           0.000  
        36.000           0.000  
  21166524.586 8 111230838.058 8  86673434.85945  21166523.477 5  21166526.885 5
        51.000          38.000  
  21858167.684 7 114865470.452 7  89505576.42345  21858166.964 5  21858168.317 5
        49.000          36.000  
  20931178.862 8 109994120.453 8  85709708.97446  20931177.701 6  20931178.478 6
        52.000          43.000  
  24313103.177 6 127766225.922 6  99558151.42941  24313101.931 1  24313104.009 1
        40.000          18.000  
  20996871.741 8 110339321.559 8  85978714.34046  20996870.943 6  20996871.326 6
        51.000          41.000  
  24265633.036 5 127516757.937 5  99363718.50141  24265632.242 1  24265637.195 1
        38.000          16.000  
  25373011.931 5 133336087.726 5 103898513.69241  25373012.643 1  25373013.107 1
        36.000          12.000  
 05  8 12  1  3 30.0000000  0 10G03G08G11G15G18G19G21G22G26G29
  20445060.752 8 107439575.537 8  83719149.75346  20445059.901 6  20445063.086 6
        52.000          42.000  
  24275017.261 5 127566066.528 5  99402154.76041  24275017.200 1  24275021.673 1
        39.000          18.000  
  24629095.771 5 129426774.501 5         0.000           0.000           0.000  
        36.000           0.000  
  21179971.811 8 111301502.049 8  86728497.69345  21179970.288 5  21179973.335 5
        51.000          38.000  
  21867186.273 7 114912864.421 7  89542506.78945  21867185.356 5  21867186.732 5
        49.000          36.000  
  20922382.507 8 109947894.023 8  85673688.38546  20922380.940 6  20922382.188 6
        51.000          43.000  
  24332822.347 6 127869851.570 6  99638898.68041  24332820.854 1  24332823.390 1
        40.000          16.000  
  20992962.747 8 110318781.147 8  85962708.84046  20992962.390 6  20992962.641 6
        52.000          41.000  
  24278068.444 5 127582093.587 5  99414629.39241  24278068.290 1  24278071.150 1
        39.000          15.000  
  25387307.444 4 133411215.095 4 103957054.49641  25387304.667 1  25387313.365 1
        32.000          12.000  
 05  8 12  1  4  0.0000000  0 10G03G08G11G15G18G19G21G22G26G29
  20450387.583 8 107467568.500 8  83740962.45346  20450386.841 6  20450389.878 6
        53.000          42.000  
  24280789.195 6 127596397.097 6  99425788.92741  24280787.886 1  24280791.235 1
        41.000          19.000  
  24608919.183 5 129320746.146 5         0.000           0.000           0.000  
        36.000           0.000  
  21193485.063 8 111372521.720 8  86783837.69945  21193484.620 5  21193488.294 5
        50.000          39.000  
  21876302.507 7 114960772.910 7  89579838.07945  21876302.138 5  21876304.055 5
        49.000          36.000  
  20913667.852 8 109902098.828 8  85638003.81746  20913666.521 6  20913667.201 6
        51.000          42.000  
  24352559.548 5 127973574.562 5  99719721.82141  24352558.487 1  24352562.250 1
        37.000          14.000  
  20989164.527 8 110298821.119 8  85947155.58046  20989164.185 6  20989164.385 6
        53.000          41.000  
  24290604.048 5 127647979.832 5  99465969.35041  24290602.980 1  24290608.660 1
        38.000          16.000  
  25401678.337 5 133486721.169 5 104015890.43741  25401676.995 1  25401682.836 1
        35.000          11.000  
 05  8 12  1  4 30.0000000  0 10G03G08G11G15G18G19G21G22G26G29
  20455813.416 8 107496084.712 8  83763182.87846  20455813.200 6  20455816.315 6
        52.000          42.000  
  24286671.486 6 127627310.242 6  99449877.09941  24286670.347 1  24286674.192 1
        40.000          19.000  
  24588756.569 5 129214795.883 5         0.000           0.000           0.000  
        36.000           0.000  
  21207067.750 8 111443895.367 8  86839453.52345  21207066.782 5  21207070.150 5
        50.000          39.000  
  21885516.969 7 115009194.040 7  89617568.84145  21885516.439 5  21885518.470 5
        48.000          36.000  
  20905035.654 8 109856736.159 8  85602656.28246  20905034.222 6  20905035.251 6
        51.000          43.000  
  24372316.665 5 128077393.408 5  99800619.59741  24372314.762 1  24372317.109 1
        39.000          17.000  
  20985476.645 8 110279441.625 8  85932054.69446  20985476.155 6  20985476.567 6
        51.000          41.000  
  24303247.099 6 127714414.463 6  99517736.63341  24303247.888 1  24303252.353 1
        41.000          17.000  
  25416116.619 5 133562603.380 5 104075019.42441  25416115.145 1  25416119.716 1
        35.000           7.000  
 05  8 12  1  5  0.0000000  0 10G03G08G11G15G18G19G21G22G26G29
  20461339.775 8 107525123.625 8  83785810.60446  20461339.138 6  20461342.167 6
        52.000          42.000  
  24292665.151 6 127658804.322 6  99474417.95941  24292666.107 1  24292667.064 1
        41.000          18.000  
  24568610.159 5 129108925.113 5         0.000           0.000           0.000  
        35.000           0.000  
  21220716.775 8 111515621.172 8  86895343.76245  21220715.748 5  21220718.851 5
        50.000          38.000  
  21894828.987 8 115058125.922 8  89655697.57145  21894828.114 5  21894829.149 5
        50.000          36.000  
  20896485.950 8 109811807.676 8  85567647.08346  20896484.768 6  20896485.492 6
        51.000          43.000  
  24392091.967 5 128181307.027 5  99881591.24041  24392090.951 1  24392092.029 1
        39.000          18.000  
  20981899.215 8 110260643.168 8  85917406.55446  20981899.050 6  20981899.444 6
        52.000          41.000  
  24315992.081 5 127781394.874 5  99569929.14141  24315991.805 1  24315997.066 1
        38.000          17.000  
  25430629.728 5 133638859.171 5 104134439.49941  25430622.927 1  25430634.681 1
        35.000           9.000  
 05  8 12  1  5 30.0000000  0 10G03G08G11G15G18G19G21G22G26G29
  20466965.413 8 107554684.701 8  83808845.21046  20466964.533 6  20466967.514 6
        52.000          42.000  
  24298767.015 5 127690878.065 5  99499410.51041  24298766.099 1  24298769.588 1
        38.000          17.000  
  24548479.653 5 129003134.993 5         0.000           0.000           0.000  
        36.000           0.000  
  21234433.011 8 111587697.573 8  86951507.19245  21234431.998 5  21234434.707 5
        51.000          38.000  
  21904237.067 7 115107566.489 7  89694222.67945  21904236.089 5  21904238.030 5
        48.000          36.000  
  20888019.059 8 109767315.082 8  85532977.52646  20888017.832 6  20888018.960 6
        51.000          43.000  
  24411883.901 6 128285313.624 6  99962635.28141  24411883.172 1  24411884.397 1
        40.000          17.000  
  20978433.402 8 110242425.972 8  85903211.34546  20978432.559 6  20978432.892 6
        53.000          41.000  
  24328843.009 5 127848918.711 5  99622545.06641  24328839.683 1  24328845.509 1
        37.000          14.000  
  25445207.626 4 133715486.511 4 104194149.13641  25445196.022 1  25445219.347 1
        32.000           4.000  
 05  8 12  1  6  0.0000000  0 10G03G08G11G15G18G19G21G22G26G29
  20472689.887 8 107584767.669 8  83832286.47746  20472689.285 6  20472692.230 6
        53.000          42.000  
  24304981.917 6 127723529.910 6  99524853.49241  24304980.297 1  24304981.780 1
        40.000          18.000  
  24528364.081 5 128897426.720 5         0.000           0.000           0.000  
        36.000           0.000  
  21248214.623 8 111660123.185 8  87007942.71945  21248213.388 5  21248216.856 5
        50.000          38.000  
  21913741.464 7 115157514.265 7  89733143.03945  21913740.949 5  21913742.781 5
        48.000          35.000  
  20879635.933 8 109723259.785 8  85498648.73146  20879634.602 6  20879635.459 6
        51.000          43.000  
  24431692.635 5 128389412.138 5 100043751.01641  24431690.467 1  24431693.380 1
        38.000          17.000  
  20975076.676 8 110224790.274 8  85889469.25846  20975076.467 6  20975076.617 6
        51.000          41.000  
  24341795.521 6 127916983.572 6  99675582.64941  24341794.319 1  24341797.832 1
        40.000          14.000  
  25459861.203 4 133792482.693 4         0.000           0.000           0.000  
        31.000           0.000  
 05  8 12  1  6 30.0000000  0 10G03G08G11G15G18G19G21G22G26G29
  20478513.824 8 107615371.866 8  83856133.89646  20478513.160 6  20478516.018 6
        53.000          42.000  
  24311303.709 5 127756758.199 5  99550745.68741  24311303.294 1  24311310.489 1
        39.000          19.000  
  24508262.715 5 128791801.436 5 100357255.69441  24508264.562 1  24508265.055 1
        35.000          13.000  
  21262062.973 8 111732896.434 8  87064649.15345  21262062.393 5  21262065.041 5
        51.000          38.000  
  21923342.370 8 115207967.671 8  89772457.37545  21923341.929 5  21923343.519 5
        50.000          36.000  
  20871335.629 8 109679643.297 8  85464661.86146  20871334.526 6  20871335.760 6
        52.000          43.000  
  24451516.761 5 128493601.269 5 100124937.27241  24451515.593 1  24451518.948 1
        38.000          16.000  
  20971831.626 8 110207736.393 8  85876180.54146  20971831.173 6  20971831.540 6
        52.000          41.000  
  24354847.642 5 127985586.690 5  99729039.62541  24354846.269 1  24354851.765 1
        38.000          14.000  
  25474583.003 4 133869845.091 4         0.000           0.000           0.000  
        33.000           0.000  
 05  8 12  1  7  0.0000000  0 10G03G08G11G15G18G19G21G22G26G29
  20484436.393 8 107646496.573 8  83880386.90846  20484435.901 6  20484438.856 6
        51.000          42.000  
  24317737.962 6 127790561.271 6  99577085.73241  24317736.794 1  24317739.892 1
        40.000          17.000  
  24488179.979 5 128686260.297 5 100275015.86941  24488178.471 1  24488183.055 1
        36.000          12.000  
  21275977.120 8 111806015.672 8  87121625.17945  21275975.890 5  21275979.231 5
        50.000          38.000  
  21933039.589 8 115258924.783 8  89812164.21045  21933038.914 5  21933040.751 5
        50.000          36.000  
  20863119.518 8 109636467.003 8  85431018.00146  20863118.279 6  20863119.272 6
        52.000          43.000  
  24471362.164 5 128597879.382 5 100206192.94641  24471362.567 1  24471362.963 1
        38.000          15.000  
  20968697.318 8 110191264.618 8  85863345.40146  20968696.688 6  20968697.084 6
        52.000          41.000  
  24368005.421 5 128054725.458 5  99782913.93741  24368002.527 1  24368006.740 1
        38.000          16.000  
  25489372.134 4 133947571.478 4         0.000           0.000           0.000  
        31.000           0.000  
 05  8 12  1  7 30.0000000  0 10G03G08G11G15G18G19G21G22G26G29
  20490458.155 8 107678141.220 8  83905045.06746  20490457.535 6  20490460.637 6
        51.000          42.000  
  24324279.309 5 127824937.922 5  99603872.72341  24324277.321 1  24324281.325 1
        38.000          17.000  
  24468113.155 5 128580804.698 5 100192842.68441  24468113.114 1  24468114.128 1
        37.000          13.000  
  21289957.326 8 111879479.080 8  87178869.38545  21289955.790 5  21289958.686 5
        51.000          38.000  
  21942831.973 8 115310383.987 8  89852262.28945  21942831.140 5  21942832.744 5
        51.000          35.000  
  20854987.261 7 109593732.403 7  85397718.31346  20854986.165 6  20854987.147 6
        49.000          43.000  
  24491220.730 5 128702245.618 5 100287517.24441  24491221.949 1  24491224.237 1
        37.000          15.000  
  20965673.334 8 110175375.405 8  85850964.22146  20965673.056 6  20965673.280 6
        51.000          41.000  
  24381265.532 6 128124397.440 6  99837203.78641  24381264.815 1  24381267.797 1
        41.000          13.000  
  25504233.433 4 134025658.805 4         0.000           0.000           0.000  
        31.000           0.000  
 05  8 12  1  8  0.0000000  0 10G03G08G11G15G18G19G21G22G26G29
  20496578.679 8 107710305.252 8  83930107.94346  20496578.054 6  20496581.120 6
        51.000          42.000  
  24330929.283 5 127859886.118 5  99631105.06341  24330929.512 1  24330933.705 1
        39.000          18.000  
  24448061.758 5 128475435.836 5 100110737.10641  24448062.296 1  24448062.458 1
        38.000          14.000  
  21304001.072 8 111953285.272 8  87236380.70045  21304000.579 5  21304003.992 5
        50.000          37.000  
  21952719.582 7 115362343.426 7  89892750.16645  21952718.731 5  21952720.471 5
        49.000          36.000  
  20846940.029 8 109551441.085 8  85364764.04446  20846938.535 6  20846939.418 6
        51.000          43.000  
  24511096.971 5 128806697.927 5 100368908.65241  24511097.824 1  24511098.970 1
        35.000          14.000  
  20962760.675 8 110160068.742 8  85839036.97246  20962760.147 6  20962760.474 6
        52.000          41.000  
  24394622.427 5 128194599.963 5  99891907.03141  24394620.495 1  24394624.520 1
        38.000          15.000  
  25519161.917 4 134104105.042 4         0.000           0.000           0.000  
        33.000           0.000  
 05  8 12  1  8 30.0000000  0 10G03G08G11G15G18G19G21G22G26G29
  20502797.898 8 107742988.259 8  83955575.22246  20502797.461 6  20502800.539 6
        52.000          42.000  
  24337687.043 5 127895404.394 5  99658781.64141  24337686.573 1  24337689.437 1
        36.000          17.000  
  24428027.129 5 128370154.931 5 100028700.07341  24428025.913 1  24428029.078 1
        38.000          13.000  
  21318111.395 7 112027432.403 7  87294157.67445  21318110.584 5  21318113.495 5
        49.000          37.000  
  21962701.717 7 115414801.401 7  89933626.50945  21962701.079 5  21962703.344 5
        49.000          36.000  
  20838976.990 8 109509594.732 8  85332156.49646  20838975.492 6  20838976.342 6
        53.000          43.000  
  24530992.858 5 128911235.436 5 100450366.38841  24530991.367 1  24530991.438 1
        38.000          13.000  
  20959959.011 8 110145344.867 8  85827563.84546  20959958.413 6  20959958.553 6
        53.000          41.000  
  24408082.151 5 128265330.677 5  99947021.90841  24408081.751 1  24408086.352 1
        39.000          14.000  
  25534157.160 4 134182907.618 4         0.000           0.000           0.000  
        31.000           0.000  
 05  8 12  1  9  0.0000000  0  9G03G08G11G15G18G19G21G22G26
  20509116.472 8 107776189.717 8  83981446.48146  20509115.622 6  20509118.545 6
        53.000          42.000  
  24344554.718 5 127931490.946 5  99686901.05641  24344553.828 1  24344556.393 1
        38.000          15.000  
  24408009.610 5 128264963.322 5  99946732.65041  24408007.927 1  24408011.071 1
        38.000          14.000  
  21332285.272 8 112101918.677 8  87352198.91945  21332284.555 5  21332287.695 5
        50.000          37.000  
  21972779.359 8 115467755.539 8  89974889.47245  21972777.968 5  21972779.766 5
        50.000          36.000  
  20831098.562 8 109468194.497 8  85299896.57646  20831097.169 6  20831098.114 6
        51.000          43.000  
  24550902.452 5 129015857.204 5 100531889.79341  24550899.602 1  24550902.734 1
        37.000          15.000  
  20957267.820 8 110131203.861 8  85816544.88446  20957267.609 6  20957267.817 6
        53.000          41.000  
  24421642.777 5 128336586.590 5 100002545.98841  24421641.997 1  24421644.748 1
        39.000          14.000  
 05  8 12  1  9 30.0000000  0  9G03G08G11G15G18G19G21G22G26
  20515532.794 8 107809908.778 8  84007721.07346  20515532.144 6  20515535.026 6
        52.000          42.000  
  24351529.816 5 127968143.692 5  99715461.64241  24351529.062 1  24351532.443 1
        39.000          15.000  
  24388010.590 5 128159862.062 5  99864835.59241  24388008.070 1  24388012.972 1
        39.000          16.000  
  21346524.632 8 112176742.743 8  87410503.37245  21346523.194 5  21346526.315 5
        50.000          37.000  
  21982949.924 8 115521204.092 8  90016537.70245  21982948.970 5  21982950.922 5
        50.000          36.000  
  20823305.602 8 109427241.919 8  85267985.48146  20823304.293 6  20823304.999 6
        52.000          44.000  
  24570826.085 5 129120561.256 5 100613477.35741  24570824.283 1  24570824.985 1
        38.000          15.000  
  20954687.759 8 110117645.910 8  85805980.25846  20954687.461 6  20954687.765 6
        53.000          41.000  
  24435300.904 5 128408365.272 5 100058477.52541  24435301.585 1  24435303.034 1
        38.000          15.000  
 05  8 12  1 10  0.0000000  0  9G03G08G11G15G18G19G21G22G26
  20522047.271 8 107844144.937 8  84034398.59346  20522046.982 6  20522049.809 6
        53.000          42.000  
  24358613.012 5 128005360.934 5  99744462.07541  24358610.900 1  24358614.783 1
        39.000          19.000  
  24368028.381 5 128054852.948 5  99783010.33141  24368026.181 1  24368029.474 1
        39.000          17.000  
  21360826.737 8 112251902.939 8  87469069.74845  21360825.635 5  21360828.790 5
        51.000          37.000  
  21993214.054 7 115575145.036 7  90058569.60745  21993213.721 5  21993214.954 5
        48.000          36.000  
  20815597.686 8 109386738.792 8  85236424.60746  20815596.739 6  20815597.592 6
        52.000          43.000  
  24590765.888 5 129225346.490 5 100695128.19441  24590763.730 1  24590764.730 1
        36.000          13.000  
  20952218.930 8 110104671.106 8  85795870.02646  20952218.441 6  20952218.744 6
        52.000          41.000  
  24449059.883 5 128480664.053 5 100114814.18341  24449059.753 1  24449062.363 1
        37.000          12.000  
 05  8 12  1 10 30.0000000  0  9G03G08G11G15G18G19G21G22G26
  20528660.969 8 107878897.524 8  84061478.51646  20528660.155 6  20528663.085 6
        50.000          42.000  
  24365799.748 5 128043141.600 5  99773901.54741  24365800.626 1  24365804.368 1
        38.000          18.000  
  24348062.340 5 127949936.263 5  99701257.10641  24348060.920 1  24348065.262 1
        39.000          16.000  
  21375192.301 8 112327397.579 8  87527896.73645  21375191.886 5  21375194.649 5
        50.000          37.000  
  22003572.379 7 115629577.155 7  90100984.24045  22003571.661 5  22003573.617 5
        49.000          36.000  
  20807975.956 8 109346686.242 8  85205214.82746  20807974.973 6  20807975.827 6
        52.000          43.000  
  24610718.912 5 129330211.095 5 100776840.82441  24610718.666 1  24610721.473 1
        36.000          13.000  
  20949861.063 8 110092279.716 8  85786214.40546  20949860.532 6  20949860.998 6
        52.000          41.000  
  24462915.343 5 128553480.371 5 100171554.22841  24462914.094 1  24462917.355 1
        38.000          13.000  
 05  8 12  1 11  0.0000000  0  9G03G08G11G15G18G19G21G22G26
  20535372.154 8 107914165.901 8  84088960.36646  20535371.473 6  20535374.620 6
        53.000          42.000  
  24373097.899 5 128081483.657 5  99803778.49641  24373097.067 1  24373099.364 1
        39.000          18.000  
  24328114.822 5 127845113.924 5  99619577.43541  24328114.487 1  24328115.912 1
        38.000          16.000  
  21389622.268 8 112403225.119 8  87586983.11745  21389621.334 5  21389624.662 5
        50.000          37.000  
  22014023.456 8 115684498.114 8  90143779.80845  22014022.383 5  22014024.222 5
        50.000          35.000  
  20800440.542 8 109307085.709 8  85174357.27346  20800439.240 6  20800440.133 6
        51.000          43.000  
  24630691.826 5 129435154.481 5 100858614.84941  24630691.357 1  24630692.707 1
        37.000          13.000  
  20947613.760 8 110080471.891 8  85777013.51546  20947613.461 6  20947613.928 6
        52.000          41.000  
  24476870.318 5 128626811.214 5 100228695.21541  24476868.641 1  24476873.332 1
        39.000          13.000  
 05  8 12  1 11 30.0000000  0  9G03G08G11G15G18G19G21G22G26
  20542181.942 8 107949949.434 8  84116843.63746  20542180.951 6  20542183.959 6
        52.000          42.000  
  24380499.407 5 128120385.245 5  99834091.43941  24380498.608 1  24380502.508 1
        39.000          17.000  
  24308186.360 5 127740386.940 5  99537972.00141  24308186.168 1  24308190.519 1
        38.000          15.000  
  21404114.827 8 112479383.884 8  87646327.59645  21404113.651 5  21404117.313 5
        50.000          37.000  
  22024567.489 8 115739905.609 8  90186954.48545  22024566.753 5  22024568.199 5
        50.000          36.000  
  20792990.945 8 109267938.937 8  85143853.30346  20792990.026 6  20792990.688 6
        52.000          43.000  
  24650677.121 5 129540175.683 5 100940449.47941  24650673.420 1  24650679.072 1
        38.000          14.000  
  20945477.899 8 110069247.496 8  85768267.23846  20945477.558 6  20945478.074 6
        52.000          42.000  
  24490921.308 5 128700654.206 5 100286235.13741  24490923.049 1  24490924.509 1
        37.000          14.000  
 05  8 12  1 12  0.0000000  0  9G03G08G11G15G18G19G21G22G26
  20549088.755 8 107986247.422 8  84145127.79146  20549088.342 6  20549090.929 6
        52.000          42.000  
  24388009.122 5 128159844.719 5  99864839.04741  24388006.036 1  24388011.491 1
        37.000          15.000  
  24288277.012 5 127635756.691 5  99456441.98641  24288273.819 1  24288278.610 1
        38.000          15.000  
  21418670.264 8 112555872.178 8  87705928.84445  21418669.041 5  21418672.271 5
        50.000          37.000  
  22035203.235 8 115795798.677 8  90230507.51845  22035202.483 5  22035204.011 5
        50.000          35.000  
  20785628.053 8 109229247.103 8  85113703.82346  20785626.897 6  20785627.978 6
        52.000          43.000  
  24670673.056 5 129645272.354 5 101022343.03141  24670671.272 1  24670676.089 1
        35.000          13.000  
  20943452.844 8 110058606.328 8  85759975.42846  20943452.543 6  20943453.016 6
        53.000          42.000  
  24505069.398 5 128775006.449 5 100344171.97041  24505070.506 1  24505075.637 1
        39.000          15.000  
 05  8 12  1 12 30.0000000  0  9G03G08G11G15G18G19G21G22G26
  20556093.596 8 108023059.096 8  84173812.22046  20556093.051 6  20556096.239 6
        53.000          42.000  
  24395623.859 5 128199859.959 5  99896019.77141  24395623.934 1  24395628.231 1
        39.000          17.000  
  24268384.895 5 127531224.341 5  99374988.24241  24268384.156 1  24268386.274 1
        38.000          15.000  
  21433287.764 8 112632688.461 8  87765785.68945  21433286.943 5  21433289.601 5
        50.000          37.000  
  22045930.732 7 115852174.883 7  90274437.04045  22045929.957 5  22045932.118 5
        48.000          35.000  
  20778352.256 8 109191011.486 8  85083909.84446  20778351.161 6  20778351.958 6
        52.000          43.000  
  24690689.292 5 129750443.451 5 101104294.48541  24690687.304 1  24690688.504 1
        37.000          14.000  
  20941539.218 8 110048548.928 8  85752138.51546  20941538.781 6  20941539.109 6
        52.000          41.000  
  24519316.814 6 128849865.350 6 100402503.53141  24519316.874 1  24519317.876 1
        41.000          15.000  
 05  8 12  1 13  0.0000000  0  9G03G08G11G15G18G19G21G22G26
  20563196.544 8 108060383.779 8  84202896.39646  20563195.848 6  20563198.750 6
        53.000          42.000  
  24403344.629 6 128240429.187 6  99927632.12041  24403343.735 1  24403346.992 1
        41.000          19.000  
  24248511.341 5 127426791.095 5  99293611.72141  24248510.877 1  24248511.972 1
        38.000          16.000  
  21447967.485 8 112709830.913 8  87825896.67345  21447966.275 5  21447969.933 5
        50.000          37.000  
  22056751.157 7 115909032.562 7  90318741.73645  22056750.247 5  22056751.696 5
        49.000          35.000  
  20771163.550 8 109153233.796 8  85054472.69046  20771162.258 6  20771162.897 6
        51.000          43.000  
  24710716.893 5 129855688.155 5 101186303.30541  24710714.692 1  24710716.642 1
        38.000          15.000  
  20939735.610 8 110039074.901 8  85744756.16846  20939735.760 6  20939736.258 6
        52.000          41.000  
  24533656.592 6 128925228.044 6 100461227.73441  24533658.236 1  24533660.642 1
        40.000          17.000  
 05  8 12  1 13 30.0000000  0  9G03G08G11G15G18G19G21G22G26
  20570396.895 8 108098220.911 8  84232379.87846  20570396.143 6  20570398.998 6
        51.000          42.000  
  24411168.414 6 128281550.494 6  99959674.73241  24411167.963 1  24411171.605 1
        40.000          19.000  
  24228657.650 5 127322458.544 5  99212313.69141  24228659.690 1  24228657.114 1
        38.000          14.000  
  21462709.056 7 112787298.027 7  87886260.65745  21462707.942 5  21462711.199 5
        49.000          37.000  
  22067661.825 7 115966369.525 7  90363419.87545  22067661.260 5  22067662.664 5
        47.000          35.000  
  20764061.731 8 109115915.698 8  85025393.65946  20764060.730 6  20764061.721 6
        50.000          43.000  
  24730757.345 5 129961005.127 5 101268368.42841  24730757.049 1  24730757.904 1
        37.000          14.000  
  20938044.188 8 110030184.428 8  85737828.53046  20938044.140 6  20938044.329 6
        52.000          41.000  
  24548092.733 5 129001091.975 5 100520342.42341  24548090.386 1  24548093.967 1
        37.000          16.000  
 05  8 12  1 14  0.0000000  0 10G03G08G11G14G15G18G19G21G22G26
  20577694.335 8 108136569.407 8  84262261.82046  20577693.617 6  20577696.511 6
        53.000          42.000  
  24419098.783 5 128323222.168 5  99992146.18541  24419097.797 1  24419102.245 1
        39.000          19.000  
  24208822.942 5 127218227.496 5  99131094.72341  24208821.736 1  24208824.283 1
        38.000          14.000  
  25341839.840 4 133172278.538 4         0.000           0.000           0.000  
        34.000           0.000  
  21477511.910 7 112865088.120 7  87946876.30745  21477511.003 5  21477514.157 5
        49.000          36.000  
  22078662.927 7 116024183.307 7  90408469.58745  22078662.455 4  22078664.317 5
        49.000          35.000  
  20757048.489 8 109079058.017 8  84996673.39046  20757047.176 6  20757047.790 6
        52.000          44.000  
  24750811.394 5 130066392.557 5 101350488.53541  24750812.120 1  24750815.859 1
        38.000          13.000  
  20936463.751 8 110021877.641 8  85731355.71846  20936463.204 6  20936463.557 6
        52.000          41.000  
  24562624.862 5 129077454.229 5 100579845.44441  24562623.832 1  24562627.836 1
        39.000          17.000  
 05  8 12  1 14 30.0000000  0 10G03G08G11G14G15G18G19G21G22G26
  20585088.776 8 108175428.717 8  84292541.79846  20585088.350 6  20585091.397 6
        53.000          42.000  
  24427133.516 6 128365441.928 6 100025044.69141  24427133.356 1  24427136.399 1
        40.000          19.000  
  24189008.284 5 127114099.242 5  99049955.88841  24189006.647 1  24189010.088 1
        39.000          14.000  
  25321191.719 4 133063793.360 4         0.000           0.000           0.000  
        34.000           0.000  
  21492375.599 7 112943199.617 7  88007742.40245  21492375.141 5  21492378.555 5
        49.000          36.000  
  22089755.423 7 116082472.720 7  90453889.90545  22089755.280 5  22089756.081 5
        49.000          35.000  
  20750121.952 8 109042662.007 8  84968312.87146  20750121.002 6  20750121.872 6
        51.000          43.000  
  24770878.789 5 130171849.470 5 101432662.66441  24770878.731 1  24770878.976 1
        37.000          13.000  
  20934994.151 8 110014154.284 8  85725337.52746  20934993.623 6  20934993.837 6
        52.000          41.000  
  24577250.449 5 129154312.136 5 100639734.66841  24577249.433 1  24577250.864 1
        39.000          16.000  
 05  8 12  1 15  0.0000000  0 10G03G08G11G14G15G18G19G21G22G26
  20592580.301 8 108214797.983 8  84323219.14246  20592579.907 6  20592582.972 6
        52.000          42.000  
  24435270.300 5 128408208.068 5 100058368.93041  24435269.989 1  24435275.086 1
        39.000          18.000  
  24169212.788 5 127010075.163 5  98968898.14641  24169211.300 1  24169210.239 1
        39.000          14.000  
  25300552.796 5 132955319.444 5         0.000           0.000           0.000  
        35.000           0.000  
  21507300.707 7 113021630.766 7  88068857.56845  21507299.763 5  21507303.407 5
        49.000          36.000  
  22100937.641 7 116141235.688 7  90499679.22645  22100936.997 5  22100938.339 5
        49.000          35.000  
  20743284.496 8 109006729.960 8  84940313.87946  20743283.639 6  20743284.282 6
        52.000          44.000  
  24790958.048 4 130277374.404 4 101514889.88141  24790958.788 1  24790960.694 1
        34.000          12.000  
  20933634.410 8 110007014.014 8  85719773.69246  20933634.703 6  20933635.076 6
        53.000          41.000  
  24591970.192 5 129231662.773 5 100700007.83541  24591968.895 1  24591975.015 1
        37.000          15.000  
 05  8 12  1 15 30.0000000  0 10G03G08G11G14G15G18G19G21G22G26
  20600169.130 8 108254676.483 8  84354293.29146  20600168.621 6  20600171.651 6
        53.000          42.000  
  24443513.392 5 128451518.536 5 100092117.35641  24443514.035 1  24443515.304 1
        39.000          17.000  
  24149437.009 5 126906156.491 5  98887922.55541  24149437.092 1  24149435.016 1
        38.000          13.000  
  25279911.812 5 132846859.534 5         0.000           0.000           0.000  
        35.000           0.000  
  21522286.732 8 113100379.822 8  88130220.46845  21522285.778 5  21522288.203 5
        50.000          36.000  
  22112209.825 8 116200469.680 8  90545835.58744  22112208.745 5  22112210.403 4
        50.000          34.000  
  20736535.050 8 108971262.653 8  84912677.01546  20736534.104 6  20736535.079 6
        51.000          44.000  
  24811053.334 5 130382966.256 5 101597169.18941  24811051.611 1  24811052.890 1
        36.000          12.000  
  20932387.507 8 110000457.074 8  85714664.39846  20932387.109 6  20932387.237 6
        51.000          41.000  
  24606783.968 5 129309503.582 5 100760663.01441  24606781.506 1  24606784.223 1
        38.000          13.000  
 05  8 12  1 16  0.0000000  0 10G03G08G11G14G15G18G19G21G22G26
  20607854.853 8 108295063.328 8  84385763.54646  20607854.040 6  20607856.929 6
        53.000          42.000  
  24451858.096 6 128495371.176 6 100126288.19141  24451857.978 1  24451860.343 1
        40.000          17.000  
  24129681.867 5 126802344.722 5  98807030.29641  24129683.736 1  24129681.934 1
        38.000          13.000  
  25259277.782 5 132738416.233 5         0.000           0.000           0.000  
        35.000           0.000  
  21537332.187 8 113179445.282 8  88191829.91745  21537331.298 5  21537334.428 5
        50.000          36.000  
  22123571.390 8 116260173.227 8  90592357.82945  22123570.544 5  22123571.354 5
        50.000          35.000  
  20729874.827 8 108936261.435 8  84885403.34646  20729873.706 6  20729874.628 6
        52.000          43.000  
  24831158.868 5 130488623.721 5 101679499.63941  24831161.085 1  24831164.370 1
        35.000          10.000  
  20931250.766 8 109994483.398 8  85710009.59546  20931250.325 6  20931250.600 6
        53.000          41.000  
  24621688.007 5 129387831.467 5 100821697.74941  24621687.688 1  24621689.844 1
        37.000          14.000  
 05  8 12  1 16 30.0000000  0 10G03G08G11G14G15G18G19G21G22G26
  20615636.446 8 108335957.803 8  84417629.34846  20615635.786 6  20615638.872 6
        52.000          42.000  
  24460304.570 5 128539764.416 5 100160880.36841  24460304.280 1  24460307.204 1
        38.000          17.000  
  24109948.612 5 126698640.995 5  98726222.23241  24109947.701 1  24109947.809 1
        38.000          15.000  
  25238643.078 5 132629992.718 5         0.000           0.000           0.000  
        35.000           0.000  
  21552437.167 7 113258825.517 7  88253684.63245  21552436.149 5  21552440.256 5
        48.000          36.000  
  22135020.906 7 116320344.029 7  90639244.16445  22135020.295 5  22135022.062 5
        49.000          35.000  
  20723303.377 8 108901727.687 8  84858493.94446  20723302.294 6  20723302.969 6
        52.000          44.000  
  24851279.156 5 130594345.505 5 101761880.23941  24851278.665 1  24851278.865 1
        36.000          10.000  
  20930224.894 8 109989092.782 8  85705809.12746  20930224.451 6  20930224.751 6
        52.000          41.000  
  24636685.092 5 129466643.677 5 100883109.85841  24636684.810 1  24636687.525 1
        38.000          15.000  
 05  8 12  1 17  0.0000000  0 10G03G08G11G14G15G18G19G21G22G26
  20623515.197 8 108377358.984 8  84449889.99546  20623514.349 6  20623517.450 6
        52.000          42.000  
  24468854.845 5 128584695.996 5 100195891.99041  24468854.003 1  24468858.109 1
        39.000          17.000  
  24090234.427 5 126595046.329 5  98645499.17041  24090231.729 1  24090236.677 1
        38.000          15.000  
  25218018.153 5 132521591.901 5         0.000           0.000           0.000  
        36.000           0.000  
  21567602.673 7 113338519.007 7  88315783.45345  21567601.951 5  21567604.891 5
        48.000          36.000  
  22146559.609 7 116380979.954 7  90686492.94045  22146558.881 5  22146560.313 5
        49.000          35.000  
  20716820.811 8 108867663.168 8  84831950.16246  20716819.843 6  20716820.561 6
        51.000          44.000  
  24871406.440 5 130700130.520 5 101844310.11141  24871405.222 1  24871411.638 1
        36.000          11.000  
  20929310.055 8 109984284.976 8  85702062.80046  20929309.529 6  20929309.789 6
        51.000          42.000  
  24651775.381 5 129545937.588 5 100944897.26141  24651774.610 1  24651776.892 1
        39.000          17.000  
 05  8 12  1 17 30.0000000  0 10G03G08G11G14G15G18G19G21G22G26
  20631489.683 8 108419266.075 8  84482544.85246  20631488.909 6  20631491.934 6
        51.000          42.000  
  24477507.347 5 128630163.741 5 100231321.40641  24477506.700 1  24477510.017 1
        38.000          18.000  
  24070541.727 5 126491562.288 5  98564862.33541  24070542.554 1  24070543.689 1
        38.000          16.000  
  25197393.183 5 132413216.567 5         0.000           0.000           0.000  
        35.000           0.000  
  21582828.062 8 113418524.131 8  88378125.11745  21582826.629 5  21582829.486 5
        50.000          36.000  
  22158186.822 7 116442079.371 7  90734102.87345  22158185.933 5  22158187.601 5
        49.000          35.000  
  20710428.686 8 108834068.680 8  84805772.64646  20710427.222 6  20710427.843 6
        52.000          44.000  
  24891550.915 5 130805977.171 5 101926787.96541  24891551.708 1  24891552.445 1
        35.000          11.000  
  20928506.065 8 109980059.760 8  85698770.43646  20928505.646 6  20928505.869 6
        52.000          41.000  
  24666954.463 5 129625710.015 5 101007057.59941  24666955.067 1  24666957.903 1
        36.000          15.000  
 05  8 12  1 18  0.0000000  0 10G03G08G11G14G15G18G19G21G22G26
  20639560.001 8 108461678.114 8  84515593.19146  20639559.605 6  20639562.613 6
        51.000          42.000  
  24486262.542 6 128676165.923 6 100267167.23841  24486262.280 1  24486266.243 1
        41.000          19.000  
  24050870.500 5 126388189.947 5  98484312.49541  24050871.225 1  24050872.684 1
        39.000          16.000  
  25176775.856 5 132304869.633 5         0.000           0.000           0.000  
        36.000           0.000  
  21598109.986 7 113498839.159 7  88440708.24345  21598109.258 5  21598113.011 5
        48.000          36.000  
  22169901.666 7 116503640.240 7  90782072.38445  22169900.730 4  22169902.509 5
        49.000          35.000  
  20704125.424 8 108800945.659 8  84779962.50346  20704124.035 6  20704124.692 6
        51.000          44.000  
  24911703.769 5 130911884.289 5 102009312.93441  24911700.580 1  24911706.869 1
        35.000          10.000  
  20927812.327 8 109976416.437 8  85695931.49046  20927812.193 6  20927812.678 6
        51.000          41.000  
  24682225.804 5 129705958.311 5 101069588.58741  24682226.107 1  24682228.959 1
        39.000          16.000  
 05  8 12  1 18 30.0000000  0 11G03G08G11G14G15G18G19G21G22G26G28
  20647727.201 8 108504594.543 8  84549034.55546  20647726.412 6  20647729.335 6
        53.000          42.000  
  24495117.256 6 128722700.044 6 100303427.64141  24495116.847 1  24495120.702 1
        41.000          19.000  
  24031222.893 6 126284930.731 6  98403850.80141  24031221.149 1  24031222.885 1
        41.000          18.000  
  25156163.479 5 132196554.032 5         0.000           0.000           0.000  
        35.000           0.000  
  21613453.120 7 113579462.505 7  88503531.62145  21613451.817 5  21613455.544 5
        49.000          36.000  
  22181703.150 7 116565660.157 7  90830399.60045  22181702.518 4  22181703.961 5
        48.000          35.000  
  20697911.550 8 108768295.637 8  84754520.93146  20697910.815 6  20697911.839 6
        50.000          44.000  
  24931868.840 5 131017850.384 5 102091883.87741  24931868.400 1  24931868.706 1
        37.000          10.000  
  20927229.945 8 109973355.573 8  85693546.40746  20927229.576 6  20927229.972 6
        53.000          41.000  
  24697585.077 5 129786679.663 5 101132488.37441  24697586.440 1  24697590.623 1
        37.000          16.000  
  25370764.241 4 133324263.281 4         0.000           0.000           0.000  
        33.000           0.000  
 05  8 12  1 19  0.0000000  0 11G03G08G11G14G15G18G19G21G22G26G28
  20655989.178 8 108548014.038 8  84582867.92246  20655988.822 6  20655991.735 6
        53.000          42.000  
  24504072.794 6 128769764.100 6 100340100.92841  24504071.896 1  24504077.590 1
        41.000          19.000  
  24011594.307 6 126181785.872 6  98323478.20541  24011592.584 1  24011596.349 1
        41.000          19.000  
  25135558.458 5 132088272.594 5         0.000           0.000           0.000  
        35.000           0.000  
  21628853.622 7 113660392.405 7  88566593.86945  21628852.474 5  21628855.483 5
        49.000          36.000  
  22193591.975 7 116628137.310 7  90879083.08845  22193591.372 5  22193593.081 5
        48.000          35.000  
  20691788.890 8 108736119.872 8  84729448.91346  20691788.042 6  20691788.765 6
        51.000          44.000  
  24952042.423 5 131123874.403 5 102174499.95941  24952044.383 1  24952044.600 1
        35.000          10.000  
  20926758.762 8 109970876.827 8  85691614.93046  20926758.185 6  20926758.256 6
        53.000          41.000  
  24713037.957 5 129867871.017 5 101195754.40241  24713037.698 1  24713039.798 1
        37.000          16.000  
  25352822.298 4 133229991.531 4         0.000           0.000           0.000  
        33.000           0.000  
 05  8 12  1 19 30.0000000  0 11G03G08G11G14G15G18G19G21G22G26G28
  20664347.401 8 108591935.816 8  84617092.67246  20664346.955 6  20664349.960 6
        53.000          42.000  
  24513130.196 5 128817356.201 5 100377185.69641  24513129.432 1  24513132.615 1
        39.000          18.000  
  23991987.343 5 126078756.778 5  98243195.84341  23991987.369 1  23991989.951 1
        39.000          18.000  
  25114961.085 5 131980028.503 5         0.000           0.000           0.000  
        35.000           0.000  
  21644311.334 7 113741627.355 7  88629893.82745  21644310.523 5  21644314.045 5
        49.000          35.000  
  22205566.979 7 116691069.724 7  90928121.34245  22205566.933 4  22205568.860 5
        49.000          35.000  
  20685756.677 8 108704419.852 8  84704747.60346  20685755.762 6  20685756.345 6
        51.000          44.000  
  24972229.037 5 131229955.436 5 102257160.45541  24972230.327 1  24972234.090 1
        35.000          11.000  
  20926397.545 8 109968979.891 8  85690136.79246  20926397.034 6  20926397.191 6
        52.000          41.000  
  24728575.383 5 129949529.580 5 101259384.43641  24728574.350 1  24728578.480 1
        36.000          17.000  
  25334932.467 4 133135976.330 4         0.000           0.000           0.000  
        34.000           0.000  
 05  8 12  1 20  0.0000000  0 11G03G08G11G14G15G18G19G21G22G26G28
  20672801.153 8 108636359.075 8  84651708.18446  20672800.281 6  20672803.450 6
        52.000          42.000  
  24522285.663 5 128865473.902 5 100414680.04841  24522284.621 1  24522288.158 1
        39.000          18.000  
  23972404.194 6 125975844.465 6  98163004.45141  23972403.781 1  23972406.565 1
        40.000          19.000  
  25094369.843 4 131871824.489 4         0.000           0.000           0.000  
        34.000           0.000  
  21659827.416 7 113823165.590 7  88693430.11145  21659826.742 5  21659830.423 5
        48.000          35.000  
  22217629.692 7 116754454.935 7  90977512.39744  22217628.848 4  22217630.682 4
        49.000          34.000  
  20679815.559 8 108673196.539 8  84680417.75446  20679814.250 6  20679814.871 6
        51.000          44.000  
  24992427.107 5 131336091.906 5 102339864.15641  24992422.984 1  24992428.583 1
        35.000           9.000  
  20926147.155 8 109967664.286 8  85689111.65646  20926146.658 6  20926146.946 6
        51.000          42.000  
  24744202.088 4 130031652.648 4 101323376.37841  24744204.683 1  24744205.741 1
        33.000          14.000  
  25317091.641 5 133042220.154 5         0.000           0.000           0.000  
        35.000           0.000  
 05  8 12  1 20 30.0000000  0 11G03G08G11G14G15G18G19G21G22G26G28
  20681349.651 8 108681282.842 8  84686713.70746  20681349.023 6  20681352.145 6
        51.000          41.000  
  24531541.463 5 128914115.711 5 100452582.79241  24531540.568 1  24531545.197 1
        39.000          17.000  
  23952843.311 6 125873050.173 6  98082905.04441  23952844.207 1  23952845.413 1
        41.000          19.000  
  25073787.166 4 131763663.400 4         0.000           0.000           0.000  
        34.000           0.000  
  21675401.364 7 113905005.532 7  88757201.48745  21675400.653 5  21675404.374 5
        48.000          35.000  
  22229776.714 7 116818291.110 7  91027254.88144  22229776.195 4  22229778.009 4
        48.000          34.000  
  20673964.344 8 108642451.513 8  84656460.60246  20673963.467 6  20673964.190 6
        52.000          44.000  
  25012634.616 4 131442282.693 4 102422610.23241  25012640.038 1  25012635.552 1
        33.000           7.000  
  20926007.485 8 109966929.558 8  85688539.14946  20926006.871 6  20926007.241 6
        52.000          41.000  
  24759918.331 4 130114236.863 4 101387727.72541  24759918.652 1  24759921.180 1
        33.000          12.000  
  25299300.923 5 132948725.747 5         0.000           0.000           0.000  
        37.000           0.000  
 05  8 12  1 21  0.0000000  0 11G03G08G11G14G15G18G19G21G22G26G28
  20689993.266 8 108726706.039 8  84722108.39646  20689992.797 6  20689995.767 6
        51.000          42.000  
  24540897.148 6 128963278.542 6 100490891.45941  24540898.157 1  24540901.264 1
        40.000          17.000  
  23933305.271 6 125770375.392 6  98002898.77141  23933303.771 1  23933307.868 1
        41.000          19.000  
  25053212.919 5 131655548.428 5         0.000           0.000           0.000  
        35.000           0.000  
  21691032.121 7 113987145.369 7  88821206.55645  21691031.408 5  21691034.844 5
        49.000          35.000  
  22242009.269 7 116882575.836 7  91077346.86644  22242009.255 4  22242011.337 4
        48.000          34.000  
  20668205.003 8 108612185.915 8  84632877.01846  20668204.192 6  20668204.846 6
        51.000          44.000  
  25032852.548 4 131548526.875 4         0.000           0.000           0.000  
        34.000           0.000  
  20925977.494 8 109966775.714 8  85688419.27746  20925977.562 6  20925977.852 6
        52.000          42.000  
  24775720.226 5 130197279.569 5 101452436.23441  24775719.337 1  24775723.733 1
        35.000          14.000  
  25281558.979 5 132855495.593 5         0.000           0.000           0.000  
        37.000           0.000  
 05  8 12  1 21 30.0000000  0 11G03G08G11G14G15G18G19G21G22G26G28
  20698732.326 8 108772627.888 8  84757891.64346  20698731.446 6  20698734.448 6
        53.000          42.000  
  24550350.491 5 129012960.683 5 100529604.79641  24550349.350 1  24550353.919 1
        37.000          17.000  
  23913790.046 6 125667821.606 6  97922986.77642  23913789.551 2  23913790.239 2
        42.000          20.000  
  25032649.618 5 131547482.255 5         0.000           0.000           0.000  
        36.000           0.000  
  21706719.220 7 114069583.623 7  88885444.14745  21706718.255 5  21706721.946 5
        48.000          35.000  
  22254327.924 7 116947307.692 7  91127787.28244  22254327.502 4  22254328.808 4
        48.000          34.000  
  20662537.288 8 108582400.682 8  84609667.75046  20662536.225 6  20662537.122 6
        52.000          44.000  
  25053079.316 4 131654822.926 4         0.000           0.000           0.000  
        32.000           0.000  
  20926059.072 8 109967202.065 8  85688751.50546  20926058.722 6  20926059.166 6
        52.000          41.000  
  24791608.553 4 130280777.833 4 101517499.81441  24791609.762 1  24791613.708 1
        34.000          13.000  
  25263868.666 5 132762532.041 5         0.000           0.000           0.000  
        38.000           0.000  
 05  8 12  1 22  0.0000000  0 11G03G08G11G14G15G18G19G21G22G26G28
  20707565.433 8 108819047.273 8  84794062.58646  20707564.929 6  20707567.906 6
        53.000          42.000  
  24559903.903 6 129063159.670 6 100568720.92341  24559901.873 1  24559904.879 1
        40.000          15.000  
  23894297.482 6 125565389.601 6  97843169.62442  23894297.088 2  23894299.281 2
        42.000          21.000  
  25012094.514 5 131439468.091 5         0.000           0.000           0.000  
        35.000           0.000  
  21722464.108 7 114152318.622 7  88949912.96145  21722462.739 5  21722465.825 5
        49.000          35.000  
  22266730.668 7 117012484.887 7  91178574.69844  22266730.396 4  22266732.125 4
        48.000          34.000  
  20656961.333 8 108553097.290 8  84586833.94446  20656960.076 6  20656960.799 6
        52.000          44.000  
  25073318.398 5 131761169.689 5         0.000           0.000           0.000  
        35.000           0.000  
  20926250.507 8 109968208.282 8  85689535.58246  20926250.089 6  20926250.526 6
        52.000          41.000  
  24807584.559 5 130364728.804 5 101582916.15241  24807585.011 1  24807586.916 1
        35.000          14.000  
  25246230.237 5 132669838.134 5         0.000           0.000           0.000  
        39.000           0.000  
 05  8 12  1 22 30.0000000  0 10G03G08G11G14G15G18G19G22G26G28
  20716493.208 8 108865963.330 8  84830620.54146  20716492.680 6  20716495.582 6
        52.000          42.000  
  24569555.667 5 129113873.285 5 100608238.10141  24569553.975 1  24569556.618 1
        39.000          14.000  
  23874829.256 6 125463080.937 6  97763448.65442  23874829.522 2  23874830.740 2
        42.000          22.000  
  24991551.063 5 131331508.399 5         0.000           0.000           0.000  
        35.000           0.000  
  21738264.140 7 114235348.883 7  89014611.86045  21738263.129 5  21738266.363 5
        48.000          35.000  
  22279217.005 7 117078104.055 7  91229706.51944  22279217.215 4  22279218.167 4
        48.000          33.000  
  20651476.595 8 108524277.118 8  84564376.67046  20651475.600 6  20651476.519 6
        51.000          44.000  
  20926552.316 8 109969794.264 8  85690771.41546  20926551.915 6  20926552.390 6
        53.000          41.000  
  24823647.157 5 130449129.388 5 101648682.89341  24823646.283 1  24823651.229 1
        36.000          11.000  
  25228643.155 6 132577416.069 6 103307094.63741  25228642.475 1  25228643.645 1
        40.000          16.000  
 05  8 12  1 23  0.0000000  0 10G03G08G11G14G15G18G19G22G26G28
  20725515.872 8 108913375.243 8  84867564.88446  20725515.164 6  20725517.989 6
        52.000          42.000  
  24579302.424 5 129165099.505 5 100648154.60241  24579301.974 1  24579305.541 1
        38.000          13.000  
  23855384.737 6 125360896.915 6  97683824.75342  23855382.788 2  23855385.287 2
        42.000          22.000  
  24971018.895 5 131223606.748 5 102252159.38541  24971017.697 1  24971022.624 1
        37.000           1.000  
  21754120.251 7 114318672.795 7  89079539.58045  21754119.166 4  21754122.114 5
        48.000          35.000  
  22291787.371 7 117144163.677 7  91281181.54344  22291788.053 4  22291789.923 4
        48.000          34.000  
  20646084.501 8 108495941.279 8  84542296.79446  20646083.625 6  20646084.466 6
        52.000          44.000  
  20926963.956 8 109971959.847 8  85692458.88646  20926963.974 6  20926964.589 6
        52.000          41.000  
  24839790.836 5 130533976.424 5 101714797.45241  24839789.791 1  24839793.728 1
        35.000          12.000  
  25211107.326 5 132485268.387 5 103235291.22741  25211106.327 1  25211109.204 1
        39.000          17.000  
 05  8 12  1 23 30.0000000  0 10G03G08G11G14G15G18G19G22G26G28
  20734631.564 8 108961281.666 8  84904894.56746  20734631.203 6  20734634.109 6
        53.000          42.000  
  24589147.196 5 129216836.309 5 100688469.01241  24589146.923 1  24589149.449 1
        39.000          16.000  
  23835962.060 6 125258838.682 6  97604298.88842  23835963.043 2  23835963.822 2
        41.000          22.000  
  24950495.827 4 131115765.905 4 102168127.54541  24950494.598 1  24950496.545 1
        34.000          11.000  
  21770031.219 7 114402288.644 7  89144694.78445  21770030.956 5  21770033.420 5
        49.000          35.000  
  22304442.294 7 117210661.390 7  91332997.95344  22304442.060 4  22304442.991 4
        49.000          33.000  
  20640784.939 8 108468091.380 8  84520595.57446  20640783.818 6  20640784.811 6
        51.000          44.000  
  20927486.728 8 109974704.044 8  85694597.22946  20927486.192 6  20927486.606 6
        53.000          41.000  
  24856020.678 4 130619267.351 4 101781257.94141  24856021.945 1  24856021.419 1
        34.000          11.000  
  25193625.211 6 132393397.758 6 103163703.71441  25193622.088 1  25193626.221 1
        40.000          16.000  
 05  8 12  1 24  0.0000000  0 10G03G08G11G14G15G18G19G22G26G28
  20743841.879 8 109009681.761 8  84942608.93046  20743841.401 6  20743844.331 6
        52.000          41.000  
  24599089.148 5 129269080.968 5 100729179.11441  24599088.986 1  24599092.685 1
        37.000          17.000  
  23816564.973 6 125156907.618 6  97524872.12742  23816564.768 2  23816567.893 2
        41.000          22.000  
  24929987.756 5 131007988.637 5 102084145.23841  24929985.891 1  24929987.115 1
        35.000          10.000  
  21785998.492 7 114486194.737 7  89210076.14044  21785997.341 4  21786000.712 4
        48.000          34.000  
  22317180.600 7 117277595.471 7  91385154.38244  22317179.389 4  22317181.201 4
        49.000          34.000  
  20635578.239 8 108440728.098 8  84499273.53446  20635576.861 6  20635577.582 6
        53.000          44.000  
  20928118.491 8 109978026.607 8  85697186.24946  20928118.490 6  20928118.831 6
        53.000          41.000  
  24872333.341 4 130704999.089 4 101848061.91041  24872335.369 1  24872336.432 1
        31.000           9.000  
  25176195.119 5 132301807.057 5 103092334.37041  25176194.075 1  25176195.533 1
        38.000          17.000  
 05  8 12  1 24 30.0000000  0 10G03G08G11G14G15G18G19G22G26G28
  20753145.955 8 109058574.272 8  84980706.99246  20753145.449 6  20753148.117 6
        51.000          42.000  
  24609127.589 5 129321831.246 5 100770283.23241  24609126.013 1  24609130.886 1
        37.000          16.000  
  23797194.110 6 125055105.009 6  97445545.44742  23797193.033 2  23797194.392 2
        42.000          22.000  
  24909489.473 5 130900278.134 5 102000215.05241  24909488.399 1  24909493.539 1
        35.000          13.000  
  21802020.259 7 114570389.333 7  89275682.31844  21802019.072 4  21802021.694 4
        49.000          34.000  
  22329999.729 7 117344964.005 7  91437649.32244  22329998.948 4  22330000.183 4
        47.000          33.000  
  20630463.979 8 108413852.873 8  84478331.80346  20630462.733 6  20630463.355 6
        52.000          44.000  
  20928861.320 8 109981926.770 8  85700225.34046  20928860.703 6  20928861.081 6
        53.000          41.000  
  24888730.817 4 130791168.397 4 101915206.75041  24888732.769 1  24888738.633 1
        33.000          11.000  
  25158819.966 5 132210498.843 5 103021185.19741  25158818.356 1  25158822.490 1
        39.000          16.000  
 05  8 12  1 25  0.0000000  0 10G03G08G11G14G15G18G19G22G26G28
  20762543.969 8 109107958.296 8  85019188.04946  20762542.851 6  20762545.903 6
        53.000          42.000  
  24619260.747 5 129375084.787 5 100811779.46441  24619260.928 1  24619264.251 1
        38.000          17.000  
  23777845.986 6 124953432.346 6  97366320.01342  23777846.006 2  23777847.772 2
        42.000          22.000  
  24889006.660 5 130792637.453 5 101916339.23941  24889006.578 1  24889006.949 1
        35.000          15.000  
  21818096.188 7 114654871.051 7  89341512.22544  21818095.110 4  21818098.666 4
        47.000          34.000  
  22342901.466 7 117412764.181 7  91490480.64344  22342900.913 4  22342902.709 4
        48.000          33.000  
  20625442.657 8 108387466.889 8  84457771.30446  20625441.706 6  20625442.449 6
        52.000          44.000  
  20929713.411 8 109986404.623 8  85703714.57946  20929712.837 6  20929713.243 6
        52.000          41.000  
  24905215.490 5 130877772.467 5 101982690.46641  24905214.840 1  24905213.957 1
        35.000          12.000  
  25141499.211 5 132119475.365 5 102950257.85841  25141498.252 1  25141500.378 1
        39.000          17.000  
 05  8 12  1 25 30.0000000  0 10G03G08G11G14G15G18G19G22G26G28
  20772034.329 8 109157832.643 8  85058051.17446  20772033.639 6  20772036.553 6
        52.000          41.000  
  24629491.230 6 129428839.421 6 100853666.20341  24629490.859 1  24629493.912 1
        40.000          16.000  
  23758523.465 6 124851890.747 6  97287196.73242  23758523.470 2  23758524.405 2
        42.000          21.000  
  24868537.455 5 130685069.576 5 101832520.07541  24868536.323 1  24868538.573 1
        35.000          10.000  
  21834226.254 7 114739638.082 7  89407564.43644  21834225.944 4  21834229.368 4
        48.000          34.000  
  22355885.049 7 117480994.179 7  91543646.86244  22355884.472 4  22355885.434 4
        49.000          33.000  
  20620515.410 8 108361571.395 8  84437593.00746  20620513.923 6  20620514.699 6
        53.000          44.000  
  20930675.480 8 109991459.094 8  85707653.13146  20930674.901 6  20930675.003 6
        53.000          41.000  
  24921775.908 4 130964808.250 4 102050510.52541  24921776.035 1  24921781.265 1
        34.000          12.000  
  25124232.181 5 132028738.989 5 102879554.21641  25124232.141 1  25124232.304 1
        39.000          16.000  
 05  8 12  1 26  0.0000000  0 10G03G08G11G14G15G18G19G22G26G28
  20781618.247 8 109208196.268 8  85097295.55946  20781617.401 6  20781620.524 6
        51.000          42.000  
  24639814.599 5 129483092.734 5 100895941.55941  24639814.677 1  24639818.122 1
        39.000          15.000  
  23739225.314 6 124750481.471 6  97208176.53242  23739224.376 2  23739226.537 2
        42.000          21.000  
  24848081.746 5 130577577.238 5 101748759.81441  24848077.957 1  24848083.344 1
        37.000          12.000  
  21850411.381 7 114824688.880 7  89473837.77644  21850410.432 4  21850414.484 4
        48.000          34.000  
  22368949.515 7 117549651.776 7  91597146.29644  22368949.634 4  22368951.139 4
        48.000          33.000  
  20615681.116 8 108336167.433 8  84417797.73146  20615679.567 6  20615680.345 6
        52.000          44.000  
  20931746.400 8 109997089.861 8  85712040.74046  20931746.190 6  20931746.667 6
        53.000          42.000  
  24938420.403 5 131052272.791 5 102118664.63541  24938418.528 1  24938423.211 1
        36.000          14.000  
  25107021.279 5 131938292.631 5 102809076.62241  25107020.798 1  25107023.316 1
        38.000          16.000  
 05  8 12  1 26 30.0000000  0 10G03G08G11G14G15G18G19G22G26G28
  20791294.441 8 109259048.207 8  85136920.43746  20791294.176 6  20791297.193 6
        51.000          42.000  
  24650232.406 5 129537842.066 5 100938603.34941  24650232.775 1  24650235.677 1
        38.000          14.000  
  23719954.095 6 124649205.861 6  97129260.51242  23719953.540 2  23719954.406 2
        42.000          21.000  
  24827642.244 5 130470163.652 5 101665060.95041  24827641.015 1  24827645.208 1
        35.000          13.000  
  21866649.600 7 114910021.734 7  89540330.91844  21866648.939 4  21866651.912 4
        47.000          33.000  
  22382096.654 7 117618734.501 7  91650976.98244  22382095.845 4  22382097.358 4
        48.000          33.000  
  20610940.441 8 108311256.185 8  84398386.37646  20610939.157 6  20610939.890 6
        52.000          44.000  
  20932927.670 8 110003296.686 8  85716877.22446  20932927.339 6  20932927.663 6
        53.000          41.000  
  24955145.776 4 131140162.966 4 102187150.39241  24955146.289 1  24955147.806 1
        34.000          13.000  
  25089862.760 5 131848138.927 5 102738827.03341  25089863.734 1  25089867.872 1
        36.000          14.000  
 05  8 12  1 27  0.0000000  0 10G03G08G11G14G15G18G19G22G26G28
  20801065.033 8 109310387.203 8  85176924.83846  20801063.829 6  20801066.744 6
        53.000          42.000  
  24660745.898 5 129593085.410 5 100981650.10241  24660745.627 1  24660748.088 1
        38.000          15.000  
  23700707.877 6 124548065.178 6  97050449.62342  23700707.425 2  23700708.420 2
        43.000          21.000  
  24807215.857 5 130362831.894 5 101581425.82241  24807216.378 1  24807219.742 1
        36.000          15.000  
  21882940.542 7 114995635.145 7  89607042.67044  21882940.302 4  21882944.160 4
        47.000          33.000  
  22395322.026 7 117688239.884 7  91705137.02244  22395321.903 4  22395324.007 4
        46.000          32.000  
  20606293.703 8 108286838.866 8  84379359.90046  20606292.806 6  20606293.445 6
        51.000          44.000  
  20934217.921 8 110010078.721 8  85722161.92546  20934217.808 6  20934218.353 6
        52.000          41.000  
  24971949.333 5 131228475.945 5 102255965.74241  24971948.741 1  24971954.298 1
        35.000          15.000  
  25072764.408 5 131758280.247 5 102668807.30041  25072762.707 1  25072766.554 1
        38.000          12.000  
 05  8 12  1 27 30.0000000  0 10G03G08G11G14G15G18G19G22G26G28
  20810926.214 8 109362211.971 8  85217307.76446  20810925.576 6  20810928.627 6
        51.000          42.000  
  24671352.486 5 129648820.014 5 101025079.65341  24671350.758 1  24671355.070 1
        38.000          15.000  
  23681485.649 6 124447060.822 6  96971744.97542  23681485.513 2  23681487.239 2
        41.000          21.000  
  24786809.681 5 130255584.932 5 101497856.77241  24786810.321 1  24786812.551 1
        37.000          14.000  
  21899286.540 7 115081527.391 7  89673971.68144  21899285.483 4  21899288.924 4
        48.000          34.000  
  22408630.103 7 117758166.724 7  91759625.46044  22408628.905 4  22408630.367 4
        48.000          33.000  
  20601741.937 8 108262916.544 8  84360719.13746  20601740.442 6  20601741.251 6
        51.000          44.000  
  20935618.380 8 110017435.349 8  85727894.36346  20935617.645 6  20935618.150 6
        52.000          41.000  
  24988836.397 5 131317208.693 5 102325108.18241  24988835.703 1  24988838.596 1
        37.000          15.000  
  25055722.200 5 131668719.219 5 102599019.46641  25055721.983 1  25055724.660 1
        37.000          13.000  
 05  8 12  1 28  0.0000000  0 10G03G08G11G14G15G18G19G22G26G28
  20820880.485 8 109414521.795 8  85258068.65746  20820879.759 6  20820883.163 6
        52.000          41.000  
  24682051.457 5 129705043.603 5 101068890.23441  24682048.929 1  24682053.751 1
        36.000          16.000  
  23662292.347 6 124346194.203 6  96893147.64642  23662291.186 2  23662293.084 2
        42.000          20.000  
  24766416.868 5 130148425.529 5 101414355.91441  24766416.024 1  24766420.350 1
        37.000          14.000  
  21915683.691 7 115167696.811 7  89741116.67044  21915683.034 4  21915685.787 4
        48.000          34.000  
  22422015.388 7 117828512.389 7  91814440.25444  22422015.215 4  22422016.830 4
        47.000          32.000  
  20597283.895 8 108239490.531 8  84342465.10746  20597282.737 6  20597283.263 6
        53.000          44.000  
  20937127.781 8 110025365.936 8  85734074.04046  20937126.823 6  20937127.268 6
        52.000          42.000  
  25005798.414 4 131406357.934 4 102394575.01941  25005799.413 1  25005804.689 1
        33.000          10.000  
  25038738.742 5 131579458.505 5 102529465.71541  25038738.310 1  25038739.763 1
        38.000          13.000  
 05  8 12  1 28 30.0000000  0 10G03G08G11G14G15G18G19G22G26G28
  20830926.631 8 109467315.343 8  85299206.48146  20830925.998 6  20830929.423 6
        52.000          41.000  
  24692842.236 5 129761753.867 5 101113080.04241  24692843.224 1  24692846.299 1
        36.000          16.000  
  23643123.954 6 124245466.441 6  96814658.49742  23643124.700 2  23643124.819 2
        42.000          21.000  
  24746041.989 5 130041356.769 5 101330925.79341  24746044.014 1  24746046.700 1
        37.000          15.000  
  21932133.537 7 115254141.986 7  89808476.54644  21932132.927 4  21932136.768 4
        48.000          34.000  
  22435481.076 7 117899274.615 7  91869579.64344  22435480.746 4  22435482.468 4
        47.000          32.000  
  20592920.449 8 108216561.667 8  84324598.45546  20592919.238 6  20592920.078 6
        51.000          44.000  
  20938745.436 8 110033869.577 8  85740700.25346  20938744.953 6  20938745.363 6
        53.000          41.000  
  25022846.874 5 131495920.700 5 102464364.20741  25022850.398 1  25022846.803 1
        37.000          13.000  
  25021806.552 5 131490500.462 5 102460147.73941  25021809.210 1  25021811.109 1
        36.000          11.000  
 05  8 12  1 29  0.0000000  0 10G03G08G11G14G15G18G19G22G26G28
  20841064.701 8 109520591.486 8  85340720.35346  20841064.078 6  20841067.301 6
        52.000          42.000  
  24703727.595 5 129818948.122 5 101157646.96441  24703725.806 1  24703729.491 1
        37.000          16.000  
  23623983.165 6 124144878.855 6  96736278.55542  23623983.400 2  23623983.825 2
        42.000          20.000  
  24725685.660 5 129934381.695 5 101247568.57441  24725684.716 1  24725686.212 1
        37.000          15.000  
  21948636.000 7 115340861.151 7  89876049.91944  21948635.122 4  21948638.500 4
        48.000          34.000  
  22449025.674 7 117970451.479 7  91925042.12544  22449025.053 4  22449026.618 4
        47.000          32.000  
  20588651.970 8 108194131.240 8  84307120.20946  20588650.827 6  20588651.666 6
        52.000          44.000  
  20940472.723 8 110042946.097 8  85747772.87346  20940472.256 6  20940472.607 6
        52.000          41.000  
  25039966.589 5 131585894.178 5 102534473.39641  25039964.211 1  25039968.130 1
        36.000          15.000  
  25004936.111 5 131401847.720 5 102391067.78141  25004935.024 1  25004939.183 1
        35.000           8.000  
 05  8 12  1 29 30.0000000  0 10G03G08G11G14G15G18G19G22G26G28
  20851294.693 8 109574348.973 8  85382609.29646  20851293.950 6  20851296.907 6
        52.000          41.000  
  24714701.359 5 129876623.974 5 101202589.18841  24714702.877 1  24714704.611 1
        38.000          15.000  
  23604869.484 6 124044432.692 6  96658008.87542  23604868.081 2  23604869.441 2
        41.000          20.000  
  24705346.754 5 129827503.377 5 101164286.76441  24705345.865 1  24705350.244 1
        36.000          14.000  
  21965189.427 7 115427852.608 7  89943835.46644  21965188.836 4  21965192.176 4
        49.000          33.000  
  22462648.850 7 118042040.666 7  91980825.90344  22462648.314 4  22462649.775 4
        47.000          32.000  
  20584478.796 8 108172200.183 8  84290031.08247  20584477.850 7  20584478.396 7
        52.000          45.000  
  20942308.803 8 110052594.769 8  85755291.32146  20942308.340 6  20942308.547 6
        53.000          41.000  
  25057164.835 5 131676274.875 5 102604899.84541  25057163.348 1  25057168.826 1
        35.000          12.000  
  24988127.025 5 131313502.730 5 102322227.48841  24988128.476 1  24988126.660 1
        35.000          11.000  
 05  8 12  1 30  0.0000000  0 10G03G08G11G14G15G18G19G22G26G28
  20861615.783 8 109628586.608 8  85424872.38646  20861615.087 6  20861618.128 6
        53.000          41.000  
  24725767.809 5 129934778.606 5 101247904.48641  24725763.733 1  24725771.333 1
        37.000          15.000  
  23585781.159 6 123944129.333 6  96579850.45142  23585780.982 2  23585782.839 2
        41.000          20.000  
  24685028.902 5 129720724.871 5 101081082.73741  24685027.990 1  24685028.427 1
        37.000          15.000  
  21981796.338 7 115515114.952 7  90011832.08144  21981794.735 4  21981797.899 4
        48.000          33.000  
  22476349.393 7 118114039.447 7  92036928.84444  22476349.277 4  22476350.696 4
        48.000          31.000  
  20580400.620 8 108150769.565 8  84273331.90246  20580399.534 6  20580400.148 6
        52.000          44.000  
  20944253.653 8 110062815.020 8  85763255.15846  20944253.290 6  20944253.405 6
        52.000          42.000  
  25074439.016 5 131767060.067 5 102675641.44941  25074437.627 1  25074442.048 1
        35.000          11.000  
  24971376.172 5 131225468.320 5 102253629.30941  24971373.832 1  24971376.536 1
        37.000          12.000  
 05  8 12  1 30 30.0000000  0 10G03G08G11G14G15G18G19G22G26G28
  20872027.879 8 109683303.220 8  85467508.70446  20872027.343 6  20872030.569 6
        52.000          41.000  
  24736926.743 5 129993409.798 5 101293591.10441  24736924.777 1  24736927.898 1
        38.000          15.000  
  23566720.637 6 123843970.295 6  96501804.48842  23566721.216 2  23566722.582 2
        43.000          20.000  
  24664729.509 5 129614049.216 5 100997958.88241  24664728.018 1  24664730.785 1
        37.000          15.000  
  21998451.981 7 115602646.403 7  90080038.38844  21998450.943 4  21998454.768 4
        46.000          33.000  
  22490128.130 7 118186445.982 7  92093349.53244  22490127.716 4  22490129.407 4
        47.000          32.000  
  20576417.905 8 108129840.585 8  84257023.60847  20576416.816 7  20576417.691 7
        53.000          45.000  
  20946307.063 8 110073605.925 8  85771663.65546  20946306.935 6  20946307.114 6
        53.000          41.000  
  25091792.484 5 131858246.830 5 102746696.08641  25091794.266 1  25091795.171 1
        35.000          12.000  
  24954679.707 4 131137746.973 4 102185275.01941  24954680.426 1  24954684.881 1
        34.000          13.000  
 05  8 12  1 31  0.0000000  0 10G03G08G11G14G15G18G19G22G26G28
  20882531.091 8 109738497.427 8  85510517.16746  20882530.612 6  20882533.575 6
        52.000          41.000  
  24748172.693 5 130052515.287 5 101339647.36441  24748171.932 1  24748174.306 1
        37.000          13.000  
  23547688.580 6 123743956.820 6  96423871.89742  23547689.259 2  23547690.309 2
        43.000          21.000  
  24644451.574 5 129507479.324 5 100914917.36441  24644449.732 1  24644452.015 1
        39.000          14.000  
  22015159.360 7 115690445.285 7  90148453.10044  22015158.317 4  22015162.321 4
        48.000          33.000  
  22503984.282 7 118259258.607 7  92150086.62444  22503983.685 4  22503984.900 4
        48.000          32.000  
  20572530.974 8 108109414.355 8  84241107.06947  20572529.866 6  20572530.674 7
        52.000          45.000  
  20948469.368 8 110084966.528 8  85780516.08246  20948468.770 6  20948469.001 6
        53.000          41.000  
  25109218.913 4 131949831.518 4 102818060.73041  25109220.869 1  25109221.621 1
        34.000           9.000  
  24938049.890 5 131050341.195 5 102117166.58441  24938046.341 1  24938050.214 1
        37.000          13.000  
 05  8 12  1 31 30.0000000  0 10G03G08G11G14G15G18G19G22G26G28
  20893125.216 8 109794168.212 8  85553896.98646  20893124.328 6  20893127.308 6
        52.000          41.000  
  24759510.550 5 130112092.436 5 101386071.15641  24759510.462 1  24759513.251 1
        36.000          11.000  
  23528685.508 6 123644090.096 6  96346053.71142  23528685.181 2  23528686.796 2
        42.000          22.000  
  24624190.495 5 129401018.315 5 100831960.77241  24624189.753 1  24624192.308 1
        38.000          16.000  
  22031917.170 7 115778510.152 7  90217075.05244  22031916.878 4  22031920.121 4
        48.000          33.000  
  22517916.433 7 118332474.151 7  92207137.69844  22517915.876 4  22517916.923 4
        46.000          31.000  
  20568739.977 8 108089491.752 8  84225582.96546  20568738.845 6  20568739.608 6
        53.000          44.000  
  20950738.813 8 110096896.464 8  85789812.14046  20950738.553 6  20950739.077 6
        52.000          41.000  
  25126724.060 4 132041811.612 4 102889733.55141  25126725.404 1  25126722.609 1
        34.000           7.000  
  24921477.562 5 130963253.499 5 102049306.03541  24921476.964 1  24921479.952 1
        37.000          13.000  
 05  8 12  1 32  0.0000000  0 10G03G08G11G14G15G18G19G22G26G28
  20903809.096 8 109850314.124 8  85597647.03746  20903808.639 6  20903811.372 6
        52.000          41.000  
  24770936.921 5 130172139.012 5 101432860.66741  24770936.099 1  24770938.302 1
        39.000          13.000  
  23509709.637 6 123544371.427 6  96268350.89342  23509709.386 2  23509710.602 2
        43.000          23.000  
  24603953.503 5 129294669.230 5 100749091.39841  24603953.709 1  24603954.442 1
        38.000          14.000  
  22048726.584 7 115866839.356 7  90285903.00044  22048725.277 4  22048728.451 4
        47.000          33.000  
  22531925.454 7 118406090.866 7  92264501.37544  22531925.092 4  22531925.981 4
        46.000          32.000  
  20565045.073 8 108070074.037 8  84210452.27946  20565043.827 6  20565044.397 6
        53.000          44.000  
  20953117.262 8 110109394.913 8  85799551.18946  20953117.014 6  20953117.382 6
        52.000          41.000  
  25144301.364 4 132134183.843 4 102961711.87541  25144295.515 1  25144307.045 1
        33.000           7.000  
  24904966.764 5 130876486.533 5 101981695.41041  24904964.631 1  24904968.447 1
        39.000          15.000  
 05  8 12  1 32 30.0000000  0 10G03G08G11G14G15G18G19G22G26G28
  20914583.706 8 109906933.873 8  85641766.31846  20914583.020 6  20914585.978 6
        52.000          41.000  
  24782451.381 5 130232651.560 5 101480013.36541  24782448.137 1  24782452.320 1
        38.000          13.000  
  23490762.819 6 123444802.448 6  96190764.69642  23490761.936 2  23490763.846 2
        44.000          24.000  
  24583739.423 6 129188434.991 6 100666311.45541  24583738.113 1  24583740.798 1
        40.000          15.000  
  22065584.360 7 115955431.393 7  90354935.76244  22065583.814 4  22065587.156 4
        47.000          32.000  
  22546009.719 7 118480106.626 7  92322175.97344  22546008.915 4  22546010.580 4
        45.000          31.000  
  20561446.172 8 108051162.062 8  84195715.67846  20561444.859 6  20561445.603 6
        53.000          44.000  
  20955603.905 8 110122461.019 8  85809732.57346  20955603.486 6  20955603.825 6
        52.000          41.000  
  25161955.236 4 132226945.047 4         0.000           0.000           0.000  
        32.000           0.000  
  24888515.403 5 130790042.647 5 101914336.56341  24888513.542 1  24888517.241 1
        36.000          14.000  
 05  8 12  1 33  0.0000000  0 10G03G08G11G14G15G18G19G22G26G28
  20925448.015 8 109964026.530 8  85686254.10046  20925447.351 6  20925450.307 6
        52.000          41.000  
  24794054.728 5 130293627.510 5 101527527.15641  24794054.688 1  24794055.025 1
        36.000          12.000  
  23471843.781 6 123345384.168 6  96113295.94842  23471843.627 2  23471846.497 2
        43.000          24.000  
  24563544.748 5 129082318.941 5 100583623.66041  24563543.987 1  24563547.759 1
        38.000          16.000  
  22082493.267 7 116044284.440 7  90424171.89444  22082492.028 4  22082495.336 4
        47.000          33.000  
  22560170.800 7 118554518.570 7  92380159.30944  22560170.230 4  22560171.166 4
        48.000          31.000  
  20557943.461 8 108032756.843 8  84181373.94547  20557942.488 7  20557943.207 7
        52.000          45.000  
  20958198.201 8 110136094.023 8  85820355.69946  20958197.838 6  20958197.913 6
        53.000          41.000  
  25179679.939 4 132320092.336 4         0.000           0.000           0.000  
        33.000           0.000  
  24872128.747 5 130703924.505 5 101847231.54041  24872127.189 1  24872131.336 1
        37.000          14.000  
 05  8 12  1 33 30.0000000  0 10G03G08G11G14G15G18G19G22G26G28
  20936401.819 8 110021590.453 8  85731109.09446  20936401.312 6  20936404.391 6
        52.000          41.000  
  24805745.803 5 130355065.101 5 101575400.63741  24805744.771 1  24805748.786 1
        37.000          12.000  
  23452954.262 6 123246118.000 6  96035945.72842  23452953.703 2  23452955.408 2
        43.000          24.000  
  24543374.010 5 128976323.818 5 100501030.01841  24543373.769 1  24543375.503 1
        38.000          15.000  
  22099451.155 7 116133396.909 7  90493610.17344  22099449.362 4  22099452.851 4
        47.000          33.000  
  22574404.975 7 118629325.138 7  92438450.13344  22574404.567 4  22574406.299 4
        47.000          31.000  
  20554537.975 8 108014859.320 8  84167427.82846  20554536.744 6  20554537.414 6
        52.000          44.000  
  20960900.093 8 110150293.056 8  85831419.88646  20960899.719 6  20960899.830 6
        52.000          42.000  
  25197473.713 4 132413622.286 4         0.000           0.000           0.000  
        31.000           0.000  
  24855802.519 5 130618134.828 5 101780382.45941  24855802.889 1  24855805.053 1
        37.000          15.000  
 05  8 12  1 34  0.0000000  0 10G03G08G11G14G15G18G19G22G26G28
  20947445.025 8 110079624.546 8  85776330.45546  20947444.887 6  20947447.920 6
        53.000          41.000  
  24817526.462 4 130416962.747 4 101623632.51541  24817522.922 1  24817528.215 1
        34.000          12.000  
  23434093.162 6 123147005.289 6  95958715.05542  23434093.892 2  23434095.046 2
        44.000          23.000  
  24523227.471 5 128870453.085 5 100418533.36241  24523226.168 1  24523228.875 1
        38.000          16.000  
  22116456.979 7 116222767.203 7  90563249.35844  22116456.411 4  22116459.551 4
        48.000          33.000  
  22588715.948 7 118704523.891 7  92497046.56044  22588715.775 4  22588716.270 4
        48.000          31.000  
  20551229.179 8 107997470.592 8  84153878.17047  20551227.744 7  20551228.292 7
        53.000          45.000  
  20963709.257 8 110165057.006 8  85842924.26646  20963709.197 6  20963709.383 6
        53.000          41.000  
  25215345.527 4 132507532.020 4         0.000           0.000           0.000  
        33.000           0.000  
  24839541.806 5 130532675.721 5 101713790.99141  24839538.208 1  24839544.434 1
        37.000          15.000  
 05  8 12  1 34 30.0000000  0  9G03G08G11G14G15G18G19G22G28
  20958578.377 8 110138127.784 8  85821917.38446  20958577.718 6  20958580.688 6
        52.000          41.000  
  24829389.620 5 130479314.903 5 101672218.59641  24829387.454 1  24829390.485 1
        35.000           9.000  
  23415262.142 6 123048047.236 6  95881604.90042  23415261.891 2  23415263.401 2
        42.000          24.000  
  24503102.897 5 128764709.627 5 100336135.87341  24503102.616 1  24503105.575 1
        36.000          15.000  
  22133512.826 7 116312393.774 7  90633088.23444  22133511.731 4  22133514.960 4
        47.000          33.000  
  22603098.981 7 118780112.462 7  92555946.74944  22603098.360 4  22603100.133 4
        47.000          31.000  
  20548016.929 8 107980591.638 8  84140725.73847  20548015.751 7  20548016.581 7
        52.000          45.000  
  20966626.701 8 110180385.540 8  85854868.57646  20966626.210 6  20966626.397 6
        53.000          41.000  
  24823342.685 5 130447550.048 5 101647459.29941  24823341.598 1  24823342.590 1
        39.000          16.000  
 05  8 12  1 35  0.0000000  0  9G03G08G11G14G15G18G19G22G28
  20969799.927 8 110197098.583 8  85867868.64946  20969799.653 6  20969802.455 6
        53.000          41.000  
  24841342.190 5 130542120.839 5 101721158.31041  24841342.850 1  24841344.259 1
        35.000           9.000  
  23396461.141 6 122949245.249 6  95804616.36542  23396461.191 2  23396462.391 2
        43.000          23.000  
  24483006.161 5 128659096.078 5 100253839.64441  24483008.155 1  24483010.157 1
        37.000          16.000  
  22150616.960 7 116402275.005 7  90703125.53944  22150615.891 4  22150618.859 4
        48.000          33.000  
  22617556.901 7 118856088.729 7  92615149.00344  22617556.750 4  22617557.616 4
        48.000          31.000  
  20544902.016 8 107964223.282 8  84127971.18347  20544900.937 7  20544901.623 7
        53.000          45.000  
  20969651.097 8 110196277.541 8  85867251.96746  20969650.518 6  20969650.500 6
        54.000          42.000  
  24807207.905 6 130362760.169 6 101581389.29841  24807206.210 1  24807207.611 1
        40.000          15.000  
 05  8 12  1 35 30.0000000  0  9G03G08G11G14G15G18G19G22G28
  20981110.427 8 110256535.350 8  85914183.00646  20981110.058 6  20981113.016 6
        50.000          41.000  
  24853380.179 4 130605376.711 4 101770448.60441  24853373.858 1  24853381.212 1
        33.000           7.000  
  23377690.172 6 122850600.884 6  95727750.65542  23377689.132 2  23377691.373 2
        43.000          23.000  
  24462933.262 5 128553615.636 5 100171647.11441  24462934.338 1  24462936.525 1
        36.000          14.000  
  22167769.092 7 116492409.164 7  90773359.96044  22167767.903 4  22167770.487 4
        47.000          32.000  
  22632087.965 7 118932449.915 7  92674651.23544  22632087.412 4  22632088.784 4
        46.000          31.000  
  20541884.501 8 107948366.478 8  84115615.22846  20541883.406 6  20541884.385 6
        53.000          44.000  
  20972782.392 8 110212732.270 8  85880073.84046  20972781.862 6  20972781.721 6
        51.000          42.000  
  24791137.707 6 130278308.555 6 101515582.86141  24791136.862 1  24791136.828 1
        41.000          17.000  
 05  8 12  1 36  0.0000000  0  9G03G08G11G14G15G18G19G22G28
  20992508.921 8 110316436.968 8  85960859.58246  20992508.731 6  20992511.872 6
        51.000          41.000  
  24865501.715 5 130669080.647 5 101820088.01141  24865501.084 1  24865502.541 1
        36.000          10.000  
  23358948.474 6 122752115.151 6  95651008.54542  23358947.103 2  23358949.653 2
        43.000          24.000  
  24442888.093 5 128448271.858 5 100089561.02941  24442888.100 1  24442890.795 1
        38.000          17.000  
  22184968.943 7 116582794.603 7  90843790.16844  22184967.775 4  22184970.507 4
        47.000          32.000  
  22646692.651 7 119009194.537 7  92734452.23144  22646691.977 4  22646693.482 4
        47.000          32.000  
  20538964.893 8 107933022.412 8  84103658.82047  20538963.664 7  20538964.386 7
        53.000          45.000  
  20976019.949 8 110229748.664 8  85893333.36646  20976019.801 6  20976019.771 6
        52.000          41.000  
  24775129.986 5 130194197.924 5 101450042.13141  24775129.660 1  24775132.920 1
        39.000          17.000  
 05  8 12  1 36 30.0000000  0  9G03G08G11G14G15G18G19G22G28
  21003996.502 8 110376802.254 8  86007897.45846  21003995.828 6  21003998.843 6
        51.000          41.000  
  24877709.403 4 130733231.558 4 101870075.78241  24877708.757 1  24877708.279 1
        34.000          12.000  
  23340238.013 6 122653789.577 6  95574391.22442  23340237.249 2  23340239.702 2
        43.000          23.000  
  24422869.007 5 128343067.474 5 100007583.64741  24422868.249 1  24422869.932 1
        37.000          17.000  
  22202215.335 7 116673430.037 7  90914415.17944  22202214.674 4  22202218.146 4
        46.000          32.000  
  22661369.041 7 119086319.899 7  92794549.90344  22661368.558 4  22661369.655 4
        47.000          32.000  
  20536142.659 8 107918191.757 8  84092102.47247  20536141.506 7  20536142.042 7
        52.000          45.000  
  20979364.846 8 110247325.641 8  85907029.71546  20979364.697 6  20979364.699 6
        52.000          42.000  
  24759189.354 6 130110430.585 6 101384768.88441  24759191.453 1  24759191.852 1
        40.000          17.000  
 05  8 12  1 37  0.0000000  0  9G03G08G11G14G15G18G19G22G28
  21015571.663 8 110437629.788 8  86055295.52946  21015570.913 6  21015573.956 6
        52.000          41.000  
  24889996.875 4 130797824.687 4 101920408.10041  24889998.091 1  24890005.470 1
        33.000          11.000  
  23321558.593 6 122555625.380 6  95497899.66642  23321556.186 2  23321559.568 2
        44.000          24.000  
  24402877.450 5 128238005.574 5  99925717.24041  24402874.185 1  24402878.690 1
        38.000          16.000  
  22219509.761 7 116764313.889 7  90985233.75944  22219508.993 4  22219512.227 4
        47.000          32.000  
  22676117.167 7 119163823.319 7  92854942.15944  22676116.418 4  22676118.160 4
        47.000          31.000  
  20533418.644 8 107903875.390 8  84080946.87147  20533417.167 6  20533417.780 7
        52.000          45.000  
  20982816.452 8 110265462.386 8  85921162.24746  20982815.978 6  20982815.993 6
        52.000          41.000  
  24743314.003 5 130027009.306 5 101319765.30741  24743315.721 1  24743317.442 1
        39.000          16.000  
 05  8 12  1 37 30.0000000  0  9G03G08G11G14G15G18G19G22G28
  21027234.248 8 110498918.050 8  86103052.60446  21027233.790 6  21027236.867 6
        51.000          41.000  
  24902374.874 5 130862853.780 5 101971080.11341  24902376.197 1  24902377.504 1
        35.000           9.000  
  23302908.668 6 122457624.077 6  95421535.02542  23302908.537 2  23302910.754 2
        44.000          24.000  
  24382910.818 5 128133089.189 5  99843964.22141  24382911.511 1  24382912.999 1
        38.000          18.000  
  22236851.493 7 116855444.360 7  91056244.50144  22236850.257 4  22236854.048 4
        45.000          32.000  
  22690937.341 7 119241703.111 7  92915627.73144  22690936.913 4  22690938.557 4
        48.000          31.000  
  20530791.956 8 107890074.159 8  84070192.67247  20530790.856 7  20530791.528 7
        53.000          45.000  
  20986374.066 8 110284158.148 8  85935730.37346  20986373.687 6  20986373.654 6
        53.000          42.000  
  24727507.804 6 129943936.277 6 101255033.02041  24727506.443 1  24727510.492 1
        40.000          17.000  
 05  8 12  1 38  0.0000000  0  9G03G08G11G14G15G18G19G22G28
  21038985.147 8 110560665.409 8  86151167.41346  21038983.995 6  21038986.956 6
        53.000          41.000  
  24914834.386 5 130928322.763 5 102022094.84941  24914831.789 1  24914835.560 1
        36.000          12.000  
  23284290.729 6 122359786.929 6  95345298.31543  23284289.820 3  23284291.633 3
        43.000          25.000  
  24362975.076 5 128028321.472 5  99762327.05041  24362975.812 1  24362974.950 1
        39.000          16.000  
  22254239.218 7 116946819.975 7  91127446.25244  22254238.029 4  22254242.128 4
        47.000          31.000  
  22705828.852 7 119319956.614 7  92976604.44844  22705827.576 4  22705828.929 4
        47.000          31.000  
  20528263.857 8 107876789.136 8  84059840.71347  20528262.843 7  20528263.527 7
        52.000          45.000  
  20990037.495 8 110303411.636 8  85950733.09246  20990037.326 6  20990037.652 6
        52.000          42.000  
  24711766.888 6 129861214.222 6 101190574.29741  24711766.054 1  24711764.515 1
        40.000          17.000  
 05  8 12  1 38 30.0000000  0  9G03G08G11G14G15G18G19G22G28
  21050821.724 8 110622870.653 8  86199639.01446  21050821.066 6  21050824.362 6
        52.000          41.000  
  24927372.552 5 130994226.483 5 102073448.44141  24927371.991 1  24927376.735 1
        36.000          12.000  
  23265704.273 6 122262115.399 6  95269190.65043  23265703.862 3  23265705.955 3
        43.000          25.000  
  24343066.259 5 127923705.509 5  99680808.11341  24343064.238 1  24343066.901 1
        38.000          17.000  
  22271674.183 7 117038439.073 7  91198837.74644  22271673.280 4  22271677.493 4
        47.000          31.000  
  22720789.727 7 119398581.550 7  93037870.63144  22720789.513 4  22720791.367 4
        48.000          31.000  
  20525834.484 8 107864021.033 8  84049891.54047  20525833.185 7  20525833.834 7
        53.000          45.000  
  20993807.348 8 110323222.025 8  85966169.76746  20993807.005 6  20993807.295 6
        53.000          42.000  
  24696092.009 6 129778845.524 6 101126390.91841  24696089.419 1  24696093.532 1
        41.000          18.000  
 05  8 12  1 39  0.0000000  0  9G03G08G11G14G15G18G19G22G28
  21062746.142 8 110685532.491 8  86248466.41846  21062745.431 6  21062748.408 6
        52.000          41.000  
  24939995.719 5 131060562.455 5 102125138.78841  24939998.370 1  24939999.716 1
        36.000          12.000  
  23247149.508 6 122164610.688 6  95193212.98443  23247149.545 3  23247152.662 3
        43.000          25.000  
  24323186.820 5 127819244.503 5  99599409.92941  24323186.604 1  24323190.015 1
        38.000          17.000  
  22289154.014 7 117130300.113 7  91270417.77644  22289153.360 4  22289157.235 4
        46.000          30.000  
  22735822.356 7 119477576.353 7  93099425.02844  22735821.439 4  22735823.017 4
        47.000          30.000  
  20523503.100 8 107851770.718 8  84040345.84147  20523501.980 7  20523502.764 7
        53.000          45.000  
  20997683.123 8 110343588.348 8  85982039.63346  20997682.621 6  20997683.015 6
        52.000          42.000  
  24680485.609 6 129696832.757 6 101062484.88741  24680485.306 1  24680485.597 1
        41.000          18.000  
 05  8 12  1 39 30.0000000  0  9G03G08G11G14G15G18G19G22G28
  21074756.684 8 110748649.567 8  86297648.54246  21074756.102 6  21074759.365 6
        53.000          40.000  
  24952703.243 5 131127327.529 5 102177163.52741  24952703.820 1  24952702.992 1
        36.000          11.000  
  23228627.620 6 122067274.065 6  95117366.29743  23228626.794 3  23228629.072 3
        43.000          25.000  
  24303338.472 5 127714941.055 5  99518134.53141  24303339.101 1  24303343.109 1
        38.000          16.000  
  22306680.912 7 117222401.482 7  91342185.06644  22306680.336 4  22306684.112 4
        46.000          31.000  
  22750924.689 7 119556937.884 7  93161265.17644  22750923.584 4  22750925.611 4
        48.000          31.000  
  20521270.522 8 107840039.049 8  84031204.27947  20521269.347 6  20521270.243 7
        53.000          45.000  
  21001664.284 8 110364509.510 8  85998341.83546  21001663.844 6  21001664.236 6
        53.000          41.000  
  24664946.073 6 129615178.365 6 100998858.14741  24664945.917 1  24664946.995 1
        40.000          19.000  
 05  8 12  1 40  0.0000000  0  9G03G08G11G14G15G18G19G22G28
  21086854.023 8 110812220.328 8  86347184.19646  21086853.381 6  21086856.477 6
        51.000          40.000  
  24965487.823 5 131194518.774 5 102229520.31341  24965488.415 1  24965491.924 1
        36.000          11.000  
  23210138.022 7 121970107.194 7  95041651.89043  23210137.515 3  23210136.641 3
        45.000          25.000  
  24283521.930 5 127610798.378 5  99436984.45041  24283520.726 1  24283525.327 1
        39.000          17.000  
  22324252.097 7 117314741.586 7  91414138.37344  22324251.019 4  22324255.722 4
        46.000          31.000  
  22766095.710 7 119636664.369 7  93223389.68244  22766095.438 4  22766097.373 4
        46.000          31.000  
  20519136.938 8 107828826.910 8  84022467.55147  20519135.899 7  20519136.608 7
        50.000          45.000  
  21005750.971 8 110385984.393 8  86015075.51346  21005750.347 6  21005750.827 6
        52.000          41.000  
  24649476.006 6 129533884.861 6 100935512.52942  24649475.630 2  24649478.610 2
        40.000          20.000  
 05  8 12  1 40 30.0000000  0  9G03G08G11G14G15G18G19G22G28
  21099036.583 8 110876243.301 8  86397072.20846  21099036.408 6  21099039.612 6
        51.000          40.000  
  24978353.962 4 131262133.689 4 102282207.26941  24978355.770 1  24978356.025 1
        34.000          10.000  
  23191679.270 6 121873111.196 6  94966070.61342  23191679.082 2  23191680.089 2
        44.000          24.000  
  24263735.059 5 127506819.843 5  99355962.18941  24263737.002 1  24263738.139 1
        38.000          17.000  
  22341869.293 7 117407318.663 7  91486276.36344  22341868.910 4  22341872.294 4
        46.000          31.000  
  22781336.158 7 119716753.215 7  93285796.58044  22781335.437 4  22781337.538 4
        47.000          30.000  
  20517102.400 8 107818135.138 8  84014136.29647  20517101.310 6  20517102.040 7
        52.000          45.000  
  21009942.847 8 110408011.963 8  86032239.85446  21009942.200 6  21009942.508 6
        53.000          41.000  
  24634077.167 6 129452954.729 6 100872450.06441  24634076.557 1  24634079.220 1
        41.000          19.000  
 05  8 12  1 41  0.0000000  0  9G03G08G11G14G15G18G19G22G28
  21111306.375 8 110940717.123 8  86447311.54446  21111305.498 6  21111308.478 6
        53.000          41.000  
  24991301.964 4 131330169.318 4 102335222.01141  24991305.120 1  24991303.537 1
        34.000           7.000  
  23173254.542 7 121776287.483 7  94890623.58143  23173254.245 3  23173255.313 3
        45.000          26.000  
  24243982.724 6 127403008.377 6  99275070.17341  24243980.950 1  24243982.052 1
        40.000          17.000  
  22359531.903 7 117500131.110 7  91558597.73444  22359530.444 4  22359534.147 4
        46.000          31.000  
  22796644.831 7 119797201.989 7  93348483.92644  22796643.693 4  22796646.128 4
        47.000          30.000  
  20515167.101 8 107807964.483 8  84006211.11147  20515165.907 7  20515166.595 7
        53.000          45.000  
  21014238.960 8 110430590.861 8  86049833.80446  21014238.713 6  21014238.941 6
        52.000          41.000  
  24618745.625 6 129372390.210 6 100809672.58941  24618744.838 1  24618746.983 1
        40.000          18.000  
 05  8 12  1 41 30.0000000  0  9G03G08G11G14G15G18G19G22G28
  21123660.861 8 111005640.378 8  86497901.07946  21123660.114 6  21123662.998 6
        52.000          41.000  
  25004328.835 4 131398622.784 4 102388562.42541  25004326.759 1  25004329.743 1
        33.000           7.000  
  23154863.130 7 121679637.551 7  94815311.94043  23154861.314 3  23154862.630 3
        45.000          26.000  
  24224257.384 5 127299367.148 5  99194310.79941  24224259.149 1  24224260.891 1
        39.000          17.000  
  22377237.639 7 117593177.554 7  91631101.43644  22377236.754 4  22377239.766 4
        46.000          30.000  
  22812021.998 7 119878008.380 7  93411449.92844  22812021.707 4  22812023.186 4
        47.000          30.000  
  20513331.101 8 107798315.684 8  83998692.57047  20513329.716 7  20513330.619 7
        53.000          45.000  
  21018640.201 8 110453720.270 8  86067856.72546  21018640.139 6  21018640.275 6
        53.000          41.000  
  24603484.588 6 129292193.681 6 100747181.79141  24603483.740 1  24603484.723 1
        40.000          18.000  
 05  8 12  1 42  0.0000000  0  9G03G08G11G14G15G18G19G22G28
  21136100.278 8 111071011.523 8  86548839.62846  21136099.586 6  21136102.866 6
        52.000          40.000  
  25017433.647 4 131467490.947 4 102442225.92041  25017422.798 1  25017435.502 1
        34.000           6.000  
  23136504.269 7 121583162.355 7  94740136.52043  23136503.925 3  23136505.526 3
        45.000          25.000  
  24204570.166 5 127195899.195 5  99113686.39841  24204569.075 1  24204570.583 1
        39.000          17.000  
  22394987.189 7 117686456.409 7  91703786.24044  22394986.582 4  22394990.612 4
        45.000          30.000  
  22827465.699 6 119959170.752 6  93474693.31043  22827465.510 3  22827467.652 3
        44.000          29.000  
  20511594.590 8 107789189.517 8  83991581.27047  20511593.129 7  20511594.075 7
        53.000          45.000  
  21023146.833 8 110477399.401 8  86086307.99446  21023146.166 6  21023146.278 6
        52.000          41.000  
  24588293.362 5 129212367.863 5 100684979.87841  24588293.256 1  24588295.285 1
        39.000          19.000  
 05  8 12  1 42 30.0000000  0  9G03G08G11G14G15G18G19G22G28
  21148625.027 8 111136828.870 8  86600125.86346  21148624.225 6  21148627.329 6
        51.000          40.000  
  25030613.704 4 131536771.529 4         0.000           0.000           0.000  
        31.000           0.000  
  23118179.373 7 121486863.613 7  94665098.56743  23118179.237 3  23118180.222 3
        45.000          26.000  
  24184912.916 5 127092607.555 5  99033199.45141  24184914.268 1  24184916.282 1
        37.000          18.000  
  22412782.409 7 117779965.975 7  91776650.81944  22412780.993 4  22412784.609 4
        45.000          30.000  
  22842979.257 7 120040686.262 7  93538211.90344  22842978.344 4  22842979.757 4
        47.000          30.000  
  20509957.383 8 107780586.740 8  83984877.80146  20509956.058 6  20509956.948 6
        53.000          44.000  
  21027756.589 8 110501626.665 8  86105186.38746  21027756.233 6  21027756.440 6
        53.000          41.000  
  24573175.066 6 129132915.393 6 100623068.87042  24573174.362 1  24573177.478 2
        41.000          20.000  
 05  8 12  1 43  0.0000000  0  9G03G08G11G14G15G18G19G22G28
  21161234.057 8 111203091.037 8  86651758.70746  21161233.520 6  21161236.583 6
        50.000          40.000  
  25043875.450 3 131606461.489 3         0.000           0.000           0.000  
        27.000           0.000  
  23099888.821 7 121390742.487 7  94590199.01443  23099888.225 3  23099888.024 3
        45.000          26.000  
  24165292.554 5 126989495.425 5  98952852.36841  24165291.898 1  24165294.480 1
        39.000          17.000  
  22430619.578 7 117873704.847 7  91849694.09644  22430619.321 4  22430622.807 4
        46.000          31.000  
  22858557.374 7 120122552.458 7  93602003.72344  22858556.211 3  22858558.493 4
        45.000          30.000  
  20508419.791 8 107772508.092 8  83978582.74847  20508418.844 6  20508419.450 7
        53.000          45.000  
  21032471.151 8 110526400.951 8  86124491.02346  21032470.684 6  21032470.832 6
        53.000          41.000  
  24558127.376 6 129053838.371 6 100561450.45542  24558127.260 2  24558129.781 2
        41.000          20.000  
 05  8 12  1 43 30.0000000  0  8G03G11G14G15G18G19G22G28
  21173927.619 8 111269796.425 8  86703736.92146  21173927.222 6  21173930.054 6
        52.000          40.000  
  23081629.919 6 121294800.573 6  94515439.08743  23081629.335 3  23081631.346 3
        44.000          26.000  
  24145707.070 6 126886565.766 6  98872647.47541  24145705.524 1  24145707.355 1
        40.000          18.000  
  22448501.270 6 117967671.267 6  91922914.67344  22448500.125 4  22448503.545 4
        44.000          30.000  
  22874201.777 7 120204767.125 7  93666067.09143  22874201.868 3  22874203.344 3
        47.000          29.000  
  20506982.641 8 107764954.043 8  83972696.47247  20506981.290 7  20506982.140 7
        52.000          45.000  
  21037289.644 8 110551721.310 8  86144221.17846  21037288.976 6  21037289.249 6
        53.000          41.000  
  24543151.764 6 128975139.472 6 100500126.65541  24543150.938 1  24543152.573 1
        40.000          19.000  
 05  8 12  1 44  0.0000000  0  8G03G11G14G15G18G19G22G28
  21186705.505 8 111336943.531 8  86756059.33046  21186705.133 6  21186708.024 6
        52.000          40.000  
  23063408.319 6 121199038.850 6  94440819.57943  23063407.422 3  23063408.559 3
        44.000          25.000  
  24126154.393 6 126783821.697 6  98792587.17041  24126154.679 1  24126154.493 1
        40.000          18.000  
  22466425.335 7 118061863.748 7  91996311.41244  22466424.293 4  22466428.309 4
        46.000          30.000  
  22889912.761 7 120287328.465 7  93730400.60443  22889911.745 3  22889913.976 3
        46.000          28.000  
  20505644.961 8 107757925.552 8  83967219.71947  20505643.821 6  20505644.479 7
        52.000          45.000  
  21042211.384 8 110577586.329 8  86164375.73746  21042210.944 6  21042211.212 6
        52.000          41.000  
  24528246.484 5 128896820.810 5 100439099.12141  24528246.643 1  24528249.651 1
        39.000          18.000  
 05  8 12  1 44 30.0000000  0  8G03G11G14G15G18G19G22G28
  21199567.561 8 111404530.933 8  86808724.83846  21199566.721 6  21199569.383 6
        51.000          40.000  
  23045218.964 6 121103459.147 6  94366341.91843  23045219.065 3  23045221.117 3
        44.000          27.000  
  24106637.908 5 126681266.521 5  98712674.05941  24106637.941 1  24106640.650 1
        38.000          17.000  
  22484392.534 7 118156280.818 7  92069883.13244  22484391.584 4  22484394.805 4
        45.000          30.000  
  22905689.394 7 120370233.489 7  93795001.92643  22905689.098 3  22905690.421 3
        45.000          29.000  
  20504407.603 8 107751423.579 8  83962153.24747  20504406.708 7  20504407.181 7
        53.000          45.000  
  21047237.234 8 110603994.877 8  86184953.82846  21047236.400 6  21047236.650 6
        53.000          42.000  
  24513416.214 6 128818885.213 6 100378370.08841  24513415.875 1  24513417.964 1
        41.000          19.000  
 05  8 12  1 45  0.0000000  0  8G03G11G14G15G18G19G22G28
  21212512.017 8 111472557.327 8  86861732.40246  21212511.344 6  21212514.407 6
        52.000          40.000  
  23027066.339 7 121008062.505 7  94292006.90643  23027065.598 3  23027067.322 3
        46.000          27.000  
  24087157.401 5 126578903.048 5  98632910.33041  24087159.008 1  24087159.347 1
        38.000          18.000  
  22502402.967 7 118250920.746 7  92143628.52444  22502401.629 4  22502404.846 4
        46.000          30.000  
  22921531.222 6 120453479.709 6  93859869.09843  22921529.585 3  22921532.560 3
        44.000          29.000  
  20503270.711 8 107745448.503 8  83957497.33947  20503269.818 7  20503270.217 7
        52.000          45.000  
  21052365.084 8 110630945.647 8  86205954.42946  21052364.846 6  21052365.426 6
        52.000          41.000  
  24498659.418 6 128741334.700 6 100317941.13241  24498659.772 1  24498661.710 1
        40.000          19.000  
 05  8 12  1 45 30.0000000  0  8G03G11G14G15G18G19G22G28
  21225540.350 8 111541020.965 8  86915080.67846  21225539.343 5  21225542.646 6
        52.000          40.000  
  23008948.499 7 120912850.486 7  94217815.73143  23008947.319 3  23008949.018 3
        45.000          27.000  
  24067715.410 5 126476734.398 5  98553298.42641  24067716.899 1  24067717.647 1
        38.000          17.000  
  22520453.911 7 118345782.272 7  92217546.56144  22520452.311 4  22520456.306 4
        47.000          30.000  
  22937436.597 7 120537065.543 7  93925000.89043  22937435.632 3  22937437.906 3
        46.000          29.000  
  20502234.204 8 107740000.817 8  83953252.38747  20502232.863 7  20502233.509 7
        53.000          45.000  
  21057596.648 8 110658437.576 8  86227376.71546  21057596.440 6  21057596.991 6
        52.000          41.000  
  24483975.966 6 128664172.219 6 100257814.56141  24483975.193 2  24483978.191 1
        41.000          19.000  
 05  8 12  1 46  0.0000000  0  8G03G11G14G15G18G19G22G28
  21238651.408 8 111609920.299 8  86968768.46246  21238650.588 6  21238653.956 6
        52.000          40.000  
  22990865.793 7 120817824.376 7  94143769.42643  22990864.607 3  22990866.222 3
        46.000          27.000  
  24048311.967 6 126374763.917 6  98473840.91141  24048312.470 1  24048315.238 1
        40.000          19.000  
  22538546.925 7 118440863.749 7  92291636.01344  22538546.464 4  22538549.732 4
        45.000          30.000  
  22953406.660 6 120620987.862 6  93990394.91243  22953405.932 3  22953407.102 3
        44.000          28.000  
  20501297.829 8 107735081.293 8  83949418.99147  20501296.833 7  20501297.407 7
        52.000          45.000  
  21062931.585 8 110686469.457 8  86249219.73846  21062930.786 6  21062931.034 6
        53.000          41.000  
  24469366.023 6 128587399.927 6 100197992.03941  24469365.881 1  24469367.812 1
        40.000          18.000  
 05  8 12  1 46 30.0000000  0  8G03G11G14G15G18G19G22G28
  21251844.992 8 111679253.539 8  87022794.34846  21251844.180 6  21251847.642 6
        52.000          40.000  
  22972817.179 7 120722985.629 7  94069869.13643  22972816.922 3  22972818.063 3
        45.000          27.000  
  24028947.170 6 126272994.550 6  98394540.14441  24028945.048 1  24028949.316 1
        41.000          19.000  
  22556682.087 7 118536163.576 7  92365895.61043  22556680.574 3  22556684.259 3
        45.000          29.000  
  22969439.498 6 120705244.987 6  94056049.78843  22969438.959 3  22969441.501 3
        44.000          29.000  
  20500462.057 8 107730690.826 8  83945997.84647  20500461.217 7  20500461.963 7
        53.000          45.000  
  21068367.949 8 110715039.827 8  86271482.36746  21068367.569 6  21068367.582 6
        52.000          41.000  
  24454831.972 6 128511020.126 6 100138475.30341  24454831.216 1  24454834.526 1
        42.000          17.000  
 05  8 12  1 47  0.0000000  0  8G03G11G14G15G18G19G22G28
  21265120.457 8 111749019.068 8  87077157.08745  21265120.127 5  21265123.306 5
        51.000          39.000  
  22954806.644 7 120628335.366 7  93996115.72143  22954805.601 3  22954807.238 3
        45.000          27.000  
  24009619.772 6 126171429.171 6  98315398.28241  24009618.675 1  24009620.588 1
        40.000          19.000  
  22574858.468 7 118631680.272 7  92440324.18943  22574857.188 3  22574860.649 3
        45.000          29.000  
  22985536.693 6 120789834.902 6  94121964.00543  22985535.644 3  22985538.489 3
        44.000          29.000  
  20499727.423 8 107726829.939 8  83942989.36047  20499726.484 7  20499727.172 7
        52.000          45.000  
  21073906.619 8 110744147.520 8  86294163.68846  21073906.466 6  21073906.772 6
        53.000          41.000  
  24440373.601 6 128435034.757 6 100079265.97441  24440372.682 1  24440372.441 1
        43.000          18.000  
 05  8 12  1 47 30.0000000  0  8G03G11G14G15G18G19G22G28
  21278478.357 8 111819215.241 8  87131855.39045  21278478.151 5  21278481.181 5
        51.000          39.000  
  22936831.649 7 120533875.313 7  93922510.51443  22936830.789 3  22936832.443 3
        46.000          28.000  
  23990331.962 6 126070071.069 6  98236417.98041  23990332.024 2  23990333.621 1
        40.000          19.000  
  22593075.350 7 118727412.100 7  92514920.39943  22593074.469 3  22593078.267 3
        46.000          29.000  
  23001696.798 7 120874754.817 7  94188135.33443  23001695.917 3  23001697.706 3
        46.000          28.000  
  20499093.592 8 107723499.097 8  83940393.90146  20499092.699 7  20499093.402 6
        53.000          44.000  
  21079548.411 8 110773791.302 8  86317262.74146  21079547.534 6  21079547.624 6
        53.000          41.000  
  24425990.162 6 128359446.920 6 100020366.38541  24425988.565 1  24425989.377 1
        42.000          19.000  
 05  8 12  1 48  0.0000000  0  8G03G11G14G15G18G19G22G28
  21291918.744 8 111889840.723 8  87186888.22046  21291917.756 5  21291920.900 6
        51.000          40.000  
  22918893.001 7 120439606.755 7  93849054.50743  22918892.295 3  22918893.759 3
        46.000          28.000  
  23971081.924 5 125968923.234 5  98157601.51741  23971082.627 1  23971086.778 1
        38.000          19.000  
  22611334.193 7 118823357.346 7  92589682.91643  22611332.420 3  22611335.710 3
        45.000          29.000  
  23017918.110 6 120960002.149 6  94254561.82043  23017918.252 3  23017920.252 3
        44.000          29.000  
  20498561.603 8 107720698.947 8  83938211.96647  20498559.897 7  20498560.427 7
        53.000          45.000  
  21085290.949 8 110803969.779 8  86340778.43646  21085290.423 6  21085290.436 6
        52.000          41.000  
  24411681.028 6 128284258.704 6  99961778.15141  24411681.376 1  24411682.405 1
        41.000          19.000  
 05  8 12  1 48 30.0000000  0  8G03G11G14G15G18G19G22G28
  21305439.222 8 111960893.682 8  87242254.15146  21305438.482 5  21305441.793 6
        51.000          40.000  
  22900990.696 7 120345531.036 7  93775748.79743  22900989.875 3  22900991.436 3
        46.000          28.000  
  23951876.120 5 125867989.166 5  98078951.58341  23951875.367 1  23951878.239 1
        39.000          19.000  
  22629632.121 7 118919514.698 7  92664610.70344  22629630.662 3  22629634.593 4
        46.000          30.000  
  23034201.613 7 121045574.826 7  94321241.81543  23034200.997 3  23034203.666 3
        45.000          28.000  
  20498129.375 8 107718430.044 8  83936443.98047  20498127.989 7  20498128.721 7
        52.000          45.000  
  21091134.724 8 110834681.271 8  86364709.46946  21091134.395 6  21091134.807 6
        51.000          41.000  
  24397449.862 6 128209472.633 6  99903503.29942  24397449.803 2  24397451.303 2
        41.000          20.000  
 05  8 12  1 49  0.0000000  0  8G03G11G14G15G18G19G22G28
  21319041.206 8 112032372.683 8  87297952.05546  21319040.680 5  21319043.697 6
        51.000          40.000  
  22883124.931 7 120251649.585 7  93702594.43543  22883124.590 3  22883126.454 3
        45.000          27.000  
  23932710.567 5 125767271.555 5  98000470.37841  23932710.522 1  23932713.283 1
        39.000          18.000  
  22647969.714 7 119015882.551 7  92739702.52243  22647968.629 3  22647972.363 3
        45.000          29.000  
  23050547.860 7 121131470.475 7  94388173.45843  23050547.192 3  23050549.002 3
        45.000          28.000  
  20497798.190 8 107716692.826 8  83935090.30047  20497797.476 7  20497798.102 7
        53.000          45.000  
  21097080.574 8 110865925.125 8  86389055.33746  21097079.904 6  21097080.307 6
        52.000          41.000  
  24383294.659 6 128135090.831 6  99845543.54842  24383294.726 2  24383296.237 2
        40.000          21.000  
 05  8 12  1 49 30.0000000  0  8G03G11G14G15G18G19G22G28
  21332724.245 8 112104276.177 8  87353980.74146  21332723.618 5  21332726.419 6
        52.000          40.000  
  22865296.610 6 120157963.433 6  93629592.26043  22865296.257 3  22865298.895 3
        44.000          27.000  
  23913586.168 5 125666773.562 5  97922160.29142  23913587.734 2  23913587.772 2
        39.000          20.000  
  22666347.875 7 119112459.392 7  92814957.16443  22666346.863 3  22666350.025 3
        45.000          29.000  
  23066953.608 7 121217686.544 7  94455354.80043  23066953.174 3  23066955.976 3
        45.000          29.000  
  20497569.867 8 107715488.057 8  83934151.51747  20497568.181 7  20497568.988 7
        52.000          45.000  
  21103126.873 8 110897699.582 8  86413814.65246  21103126.595 6  21103126.785 6
        52.000          41.000  
  24369216.636 6 128061115.969 6  99787900.81742  24369216.065 2  24369220.046 2
        40.000          20.000  
 05  8 12  1 50  0.0000000  0  8G03G11G14G15G18G19G22G28
  21346487.427 8 112176602.383 8  87410338.81045  21346486.814 6  21346489.765 5
        51.000          39.000  
  22847507.060 7 120064474.310 7  93556743.59443  22847506.742 3  22847507.907 3
        45.000          28.000  
  23894503.954 5 125566498.336 5  97844023.75041  23894503.154 1  23894507.339 1
        39.000          19.000  
  22684765.875 6 119209243.877 6  92890373.63743  22684764.013 3  22684767.250 3
        44.000          28.000  
  23083421.341 6 121304221.517 6  94522784.64043  23083420.633 3  23083422.384 3
        44.000          27.000  
  20497441.559 8 107714816.049 8  83933627.87147  20497440.390 7  20497440.927 7
        52.000          45.000  
  21109274.556 8 110930003.300 8  86438986.37946  21109273.967 6  21109273.913 6
        52.000          41.000  
  24355217.810 6 127987550.162 6  99730576.81641  24355218.095 1  24355221.970 1
        40.000          19.000  
 05  8 12  1 50 30.0000000  0  8G03G11G14G15G18G19G22G28
  21360330.758 8 112249349.434 8  87467024.81146  21360330.212 6  21360333.278 6
        52.000          40.000  
  22829754.442 7 119971183.682 7  93484049.62843  22829753.713 3  22829755.292 3
        46.000          28.000  
  23875465.587 5 125466448.947 5  97766063.23342  23875465.287 2  23875467.565 2
        39.000          20.000  
  22703221.189 6 119306234.418 6  92965950.65843  22703220.327 3  22703223.854 3
        44.000          28.000  
  23099948.716 7 121391072.062 7  94590460.36643  23099948.355 3  23099949.618 3
        45.000          27.000  
  20497415.118 8 107714677.386 8  83933519.81547  20497413.955 7  20497414.757 7
        53.000          45.000  
  21115521.781 8 110962835.256 8  86464569.72446  21115521.389 6  21115521.508 6
        53.000          41.000  
  24341297.580 5 127914395.619 5  99673573.32241  24341296.932 1  24341298.137 1
        39.000          19.000  
 05  8 12  1 51  0.0000000  0  8G03G11G14G15G18G19G22G28
  21374254.159 8 112322515.808 8  87524037.55645  21374253.174 5  21374255.779 5
        52.000          39.000  
  22812039.971 7 119878092.810 7  93411511.32643  22812039.136 3  22812040.354 3
        46.000          28.000  
  23856470.154 6 125366628.526 6  97688281.09342  23856469.062 2  23856471.811 2
        40.000          20.000  
  22721717.890 7 119403429.224 7  93041686.86243  22721716.303 3  22721719.072 3
        45.000          28.000  
  23116535.705 7 121478236.049 7  94658380.35943  23116534.629 3  23116536.208 3
        46.000          28.000  
  20497490.488 8 107715072.659 8  83933827.81947  20497489.156 6  20497489.913 7
        53.000          45.000  
  21121870.221 8 110996193.651 8  86490563.27946  21121869.392 6  21121869.480 6
        53.000          41.000  
  24327455.527 6 127841654.724 6  99616892.13842  24327454.120 2  24327457.385 2
        40.000          20.000  
 05  8 12  1 51 30.0000000  0  8G03G11G14G15G18G19G22G28
  21388255.955 8 112396099.813 8  87581375.72845  21388255.488 5  21388258.769 5
        52.000          39.000  
  22794364.189 7 119785202.964 7  93339129.64143  22794362.853 3  22794363.711 3
        46.000          28.000  
  23837520.001 6 125267040.007 6  97610679.70642  23837517.817 2  23837523.040 2
        41.000          21.000  
  22740251.708 6 119500827.120 6  93117581.29243  22740249.914 3  22740254.095 3
        44.000          28.000  
  23133181.627 7 121565711.318 7  94726542.90143  23133180.314 3  23133183.423 3
        46.000          27.000  
  20497667.642 8 107716002.440 8  83934552.32047  20497666.128 7  20497666.856 7
        53.000          45.000  
  21128317.620 8 111030077.228 8  86516966.06746  21128317.185 6  21128317.109 6
        53.000          41.000  
  24313692.209 6 127769329.845 6  99560535.13442  24313692.567 2  24313695.088 2
        41.000          21.000  
 05  8 12  1 52  0.0000000  0  8G03G11G14G15G18G19G22G28
  21402337.886 8 112470099.872 8  87639038.09545  21402337.579 5  21402340.456 5
        50.000          39.000  
  22776725.631 7 119692515.709 7  93266905.81643  22776725.290 3  22776726.295 3
        47.000          28.000  
  23818612.769 6 125167686.635 6  97533261.50642  23818613.696 2  23818616.209 2
        41.000          20.000  
  22758823.273 6 119598426.477 6  93193632.71543  22758822.580 3  22758825.982 3
        44.000          27.000  
  23149887.123 7 121653495.773 7  94794946.35143  23149886.000 3  23149888.346 3
        45.000          27.000  
  20497945.938 8 107717467.086 8  83935693.59747  20497944.846 7  20497945.597 7
        52.000          45.000  
  21134864.963 8 111064484.342 8  86543776.80346  21134864.516 6  21134864.713 6
        52.000          41.000  
  24300009.978 6 127697423.531 6  99504504.22642  24300008.652 2  24300012.333 2
        42.000          21.000  
 05  8 12  1 52 30.0000000  0  8G03G11G14G15G18G19G22G28
  21416498.421 8 112544514.235 8  87697023.30145  21416497.866 5  21416501.426 5
        52.000          39.000  
  22759126.300 7 119600032.575 7  93194841.03343  22759126.270 3  22759127.905 3
        46.000          28.000  
  23799752.706 6 125068571.439 6  97456028.90842  23799753.606 2  23799752.981 2
        41.000          22.000  
  22777434.700 6 119696225.639 6  93269839.84143  22777433.630 3  22777436.794 3
        44.000          27.000  
  23166650.239 7 121741587.090 7  94863588.91943  23166649.595 3  23166651.592 3
        46.000          27.000  
  20498326.638 8 107719466.874 8  83937251.86947  20498325.470 7  20498326.113 7
        53.000          45.000  
  21141511.973 8 111099413.795 8  86570994.55846  21141511.561 6  21141511.607 6
        53.000          41.000  
  24286407.512 6 127625937.836 6  99448801.07242  24286406.239 2  24286408.494 2
        43.000          22.000  
 05  8 12  1 53  0.0000000  0  8G03G11G14G15G18G19G22G28
  21430737.704 8 112619341.142 8  87755329.96946  21430737.395 5  21430740.613 6
        51.000          40.000  
  22741566.587 7 119507754.667 7  93122936.19643  22741566.355 3  22741567.000 3
        46.000          28.000  
  23780937.777 6 124969697.603 6  97378984.38342  23780936.561 2  23780938.977 2
        41.000          22.000  
  22796083.181 6 119794222.943 6  93346201.35443  22796081.776 3  22796084.693 3
        44.000          27.000  
  23183471.801 7 121829982.581 7  94932468.52243  23183470.220 3  23183471.647 3
        46.000          27.000  
  20498808.930 8 107722002.341 8  83939227.54847  20498807.896 7  20498808.632 7
        52.000          45.000  
  21148257.455 8 111134863.478 8  86598617.68946  21148257.307 6  21148257.227 6
        52.000          41.000  
  24272884.597 6 127554875.162 6  99393427.59042  24272882.857 2  24272883.705 2
        41.000          21.000  
 05  8 12  1 53 30.0000000  0  8G03G11G14G15G18G19G22G28
  21445055.203 8 112694578.819 8  87813956.71445  21445054.537 5  21445057.860 5
        51.000          39.000  
  22724046.307 7 119415683.323 7  93051192.31643  22724045.545 3  22724046.370 3
        46.000          28.000  
  23762168.926 6 124871068.314 6  97302130.41742  23762167.521 2  23762172.507 2
        40.000          22.000  
  22814768.709 7 119892417.149 7  93422716.27043  22814767.783 3  22814771.981 3
        45.000          28.000  
  23200350.196 6 121918680.396 6  95001583.69043  23200349.660 3  23200349.994 3
        44.000          27.000  
  20499393.394 8 107725074.097 8  83941621.12247  20499392.442 7  20499393.095 7
        52.000          45.000  
  21155102.199 8 111170832.789 8  86626645.72246  21155101.990 6  21155102.023 6
        53.000          41.000  
  24259441.460 6 127484237.824 6  99338385.55642  24259441.132 2  24259442.474 2
        41.000          21.000  
 05  8 12  1 54  0.0000000  0  8G03G11G14G15G18G19G22G28
  21459450.506 8 112770225.799 8  87872902.39945  21459449.720 5  21459453.096 5
        50.000          39.000  
  22706565.023 7 119323820.022 7  92979610.53243  22706564.770 3  22706566.625 3
        45.000          29.000  
  23743448.716 6 124772686.335 6  97225469.14942  23743446.809 2  23743448.220 2
        40.000          21.000  
  22833491.954 7 119990806.572 7  93499383.33643  22833490.975 3  22833494.082 3
        45.000          27.000  
  23217284.964 7 122007677.744 7  95070932.26943  23217284.112 3  23217286.111 3
        46.000          27.000  
  20500080.318 8 107728682.421 8  83944432.79247  20500079.073 7  20500079.692 7
        52.000          45.000  
  21162045.660 8 111207319.975 8  86655077.29846  21162045.249 6  21162045.324 6
        53.000          40.000  
  24246081.287 6 127414027.983 6  99283676.57642  24246080.378 2  24246081.123 2
        41.000          21.000  
 05  8 12  1 54 30.0000000  0  8G03G11G14G15G18G19G22G28
  21473922.906 8 112846280.285 8  87932165.62845  21473922.371 5  21473925.683 5
        51.000          39.000  
  22689124.414 7 119232166.133 7  92908191.93043  22689123.425 3  22689124.268 3
        46.000          29.000  
  23724773.326 6 124674554.907 6  97149003.14242  23724773.478 2  23724775.706 2
        41.000          22.000  
  22852251.283 6 120089389.655 6  93576201.32643  22852251.110 3  22852254.366 3
        44.000          27.000  
  23234277.277 7 122096972.116 7  95140512.28043  23234276.927 3  23234277.678 3
        45.000          26.000  
  20500868.980 8 107732827.595 8  83947662.78847  20500867.677 7  20500868.386 7
        53.000          45.000  
  21169087.179 8 111244323.624 8  86683911.31346  21169086.865 6  21169086.951 6
        52.000          41.000  
  24232803.000 6 127344247.936 6  99229302.55942  24232801.859 2  24232804.522 2
        41.000          20.000  
 05  8 12  1 55  0.0000000  0  8G03G11G14G15G18G19G22G28
  21488473.180 8 112922740.359 8  87991744.89445  21488472.075 5  21488475.532 5
        51.000          39.000  
  22671723.757 7 119140723.447 7  92836937.90144  22671722.901 3  22671724.194 4
        47.000          30.000  
  23706148.118 6 124576677.126 6  97072734.76542  23706147.254 2  23706149.339 2
        41.000          21.000  
  22871046.789 6 120188164.912 6  93653169.00843  22871046.361 3  22871050.060 3
        44.000          28.000  
  23251325.218 6 122186561.508 6  95210322.16743  23251324.052 3  23251326.667 3
        44.000          26.000  
  20501760.056 8 107737510.016 8  83951311.42246  20501759.013 6  20501759.659 6
        53.000          44.000  
  21176226.874 8 111281842.109 8  86713146.49646  21176226.576 6  21176226.552 6
        52.000          40.000  
  24219606.946 6 127274899.646 6  99175264.96042  24219605.888 2  24219608.332 2
        43.000          21.000  
 05  8 12  1 55 30.0000000  0  8G03G11G14G15G18G19G22G28
  21503099.056 8 112999604.222 8  88051638.80045  21503098.841 5  21503102.243 5
        51.000          38.000  
  22654363.002 7 119049493.063 7  92765849.31044  22654362.038 4  22654363.821 4
        46.000          30.000  
  23687571.991 6 124479056.101 6  96996666.47542  23687570.312 2  23687572.750 2
        41.000          22.000  
  22889880.587 7 120287130.926 7  93730285.37343  22889879.354 3  22889882.248 3
        45.000          27.000  
  23268429.919 7 122276443.939 7  95280360.41843  23268429.475 3  23268430.245 3
        45.000          26.000  
  20502753.169 8 107742729.977 8  83955378.91947  20502752.241 7  20502752.966 7
        52.000          45.000  
  21183464.200 8 111319873.952 8  86742781.69846  21183463.793 6  21183463.970 6
        53.000          40.000  
  24206492.797 6 127205985.717 6  99121565.78542  24206492.106 2  24206494.029 2
        42.000          22.000  
 05  8 12  1 56  0.0000000  0  8G03G11G14G15G18G19G22G28
  21517802.656 8 113076870.217 8  88111846.05645  21517802.187 5  21517805.437 5
        51.000          39.000  
  22637042.152 7 118958476.447 7  92694927.29943  22637041.911 3  22637043.743 3
        46.000          29.000  
  23669043.286 6 124381694.874 6  96920800.58142  23669043.137 2  23669045.342 2
        41.000          21.000  
  22908749.536 6 120386286.189 6  93807549.18343  22908747.724 3  22908751.419 3
        44.000          27.000  
  23285588.898 6 122366616.351 6  95350624.63543  23285588.120 3  23285589.184 3
        44.000          26.000  
  20503848.871 8 107748488.049 8  83959865.72747  20503847.753 7  20503848.653 7
        53.000          45.000  
  21190798.984 8 111358417.589 8  86772815.70146  21190798.356 6  21190798.430 6
        53.000          41.000  
  24193461.139 6 127137508.382 6  99068206.82442  24193461.556 2  24193462.236 2
        42.000          22.000  
 05  8 12  1 56 30.0000000  0  8G03G11G14G15G18G19G22G28
  21532582.179 8 113154536.406 8  88172365.15145  21532581.561 5  21532584.788 5
        51.000          39.000  
  22619763.664 7 118867674.758 7  92624172.73943  22619762.934 3  22619764.108 3
        47.000          29.000  
  23650565.765 6 124284596.549 6  96845139.59642  23650566.737 2  23650568.459 2
        41.000          22.000  
  22927653.645 6 120485629.018 6  93884959.14843  22927652.216 3  22927655.149 3
        44.000          27.000  
  23302802.578 6 122457076.837 6  95421113.32843  23302802.206 3  23302803.164 3
        44.000          25.000  
  20505047.522 8 107754784.295 8  83964771.88747  20505046.079 6  20505046.893 7
        53.000          45.000  
  21198230.622 8 111397471.586 8  86803247.39446  21198230.156 6  21198230.101 6
        53.000          41.000  
  24180513.668 6 127069469.790 6  99015189.75542  24180513.693 2  24180515.558 2
        41.000          22.000  
 05  8 12  1 57  0.0000000  0  8G03G11G14G15G18G19G22G28
  21547437.556 8 113232601.088 8  88233194.75945  21547436.925 5  21547440.089 5
        51.000          38.000  
  22602526.437 7 118777089.547 7  92553586.88044  22602525.419 4  22602526.826 4
        47.000          30.000  
  23632140.394 6 124187764.047 6  96769685.71742  23632139.619 2  23632142.724 2
        41.000          21.000  
  22946593.157 6 120585158.185 6  93962514.30743  22946592.038 3  22946595.402 3
        44.000          27.000  
  23320070.664 6 122547823.863 6  95491825.26943  23320070.086 3  23320072.278 3
        43.000          25.000  
  20506347.848 8 107761619.190 8  83970097.77847  20506346.692 7  20506347.494 7
        53.000          45.000  
  21205758.936 8 111437034.316 8  86834075.49646  21205758.673 6  21205758.613 6
        52.000          41.000  
  24167650.167 6 127001872.210 6  98962516.33242  24167648.701 2  24167650.684 2
        42.000          21.000  
 05  8 12  1 57 30.0000000  0  8G03G11G14G15G18G19G22G28
  21562367.925 8 113311062.517 8  88294333.52445  21562367.436 5  21562370.730 5
        51.000          39.000  
  22585330.149 7 118686722.510 7  92483171.03144  22585329.296 4  22585330.312 4
        48.000          31.000  
  23613764.913 6 124091200.478 6  96694441.40142  23613763.993 2  23613767.355 2
        41.000          21.000  
  22965567.656 6 120684871.937 6  94040213.29243  22965566.964 3  22965571.079 3
        44.000          27.000  
  23337392.913 6 122638853.549 6  95562757.45843  23337392.649 3  23337394.094 3
        44.000          26.000  
  20507751.492 8 107768993.081 8  83975843.66547  20507750.045 7  20507750.440 7
        53.000          45.000  
  21213383.738 8 111477103.773 8  86865298.44046  21213383.291 6  21213383.646 6
        52.000          41.000  
  24154871.584 6 126934717.814 6  98910188.25042  24154870.984 2  24154871.875 2
        43.000          20.000  
 05  8 12  1 58  0.0000000  0  8G03G11G14G15G18G19G22G28
  21577374.394 8 113389918.960 8  88355780.08945  21577373.545 5  21577376.495 5
        51.000          39.000  
  22568175.532 7 118596574.905 7  92412926.17244  22568174.574 4  22568175.682 4
        47.000          30.000  
  23595440.231 6 123994909.053 6  96619409.14142  23595439.838 2  23595443.432 2
        41.000          22.000  
  22984578.225 6 120784768.965 6  94118055.10343  22984577.007 3  22984580.568 3
        44.000          26.000  
  23354769.064 6 122730164.066 6  95633908.52743  23354767.846 3  23354771.021 3
        44.000          25.000  
  20509256.705 8 107776906.080 8  83982009.63947  20509255.699 7  20509256.400 7
        52.000          45.000  
  21221104.879 8 111517678.965 8  86896915.47846  21221104.520 6  21221104.722 6
        53.000          40.000  
  24142178.351 6 126868008.560 6  98858207.02641  24142176.123 1  24142177.003 1
        42.000          19.000  
 05  8 12  1 58 30.0000000  0  8G03G11G14G15G18G19G22G28
  21592454.808 8 113469168.721 8  88417533.14145  21592453.948 5  21592457.171 5
        50.000          38.000  
  22551061.869 7 118506647.995 7  92342853.24844  22551061.537 4  22551063.068 4
        47.000          30.000  
  23577169.767 6 123898892.861 6  96544591.34842  23577169.133 2  23577172.394 2
        42.000          23.000  
  23003621.540 6 120884847.618 6  94196038.43943  23003621.002 3  23003624.736 3
        43.000          26.000  
  23372199.525 6 122821753.498 6  95705276.90542  23372197.829 2  23372197.837 2
        44.000          24.000  
  20510865.246 8 107785358.711 8  83988596.10747  20510864.221 7  20510864.914 7
        53.000          45.000  
  21228922.179 8 111558757.988 8  86928925.11146  21228921.820 6  21228921.678 6
        52.000          41.000  
  24129567.888 6 126801746.874 6  98806574.56642  24129567.922 2  24129567.709 2
        42.000          21.000  
 05  8 12  1 59  0.0000000  0  8G03G11G14G15G18G19G22G28
  21607610.355 8 113548809.943 8  88479591.22945  21607609.398 5  21607612.457 5
        50.000          38.000  
  22533991.848 7 118416943.217 7  92272953.44943  22533991.321 4  22533992.345 3
        46.000          29.000  
  23558952.070 6 123803154.917 6  96469990.38042  23558950.852 2  23558952.807 2
        43.000          23.000  
  23022701.179 6 120985106.458 6  94274162.17443  23022699.922 3  23022703.193 3
        43.000          26.000  
  23389679.332 6 122913619.274 6  95776860.59543  23389679.421 3  23389681.014 3
        44.000          25.000  
  20512576.815 8 107794350.821 8  83995602.94447  20512575.371 7  20512575.949 7
        52.000          45.000  
  21236834.915 8 111600339.464 8  86961326.25846  21236834.408 6  21236834.538 6
        51.000          41.000  
  24117043.675 6 126735934.855 6  98755292.47442  24117042.630 2  24117045.945 2
        41.000          21.000  
 05  8 12  1 59 30.0000000  0  8G03G11G14G15G18G19G22G28
  21622839.108 8 113628840.738 8  88541952.87445  21622838.553 5  21622841.630 5
        50.000          38.000  
  22516963.562 7 118327461.996 7  92203227.84544  22516963.439 4  22516965.394 4
        47.000          30.000  
  23540786.164 6 123707698.430 6  96395608.72442  23540786.127 2  23540788.848 2
        41.000          23.000  
  23041813.992 6 121085544.013 6  94352425.19643  23041812.380 3  23041816.147 3
        44.000          26.000  
  23407213.723 6 123005759.342 6  95848658.02343  23407213.025 3  23407215.207 3
        43.000          26.000  
  20514390.591 8 107803882.746 8  84003030.43047  20514389.315 7  20514389.801 7
        53.000          45.000  
  21244842.487 8 111642421.575 8  86994117.51646  21244842.431 6  21244842.173 6
        52.000          40.000  
  24104606.131 6 126670574.784 6  98704362.54042  24104606.275 2  24104606.978 2
        42.000          22.000  
 05  8 12  2  0  0.0000000  0  8G03G11G14G15G18G19G22G28
  21638142.302 8 113709259.213 8  88604616.60945  21638141.514 5  21638144.702 5
        50.000          38.000  
  22499979.208 7 118238205.461 7  92133677.30244  22499978.758 4  22499980.812 4
        47.000          31.000  
  23522677.009 6 123612526.383 6  96321448.74142  23522674.481 2  23522678.138 2
        42.000          23.000  
  23060960.353 6 121186158.749 6  94430826.23743  23060959.148 3  23060963.102 3
        44.000          25.000  
  23424799.502 6 123098171.444 6  95920667.41643  23424798.309 3  23424801.463 3
        44.000          25.000  
  20516307.085 8 107813954.920 8  84010878.88047  20516305.945 7  20516306.632 7
        53.000          45.000  
  21252945.253 8 111685002.767 8  87027297.66746  21252944.950 6  21252945.380 6
        53.000          41.000  
  24092256.142 6 126605668.634 6  98653786.32942  24092255.455 2  24092256.319 2
        43.000          22.000  
 05  8 12  2  0 30.0000000  0  8G03G11G14G15G18G19G22G28
  21653518.899 8 113790063.517 8  88667580.98945  21653518.052 5  21653521.689 5
        51.000          37.000  
  22483037.775 7 118149175.672 7  92064303.46544  22483037.111 4  22483038.399 4
        48.000          31.000  
  23504620.560 6 123517641.458 6  96247512.45942  23504619.932 2  23504620.696 2
        43.000          24.000  
  23080139.803 6 121286949.300 6  94509364.29643  23080138.807 3  23080140.939 3
        44.000          25.000  
  23442436.558 6 123190853.124 6  95992886.90743  23442435.537 3  23442436.958 3
        44.000          25.000  
  20518326.414 8 107824567.254 8  84019148.23747  20518325.360 7  20518326.056 7
        53.000          45.000  
  21261142.857 8 111728081.318 8  87060865.36746  21261142.696 6  21261142.919 6
        52.000          40.000  
  24079991.452 6 126541218.753 6  98603565.67942  24079990.423 2  24079992.049 2
        43.000          23.000  
 05  8 12  2  1  0.0000000  0  8G03G11G14G15G18G19G22G28
  21668968.086 7 113871251.892 7  88730844.64245  21668967.847 5  21668971.330 5
        49.000          38.000  
  22466139.340 7 118060373.709 7  91995107.13944  22466138.627 4  22466139.739 4
        47.000          31.000  
  23486619.560 6 123423047.081 6  96173802.55142  23486618.190 2  23486619.761 2
        43.000          23.000  
  23099351.497 6 121387914.234 6  94588038.24743  23099351.471 3  23099354.905 3
        41.000          25.000  
  23460124.396 6 123283801.454 6  96065314.15243  23460122.776 3  23460124.245 3
        43.000          25.000  
  20520448.758 8 107835720.198 8  84027838.85646  20520447.805 6  20520448.386 6
        53.000          44.000  
  21269435.071 8 111771655.529 8  87094819.29246  21269434.562 6  21269434.950 6
        52.000          41.000  
  24067813.044 6 126477227.132 6  98553702.09342  24067813.480 2  24067815.902 2
        43.000          22.000  
 05  8 12  2  1 30.0000000  0  8G03G11G14G15G18G19G22G28
  21684491.284 8 113952822.449 8  88794406.09845  21684490.279 5  21684493.961 5
        51.000          38.000  
  22449284.251 7 117971801.034 7  91926089.47644  22449283.995 4  22449285.633 4
        47.000          31.000  
  23468674.566 6 123328746.155 6  96100321.32242  23468673.528 2  23468675.226 2
        43.000          24.000  
  23118598.213 6 121489052.159 6  94666846.98342  23118597.995 2  23118600.556 2
        43.000          24.000  
  23477861.830 6 123377014.850 6  96137947.94843  23477860.527 3  23477863.248 3
        44.000          26.000  
  20522674.406 8 107847413.925 8  84036950.87046  20522672.976 6  20522673.523 6
        52.000          44.000  
  21277821.025 8 111815723.828 8  87129158.22446  21277820.410 6  21277820.718 6
        51.000          40.000  
  24055724.821 6 126413695.796 6  98504197.15342  24055723.359 2  24055725.461 2
        43.000          22.000  
 05  8 12  2  2  0.0000000  0  8G03G11G14G15G18G19G22G28
  21700085.640 8 114034773.466 8  88858264.01345  21700085.133 5  21700088.474 5
        50.000          38.000  
  22432473.950 7 117883459.087 7  91857251.60844  22432473.017 4  22432474.333 4
        48.000          32.000  
  23450786.205 6 123234741.612 6  96027071.07442  23450786.196 2  23450787.234 2
        42.000          24.000  
  23137876.713 6 121590361.435 6  94745789.26042  23137876.045 2  23137879.304 2
        44.000          24.000  
  23495648.754 6 123470490.682 6  96210786.21043  23495649.072 3  23495651.439 3
        44.000          26.000  
  20525001.960 8 107859648.260 8  84046484.12846  20525000.917 6  20525001.637 6
        52.000          44.000  
  21286300.441 8 111860284.653 8  87163880.93746  21286300.117 6  21286300.279 6
        52.000          40.000  
  24043722.759 6 126350627.007 6  98455052.65042  24043722.408 2  24043724.814 2
        43.000          23.000  
 05  8 12  2  2 30.0000000  0  8G03G11G14G15G18G19G22G28
  21715752.766 7 114117103.094 7  88922416.95745  21715751.882 5  21715755.213 5
        49.000          38.000  
  22415706.348 7 117795349.309 7  91788594.65644  22415706.269 4  22415707.449 4
        48.000          32.000  
  23432953.463 6 123141036.506 6  95954054.14442  23432953.363 2  23432956.728 2
        42.000          24.000  
  23157189.586 6 121691840.544 6  94824863.86642  23157187.861 2  23157190.838 2
        43.000          24.000  
  23513486.604 6 123564226.461 6  96283827.07543  23513485.300 3  23513487.871 3
        44.000          25.000  
  20527433.004 8 107872423.381 8  84056438.78246  20527431.872 7  20527432.782 6
        52.000          44.000  
  21294872.882 8 111905336.254 8  87198986.07746  21294873.156 6  21294873.592 6
        52.000          40.000  
  24031809.338 6 126288022.929 6  98406270.24542  24031808.438 2  24031810.846 2
        41.000          22.000  
 05  8 12  2  3  0.0000000  0  8G03G11G14G15G18G19G22G28
  21731491.094 8 114199809.363 8  88986863.38845  21731490.404 5  21731493.809 5
        51.000          38.000  
  22398984.727 7 117707472.861 7  91720119.51844  22398983.475 4  22398984.689 4
        47.000          31.000  
  23415179.965 6 123047634.486 6  95881273.39142  23415179.644 2  23415182.283 2
        42.000          24.000  
  23176531.798 6 121793488.014 6  94904069.65942  23176530.164 2  23176533.428 2
        44.000          24.000  
  23531374.153 6 123658220.181 6  96357068.89943  23531372.598 3  23531374.948 3
        44.000          26.000  
  20529967.147 8 107885739.485 8  84066814.96947  20529965.952 6  20529966.879 7
        52.000          45.000  
  21303539.737 8 111950876.774 8  87234472.19046  21303539.389 6  21303539.749 6
        52.000          41.000  
  24019984.472 6 126225885.464 6  98357851.41942  24019984.131 2  24019986.888 2
        43.000          22.000  
 05  8 12  2  3 30.0000000  0  8G03G11G14G15G18G19G22G28
  21747300.955 8 114282890.237 8  89051601.72345  21747300.467 5  21747303.682 5
        51.000          37.000  
  22382306.847 7 117619831.555 7  91651827.59544  22382306.217 4  22382307.657 4
        48.000          32.000  
  23397465.337 6 122954538.058 6  95808730.73543  23397464.228 2  23397466.267 3
        42.000          25.000  
  23195905.128 6 121895302.471 6  94983405.56242  23195904.575 2  23195908.228 2
        43.000          24.000  
  23549308.866 6 123752469.761 6  96430510.12142  23549307.608 2  23549308.631 2
        44.000          24.000  
  20532604.350 8 107899596.711 8  84077612.81346  20532602.967 6  20532603.648 6
        52.000          44.000  
  21312298.998 8 111996904.556 8  87270337.99146  21312298.270 6  21312298.515 6
        51.000          40.000  
  24008249.062 6 126164216.573 6  98309797.76342  24008249.218 2  24008251.804 2
        42.000          22.000  
 05  8 12  2  4  0.0000000  0  8G03G11G14G15G18G19G22G28
  21763181.479 8 114366343.595 8  89116630.30145  21763181.090 5  21763184.161 5
        51.000          38.000  
  22365674.051 7 117532426.589 7  91583719.83044  22365673.706 4  22365674.749 4
        48.000          32.000  
  23379807.725 6 122861750.326 6  95736428.64242  23379805.957 2  23379809.675 2
        42.000          24.000  
  23215309.896 6 121997282.323 6  95062870.34542  23215310.042 2  23215314.188 2
        42.000          24.000  
  23567292.191 6 123846972.786 6  96504148.82142  23567291.444 2  23567291.291 2
        43.000          24.000  
  20535343.906 8 107913995.140 8  84088832.36846  20535342.891 6  20535343.537 6
        52.000          44.000  
  21321149.828 8 112043417.697 8  87306581.99346  21321149.491 6  21321149.390 6
        52.000          40.000  
  23996604.867 6 126103018.484 6  98262110.94142  23996604.772 2  23996606.158 2
        43.000          23.000  
 05  8 12  2  4 30.0000000  0  8G03G11G14G15G18G19G22G28
  21779132.741 8 114450167.813 8  89181947.86245  21779132.106 5  21779135.173 5
        50.000          37.000  
  22349086.510 7 117445259.003 7  91515797.05544  22349085.781 4  22349087.501 4
        48.000          31.000  
  23362210.430 6 122769274.196 6  95664369.32843  23362209.180 2  23362213.778 3
        42.000          25.000  
  23234749.017 6 122099426.242 6  95142462.98042  23234748.796 2  23234751.858 2
        43.000          23.000  
  23585321.843 6 123941727.008 6  96577983.24842  23585321.290 2  23585324.562 2
        43.000          24.000  
  20538187.000 8 107928934.740 8  84100473.62046  20538185.848 6  20538186.513 6
        52.000          44.000  
  21330092.996 8 112090414.565 8  87343202.93146  21330092.512 6  21330092.639 6
        52.000          40.000  
  23985048.817 6 126042293.234 6  98214792.56142  23985048.146 2  23985050.844 2
        43.000          24.000  
 05  8 12  2  5  0.0000000  0  8G03G11G14G15G18G19G22G28
  21795154.143 8 114534361.210 8  89247553.10145  21795153.475 5  21795156.861 5
        51.000          37.000  
  22332544.346 7 117358331.006 7  91448060.97744  22332544.109 4  22332545.170 4
        48.000          32.000  
  23344672.071 6 122677112.913 6  95592555.38342  23344671.162 2  23344674.826 2
        42.000          24.000  
  23254217.278 6 122201732.626 6  95222182.20742  23254215.777 2  23254219.255 2
        42.000          24.000  
  23603401.744 6 124036729.841 6  96652011.39642  23603399.967 2  23603401.408 2
        44.000          24.000  
  20541132.980 8 107944415.651 8  84112536.66947  20541131.818 6  20541132.391 7
        52.000          45.000  
  21339127.482 8 112137893.824 8  87380199.75246  21339127.491 6  21339127.834 6
        52.000          40.000  
  23973584.631 6 125982042.694 6  98167844.05942  23973583.459 2  23973584.293 2
        44.000          23.000  
 05  8 12  2  5 30.0000000  0  8G03G11G14G15G18G19G22G28
  21811245.221 7 114618921.553 7  89313444.26345  21811245.046 5  21811247.956 5
        49.000          37.000  
  22316049.105 7 117271643.672 7  91380512.42244  22316048.001 4  22316048.955 4
        48.000          32.000  
  23327196.567 6 122585269.438 6  95520989.06643  23327194.362 3  23327197.528 3
        43.000          25.000  
  23273716.619 6 122304199.973 6  95302026.88042  23273716.092 2  23273718.652 2
        44.000          24.000  
  23621526.148 6 124131979.048 6  96726231.54642  23621524.980 2  23621527.468 2
        43.000          24.000  
  20544181.950 8 107960437.833 8  84125021.48946  20544180.731 7  20544181.380 6
        51.000          44.000  
  21348254.301 8 112185853.552 8  87417570.96646  21348253.947 6  21348254.522 6
        52.000          40.000  
  23962209.337 6 125922269.003 6  98121267.17342  23962207.152 2  23962209.831 2
        44.000          24.000  
 05  8 12  2  6  0.0000000  0  9G01G03G11G14G15G18G19G22G28
  25317835.667 4 133046125.241 4         0.000           0.000           0.000  
        33.000           0.000  
  21827406.236 8 114703846.986 8  89379619.91645  21827405.823 5  21827408.921 5
        50.000          37.000  
  22299598.215 7 117185198.379 7  91313152.44744  22299597.784 4  22299599.792 4
        47.000          32.000  
  23309778.980 6 122493746.771 6  95449672.72643  23309778.317 3  23309780.857 3
        44.000          25.000  
  23293246.892 6 122406826.946 6  95381995.92542  23293245.255 2  23293246.890 2
        44.000          24.000  
  23639699.008 6 124227472.199 6  96800641.76642  23639696.968 2  23639699.437 2
        43.000          24.000  
  20547333.730 8 107977001.439 8  84137928.19446  20547332.516 6  20547333.433 6
        52.000          44.000  
  21357472.229 8 112234291.663 8  87455314.94846  21357471.597 6  21357471.565 6
        52.000          40.000  
  23950925.449 6 125862973.975 6  98075063.23642  23950924.360 2  23950927.501 2
        43.000          23.000  
 05  8 12  2  6 30.0000000  0  9G01G03G11G14G15G18G19G22G28
  25296705.662 5 132935074.829 5         0.000           0.000           0.000  
        37.000           0.000  
  21843636.350 8 114789135.665 8  89446078.62045  21843635.551 5  21843638.732 5
        51.000          37.000  
  22283194.939 7 117098996.532 7  91245982.20444  22283194.488 4  22283195.791 4
        48.000          32.000  
  23292424.882 6 122402547.811 6  95378608.63443  23292423.689 3  23292426.588 3
        43.000          25.000  
  23312805.476 6 122509612.030 6  95462088.18242  23312803.856 2  23312806.920 2
        44.000          24.000  
  23657915.685 6 124323207.160 6  96875240.40342  23657914.622 2  23657916.113 2
        42.000          23.000  
  20550588.451 8 107994106.086 8  84151256.48946  20550587.353 6  20550588.211 6
        53.000          44.000  
  21366780.444 8 112283206.564 8  87493430.45346  21366779.806 6  21366779.751 6
        53.000          40.000  
  23939733.780 6 125804160.021 6  98029234.18342  23939732.118 2  23939734.435 2
        44.000          23.000  
 05  8 12  2  7  0.0000000  0  9G01G03G11G14G15G18G19G22G28
  25275575.014 5 132824011.675 5         0.000           0.000           0.000  
        37.000           0.000  
  21859934.939 8 114874785.800 8  89512818.97345  21859934.322 5  21859937.691 5
        50.000          37.000  
  22266837.111 7 117013039.373 7  91179002.59944  22266837.581 4  22266839.045 4
        49.000          32.000  
  23275132.370 6 122311675.696 6  95307799.22943  23275131.298 3  23275134.283 3
        43.000          25.000  
  23332394.208 6 122612553.748 6  95542302.48342  23332392.853 2  23332397.598 2
        42.000          24.000  
  23676180.486 6 124419181.700 6  96950025.73942  23676179.352 2  23676179.628 2
        42.000          24.000  
  20553946.823 8 108011752.017 8  84165006.56346  20553945.428 6  20553946.034 6
        53.000          44.000  
  21376178.709 8 112332596.410 8  87531916.04246  21376178.300 6  21376178.372 6
        52.000          40.000  
  23928633.753 6 125745828.778 6  97983781.29242  23928631.826 2  23928634.006 2
        42.000          23.000  
 05  8 12  2  7 30.0000000  0  9G01G03G11G14G15G18G19G22G28
  25254436.217 5 132712938.943 5         0.000           0.000           0.000  
        36.000           0.000  
  21876302.008 8 114960795.381 8  89579839.41645  21876301.340 5  21876304.468 5
        51.000          37.000  
  22250527.324 7 116927328.645 7  91112215.03444  22250526.554 4  22250528.266 4
        48.000          32.000  
  23257903.576 6 122221133.491 6  95237246.89743  23257901.505 3  23257903.293 3
        43.000          25.000  
  23352012.281 6 122715650.878 6  95622637.87442  23352011.892 2  23352015.148 2
        43.000          24.000  
  23694487.042 6 124515393.537 6  97024995.94842  23694486.457 2  23694488.246 2
        42.000          23.000  
  20557407.260 8 108029939.237 8  84179178.41446  20557406.207 6  20557406.992 6
        51.000          44.000  
  21385667.553 8 112382459.400 8  87570770.32246  21385667.081 6  21385666.999 6
        51.000          40.000  
  23917625.896 6 125687982.169 6  97938706.02642  23917624.169 2  23917627.867 2
        42.000          22.000  
 05  8 12  2  8  0.0000000  0  9G01G03G11G14G15G18G19G22G28
  25233297.920 5 132601859.390 5         0.000           0.000           0.000  
        37.000           0.000  
  21892736.317 8 115047162.256 8  89647138.27245  21892736.560 5  21892739.178 5
        50.000          37.000  
  22234264.410 7 116841865.961 7  91045620.74444  22234263.979 4  22234265.236 4
        48.000          33.000  
  23240736.347 6 122130924.170 6  95166953.94943  23240735.335 3  23240738.261 3
        43.000          25.000  
  23371659.786 6 122818901.886 6  95703093.15243  23371659.353 3  23371663.772 3
        43.000          25.000  
  23712840.855 6 124611839.952 6  97100148.94242  23712839.942 2  23712840.603 2
        43.000          22.000  
  20560971.201 8 108048667.368 8  84193771.76146  20560969.954 6  20560970.935 6
        52.000          44.000  
  21395245.730 8 112432793.757 8  87609991.89746  21395245.516 6  21395245.422 6
        52.000          40.000  
  23906710.518 6 125630622.468 6  97894010.18542  23906709.206 2  23906711.343 2
        41.000          23.000  
 05  8 12  2  8 30.0000000  0  9G01G03G11G14G15G18G19G22G28
  25212157.096 5 132490775.540 5         0.000           0.000           0.000  
        35.000           0.000  
  21909239.484 7 115133884.443 7  89714713.99445  21909239.172 5  21909242.157 5
        49.000          37.000  
  22218049.148 7 116756652.385 7  90979220.56044  22218048.225 4  22218049.648 4
        48.000          33.000  
  23223634.011 6 122041050.259 6  95096922.37443  23223633.093 3  23223635.716 3
        43.000          25.000  
  23391337.514 6 122922305.262 6  95783667.21342  23391337.465 2  23391341.310 2
        42.000          24.000  
  23731237.584 6 124708519.230 6  97175483.44142  23731237.067 2  23731238.258 2
        42.000          23.000  
  20564638.119 8 108067936.494 8  84208786.65846  20564636.829 6  20564637.686 6
        51.000          44.000  
  21404913.050 8 112483597.544 8  87649579.26646  21404912.889 6  21404913.177 6
        51.000          40.000  
  23895888.551 6 125573751.373 6  97849695.07942  23895886.980 2  23895889.277 2
        43.000          22.000  
 05  8 12  2  9  0.0000000  0  9G01G03G11G14G15G18G19G22G28
  25191017.444 4 132379690.143 4         0.000           0.000           0.000  
        34.000           0.000  
  21925810.412 7 115220960.006 7  89782565.07045  21925809.306 5  21925812.071 5
        49.000          36.000  
  22201881.100 7 116671689.557 7  90913015.77244  22201880.424 4  22201881.899 4
        49.000          33.000  
  23206595.028 6 121951514.894 6  95027154.57343  23206595.074 3  23206596.963 3
        43.000          25.000  
  23411044.315 6 123025859.630 6  95864358.88742  23411042.198 2  23411046.721 2
        43.000          24.000  
  23749679.144 6 124805429.228 6  97250997.70542  23749679.079 2  23749681.406 2
        42.000          22.000  
  20568408.037 8 108087746.794 8  84224223.25746  20568406.780 6  20568407.539 6
        52.000          44.000  
  21414670.183 8 112534869.294 8  87689531.27546  21414669.432 6  21414669.640 6
        51.000          40.000  
  23885158.427 6 125517370.990 6  97805762.29842  23885158.395 2  23885161.301 2
        43.000          23.000  
 05  8 12  2  9 30.0000000  0  9G01G03G11G14G15G18G19G22G28
  25169881.143 5 132268605.882 5         0.000           0.000           0.000  
        37.000           0.000  
  21942446.936 8 115308387.072 8  89850690.05345  21942445.981 5  21942449.075 5
        50.000          37.000  
  22185761.524 7 116586978.739 7  90847007.35044  22185760.605 4  22185761.912 4
        48.000          33.000  
  23189622.697 6 121862321.468 6  94957653.22043  23189621.417 3  23189624.294 3
        43.000          25.000  
  23430779.483 6 123129563.618 6  95945167.16342  23430777.164 2  23430779.619 2
        44.000          24.000  
  23768164.609 6 124902567.255 6  97326689.66942  23768164.006 2  23768166.116 2
        43.000          22.000  
  20572280.363 8 108108097.920 8  84240081.27146  20572279.539 6  20572280.072 6
        52.000          44.000  
  21424515.505 8 112586607.119 8  87729846.46746  21424515.026 6  21424515.221 6
        53.000          40.000  
  23874524.100 6 125461483.039 6  97762213.26942  23874522.925 2  23874526.372 2
        43.000          23.000  
