     2.10           Observation         GPS                 RINEX VERSION / TYPE
RinexObsWriter      NIMA                11-14-01 10:05:10   PGM / RUN BY / DATE
The AS bit flag is set if receiver is in Z mode             COMMENT
Signal to Noise ratio information is omitted                COMMENT
This file contains SMOOTHED obs data                        COMMENT
85408                                                       MARKER NAME
Monitor Station     NIMA                                    OBSERVER / AGENCY
1                   ZY12                                    REC # / TYPE / VERS
85408               AshTech Geodetic 3                      ANT # / TYPE
  -740289.7851 -5457071.6555  3207245.8294                  APPROX POSITION XYZ
        0.0000        0.0000        0.0000                  ANTENNA: DELTA H/E/N
     1     1     0                                          WAVELENGTH FACT L1/2
     7    L1    L2    C1    P1    P2    D1    D2            # / TYPES OF OBSERV
  1999     8     2     0     0    0.0000000                 TIME OF FIRST OBS
                                                            END OF HEADER
 99  8  2  0  0  0.0000000  0  8  1 14 15 21 22 25 29 30            
 -14287983.091   -11121443.715    21861706.689    21861706.319    21861711.949  
      1010.874         787.692  
  -2191922.096    -1669376.840    24392630.599    24392630.563    24392638.969  
      3323.258        2589.546  
  -9746597.299    -7579719.620    22056867.565    22056867.009    22056873.794  
      -282.975        -220.496  
 -16216420.268   -12624374.661    22039379.646    22039379.139    22039385.554  
     -2490.398       -1940.569  
  -5600889.710    -4342067.284    23507192.223    23507191.346    23507199.662  
      3509.991        2735.051  
 -20108393.374   -15639358.411    20711328.869    20711328.678    20711332.994  
      -278.255        -216.823  
 -11985245.912    -9314349.079    22365368.379    22365368.271    22365373.725  
     -1394.928       -1086.959  
  -7438554.139    -5781750.582    23757273.825    23757273.995    23757280.284  
     -1184.875        -923.273  
 99  8  2  0  0 30.0000000  0  8  1 14 15 21 22 25 29 30            
 -14318266.454   -11145041.119    21855944.001    21855943.641    21855949.185  
      1007.991         785.447  
  -2291599.082    -1747047.095    24373662.903    24373662.618    24373671.015  
      3321.879        2588.472  
  -9737808.413    -7572871.154    22058540.164    22058539.598    22058546.302  
      -302.946        -236.073  
 -16141512.029   -12566004.674    22053634.202    22053633.736    22053640.206  
     -2503.401       -1950.709  
  -5706164.956    -4424099.813    23487158.976    23487158.061    23487166.288  
      3508.478        2733.873  
 -20099840.822   -15632694.072    20712956.308    20712956.167    20712960.465  
      -291.803        -227.380  
 -11943363.499    -9281713.465    22373338.593    22373338.384    22373343.720  
     -1397.274       -1088.785  
  -7402744.422    -5753846.925    23764088.451    23764088.590    23764094.714  
     -1202.447        -936.959  
 99  8  2  0  1  0.0000000  0  8  1 14 15 21 22 25 29 30            
 -14348461.265   -11168569.517    21850198.094    21850197.714    21850203.303  
      1004.817         782.971  
  -2391238.366    -1824687.968    24354702.231    24354701.790    24354710.157  
      3320.687        2587.545  
  -9728424.941    -7565559.379    22060325.873    22060325.297    22060331.974  
      -322.647        -251.416  
 -16066228.522   -12507342.262    22067960.257    22067959.771    22067966.292  
     -2515.547       -1960.168  
  -5811392.247    -4506094.972    23467134.968    23467133.863    23467142.057  
      3506.617        2732.432  
 -20090891.302   -15625720.405    20714659.367    20714659.232    20714663.501  
      -304.872        -237.562  
 -11901410.851    -9249023.123    22381321.922    22381321.793    22381327.087  
     -1399.639       -1090.629  
  -7366406.131    -5725531.379    23771003.420    23771003.504    23771009.549  
     -1220.047        -950.695  
 99  8  2  0  1 30.0000000  0  8  1 14 15 21 22 25 29 30            
 -14378549.645   -11192014.980    21844472.335    21844472.000    21844477.727  
      1001.049         780.039  
  -2490840.590    -1902299.985    24335748.360    24335748.041    24335756.237  
      3319.413        2586.549  
  -9718447.858    -7557785.056    22062224.515    22062223.882    22062230.498  
      -342.482        -266.863  
 -15990576.014   -12448392.315    22082356.528    22082356.026    22082362.538  
     -2527.965       -1969.837  
  -5916551.767    -4588037.319    23447123.746    23447122.591    23447130.793  
      3504.253        2730.586  
 -20081548.372   -15618440.189    20716437.273    20716437.124    20716441.395  
      -318.053        -247.834  
 -11859376.663    -9216269.240    22389320.781    22389320.695    22389326.025  
     -1402.592       -1092.928  
  -7329537.750    -5696802.794    23778019.145    23778019.222    23778025.320  
     -1237.736        -964.478  
 99  8  2  0  2  0.0000000  0  8  1 14 15 21 22 25 29 30            
 -14408518.559   -11215367.361    21838769.560    21838769.118    21838774.881  
       996.971         776.858  
  -2590410.732    -1979886.987    24316800.767    24316800.453    24316808.589  
      3318.506        2585.842  
  -9707878.220    -7549548.981    22064235.780    22064235.241    22064241.759  
      -362.170        -282.214  
 -15914550.515   -12389151.724    22096823.834    22096823.314    22096829.812  
     -2540.574       -1979.673  
  -6021648.454    -4669930.717    23427124.403    23427123.423    23427131.491  
      3502.298        2729.056  
 -20071809.530   -15610851.467    20718290.487    20718290.343    20718294.619  
      -331.215        -258.094  
 -11817256.633    -9183448.465    22397336.008    22397335.922    22397341.324  
     -1405.448       -1095.151  
  -7292141.538    -5667662.892    23785135.240    23785135.405    23785141.500  
     -1255.340        -978.193  
 99  8  2  0  2 30.0000000  0  8  1 14 15 21 22 25 29 30            
 -14438367.266   -11238626.073    21833089.537    21833089.084    21833094.899  
       993.151         773.884  
  -2689946.491    -2057447.219    24297859.514    24297859.282    24297867.285  
      3317.166        2584.804  
  -9696717.374    -7540852.227    22066359.763    22066359.159    22066365.625  
      -381.851        -297.542  
 -15838136.354   -12329608.280    22111365.106    22111364.549    22111370.993  
     -2553.779       -1989.960  
  -6126684.800    -4751777.095    23407136.555    23407135.654    23407143.594  
      3500.047        2727.311  
 -20061668.611   -15602949.439    20720220.261    20720220.137    20720224.342  
      -344.957        -268.796  
 -11775043.464    -9150555.110    22405369.035    22405368.895    22405374.294  
     -1408.696       -1097.686  
  -7254217.279    -5638111.553    23792351.810    23792352.067    23792358.213  
     -1272.858        -991.828  
 99  8  2  0  3  0.0000000  0  8  1 14 15 21 22 25 29 30            
 -14468109.933   -11261802.155    21827429.778    21827429.268    21827435.020  
       989.679         771.175  
  -2789433.955    -2134969.844    24278927.731    24278927.504    24278935.178  
      3315.312        2583.351  
  -9684965.966    -7531695.292    22068596.089    22068595.446    22068601.849  
      -401.623        -312.954  
 -15761316.899   -12269749.028    22125983.429    22125982.829    22125989.338  
     -2567.589       -2000.717  
  -6231645.306    -4833564.381    23387163.315    23387162.265    23387170.198  
      3497.303        2725.172  
 -20051109.030   -15594721.182    20722229.716    20722229.546    20722233.712  
      -359.252        -279.940  
 -11732736.212    -9117588.449    22413419.814    22413419.729    22413425.148  
     -1411.840       -1100.137  
  -7215768.481    -5608151.485    23799668.325    23799668.632    23799674.844  
     -1290.351       -1005.462  
 99  8  2  0  3 30.0000000  0  8  1 14 15 21 22 25 29 30            
 -14497758.128   -11284904.624    21821787.867    21821787.379    21821793.113  
       986.767         768.913  
  -2888863.755    -2212447.529    24260006.932    24260006.668    24260014.081  
      3313.209        2581.710  
  -9672625.109    -7522079.050    22070944.483    22070943.822    22070950.244  
      -421.201        -328.212  
 -15684082.996   -12209566.826    22140680.545    22140680.026    22140686.467  
     -2581.529       -2011.585  
  -6336530.590    -4915293.065    23367204.213    23367203.157    23367211.180  
      3495.104        2723.454  
 -20040115.370   -15586154.684    20724321.717    20724321.569    20724325.726  
      -373.816        -291.290  
 -11690337.744    -9084550.714    22421487.905    22421487.794    22421493.268  
     -1414.710       -1102.372  
  -7176809.928    -5577794.180    23807081.998    23807082.228    23807088.373  
     -1307.129       -1018.548  
 99  8  2  0  4  0.0000000  0  8  1 14 15 21 22 25 29 30            
 -14527321.676   -11307941.128    21816162.142    21816161.647    21816167.398  
       984.010         766.762  
  -2988237.029    -2289881.187    24241096.950    24241096.661    24241103.713  
      3311.658        2580.517  
  -9659695.860    -7512004.321    22073404.692    22073404.078    22073410.618  
      -440.775        -343.455  
 -15606432.746   -12149060.198    22155456.951    22155456.431    22155462.883  
     -2595.281       -2022.289  
  -6441352.624    -4996972.460    23347256.881    23347255.991    23347264.166  
      3492.897        2721.740  
 -20028685.978   -15577248.655    20726496.604    20726496.463    20726500.623  
      -388.169        -302.469  
 -11647858.763    -9051450.239    22429571.379    22429571.317    22429576.672  
     -1417.506       -1104.549  
  -7137342.984    -5547040.756    23814592.474    23814592.659    23814598.728  
     -1324.021       -1031.701  
 99  8  2  0  4 30.0000000  0  8  1 14 15 21 22 25 29 30            
 -14556809.062   -11330918.295    21810550.953    21810550.414    21810556.146  
       981.654         764.927  
  -3087556.212    -2367272.713    24222197.221    24222196.879    24222203.656  
      3309.599        2578.896  
  -9646179.533    -7501472.120    22075976.619    22075976.056    22075982.704  
      -460.335        -358.697  
 -15528374.223   -12088235.420    22170311.033    22170310.511    22170317.012  
     -2608.665       -2032.724  
  -6546099.896    -5078593.604    23327324.100    23327323.151    23327331.371  
      3490.218        2719.654  
 -20016828.054   -15568008.701    20728753.122    20728752.980    20728757.108  
      -402.449        -313.596  
 -11605292.432    -9018281.687    22437671.602    22437671.517    22437676.662  
     -1420.193       -1106.640  
  -7097378.977    -5515900.004    23822197.575    23822197.735    23822203.659  
     -1340.285       -1044.381  
 99  8  2  0  5  0.0000000  0  8  1 14 15 21 22 25 29 30            
 -14586224.133   -11353839.112    21804953.332    21804952.859    21804958.585  
       979.219         763.027  
  -3186818.897    -2444620.194    24203308.104    24203307.852    24203314.471  
      3308.010        2577.656  
  -9632077.170    -7490483.256    22078660.078    22078659.561    22078666.303  
      -479.849        -373.915  
 -15449919.290   -12027101.766    22185240.504    22185239.976    22185246.563  
     -2621.705       -2042.887  
  -6650769.234    -5160154.013    23307406.015    23307405.054    23307413.476  
      3487.583        2717.597  
 -20004546.356   -15558438.537    20731090.244    20731090.078    20731094.244  
      -416.241        -324.341  
 -11562654.412    -8985057.260    22445785.389    22445785.350    22445790.423  
     -1422.419       -1108.382  
  -7056923.974    -5484376.645    23829896.029    23829896.185    23829901.999  
     -1356.752       -1057.206  
 99  8  2  0  5 30.0000000  0  8  1 14 15 21 22 25 29 30            
 -14615556.240   -11376695.287    21799371.514    21799371.128    21799376.783  
       976.066         760.573  
  -3286040.857    -2521935.959    24184426.820    24184426.482    24184433.003  
      3306.800        2576.715  
  -9617390.151    -7479038.831    22081454.970    22081454.463    22081461.203  
      -499.380        -389.124  
 -15371077.807   -11965666.897    22200243.611    22200243.089    22200249.783  
     -2634.653       -2052.977  
  -6755357.719    -5241651.436    23287503.236    23287502.363    23287510.858  
      3484.989        2715.573  
 -19991863.170   -15548555.524    20733503.717    20733503.577    20733507.773  
      -429.261        -334.485  
 -11519951.458    -8951782.251    22453911.535    22453911.454    22453916.519  
     -1424.445       -1109.962  
  -7015969.852    -5452464.379    23837689.309    23837689.470    23837695.198  
     -1373.827       -1070.510  
 99  8  2  0  6  0.0000000  0  8  1 14 15 21 22 25 29 30            
 -14644786.350   -11399471.985    21793809.277    21793808.800    21793814.435  
       972.452         757.752  
  -3385238.731    -2599232.925    24165549.998    24165549.651    24165556.247  
      3306.207        2576.257  
  -9602119.683    -7467139.778    22084360.965    22084360.418    22084367.074  
      -518.791        -404.260  
 -15291846.963   -11903928.649    22215320.764    22215320.282    22215327.158  
     -2647.550       -2063.018  
  -6859863.411    -5323084.333    23267616.259    23267615.377    23267624.008  
      3481.951        2713.218  
 -19978792.698   -15538370.739    20735990.891    20735990.758    20735995.047  
      -442.273        -344.624  
 -11477176.553    -8918451.171    22462051.331    22462051.222    22462056.181  
     -1427.391       -1112.258  
  -6974496.368    -5420147.400    23845581.366    23845581.595    23845587.215  
     -1391.114       -1083.996  
 99  8  2  0  6 30.0000000  0  8  1 14 15 21 22 25 29 30            
 -14673910.100   -11422165.801    21788267.260    21788266.749    21788272.363  
       968.840         754.933  
  -3484406.745    -2676506.642    24146678.917    24146678.585    24146685.173  
      3304.926        2575.270  
  -9586266.761    -7454786.856    22087377.609    22087377.131    22087383.702  
      -538.219        -419.395  
 -15212224.461   -11841885.210    22230472.583    22230472.055    22230479.077  
     -2660.806       -2073.359  
  -6964276.142    -5404444.802    23247747.040    23247746.131    23247754.795  
      3478.764        2710.721  
 -19965332.205   -15527882.039    20738552.381    20738552.217    20738556.481  
      -455.231        -354.730  
 -11434317.627    -8885054.616    22470207.086    22470206.953    22470211.923  
     -1430.004       -1114.285  
  -6932498.116    -5387421.510    23853573.417    23853573.591    23853579.235  
     -1408.959       -1097.886  
 99  8  2  0  7  0.0000000  0  8  1 14 15 21 22 25 29 30            
 -14702913.422   -11444765.786    21782748.137    21782747.670    21782753.222  
       964.737         751.741  
  -3583542.142    -2753754.906    24127814.226    24127813.696    24127820.383  
      3304.124        2574.648  
  -9569832.851    -7441981.221    22090505.030    22090504.494    22090510.921  
      -557.390        -434.333  
 -15132194.220   -11779524.052    22245701.966    22245701.429    22245708.507  
     -2674.643       -2084.138  
  -7068588.375    -5485726.961    23227896.916    23227896.005    23227904.637  
      3475.406        2708.097  
 -19951489.495   -15517095.513    20741186.494    20741186.369    20741190.666  
      -467.556        -364.330  
 -11391372.954    -8851591.246    22478379.107    22478379.054    22478384.074  
     -1433.144       -1116.739  
  -6889961.584    -5354276.178    23861667.871    23861667.976    23861673.783  
     -1426.744       -1111.757  
 99  8  2  0  7 30.0000000  0  8  1 14 15 21 22 25 29 30            
 -14731784.840   -11467262.982    21777254.089    21777253.586    21777259.179  
       960.112         748.139  
  -3682646.683    -2830979.159    24108955.166    24108954.667    24108961.299  
      3302.698        2573.530  
  -9552818.922    -7428723.620    22093742.845    22093742.273    22093748.576  
      -576.846        -449.490  
 -15051736.322   -11716829.645    22261012.691    22261012.153    22261019.186  
     -2689.125       -2095.428  
  -7172793.754    -5566925.862    23208067.174    23208066.314    23208074.810  
      3471.718        2705.233  
 -19937267.124   -15506013.152    20743892.834    20743892.720    20743897.121  
      -480.668        -374.547  
 -11348322.627    -8818045.564    22486571.277    22486571.235    22486576.271  
     -1436.950       -1119.706  
  -6846890.516    -5320714.351    23869863.922    23869864.185    23869870.134  
     -1444.681       -1125.726  
 99  8  2  0  8  0.0000000  0  8  1 14 15 21 22 25 29 30            
 -14760534.760   -11489665.517    21771783.096    21771782.629    21771788.191  
       956.658         745.449  
  -3781699.799    -2908163.311    24090105.940    24090105.410    24090112.200  
      3300.724        2572.003  
  -9535226.781    -7415015.472    22097090.511    22097089.984    22097096.216  
      -595.953        -464.377  
 -14970854.288   -11653804.740    22276404.060    22276403.604    22276410.509  
     -2702.775       -2106.060  
  -7276882.965    -5648034.250    23188259.687    23188258.763    23188267.077  
      3467.582        2702.012  
 -19922651.561   -15494624.405    20746673.972    20746673.889    20746678.383  
      -493.660        -384.666  
 -11305152.411    -8784406.451    22494786.282    22494786.278    22494791.262  
     -1440.956       -1122.818  
  -6803294.883    -5286743.758    23878160.009    23878160.310    23878166.128  
     -1461.661       -1138.951  
 99  8  2  0  8 30.0000000  0  8  1 14 15 21 22 25 29 30            
 -14789180.014   -11511986.493    21766332.030    21766331.562    21766337.101  
       953.105         742.680  
  -3880677.354    -2985288.614    24071270.989    24071270.553    24071277.279  
      3297.972        2569.849  
  -9517057.620    -7400857.701    22100548.108    22100547.518    22100553.696  
      -615.232        -479.405  
 -14889565.604   -11590462.982    22291872.842    22291872.321    22291879.114  
     -2716.319       -2116.614  
  -7380835.824    -5729036.388    23168478.175    23168477.222    23168485.298  
      3462.780        2698.268  
 -19907648.577   -15482933.767    20749528.962    20749528.850    20749533.374  
      -506.363        -394.567  
 -11261869.905    -8750679.823    22503022.767    22503022.712    22503027.653  
     -1444.433       -1125.535  
  -6759178.485    -5252367.380    23886555.306    23886555.486    23886561.359  
     -1479.176       -1152.611  
 99  8  2  0  9  0.0000000  0  8  1 14 15 21 22 25 29 30            
 -14817723.707   -11534228.319    21760900.393    21760899.878    21760905.405  
       949.809         740.109  
  -3979577.903    -3062353.898    24052450.766    24052450.368    24052457.146  
      3295.297        2567.764  
  -9498312.812    -7386251.366    22104115.127    22104114.622    22104120.787  
      -634.526        -494.436  
 -14807882.219   -11526813.665    22307416.684    22307416.165    22307422.986  
     -2729.304       -2126.743  
  -7484647.173    -5809928.266    23148723.454    23148722.583    23148730.512  
      3458.001        2694.539  
 -19892269.340   -15470949.954    20752455.528    20752455.437    20752459.989  
      -519.241        -404.605  
 -11218479.530    -8716869.160    22511279.630    22511279.508    22511284.651  
     -1448.265       -1128.519  
  -6714549.882    -5217591.885    23895047.807    23895047.936    23895054.145  
     -1496.115       -1165.806  
 99  8  2  0  9 30.0000000  0  8  1 14 15 21 22 25 29 30            
 -14846175.602   -11556398.621    21755486.142    21755485.641    21755491.155  
       946.757         737.726  
  -4078394.025    -3139353.410    24033646.553    24033646.227    24033652.954  
      3292.250        2565.386  
  -9478993.533    -7371197.404    22107791.570    22107791.031    22107797.244  
      -653.630        -509.328  
 -14725825.925   -11462873.771    22323031.523    22323031.041    22323037.822  
     -2741.183       -2135.985  
  -7588323.216    -5890714.702    23128994.462    23128993.618    23129001.479  
      3453.567        2691.091  
 -19876497.367   -15458660.108    20755456.916    20755456.784    20755461.285  
      -532.441        -414.894  
 -11174989.953    -8682981.190    22519555.244    22519555.187    22519560.550  
     -1451.139       -1130.767  
  -6669416.700    -5182423.181    23903636.259    23903636.505    23903642.945  
     -1513.056       -1179.008  
 99  8  2  0 10  0.0000000  0  8  1 14 15 21 22 25 29 30            
 -14874537.454   -11578498.765    21750089.080    21750088.595    21750094.045  
       943.847         735.465  
  -4177122.109    -3216284.309    24014859.062    24014858.779    24014865.631  
      3289.594        2563.324  
  -9459101.603    -7355697.226    22111576.940    22111576.380    22111582.665  
      -672.592        -524.096  
 -14643420.230   -11398661.614    22338712.854    22338712.386    22338719.190  
     -2752.781       -2145.019  
  -7691871.056    -5971401.232    23109289.858    23109288.978    23109296.864  
      3449.651        2688.040  
 -19860334.588   -15446065.740    20758532.575    20758532.437    20758536.935  
      -545.164        -424.800  
 -11131422.762    -8649032.751    22527845.821    22527845.732    22527851.253  
     -1453.343       -1132.479  
  -6623773.111    -5146856.768    23912322.120    23912322.295    23912328.711  
     -1529.942       -1192.163  
 99  8  2  0 10 30.0000000  0  8  1 14 15 21 22 25 29 30            
 -14902799.116   -11600520.832    21744711.028    21744710.517    21744715.998  
       940.340         732.729  
  -4275766.925    -3293150.331    23996087.530    23996087.215    23996094.135  
      3286.863        2561.198  
  -9438638.159    -7339751.710    22115471.067    22115470.393    22115476.803  
      -691.597        -538.913  
 -14560652.861   -11334167.640    22354463.054    22354462.595    22354469.344  
     -2765.214       -2154.710  
  -7795302.946    -6051997.411    23089607.486    23089606.471    23089614.348  
      3445.999        2685.193  
 -19843783.358   -15433168.677    20761682.150    20761682.015    20761686.503  
      -558.296        -435.039  
 -11087790.372    -8615033.522    22536148.879    22536148.739    22536154.349  
     -1455.541       -1134.191  
  -6577619.223    -5110892.724    23921105.108    23921105.253    23921111.518  
     -1546.739       -1205.259  
 99  8  2  0 11  0.0000000  0  8  1 14 15 21 22 25 29 30            
 -14930955.554   -11622460.908    21739353.017    21739352.532    21739358.044  
       936.850         730.011  
  -4374340.332    -3369960.675    23977329.389    23977329.115    23977336.263  
      3284.684        2559.490  
  -9417604.419    -7323361.821    22119473.653    22119472.966    22119479.460  
      -710.587        -553.703  
 -14477502.651   -11269375.358    22370286.022    22370285.563    22370292.268  
     -2778.102       -2164.750  
  -7898635.690    -6132516.337    23069943.875    23069942.898    23069950.690  
      3442.999        2682.844  
 -19826828.463   -15419957.078    20764908.539    20764908.382    20764912.889  
      -572.016        -445.725  
 -11044086.267    -8580978.403    22544465.634    22544465.444    22544471.011  
     -1457.956       -1136.070  
  -6530975.459    -5074546.964    23929981.277    23929981.423    23929987.472  
     -1562.879       -1217.821  
 99  8  2  0 11 30.0000000  0  8  1 14 15 21 22 25 29 30            
 -14959005.897   -11644318.307    21734015.268    21734014.819    21734020.302  
       933.389         727.323  
  -4472843.797    -3446716.562    23958584.656    23958584.357    23958591.555  
      3282.351        2557.680  
  -9396002.532    -7306529.213    22123584.413    22123583.664    22123590.290  
      -729.437        -568.390  
 -14393960.637   -11204277.755    22386183.686    22386183.165    22386189.743  
     -2791.330       -2175.056  
  -8001878.251    -6212964.998    23050297.302    23050296.508    23050304.201  
      3439.791        2680.359  
 -19809469.923   -15406430.951    20768211.692    20768211.549    20768216.077  
      -584.983        -455.828  
 -11000315.616    -8546871.430    22552794.812    22552794.637    22552800.297  
     -1460.092       -1137.733  
  -6483840.312    -5037818.321    23938950.879    23938951.081    23938957.035  
     -1579.301       -1230.624  
 99  8  2  0 12  0.0000000  0  8  1 14 15 21 22 25 29 30            
 -14986959.131   -11666100.032    21728696.072    21728695.606    21728700.958  
       930.238         724.865  
  -4571279.915    -3523419.956    23939852.663    23939852.457    23939859.730  
      3280.034        2555.875  
  -9373833.859    -7289254.948    22127802.940    22127802.237    22127808.948  
      -748.383        -583.152  
 -14310008.777   -11138860.791    22402159.267    22402158.732    22402165.231  
     -2805.422       -2186.042  
  -8105020.087    -6293335.167    23030669.838    23030669.142    23030676.871  
      3436.256        2677.606  
 -19791726.178   -15392604.662    20771588.195    20771588.026    20771592.572  
      -597.959        -465.939  
 -10956463.338    -8512700.858    22561139.433    22561139.342    22561145.187  
     -1463.470       -1140.361  
  -6436211.538    -5000705.036    23948014.418    23948014.641    23948020.642  
     -1595.824       -1243.493  
 99  8  2  0 12 30.0000000  0  8  1 14 15 21 22 25 29 30            
 -15014816.439   -11687807.009    21723395.156    21723394.660    21723399.911  
       926.922         722.273  
  -4669637.845    -3600062.457    23921135.532    23921135.428    23921142.537  
      3277.218        2553.671  
  -9351099.871    -7271540.182    22132128.972    22132128.358    22132135.077  
      -767.281        -597.884  
 -14225639.797   -11073118.811    22418214.125    22418213.593    22418220.177  
     -2819.130       -2196.728  
  -8208049.307    -6373617.587    23011063.868    23011063.261    23011071.000  
      3432.394        2674.592  
 -19773589.148   -15378471.925    20775039.543    20775039.396    20775043.940  
      -611.164        -476.234  
 -10912495.949    -8478440.598    22569506.257    22569506.163    22569511.893  
     -1467.703       -1143.669  
  -6388093.073    -4963210.146    23957171.091    23957171.221    23957177.487  
     -1612.102       -1256.189  
 99  8  2  0 13  0.0000000  0  8  1 14 15 21 22 25 29 30            
 -15042580.082   -11709440.993    21718111.991    21718111.437    21718116.672  
       923.886         719.909  
  -4767915.946    -3676642.693    23902433.784    23902433.559    23902440.782  
      3274.507        2551.568  
  -9327802.314    -7253386.285    22136562.253    22136561.697    22136568.361  
      -786.015        -612.483  
 -14140872.010   -11007066.064    22434344.998    22434344.486    22434350.991  
     -2832.121       -2206.843  
  -8310966.423    -6453812.654    22991479.442    22991478.705    22991486.445  
      3428.558        2671.594  
 -19755065.396   -15364037.843    20778564.481    20778564.352    20778568.889  
      -623.725        -486.017  
 -10868403.313    -8444082.748    22577896.868    22577896.838    22577902.487  
     -1471.868       -1146.910  
  -6339486.739    -4925335.106    23966420.191    23966420.413    23966427.054  
     -1628.572       -1269.026  
 99  8  2  0 13 30.0000000  0  8  1 14 15 21 22 25 29 30            
 -15070254.893   -11731005.758    21712845.561    21712845.066    21712850.320  
       921.071         717.723  
  -4866103.656    -3753152.548    23883749.464    23883749.025    23883756.147  
      3271.459        2549.189  
  -9303942.390    -7234794.173    22141102.662    22141102.092    22141108.635  
      -804.584        -626.947  
 -14055716.871   -10940711.487    22450549.646    22450549.141    22450555.591  
     -2844.810       -2216.733  
  -8413757.893    -6533909.789    22971918.762    22971917.881    22971925.831  
      3424.220        2668.216  
 -19736172.741   -15349316.297    20782159.717    20782159.588    20782164.039  
      -635.710        -495.352  
 -10824184.267    -8409626.387    22586311.540    22586311.535    22586317.179  
     -1475.961       -1150.094  
  -6290377.006    -4887067.816    23975765.207    23975765.484    23975772.247  
     -1645.358       -1282.086  
 99  8  2  0 14  0.0000000  0  8  1 14 15 21 22 25 29 30            
 -15097835.178   -11752496.865    21707597.320    21707596.768    21707601.935  
       917.566         714.981  
  -4964194.811    -3829587.119    23865083.177    23865082.759    23865090.046  
      3268.126        2546.586  
  -9279521.842    -7215765.204    22145749.757    22145749.225    22145755.670  
      -823.318        -641.547  
 -13970182.776   -10874061.595    22466826.363    22466825.814    22466832.167  
     -2857.229       -2226.415  
  -8516413.982    -6613901.441    22952383.722    22952382.898    22952391.047  
      3419.613        2664.634  
 -19716908.623   -15334305.302    20785825.631    20785825.503    20785829.903  
      -648.424        -505.269  
 -10779835.633    -8375069.049    22594750.967    22594750.908    22594756.465  
     -1480.381       -1153.547  
  -6240757.326    -4848403.172    23985207.293    23985207.612    23985214.351  
     -1662.572       -1295.521  
 99  8  2  0 14 30.0000000  0  8  1 14 15 21 22 25 29 30            
 -15125308.822   -11773904.873    21702369.248    21702368.659    21702373.822  
       914.040         712.233  
  -5062188.416    -3905945.667    23846435.328    23846435.025    23846442.446  
      3264.995        2544.155  
  -9254542.584    -7196300.872    22150503.277    22150502.645    22150509.111  
      -841.953        -656.068  
 -13884289.714   -10807132.000    22483171.136    22483170.685    22483177.110  
     -2869.112       -2235.681  
  -8618933.569    -6693786.742    22932874.946    22932874.132    22932882.160  
      3414.993        2661.027  
 -19697273.830   -15319005.469    20789562.042    20789561.914    20789566.341  
      -660.432        -514.622  
 -10735376.540    -8340425.633    22603211.397    22603211.398    22603216.725  
     -1483.409       -1155.909  
  -6190631.695    -4809344.282    23994745.895    23994746.244    23994752.763  
     -1679.315       -1308.554  
 99  8  2  0 15  0.0000000  0  8  1 14 15 21 22 25 29 30            
 -15152684.989   -11795236.921    21697159.633    21697159.109    21697164.289  
       910.857         709.763  
  -5160102.746    -3982242.470    23827802.969    23827802.554    23827809.930  
      3262.435        2542.157  
  -9229005.949    -7176402.221    22155362.676    22155362.002    22155368.554  
      -860.537        -670.543  
 -13798034.579   -10739920.265    22499584.972    22499584.476    22499591.042  
     -2881.336       -2245.198  
  -8721301.816    -6773554.134    22913394.931    22913394.142    22913401.980  
      3409.302        2656.596  
 -19677286.438   -15303430.876    20793365.468    20793365.353    20793369.826  
      -672.150        -523.749  
 -10690841.199    -8305722.807    22611686.337    22611686.263    22611691.514  
     -1485.724       -1157.704  
  -6139995.320    -4769887.447    24004381.769    24004382.051    24004388.575  
     -1696.475       -1321.924  
 99  8  2  0 15 30.0000000  0  8  1 14 15 21 22 25 29 30            
 -15179960.004   -11816490.152    21691969.339    21691968.812    21691973.976  
       907.336         707.015  
  -5257943.828    -4058482.193    23809184.488    23809184.117    23809191.388  
      3260.236        2540.433  
  -9202913.631    -7156070.569    22160327.609    22160327.058    22160333.733  
      -878.979        -684.914  
 -13711421.587   -10672429.693    22516066.845    22516066.384    22516073.082  
     -2892.852       -2254.163  
  -8823485.474    -6853177.694    22893950.207    22893949.266    22893956.880  
      3402.959        2651.656  
 -19656944.370   -15287579.910    20797236.344    20797236.278    20797240.789  
      -684.122        -533.080  
 -10646242.635    -8270970.723    22620172.975    22620172.994    22620178.376  
     -1487.569       -1159.130  
  -6088840.551    -4730026.608    24014116.152    24014116.590    24014123.158  
     -1713.703       -1335.353  
 99  8  2  0 16  0.0000000  0  8  1 14 15 21 22 25 29 30            
 -15207124.062   -11837656.919    21686800.126    21686799.592    21686804.840  
       903.654         704.147  
  -5355722.074    -4134672.964    23790577.978    23790577.542    23790584.782  
      3258.228        2538.874  
  -9176267.713    -7135307.546    22165398.158    22165397.621    22165404.331  
      -897.448        -699.314  
 -13624461.987   -10604669.015    22532614.681    22532614.256    22532621.060  
     -2904.397       -2263.162  
  -8925473.949    -6932649.165    22874542.325    22874541.448    22874548.903  
      3396.408        2646.543  
 -19636233.227   -15271441.352    20801177.607    20801177.529    20801181.963  
      -696.698        -542.881  
 -10601588.545    -8236175.361    22628670.244    22628670.252    22628675.721  
     -1489.538       -1160.676  
  -6037178.417    -4689770.439    24023947.302    24023947.717    24023954.261  
     -1730.263       -1348.256  
 99  8  2  0 16 30.0000000  0  8  1 14 15 21 22 25 29 30            
 -15234184.491   -11858742.931    21681650.593    21681650.159    21681655.412  
       900.408         701.611  
  -5453437.081    -4210814.444    23771983.384    23771982.893    23771990.189  
      3256.095        2537.211  
  -9149069.658    -7114114.282    22170573.868    22170573.317    22170580.085  
      -915.800        -713.609  
 -13537158.942   -10536640.718    22549227.869    22549227.489    22549234.355  
     -2915.886       -2272.133  
  -9027270.926    -7011971.406    22855171.036    22855170.129    22855177.453  
      3390.105        2641.637  
 -19615144.587   -15255008.641    20805190.709    20805190.618    20805194.985  
      -709.209        -552.634  
 -10556874.321    -8201333.136    22637179.178    22637179.095    22637184.592  
     -1491.525       -1162.232  
  -5985027.779    -4649133.642    24033871.454    24033871.806    24033878.285  
     -1746.361       -1360.820  
 99  8  2  0 17  0.0000000  0  8  1 14 15 21 22 25 29 30            
 -15261149.665   -11879754.721    21676519.432    21676518.904    21676524.132  
       897.208         699.128  
  -5551078.162    -4286898.333    23753402.771    23753402.389    23753409.747  
      3253.291        2535.025  
  -9121321.450    -7092492.329    22175854.121    22175853.582    22175860.561  
      -933.998        -727.789  
 -13449508.101   -10468341.418    22565907.405    22565906.973    22565913.868  
     -2927.336       -2281.036  
  -9128881.679    -7091148.527    22835835.193    22835834.203    22835841.546  
      3384.195        2637.040  
 -19593670.216   -15238275.359    20809277.249    20809277.100    20809281.373  
      -722.369        -562.883  
 -10512087.320    -8166434.206    22645701.971    22645701.892    22645707.423  
     -1494.222       -1164.327  
  -5932399.633    -4608124.708    24043886.526    24043886.722    24043893.197  
     -1762.005       -1372.997  
 99  8  2  0 17 30.0000000  0  8  1 14 15 21 22 25 29 30            
 -15288010.791   -11900685.439    21671407.899    21671407.374    21671412.665  
       893.827         696.487  
  -5648624.916    -4362908.723    23734840.195    23734839.815    23734847.196  
      3249.840        2532.338  
  -9093024.791    -7070443.005    22181238.709    22181238.215    22181245.242  
      -952.291        -742.041  
 -13361515.187   -10399775.577    22582651.885    22582651.403    22582658.340  
     -2938.808       -2289.977  
  -9230330.602    -7170199.548    22816529.961    22816529.070    22816536.325  
      3379.412        2633.311  
 -19571797.987   -15221232.059    20813439.347    20813439.201    20813443.506  
      -735.649        -573.233  
 -10467211.519    -8131466.083    22654241.685    22654241.620    22654247.187  
     -1497.417       -1166.816  
  -5879311.012    -4566756.984    24053988.722    24053988.996    24053995.686  
     -1777.144       -1384.779  
 99  8  2  0 18  0.0000000  0  8  1 14 15 21 22 25 29 30            
 -15314782.674   -11921546.619    21666313.327    21666312.821    21666318.166  
       891.266         694.494  
  -5746059.331    -4438831.557    23716299.020    23716298.584    23716306.034  
      3245.765        2529.170  
  -9064181.514    -7047967.730    22186727.569    22186727.033    22186733.852  
      -970.398        -756.159  
 -13273164.637   -10330931.052    22599464.608    22599464.120    22599470.950  
     -2951.015       -2299.489  
  -9331648.087    -7249148.159    22797249.886    22797248.977    22797256.109  
      3375.244        2630.062  
 -19549527.494   -15203878.425    20817677.178    20817677.066    20817681.414  
      -748.664        -583.375  
 -10422234.822    -8096419.344    22662800.542    22662800.501    22662805.995  
     -1500.919       -1169.545  
  -5825772.843    -4525038.953    24064176.501    24064176.876    24064183.712  
     -1792.080       -1396.436  
 99  8  2  0 18 30.0000000  0  8  1 14 15 21 22 25 29 30            
 -15341482.028   -11942351.288    21661232.455    21661231.994    21661237.421  
       888.710         692.504  
  -5843365.817    -4514654.726    23697782.122    23697781.729    23697789.120  
      3241.372        2525.742  
  -9034793.203    -7025067.762    22192320.139    22192319.544    22192326.127  
      -988.779        -770.482  
 -13184448.241   -10261801.471    22616346.964    22616346.404    22616353.227  
     -2963.517       -2309.230  
  -9432839.687    -7327998.656    22777993.568    22777992.684    22777999.985  
      3370.753        2626.554  
 -19526878.502   -15186229.854    20821987.088    20821987.016    20821991.392  
      -761.135        -593.089  
 -10377147.829    -8061286.641    22671380.568    22671380.395    22671385.766  
     -1504.706       -1172.503  
  -5771771.226    -4482959.799    24074452.824    24074453.227    24074459.806  
     -1807.993       -1408.832  
 99  8  2  0 19  0.0000000  0  8  1 14 15 21 22 25 29 30            
 -15368107.047   -11963098.030    21656165.870    21656165.403    21656170.824  
       886.071         690.445  
  -5940544.876    -4590378.583    23679289.554    23679289.120    23679296.451  
      3237.177        2522.462  
  -9004862.106    -7001744.845    22198015.939    22198015.235    22198021.765  
     -1006.790        -784.505  
 -13095351.303   -10192375.360    22633301.663    22633301.084    22633307.907  
     -2976.259       -2319.162  
  -9533886.370    -7406736.241    22758764.864    22758763.984    22758771.322  
      3365.631        2622.566  
 -19503860.466   -15168293.713    20826367.273    20826367.207    20826371.578  
      -773.434        -602.676  
 -10331953.510    -8026070.318    22679980.692    22679980.514    22679986.017  
     -1508.327       -1175.324  
  -5717290.503    -4440507.308    24084820.492    24084820.804    24084827.031  
     -1824.155       -1421.423  
 99  8  2  0 19 30.0000000  0  8  1 14 15 21 22 25 29 30            
 -15394654.609   -11983784.423    21651113.914    21651113.520    21651119.012  
       883.840         688.705  
  -6037602.873    -4666008.155    23660819.939    23660819.670    23660826.769  
      3233.438        2519.557  
  -8974390.030    -6978000.404    22203814.445    22203813.923    22203820.514  
     -1024.686        -798.463  
 -13005876.293   -10122654.658    22650328.181    22650327.603    22650334.514  
     -2988.774       -2328.908  
  -9634773.975    -7485349.864    22739566.307    22739565.548    22739573.058  
      3360.142        2618.284  
 -19480478.336   -15150073.869    20830816.832    20830816.697    20830821.087  
      -785.319        -611.937  
 -10286649.511    -7990768.528    22688601.551    22688601.486    22688607.069  
     -1511.997       -1178.183  
  -5662313.968    -4397668.481    24095282.512    24095282.708    24095288.597  
     -1840.976       -1434.519  
 99  8  2  0 20  0.0000000  0  8  1 14 15 21 22 25 29 30            
 -15421128.301   -12004413.261    21646076.131    21646075.697    21646081.232  
       880.925         686.439  
  -6134540.457    -4741543.852    23642373.214    23642372.975    23642380.018  
      3229.254        2516.308  
  -8943378.620    -6953835.699    22209715.923    22209715.292    22209721.937  
     -1042.634        -812.440  
 -12916022.385   -10052638.696    22667426.952    22667426.353    22667433.153  
     -3001.344       -2338.706  
  -9735479.015    -7563821.232    22720402.728    22720401.918    22720409.483  
      3353.487        2613.105  
 -19456739.596   -15131576.151    20835334.262    20835334.103    20835338.480  
      -797.086        -621.105  
 -10241230.915    -7955377.441    22697244.451    22697244.470    22697249.967  
     -1515.894       -1181.215  
  -5606819.134    -4354425.780    24105842.967    24105843.090    24105848.860  
     -1858.468       -1448.154  
 99  8  2  0 20 30.0000000  0  8  1 14 15 21 22 25 29 30            
 -15447495.910   -12024959.436    21641058.448    21641058.062    21641063.642  
       876.964         683.352  
  -6231361.794    -4816988.971    23623948.578    23623948.402    23623955.367  
      3225.589        2513.450  
  -8911830.457    -6929252.723    22215719.338    22215718.696    22215725.482  
     -1060.470        -826.342  
 -12825798.321    -9982334.306    22684596.160    22684595.519    22684602.293  
     -3013.441       -2348.133  
  -9835977.577    -7642131.705    22701278.358    22701277.551    22701285.128  
      3346.510        2607.660  
 -19432652.366   -15112806.880    20839917.924    20839917.766    20839922.173  
      -808.711        -630.163  
 -10195692.322    -7919892.841    22705910.554    22705910.423    22705915.629  
     -1519.812       -1184.265  
  -5550806.870    -4310779.895    24116501.718    24116501.780    24116507.665  
     -1875.376       -1461.338  
 99  8  2  0 21  0.0000000  0  8  1 14 15 21 22 25 29 30            
 -15473739.227   -12045408.766    21636064.486    21636064.055    21636069.610  
       872.695         680.018  
  -6328066.097    -4892342.895    23605546.259    23605546.100    23605552.954  
      3221.367        2510.144  
  -8879747.052    -6904252.699    22221824.492    22221823.825    22221830.737  
     -1078.384        -840.306  
 -12735213.694    -9911748.945    22701833.841    22701833.227    22701839.816  
     -3025.296       -2357.370  
  -9936268.916    -7720280.691    22682193.407    22682192.638    22682200.268  
      3339.804        2602.440  
 -19408211.076   -15093761.721    20844568.838    20844568.742    20844573.192  
      -820.572        -639.411  
 -10150034.624    -7884315.433    22714598.850    22714598.690    22714603.876  
     -1523.965       -1187.506  
  -5494295.981    -4266745.474    24127255.350    24127255.434    24127261.511  
     -1891.859       -1474.174  
 99  8  2  0 21 30.0000000  0  8  1 14 15 21 22 25 29 30            
 -15499857.295   -12065760.495    21631094.364    21631093.908    21631099.415  
       868.585         676.817  
  -6424638.344    -4967593.944    23587169.106    23587169.015    23587175.673  
      3216.877        2506.659  
  -8847130.433    -6878837.195    22228031.025    22228030.365    22228037.456  
     -1096.047        -854.063  
 -12644281.964    -9840893.123    22719137.573    22719136.975    22719143.551  
     -3036.896       -2366.399  
 -10036363.748    -7798276.579    22663145.961    22663145.221    22663152.806  
      3333.274        2597.354  
 -19383422.234   -15074445.741    20849286.034    20849285.920    20849290.350  
      -831.849        -648.196  
 -10104259.021    -7848646.149    22723309.384    22723309.319    22723314.634  
     -1527.744       -1190.452  
  -5437297.957    -4222331.451    24138101.804    24138101.858    24138108.169  
     -1907.824       -1486.603  
 99  8  2  0 22  0.0000000  0  8  1 14 15 21 22 25 29 30            
 -15525838.523   -12086005.598    21626150.308    21626149.855    21626155.242  
       863.726         673.034  
  -6521071.831    -5042736.845    23568818.258    23568818.231    23568824.902  
      3212.115        2502.954  
  -8813982.705    -6853007.835    22234338.704    22234338.209    22234345.300  
     -1113.757        -867.862  
 -12552996.715    -9769761.824    22736508.702    22736508.092    22736514.740  
     -3048.675       -2375.593  
 -10136258.757    -7876116.759    22644136.571    22644135.900    22644143.322  
      3326.533        2592.098  
 -19358300.182   -15054870.124    20854066.624    20854066.503    20854070.899  
      -842.890        -656.800  
 -10058373.419    -7812891.173    22732041.057    22732040.974    22732046.320  
     -1531.258       -1193.192  
  -5379835.584    -4177555.572    24149036.433    24149036.566    24149043.040  
     -1922.748       -1498.239  
 99  8  2  0 22 30.0000000  0  8  1 14 15 21 22 25 29 30            
 -15551687.849   -12106147.921    21621231.298    21621230.853    21621236.180  
       859.896         670.044  
  -6617368.825    -5117773.376    23550493.404    23550493.303    23550499.885  
      3207.716        2499.525  
  -8780305.780    -6826766.118    22240747.548    22240746.884    22240753.844  
     -1131.359        -881.577  
 -12461362.108    -9698358.296    22753946.220    22753945.645    22753952.345  
     -3060.224       -2384.597  
 -10235958.892    -7953805.087    22625164.430    22625163.624    22625170.917  
      3320.184        2587.148  
 -19332846.866   -15035036.381    20858910.230    20858910.136    20858914.504  
      -854.029        -665.483  
 -10012389.980    -7777059.950    22740791.335    22740791.321    22740796.681  
     -1534.137       -1195.436  
  -5321930.733    -4132434.922    24160055.457    24160055.528    24160061.986  
     -1937.578       -1509.800  
 99  8  2  0 23  0.0000000  0  8  1 14 15 21 22 25 29 30            
 -15577438.875   -12126213.652    21616331.091    21616330.598    21616335.884  
       856.780         667.618  
  -6713530.637    -5192704.555    23532194.526    23532194.189    23532200.811  
      3203.103        2495.922  
  -8746101.772    -6800113.696    22247256.365    22247255.688    22247262.606  
     -1148.915        -895.253  
 -12369380.846    -9626684.640    22771449.686    22771449.172    22771455.915  
     -3071.954       -2393.733  
 -10335465.260    -8031342.438    22606228.930    22606228.192    22606235.331  
      3313.428        2581.886  
 -19307052.448   -15014936.841    20863818.783    20863818.649    20863822.996  
      -865.595        -674.496  
  -9966330.275    -7741169.294    22749556.157    22749556.193    22749561.542  
     -1536.554       -1197.311  
  -5263578.005    -4086965.297    24171159.559    24171159.685    24171166.130  
     -1952.684       -1521.586  
 99  8  2  0 23 30.0000000  0  8  1 14 15 21 22 25 29 30            
 -15603096.874   -12146206.898    21611448.384    21611447.950    21611453.326  
       853.697         665.213  
  -6809563.202    -5267535.038    23513920.193    23513919.754    23513926.342  
      3199.115        2492.809  
  -8711372.442    -6773051.923    22253865.094    22253864.571    22253871.278  
     -1166.405        -908.889  
 -12277050.373    -9554738.897    22789019.506    22789019.106    22789025.922  
     -3083.478       -2402.717  
 -10434759.876    -8108714.780    22587333.680    22587332.926    22587339.956  
      3306.135        2576.198  
 -19280917.481   -14994571.935    20868792.044    20868791.928    20868796.345  
      -876.890        -683.295  
  -9920199.893    -7705223.568    22758334.664    22758334.628    22758339.821  
     -1538.998       -1199.222  
  -5204771.059    -4041141.726    24182350.298    24182350.404    24182356.698  
     -1967.915       -1533.443  
 99  8  2  0 24  0.0000000  0  8  1 14 15 21 22 25 29 30            
 -15628664.333   -12166129.594    21606582.997    21606582.543    21606587.998  
       850.930         663.057  
  -6905483.866    -5342278.355    23495667.193    23495666.758    23495673.201  
      3195.469        2489.965  
  -8676120.001    -6745582.527    22260573.804    22260573.092    22260579.596  
     -1183.769        -922.428  
 -12184380.558    -9482528.712    22806654.102    22806653.710    22806660.462  
     -3094.556       -2411.346  
 -10533833.305    -8185914.765    22568480.591    22568479.780    22568486.782  
      3298.840        2570.518  
 -19254433.970   -14973935.441    20873831.642    20873831.541    20873836.034  
      -888.817        -692.588  
  -9873992.872    -7669218.115    22767127.757    22767127.564    22767132.685  
     -1541.580       -1201.243  
  -5145498.500    -3994955.350    24193629.369    24193629.538    24193635.803  
     -1983.691       -1545.739  
 99  8  2  0 24 30.0000000  0  8  1 14 15 21 22 25 29 30            
 -15654157.711   -12185994.558    21601731.702    21601731.271    21601736.747  
       848.555         661.205  
  -7001291.410    -5416933.553    23477435.531    23477435.349    23477441.629  
      3191.818        2487.123  
  -8640346.571    -6717707.161    22267381.159    22267380.492    22267387.144  
     -1201.105        -935.927  
 -12091378.142    -9410059.370    22824351.888    22824351.467    22824358.356  
     -3105.599       -2419.953  
 -10632686.619    -8262943.234    22549669.290    22549668.528    22549675.423  
      3291.397        2564.721  
 -19227582.265   -14953012.039    20878941.285    20878941.193    20878945.735  
      -901.157        -702.200  
  -9827700.247    -7633145.978    22775936.703    22775936.647    22775941.984  
     -1544.586       -1203.574  
  -5085740.295    -3948390.531    24205000.769    24205001.067    24205007.318  
     -2000.048       -1558.476  
 99  8  2  0 25  0.0000000  0  8  1 14 15 21 22 25 29 30            
 -15679571.739   -12205797.694    21596895.561    21596895.140    21596900.596  
       845.705         658.992  
  -7096987.429    -5491501.807    23459225.057    23459224.965    23459231.295  
      3188.010        2484.161  
  -8604054.491    -6689427.653    22274287.207    22274286.733    22274293.387  
     -1218.232        -949.273  
 -11998043.012    -9337330.755    22842112.981    22842112.549    22842119.592  
     -3116.611       -2428.527  
 -10731315.276    -8339796.653    22530900.905    22530900.053    22530906.837  
      3284.022        2558.981  
 -19200367.668   -14931805.865    20884120.087    20884119.993    20884124.522  
      -912.817        -711.285  
  -9781313.527    -7597000.520    22784763.601    22784763.572    22784769.109  
     -1547.986       -1206.225  
  -5025494.018    -3901445.438    24216465.245    24216465.388    24216471.845  
     -2016.141       -1571.010  
 99  8  2  0 25 30.0000000  0  8  1 14 15 21 22 25 29 30            
 -15704890.386   -12225526.496    21592077.651    21592077.198    21592082.566  
       842.277         656.316  
  -7192566.623    -5565979.037    23441036.936    23441036.816    23441043.172  
      3183.862        2480.940  
  -8567245.904    -6660745.664    22281292.063    22281291.390    22281297.852  
     -1235.550        -962.762  
 -11904380.999    -9264347.438    22859936.229    22859935.772    22859943.065  
     -3127.463       -2436.976  
 -10829723.310    -8416478.151    22512174.539    22512173.569    22512180.366  
      3276.697        2553.266  
 -19172813.511   -14910335.099    20889363.513    20889363.430    20889367.904  
      -924.041        -720.033  
  -9734805.057    -7560760.203    22793613.868    22793613.854    22793619.434  
     -1552.542       -1209.779  
  -4964768.064    -3854126.575    24228020.812    24228021.010    24228027.704  
     -2032.177       -1583.517  
 99  8  2  0 26  0.0000000  0  8  1 14 15 21 22 25 29 30            
 -15730111.318   -12245179.162    21587278.340    21587277.834    21587283.165  
       838.982         653.752  
  -7288022.210    -5640359.942    23422872.510    23422872.243    23422878.646  
      3179.602        2477.616  
  -8529922.932    -6631662.888    22288394.291    22288393.642    22288400.235  
     -1252.703        -976.129  
 -11810394.856    -9191111.553    22877821.225    22877820.671    22877828.208  
     -3138.487       -2445.568  
 -10927922.046    -8492996.566    22493487.840    22493486.894    22493493.719  
      3269.723        2547.830  
 -19144925.585   -14888604.254    20894670.403    20894670.340    20894674.806  
      -935.157        -728.697  
  -9688166.598    -7524418.573    22802489.005    22802488.918    22802494.546  
     -1556.738       -1213.037  
  -4903566.494    -3806437.059    24239666.941    24239667.122    24239674.040  
     -2047.863       -1595.747  
 99  8  2  0 26 30.0000000  0  8  1 14 15 21 22 25 29 30            
 -15755228.505   -12264750.995    21582498.701    21582498.191    21582503.507  
       835.367         650.939  
  -7383343.160    -5714635.962    23404733.645    23404733.270    23404739.675  
      3175.097        2474.096  
  -8492087.707    -6602180.970    22295594.203    22295593.651    22295600.210  
     -1269.690        -989.364  
 -11716079.690    -9117619.321    22895768.635    22895768.127    22895775.781  
     -3149.131       -2453.864  
 -11025909.154    -8569350.098    22474841.350    22474840.467    22474847.365  
      3262.629        2542.309  
 -19116714.209   -14866621.377    20900038.909    20900038.802    20900043.259  
      -945.532        -736.775  
  -9641403.456    -7487979.819    22811387.672    22811387.686    22811393.395  
     -1560.784       -1216.185  
  -4841909.185    -3758392.463    24251399.725    24251400.003    24251407.211  
     -2062.623       -1607.224  
 99  8  2  0 27  0.0000000  0  8  1 14 15 21 22 25 29 30            
 -15780232.271   -12284234.461    21577740.673    21577740.163    21577745.456  
       831.650         648.037  
  -7478523.559    -5788802.489    23386621.362    23386621.036    23386627.408  
      3170.226        2470.309  
     22012.5593       8234.0143   22302891.4373   22302889.7213   22302963.9593 
     -1286.4913      -1002.4613 
 -11621446.532    -9043879.303    22913776.802    22913776.318    22913783.943  
     -3159.595       -2462.021  
 -11123682.292    -8645536.898    22456235.595    22456234.743    22456241.793  
      3255.717        2536.925  
 -19088198.068   -14844401.023    20905465.359    20905465.266    20905469.708  
      -955.642        -744.652  
  -9594521.797    -7451448.711    22820309.131    22820309.014    22820314.766  
     -1564.518       -1219.099  
  -4779811.241    -3710004.531    24263216.504    24263216.820    24263224.038  
     -2077.217       -1618.610  
 99  8  2  0 27 30.0000000  0  8  1 14 15 21 22 25 29 30            
 -15805120.753   -12303628.093    21573004.612    21573004.096    21573009.372  
       827.612         644.891  
  -7573545.936    -5862845.890    23368539.054    23368538.825    23368545.236  
      3164.644        2465.949  
     60865.7493      38509.5183   22310284.1373   22310283.9293   22310290.3133 
     -1303.7093      -1015.8863 
 -11526496.868    -8969892.661    22931845.412    22931844.847    22931852.320  
     -3170.513       -2470.518  
 -11221240.409    -8721556.160    22437670.896    22437670.033    22437677.142  
      3248.172        2531.041  
 -19059362.291   -14821931.604    20910952.688    20910952.556    20910956.985  
      -966.967        -753.486  
  -9547524.966    -7414827.863    22829252.247    22829252.207    22829257.921  
     -1568.413       -1222.137  
  -4717268.062    -3661269.678    24275118.132    24275118.571    24275125.513  
     -2092.272       -1630.334  
 99  8  2  0 28  0.0000000  0  8  1 14 15 21 22 25 29 30            
 -15829902.783   -12322938.764    21568288.791    21568288.273    21568293.559  
       824.278         642.289  
  -7668404.756    -5936761.806    23350487.734    23350487.581    23350494.218  
      3158.992        2461.554  
    100224.1133      69178.3383   22317774.3033   22317773.6563   22317780.3283 
     -1320.4313      -1028.9063 
 -11431221.308    -8895652.058    22949975.956    22949975.350    22949982.736  
     -3181.523       -2479.107  
 -11318572.845    -8797399.552    22419149.177    22419148.323    22419155.412  
      3240.365        2524.959  
 -19030182.319   -14799193.974    20916505.522    20916505.373    20916509.774  
      -978.542        -762.502  
  -9500434.295    -7378133.876    22838213.378    22838213.356    22838219.008  
     -1571.286       -1224.384  
  -4654282.379    -3612190.006    24287104.154    24287104.421    24287111.289  
     -2106.927       -1641.770  
 99  8  2  0 28 30.0000000  0  8  1 14 15 21 22 25 29 30            
 -15854586.534   -12342172.835    21563591.626    21563591.123    21563596.471  
       821.212         639.905  
  -7763083.322    -6010537.241    23332470.815    23332470.620    23332477.397  
      3152.932        2456.828  
    140085.8821     100239.4141   22325359.2531   22325358.9531   22325365.9321 
     -1337.0111      -1041.8221 
 -11335614.208    -8821153.100    22968169.328    22968168.815    22968176.118  
     -3192.225       -2487.438  
 -11415662.430    -8873053.687    22400673.630    22400672.712    22400679.860  
      3232.368        2518.729  
 -19000659.686   -14776189.323    20922123.533    20922123.412    20922127.788  
      -989.718        -771.207  
  -9453249.649    -7341366.661    22847192.656    22847192.507    22847198.057  
     -1574.336       -1226.747  
  -4590860.290    -3562770.249    24299173.062    24299173.392    24299180.280  
     -2121.322       -1652.975  
 99  8  2  0 29  0.0000000  0  8  1 14 15 21 22 25 29 30            
 -15879169.955   -12361328.729    21558913.440    21558912.996    21558918.417  
       817.874         637.302  
  -7857576.201    -6084167.993    23314489.314    23314489.032    23314495.901  
      3146.816        2452.072  
    180448.345      131690.633    22333039.363    22333039.583    22333046.664  
     -1353.638       -1054.781  
 -11239672.463    -8746393.373    22986426.493    22986425.943    22986433.287  
     -3203.722       -2496.409  
 -11512509.631    -8948518.957    22382243.851    22382243.216    22382250.395  
      3224.248        2512.391  
 -18970783.074   -14752908.848    20927808.836    20927808.740    20927813.133  
     -1001.937        -780.731  
  -9405968.417    -7304524.170    22856190.225    22856189.982    22856195.472  
     -1577.644       -1229.329  
  -4526991.233    -3513002.214    24311326.772    24311327.162    24311334.348  
     -2136.468       -1664.779  
 99  8  2  0 29 30.0000000  0  8  1 14 15 21 22 25 29 30            
 -15903655.707   -12380408.514    21554253.884    21554253.436    21554258.910  
       814.486         634.661  
  -7951890.996    -6157659.982    23296541.616    23296541.428    23296548.237  
      3140.945        2447.480  
    221309.378      163530.354    22340815.512    22340815.316    22340822.333  
     -1370.419       -1067.855  
 -11143390.185    -8671368.291    23004748.379    23004747.881    23004755.170  
     -3215.138       -2505.301  
 -11609110.168    -9023792.017    22363861.478    22363860.772    22363867.877  
      3215.835        2505.842  
 -18940544.179   -14729346.074    20933563.136    20933563.054    20933567.370  
     -1013.799        -789.972  
  -9358580.900    -7267598.868    22865207.866    22865207.649    22865213.137  
     -1581.484       -1232.326  
  -4462678.316    -3462888.307    24323565.140    24323565.461    24323572.849  
     -2151.126       -1676.207  
 99  8  2  0 30  0.0000000  0  8  1 14 15 21 22 25 29 30            
 -15928043.309   -12399411.826    21549612.967    21549612.580    21549618.082  
       811.151         632.062  
  -8046035.005    -6231018.887    23278626.508    23278626.409    23278633.202  
      3135.305        2443.094  
    262666.980      195757.005    22348685.898    22348685.465    22348692.586  
     -1386.866       -1080.672  
 -11046773.321    -8596082.498    23023133.865    23023133.425    23023140.762  
     -3226.012       -2513.786  
 -11705463.525    -9098872.479    22345526.124    22345525.326    22345532.302  
      3207.590        2499.420  
 -18909968.223   -14705520.658    20939381.609    20939381.494    20939385.744  
     -1024.548        -798.351  
  -9311087.936    -7230591.381    22874245.377    22874245.216    22874250.666  
     -1584.928       -1235.002  
  -4397924.531    -3412430.847    24335887.354    24335887.788    24335895.190  
     -2165.695       -1687.554  
 99  8  2  0 30 30.0000000  0  8  1 14 15 21 22 25 29 30            
 -15952322.123   -12418330.363    21544992.922    21544992.487    21544997.927  
       807.448         629.172  
  -8140017.409    -6304251.884    23260742.200    23260742.194    23260748.899  
      3130.381        2439.253  
    304518.330      228368.407    22356649.786    22356649.470    22356656.699  
     -1403.102       -1093.332  
 -10949838.361    -8520548.835    23041580.064    23041579.616    23041586.959  
     -3236.189       -2521.714  
 -11801574.552    -9173764.097    22327236.721    22327235.954    22327242.905  
      3200.083        2493.564  
 -18879073.503   -14681446.853    20945260.764    20945260.629    20945264.817  
     -1035.062        -806.544  
  -9263492.573    -7193504.097    22883302.368    22883302.247    22883307.753  
     -1587.939       -1237.356  
  -4332731.624    -3361631.212    24348293.508    24348293.773    24348300.995  
     -2180.351       -1698.983  
 99  8  2  0 31  0.0000000  0  8  1 14 15 21 22 25 29 30            
 -15976483.482   -12437157.386    21540395.170    21540394.757    21540400.172  
       803.613         626.192  
  -8233856.348    -6377373.062    23242885.260    23242885.262    23242892.033  
      3125.686        2435.601  
    346860.917      261362.591    22364707.427    22364707.020    22364714.183  
     -1419.525       -1106.124  
 -10852597.267    -8444776.626    23060084.715    23060084.180    23060091.482  
     -3246.352       -2529.613  
 -11897454.868    -9248475.956    22308991.205    22308990.449    22308997.313  
      3192.055        2487.315  
 -18847856.101   -14657121.607    20951201.244    20951201.126    20951205.295  
     -1045.704        -814.837  
  -9215803.374    -7156343.708    22892377.341    22892377.192    22892382.831  
     -1591.110       -1239.820  
  -4267092.854    -3310484.144    24360784.463    24360784.627    24360791.723  
     -2195.257       -1710.594  
 99  8  2  0 31 30.0000000  0  8  1 14 15 21 22 25 29 30            
 -16000535.774   -12455899.415    21535818.198    21535817.766    21535823.148  
       799.838         623.250  
  -8327548.261    -6450379.692    23225056.332    23225056.304    23225063.068  
      3120.355        2431.437  
    389692.877      294738.098    22372857.998    22372857.547    22372864.878  
     -1435.930       -1118.907  
 -10755057.000    -8368771.291    23078646.090    23078645.547    23078652.935  
     -3256.258       -2537.334  
 -11993089.673    -9322996.496    22290792.376    22290791.681    22290798.540  
      3183.507        2480.657  
 -18816333.615   -14632558.639    20957199.780    20957199.620    20957203.807  
     -1055.844        -822.736  
  -9168020.578    -7119110.400    22901470.167    22901470.067    22901475.816  
     -1594.282       -1242.296  
  -4201008.643    -3258989.979    24373359.796    24373360.041    24373367.228  
     -2210.335       -1722.345  
 99  8  2  0 32  0.0000000  0  8  1 14 15 21 22 25 29 30            
 -16024476.959   -12474554.871    21531262.293    21531261.929    21531267.229  
       796.184         620.396  
  -8421076.347    -6523258.662    23207258.555    23207258.514    23207265.288  
      3114.872        2427.169  
     15010.4433       2542.1873   22381102.3393   22381100.1483   22381086.6003 
     -1452.0263      -1131.4823 
 -10657226.674    -8292539.930    23097262.604    23097262.130    23097269.439  
     -3265.684       -2544.686  
 -12088469.649    -9397318.472    22272642.122    22272641.462    22272648.229  
      3174.876        2473.925  
 -18784505.833   -14607757.782    20963256.405    20963256.239    20963260.455  
     -1066.222        -830.822  
  -9120152.429    -7081810.563    22910579.479    22910579.258    22910584.908  
     -1597.163       -1244.547  
  -4134476.080    -3207146.445    24386020.666    24386020.938    24386027.897  
     -2225.195       -1733.919  
 99  8  2  0 32 30.0000000  0  8  1 14 15 21 22 25 29 30            
 -16048305.583   -12493122.617    21526727.922    21526727.492    21526732.722  
       792.623         617.631  
  -8514438.905    -6596008.664    23189492.266    23189492.269    23189498.945  
      3109.321        2422.846  
     58813.3073      36673.8423   22389435.7693   22389436.0943   22389443.0813 
     -1468.0783      -1143.9553 
 -10559113.493    -8216088.182    23115933.044    23115932.563    23115939.826  
     -3275.043       -2551.977  
 -12183580.175    -9471430.493    22254543.328    22254542.523    22254549.170  
      3165.969        2466.979  
 -18752354.112   -14582704.503    20969374.637    20969374.471    20969378.723  
     -1077.090        -839.290  
  -9072181.894    -7044430.937    22919708.066    22919707.851    22919713.393  
     -1600.906       -1247.461  
  -4067491.561    -3154950.736    24398767.648    24398767.771    24398774.549  
     -2240.357       -1745.731  
 99  8  2  0 33  0.0000000  0  8  1 14 15 21 22 25 29 30            
 -16072035.038   -12511613.096    21522212.361    21522211.908    21522217.017  
       789.325         615.058  
  -8607626.774    -6668622.543    23171759.269    23171759.181    23171765.884  
      3103.143        2418.030  
    103098.1713      71181.4793   22397865.0773   22397864.3713   22397870.5183 
     -1484.3033      -1156.5983 
 -10460715.943    -8139414.832    23134657.630    23134657.169    23134664.157  
     -3284.868       -2559.630  
 -12278412.006    -9545325.344    22236497.394    22236496.564    22236503.251  
      3156.205        2459.376  
 -18719875.457   -14557396.475    20975555.026    20975554.870    20975559.248  
     -1088.141        -847.901  
  -9024080.985    -7006949.732    22928861.370    22928861.200    22928866.690  
     -1605.770       -1251.250  
  -4000047.843    -3102397.211    24411601.846    24411602.035    24411608.684  
     -2255.745       -1757.710  
 99  8  2  0 33 30.0000000  0  8  1 14 15 21 22 25 29 30            
 -16095671.873   -12530031.400    21517714.350    21517713.916    21517718.949  
       786.156         612.589  
  -8700631.481    -6741093.689    23154061.156    23154060.943    23154067.735  
      3096.918        2413.181  
    147862.2281     106062.5171   22406382.4781   22406382.6491   22406389.0851 
     -1500.2101      -1168.9981 
 -10362031.342    -8062517.798    23153436.882    23153436.385    23153443.139  
     -3294.399       -2567.066  
 -12372957.645    -9618997.203    22218505.833    22218505.050    22218511.695  
      3146.615        2451.915  
 -18687071.363   -14531834.861    20981797.312    20981797.197    20981801.669  
     -1099.021        -856.377  
  -8975841.722    -6969360.722    22938041.028    22938040.859    22938046.363  
     -1610.318       -1254.789  
  -3932154.563    -3049493.381    24424521.540    24424521.705    24424528.386  
     -2270.597       -1769.300  
 99  8  2  0 34  0.0000000  0  8  1 14 15 21 22 25 29 30            
 -16119210.880   -12548373.469    21513235.021    21513234.570    21513239.623  
       782.996         610.131  
  -8793451.352    -6813420.816    23136397.988    23136397.799    23136404.654  
      3091.002        2408.572  
    193103.0691     141315.0691   22414990.920    22414991.3311   22414998.2051 
     -1515.9611      -1181.2681 
 -10263057.270    -7985395.207    23172271.060    23172270.562    23172277.282  
     -3304.164       -2574.680  
 -12467212.198    -9692442.225    22200569.693    22200568.887    22200575.552  
      3136.888        2444.330  
 -18653941.451   -14506019.355    20988101.715    20988101.626    20988106.080  
     -1109.672        -864.680  
  -8927460.599    -6931661.169    22947247.616    22947247.533    22947253.015  
     -1615.202       -1258.590  
  -3863821.912    -2996247.199    24437524.677    24437524.807    24437531.687  
     -2284.962       -1780.486  
 99  8  2  0 34 30.0000000  0  8  1 14 15 21 22 25 29 30            
 -16142653.715   -12566640.601    21508773.857    21508773.448    21508778.645  
       779.844         607.670  
  -8886096.591    -6885611.857    23118768.033    23118767.875    23118774.892  
      3085.169        2404.024  
    238818.209      176937.220    22423691.035    22423690.800    22423697.580  
     -1531.782       -1193.590  
 -10163775.237    -7908032.646    23191163.775    23191163.297    23191170.017  
     -3314.764       -2582.923  
 -12561171.238    -9765657.003    22182689.796    22182688.994    22182695.610  
      3127.099        2436.695  
 -18620493.258   -14479955.843    20994466.754    20994466.652    20994471.054  
     -1120.178        -872.860  
  -8878927.856    -6893843.484    22956483.090    22956483.065    22956488.563  
     -1620.192       -1262.480  
  -3795058.169    -2942665.081    24450609.953    24450610.070    24450616.932  
     -2299.267       -1791.643  
 99  8  2  0 35  0.0000000  0  8  1 14 15 21 22 25 29 30            
 -16166002.608   -12584834.522    21504330.698    21504330.275    21504335.528  
       776.387         604.969  
  -8978564.111    -6957664.411    23101171.862    23101171.688    23101178.933  
      3078.998        2399.209  
    285005.683      212927.416    22432480.474    22432479.876    22432486.792  
     -1547.606       -1205.930  
 -10064172.190    -7830419.967    23210117.583    23210117.145    23210124.098  
     -3325.700       -2591.457  
 -12654837.816    -9838643.879    22164865.645    22164864.771    22164871.371  
      3117.084        2428.887  
 -18586731.790   -14453648.216    21000891.403    21000891.266    21000895.673  
     -1130.834        -881.177  
  -8830256.517    -6855917.787    22965744.979    22965744.938    22965750.600  
     -1624.554       -1265.892  
  -3725876.192    -2888757.065    24463774.877    24463774.954    24463781.857  
     -2312.973       -1802.311  
 99  8  2  0 35 30.0000000  0  8  1 14 15 21 22 25 29 30            
 -16189243.804   -12602944.536    21499908.020    21499907.639    21499912.923  
       772.818         602.198  
  -9070843.448    -7029570.324    23083611.442    23083611.338    23083618.716  
      3072.682        2394.302  
    331662.346      249283.222    22441358.904    22441358.388    22441365.179  
     -1563.047       -1217.956  
  -9964246.085    -7752555.576    23229132.788    23229132.301    23229139.627  
     -3336.204       -2599.627  
 -12748205.200    -9911397.609    22147098.149    22147097.400    22147104.132  
      3107.122        2421.135  
 -18552658.988   -14427098.004    21007375.141    21007375.060    21007379.546  
     -1140.899        -889.008  
  -8781472.444    -6817904.264    22975028.349    22975028.191    22975033.996  
     -1628.052       -1268.613  
  -3656286.990    -2834531.772    24477017.127    24477017.345    24477024.263  
     -2326.525       -1812.875  
 99  8  2  0 36  0.0000000  0  8  1 14 15 21 22 25 29 30            
 -16212370.360   -12620965.215    21495507.216    21495506.840    21495512.141  
       769.062         599.272  
  -9162936.463    -7101331.065    23066086.849    23066086.563    23066093.974  
      3066.879        2389.771  
    378785.908      286002.835    22450326.564    22450325.732    22450332.577  
     -1578.437       -1229.946  
  -9864004.456    -7674445.321    23248208.009    23248207.653    23248215.153  
     -3346.535       -2607.678  
 -12841274.370    -9983918.960    22129387.518    22129386.806    22129393.661  
      3097.699        2413.791  
 -18518278.991   -14400308.418    21013917.462    21013917.324    21013921.808  
     -1151.112        -896.966  
  -8732576.527    -6779803.582    22984332.810    22984332.741    22984338.564  
     -1631.597       -1271.371  
  -3586289.535    -2779988.363    24490337.278    24490337.466    24490344.381  
     -2339.823       -1823.212  
 99  8  2  0 36 30.0000000  0  8  1 14 15 21 22 25 29 30            
 -16235381.827   -12638896.208    21491128.307    21491127.939    21491133.237  
       765.180         596.245  
  -9254846.169    -7172948.977    23048596.926    23048596.699    23048603.956  
      3060.378        2384.712  
    426373.541      323084.072    22459382.019    22459381.342    22459388.296  
     -1593.945       -1242.028  
  -9763452.870    -7596093.542    23267342.590    23267342.148    23267349.617  
     -3356.636       -2615.552  
 -12934062.123   -10056221.020    22111730.467    22111729.705    22111736.764  
      3088.388        2406.535  
 -18483588.747   -14373277.075    21020518.668    21020518.611    21020523.148  
     -1161.394        -904.983  
  -8683577.523    -6741622.572    22993657.063    22993656.883    22993662.738  
     -1634.748       -1273.830  
  -3515886.967    -2725129.263    24503734.205    24503734.645    24503741.602  
     -2353.517       -1833.897  
 99  8  2  0 37  0.0000000  0  8  1 14 15 21 22 25 29 30            
 -16258279.532   -12656738.560    21486771.095    21486770.699    21486776.001  
       761.367         593.266  
  -9346554.875    -7244410.270    23031145.311    23031145.164    23031152.240  
      3053.549        2379.384  
    474422.701      360524.942    22468525.612    22468524.876    22468531.846  
     -1609.228       -1253.947  
  -9662613.816    -7517517.759    23286532.020    23286531.483    23286538.731  
     -3365.948       -2622.811  
 -13026579.218   -10128312.187    22094125.025    22094124.263    22094131.433  
      3079.388        2399.519  
 -18448597.934   -14346011.521    21027177.223    21027177.135    21027181.662  
     -1171.220        -912.640  
  -8634494.225    -6703375.879    23002997.138    23002997.067    23003002.880  
     -1637.484       -1275.960  
  -3445083.896    -2669958.072    24517207.703    24517208.082    24517215.052  
     -2366.630       -1844.144  
 99  8  2  0 37 30.0000000  0  8  1 14 15 21 22 25 29 30            
 -16281062.927   -12674491.837    21482435.554    21482435.171    21482440.571  
       757.675         590.401  
  -9438053.956    -7315708.200    23013733.597    23013733.470    23013740.430  
      3046.601        2373.963  
    522930.760      398323.383    22477756.262    22477755.578    22477762.588  
     -1624.462       -1265.811  
  -9561493.876    -7438723.097    23305774.710    23305774.092    23305781.308  
     -3375.372       -2630.154  
 -13118824.075   -10200191.225    22076571.267    22076570.562    22076577.825  
      3070.440        2392.548  
 -18413321.182   -14318523.163    21033890.139    21033890.082    21033894.628  
     -1180.486        -919.858  
  -8585323.669    -6665061.206    23012354.022    23012353.874    23012359.688  
     -1640.597       -1278.383  
  -3373876.588    -2614471.936    24530758.176    24530758.586    24530765.355  
     -2380.275       -1854.744  
 99  8  2  0 38  0.0000000  0  8  1 14 15 21 22 25 29 30            
 -16303736.532   -12692159.565    21478120.922    21478120.537    21478125.990  
       754.061         587.576  
  -9529338.312    -7386838.830    22996362.642    22996362.593    22996369.466  
      3039.122        2368.144  
    571894.961      436477.276    22487073.984    22487073.262    22487080.082  
     -1639.664       -1277.665  
  -9460086.814    -7359704.694    23325071.854    23325071.239    23325078.538  
     -3385.119       -2637.750  
 -13210803.649   -10271863.544    22059068.019    22059067.346    22059074.687  
      3061.596        2385.654  
 -18377763.139   -14290815.612    21040656.710    21040656.632    21040661.136  
     -1189.926        -927.217  
  -8536047.194    -6626664.003    23021730.906    23021730.854    23021736.699  
     -1644.278       -1281.254  
  -3302264.105    -2558670.040    24544385.899    24544386.176    24544392.737  
     -2393.834       -1865.322  
 99  8  2  0 38 30.0000000  0  8  1 14 15 21 22 25 29 30            
 -16326311.032   -12709750.065    21473825.136    21473824.717    21473830.153  
       750.816         585.055  
  -9620393.797    -7457791.117    22979035.529    22979035.251    22979042.091  
      3031.272        2362.029  
    621312.994      474984.790    22496477.757    22496477.091    22496484.042  
     -1654.868       -1289.504  
  -9358382.411    -7280454.616    23344425.457    23344424.873    23344432.335  
     -3395.170       -2645.586  
 -13302507.693   -10343321.172    22041617.354    22041616.583    22041623.917  
      3051.908        2378.112  
 -18341926.261   -14262890.787    21047476.265    21047476.224    21047480.697  
     -1199.226        -934.459  
  -8486662.578    -6588182.529    23031128.558    23031128.539    23031134.368  
     -1648.265       -1284.358  
  -3230246.283    -2502552.334    24558090.501    24558090.634    24558097.310  
     -2407.392       -1875.889  
 99  8  2  0 39  0.0000000  0  8  1 14 15 21 22 25 29 30            
 -16348784.728   -12727262.016    21469548.529    21469548.095    21469553.532  
       747.420         582.406  
  -9711218.929    -7528563.898    22961751.981    22961751.711    22961758.567  
      3023.831        2356.227  
    671182.198      513843.865    22505967.613    22505967.071    22505973.942  
     -1669.772       -1301.124  
  -9256377.641    -7200970.484    23363836.161    23363835.726    23363843.324  
     -3405.185       -2653.383  
 -13393917.770   -10414549.732    22024222.541    22024221.788    22024228.971  
      3041.976        2370.371  
 -18305805.791   -14234744.983    21054349.859    21054349.770    21054354.274  
     -1208.846        -941.963  
  -8437145.424    -6549597.785    23040551.432    23040551.342    23040557.203  
     -1653.012       -1288.057  
  -3157812.164    -2446110.217    24571873.910    24571874.134    24571881.033  
     -2421.544       -1886.912  
 99  8  2  0 39 30.0000000  0  8  1 14 15 21 22 25 29 30            
 -16371155.986   -12744694.153    21465291.474    21465291.045    21465296.430  
       744.005         579.746  
  -9801825.221    -7599166.160    22944509.926    22944509.791    22944516.706  
      3016.692        2350.674  
    721499.858      553052.390    22515542.887    22515542.220    22515549.093  
     -1684.787       -1312.818  
  -9154062.886    -7121244.809    23383305.992    23383305.539    23383313.233  
     -3415.652       -2661.528  
 -13485020.168   -10485538.547    22006886.311    22006885.654    22006892.615  
      3031.536        2362.237  
 -18269393.769   -14206371.992    21061278.831    21061278.766    21061283.291  
     -1218.696        -949.632  
  -8387482.582    -6510899.517    23050001.831    23050001.840    23050007.704  
     -1657.924       -1291.889  
  -3084947.785    -2389332.848    24585739.043    24585739.473    24585746.549  
     -2435.952       -1898.139  
 99  8  2  0 40  0.0000000  0  8  1 14 15 21 22 25 29 30            
 -16393432.676   -12762052.595    21461052.402    21461051.956    21461057.288  
       741.114         577.486  
  -9892228.231    -7669610.028    22927306.639    22927306.624    22927313.430  
      3010.312        2345.699  
    772263.260      592608.249    22525202.719    22525202.129    22525208.981  
     -1699.396       -1324.209  
  -9051451.050    -7041287.606    23402832.394    23402832.029    23402839.832  
     -3424.999       -2668.839  
 -13575810.411   -10556284.109    21989609.821    21989608.927    21989615.717  
      3021.093        2354.093  
 -18232687.455   -14177769.682    21068263.841    21068263.754    21068268.312  
     -1228.475        -957.254  
  -8337677.436    -6472090.355    23059479.414    23059479.395    23059485.353  
     -1662.334       -1295.328  
  -3011663.207    -2332228.028    24599684.637    24599685.065    24599692.076  
     -2449.618       -1908.783  
 99  8  2  0 40 30.0000000  0  8  1 14 15 21 22 25 29 30            
 -16415615.166   -12779337.635    21456831.204    21456830.728    21456836.090  
       737.761         574.875  
  -9982445.439    -7739909.104    22910138.808    22910138.772    22910145.558  
      3004.252        2340.977  
    823469.847      632509.430    22534946.976    22534946.331    22534953.282  
     -1714.185       -1335.731  
  -8948567.324    -6961118.567    23422410.598    23422410.114    23422418.095  
     -3433.626       -2675.560  
 -13666276.864   -10626777.380    21972394.617    21972393.709    21972400.389  
      3010.156        2345.565  
 -18195679.890   -14148932.630    21075306.064    21075306.009    21075310.597  
     -1238.589        -965.137  
  -8287738.901    -6433177.257    23068982.396    23068982.418    23068988.369  
     -1666.796       -1298.802  
  -2937960.229    -2274797.179    24613710.026    24613710.430    24613717.249  
     -2463.740       -1919.794  
 99  8  2  0 41  0.0000000  0  8  1 14 15 21 22 25 29 30            
 -16437691.422   -12796539.897    21452630.145    21452629.680    21452635.124  
       734.207         572.113  
 -10072478.467    -7810064.663    22893006.093    22893005.993    22893012.773  
      2997.903        2336.031  
    875116.647      672753.636    22544775.033    22544774.447    22544781.466  
     -1728.868       -1347.162  
  -8845437.320    -6880757.615    23442035.683    23442035.233    23442043.181  
     -3441.707       -2681.835  
 -13756415.221   -10697014.981    21955241.685    21955240.814    21955247.544  
      2999.145        2336.996  
 -18158371.227   -14119860.954    21082405.698    21082405.611    21082410.255  
     -1248.526        -972.871  
  -8237670.103    -6394162.651    23078510.262    23078510.193    23078516.228  
     -1670.841       -1301.954  
  -2863842.633    -2217043.273    24627814.329    24627814.625    24627821.423  
     -2477.377       -1930.402  
 99  8  2  0 41 30.0000000  0  8  1 14 15 21 22 25 29 30            
 -16459670.943   -12813666.783    21448447.411    21448446.919    21448452.467  
       730.935         569.559  
 -10162325.922    -7880075.625    22875908.696    22875908.616    22875915.315  
      2991.789        2331.264  
    927201.048      713338.830    22554686.552    22554685.804    22554692.968  
     -1743.433       -1358.513  
  -8742068.812    -6800210.799    23461706.443    23461705.885    23461713.732  
     -3449.454       -2687.882  
 -13846218.459   -10766991.461    21938152.376    21938151.658    21938158.450  
      2987.943        2328.262  
 -18120769.788   -14090561.137    21089560.874    21089560.868    21089565.600  
     -1258.288        -980.488  
  -8187493.668    -6355064.195    23088058.321    23088058.383    23088064.469  
     -1674.315       -1304.656  
  -2789330.215    -2158981.712    24641993.533    24641993.992    24642000.843  
     -2489.974       -1940.247  
 99  8  2  0 42  0.0000000  0  8  1 14 15 21 22 25 29 30            
 -16481538.305   -12830706.275    21444286.062    21444285.645    21444291.176  
       726.798         566.337  
 -10251978.637    -7949934.838    22858848.419    22858848.256    22858854.912  
      2984.697        2325.733  
    979720.086      754262.683    22564680.341    22564679.769    22564687.082  
     -1757.947       -1369.822  
  -8638472.219    -6719486.238    23481420.352    23481419.782    23481427.623  
     -3457.188       -2693.910  
 -13935685.068   -10836705.617    21921127.407    21921126.578    21921133.503  
      2976.520        2319.360  
 -18082869.183   -14061028.204    21096773.193    21096773.142    21096777.867  
     -1268.559        -988.484  
  -8137201.353    -6315875.424    23097628.740    23097628.766    23097634.788  
     -1678.697       -1308.066  
  -2714447.679    -2100631.706    24656243.566    24656243.877    24656250.773  
     -2502.370       -1949.912  
 99  8  2  0 42 30.0000000  0  8  1 14 15 21 22 25 29 30            
 -16503277.953   -12847646.244    21440149.220    21440148.748    21440154.196  
       722.540         563.006  
 -10341405.416    -8019617.999    22841831.133    22841830.956    22841837.613  
      2976.872        2319.639  
   1032671.341      795523.357    22574756.960    22574756.199    22574763.410  
     -1772.265       -1380.987  
  -8534639.756    -6638577.872    23501178.978    23501178.525    23501186.289  
     -3465.205       -2700.171  
 -14024814.873   -10906157.338    21904166.345    21904165.547    21904172.650  
      2965.448        2310.735  
 -18044662.259   -14031256.583    21104043.753    21104043.683    21104048.416  
     -1278.612        -996.321  
  -8086782.037    -6276587.687    23107223.293    23107223.279    23107229.204  
     -1682.732       -1311.229  
  -2639192.749    -2041991.538    24670564.172    24670564.457    24670571.528  
     -2514.832       -1959.606  
 99  8  2  0 43  0.0000000  0  8  1 14 15 21 22 25 29 30            
 -16524894.748   -12864490.492    21436035.630    21436035.217    21436040.680  
       718.524         559.886  
 -10430589.823    -8089112.294    22824860.019    22824859.809    22824866.456  
      2968.770        2313.320  
   1086051.981      837118.594    22584914.720    22584914.146    22584921.484  
     -1786.534       -1392.106  
  -8430558.003    -6557475.271    23520984.908    23520984.510    23520992.394  
     -3473.871       -2706.904  
 -14113614.300   -10975351.637    21887268.088    21887267.461    21887274.613  
      2954.511        2302.212  
 -18006156.413   -14001252.037    21111371.286    21111371.200    21111375.871  
     -1288.461       -1003.998  
  -8036238.668    -6237203.309    23116841.403    23116841.448    23116847.193  
     -1686.883       -1314.455  
  -2563568.568    -1983063.636    24684955.056    24684955.286    24684962.502  
     -2526.856       -1968.976  
 99  8  2  0 43 30.0000000  0  8  1 14 15 21 22 25 29 30            
 -16546386.651   -12881237.426    21431945.931    21431945.495    21431950.927  
       714.062         556.409  
 -10519528.185    -8158414.867    22807935.533    22807935.409    22807942.143  
      2960.363        2306.779  
   1139859.207      879046.252    22595154.101    22595153.451    22595160.765  
     -1800.634       -1403.094  
  -8326203.717    -6476160.279    23540842.886    23540842.524    23540850.322  
     -3483.050       -2714.066  
 -14202087.599   -11044291.803    21870432.319    21870431.597    21870438.669  
      2943.786        2293.854  
 -17967355.829   -13971017.827    21118754.875    21118754.768    21118759.388  
     -1298.233       -1011.607  
  -7985571.637    -6197722.549    23126483.093    23126483.106    23126488.770  
     -1691.134       -1317.762  
  -2487582.896    -1923854.083    24699414.680    24699414.887    24699422.208  
     -2539.018       -1978.444  
 99  8  2  0 44  0.0000000  0  8  1 14 15 21 22 25 29 30            
 -16567744.284   -12897879.732    21427881.773    21427881.317    21427886.719  
       709.925         553.186  
 -10608201.876    -8227511.184    22791061.480    22791061.285    22791068.087  
      2951.213        2299.648  
   1194090.298      921304.159    22605473.865    22605473.209    22605480.719  
     -1814.746       -1414.091  
  -8221573.674    -6394630.416    23560753.426    23560752.960    23560760.987  
     -3492.381       -2721.324  
 -14290247.376   -11112987.671    21853656.187    21853655.385    21853662.316  
      2933.323        2285.705  
 -17928271.903   -13940562.823    21126192.361    21126192.264    21126196.855  
     -1307.325       -1018.694  
  -7934777.014    -6158142.360    23136149.028    23136148.982    23136154.749  
     -1695.153       -1320.908  
  -2411216.254    -1864347.660    24713946.917    24713947.072    24713954.385  
     -2552.343       -1988.838  
 99  8  2  0 44 30.0000000  0  8  1 14 15 21 22 25 29 30            
 -16588988.903   -12914433.986    21423839.084    21423838.627    21423843.971  
       706.321         550.378  
 -10696613.273    -8296403.127    22774237.440    22774237.124    22774243.938  
      2942.912        2293.175  
   1248742.234      963890.020    22615873.903    22615873.293    22615880.705  
     -1828.665       -1424.932  
  -8116657.888    -6312877.925    23580718.198    23580717.809    23580726.087  
     -3501.999       -2728.834  
 -14378084.941   -11181432.463    21836941.208    21836940.459    21836947.258  
      2922.424        2277.213  
 -17888925.856   -13909903.569    21133679.718    21133679.635    21133684.152  
     -1315.704       -1025.230  
  -7883877.357    -6118480.338    23145834.938    23145834.954    23145840.825  
     -1698.171       -1323.247  
  -2334435.901    -1804518.856    24728557.692    24728557.876    24728565.180  
     -2566.269       -1999.692  
 99  8  2  0 45  0.0000000  0  8  1 14 15 21 22 25 29 30            
 -16610116.836   -12930897.312    21419818.561    21419818.110    21419823.419  
       702.155         547.130  
 -10784778.775    -8365103.460    22757460.129    22757459.713    22757466.597  
      2934.722        2286.791  
   1303812.126     1006801.547    22626353.359    22626352.783    22626360.176  
     -1842.611       -1435.802  
  -8011455.412    -6230902.022    23600737.630    23600737.197    23600745.616  
     -3511.552       -2736.275  
 -14465585.633   -11249614.759    21820290.386    21820289.577    21820296.321  
      2910.974        2268.284  
 -17849335.830   -13879054.208    21141213.478    21141213.386    21141217.862  
     -1323.674       -1031.438  
  -7832883.086    -6078744.574    23155538.851    23155538.850    23155544.938  
     -1701.462       -1325.816  
  -2257238.035    -1744364.727    24743247.962    24743248.141    24743255.429  
     -2580.069       -2010.440  
 99  8  2  0 45 30.0000000  0  8  1 14 15 21 22 25 29 30            
 -16631120.563   -12947263.858    21415821.637    21415821.229    21415826.520  
       698.220         544.070  
 -10872693.060    -8433608.038    22740730.457    22740730.150    22740737.010  
      2926.392        2280.292  
   1359297.134     1050036.550    22636912.076    22636911.442    22636918.639  
     -1856.279       -1446.453  
  -7905965.206    -6148701.932    23620811.643    23620811.245    23620819.807  
     -3520.757       -2743.459  
 -14552738.771   -11317526.235    21803705.573    21803704.845    21803711.556  
      2899.447        2259.308  
 -17809509.560   -13848020.758    21148792.188    21148792.082    21148796.460  
     -1331.268       -1037.353  
  -7781787.589    -6038929.945    23165262.006    23165261.934    23165268.254  
     -1704.843       -1328.451  
  -2179626.864    -1683888.550    24758016.730    24758016.986    24758024.411  
     -2593.868       -2021.194  
 99  8  2  0 46  0.0000000  0  8  1 14 15 21 22 25 29 30            
 -16652004.861   -12963537.340    21411847.544    21411847.109    21411852.372  
       694.023         540.797  
 -10960355.660    -8501916.495    22724048.758    22724048.432    22724055.294  
      2917.969        2273.739  
   1415194.521     1093592.883    22647549.002    22647548.365    22647555.640  
     -1870.212       -1457.307  
  -7800209.937    -6066295.324    23640936.101    23640935.788    23640944.497  
     -3529.580       -2750.315  
 -14639539.177   -11385162.851    21787187.918    21787187.203    21787193.944  
      2887.128        2249.707  
 -17769447.932   -13816803.910    21156415.642    21156415.532    21156419.899  
     -1339.663       -1043.895  
  -7730582.275    -5999029.745    23175005.914    23175005.919    23175012.317  
     -1708.878       -1331.593  
  -2101600.337    -1623088.706    24772864.592    24772864.996    24772872.451  
     -2607.637       -2031.933  
 99  8  2  0 46 30.0000000  0  8  1 14 15 21 22 25 29 30            
 -16672764.634   -12979713.784    21407897.131    21407896.697    21407901.979  
       689.886         537.573  
 -11047778.739    -8570038.310    22707412.748    22707412.337    22707419.194  
      2910.129        2267.633  
   1471501.748     1137468.588    22658264.028    22658263.373    22658270.705  
     -1883.647       -1467.781  
  -7694207.832    -5983696.379    23661107.880    23661107.393    23661116.171  
     -3537.190       -2756.253  
 -14725967.147   -11452509.268    21770741.349    21770740.545    21770747.147  
      2874.874        2240.159  
 -17729131.526   -13785388.534    21164087.563    21164087.426    21164091.857  
     -1348.095       -1050.466  
  -7679257.872    -5959036.738    23184772.806    23184772.735    23184779.044  
     -1712.899       -1334.729  
  -2023187.879    -1561988.147    24787786.394    24787786.650    24787794.007  
     -2619.651       -2041.286  
 99  8  2  0 47  0.0000000  0  8  1 14 15 21 22 25 29 30            
 -16693401.516   -12995794.475    21403970.087    21403969.633    21403974.957  
       686.016         534.560  
 -11134960.838    -8637972.349    22690822.425    22690822.085    22690828.924  
      2901.918        2261.230  
   1528215.687     1181661.194    22669056.240    22669055.590    22669063.098  
     -1897.259       -1478.389  
  -7587983.896    -5900924.587    23681321.514    23681321.082    23681329.974  
     -3544.476       -2761.923  
 -14812028.999   -11519570.394    21754364.397    21754363.527    21754369.992  
      2862.720        2230.696  
 -17688551.578   -13753767.805    21171809.515    21171809.433    21171813.951  
     -1357.362       -1057.686  
  -7627797.693    -5918937.934    23194565.614    23194565.441    23194571.637  
     -1717.748       -1338.504  
  -1944429.726    -1500618.217    24802773.784    24802773.921    24802781.169  
     -2630.935       -2050.084  
 99  8  2  0 47 30.0000000  0  9  1 14 15 16 21 22 25 29 30         
 -16713934.364   -13011794.100    21400062.744    21400062.350    21400067.731  
       682.786         532.043  
 -11221896.298    -8705714.214    22674279.203    22674278.842    22674285.527  
      2893.805        2254.917  
   1585333.448     1226168.478    22679925.619    22679924.942    22679932.263  
     -1910.564       -1488.747  
   -297802.0563    -161917.7023          0.0003   25500721.4533   25514296.9143 
      3476.5543       2709.5323 
  -7481550.518    -5817989.585    23701575.027    23701574.753    23701583.570  
     -3551.030       -2767.026  
 -14897735.347   -11586354.496    21738055.032    21738054.125    21738060.495  
      2851.147        2221.673  
 -17647692.096   -13721929.260    21179584.824    21179584.689    21179589.284  
     -1366.636       -1064.910  
  -7576198.910    -5878731.125    23204384.547    23204384.440    23204390.607  
     -1722.121       -1341.912  
  -1865332.382    -1438983.970    24817825.532    24817825.613    24817832.893  
     -2642.330       -2058.950  
 99  8  2  0 48  0.0000000  0  8  1 14 15 21 22 25 29 30            
 -16734368.345   -13027716.685    21396174.371    21396173.964    21396179.258  
       679.451         529.442  
 -11308584.413    -8773263.341    22657783.011    22657782.624    22657789.181  
      2885.448        2248.400  
   1642851.782     1270987.888    22690871.096    22690870.405    22690877.724  
     -1923.982       -1499.207  
  -7374925.537    -5734905.294    23721865.237    23721864.988    23721873.723  
     -3557.528       -2772.100  
 -14983089.244   -11652863.968    21721812.618    21721811.780    21721818.083  
      2839.113        2212.294  
 -17606541.618   -13689863.964    21187415.494    21187415.352    21187419.912  
     -1376.681       -1072.739  
  -7524467.907    -5838421.290    23214228.546    23214228.495    23214234.608  
     -1726.544       -1345.359  
  -1785885.435    -1377077.313    24832943.620    24832943.705    24832951.192  
     -2654.080       -2068.096  
 99  8  2  0 48 30.0000000  0  8  1 14 15 21 22 25 29 30            
 -16754715.886   -13043571.915    21392302.503    21392302.042    21392307.233  
       676.977         527.518  
 -11395025.880    -8840620.269    22641333.558    22641333.264    22641339.840  
      2876.977        2241.795  
   1700768.314     1316117.586    22701892.209    22701891.561    22701898.832  
     -1937.237       -1509.543  
  -7268094.115    -5651660.148    23742194.870    23742194.455    23742203.035  
     -3564.801       -2777.765  
 -15068084.823   -11719094.225    21705638.468    21705637.630    21705643.842  
      2827.286        2203.079  
 -17565096.467   -13657569.048    21195302.203    21195302.109    21195306.645  
     -1386.327       -1080.253  
  -7472613.812    -5798015.534    23224096.047    23224096.014    23224101.979  
     -1730.523       -1348.460  
  -1706079.521    -1314890.900    24848129.793    24848130.228    24848137.887  
     -2666.437       -2077.749  
 99  8  2  0 49  0.0000000  0  8  1 14 15 21 22 25 29 30            
 -16774993.414   -13059372.581    21388443.835    21388443.380    21388448.500  
       674.565         525.631  
 -11481207.878    -8907775.021    22624933.597    22624933.264    22624939.876  
      2868.275        2235.008  
   1759079.658     1361554.926    22712988.610    22712987.919    22712995.154  
     -1950.296       -1519.713  
  -7161029.411    -5568233.213    23762568.573    23762568.272    23762576.805  
     -3573.019       -2784.179  
 -15152735.396   -11785055.650    21689529.954    21689529.094    21689535.254  
      2815.864        2194.179  
 -17523366.126   -13625051.907    21203243.276    21203243.162    21203247.636  
     -1395.804       -1087.638  
  -7420638.016    -5757514.934    23233986.810    23233986.669    23233992.645  
     -1734.678       -1351.691  
  -1625894.365    -1252408.996    24863388.568    24863388.964    24863396.683  
     -2679.361       -2087.827  
 99  8  2  0 49 30.0000000  0  8  1 14 15 21 22 25 29 30            
 -16795187.678   -13075108.378    21384600.930    21384600.510    21384605.576  
       671.603         523.327  
 -11567120.735    -8974720.062    22608584.781    22608584.501    22608591.159  
      2859.265        2227.999  
   1817783.042     1407297.749    22724159.605    22724158.949    22724166.004  
     -1963.260       -1529.801  
  -7053710.628    -5484608.280    23782990.764    23782990.460    23782998.928  
     -3581.628       -2790.886  
 -15237033.824   -11850742.688    21673488.369    21673487.596    21673493.704  
      2803.958        2184.899  
 -17481359.439   -13592319.437    21211237.004    21211236.816    21211241.215  
     -1404.545       -1094.452  
  -7368538.567    -5716917.994    23243900.951    23243900.825    23243906.849  
     -1738.892       -1354.978  
  -1545313.055    -1189618.437    24878722.947    24878723.120    24878730.804  
     -2692.672       -2098.182  
 99  8  2  0 50  0.0000000  0  8  1 14 15 21 22 25 29 30            
 -16815286.773   -13090770.008    21380776.184    21380775.768    21380780.809  
       668.301         520.753  
 -11652765.697    -9041456.351    22592286.965    22592286.724    22592293.352  
      2850.376        2221.069  
   1876875.790     1453343.973    22735404.784    22735404.017    22735411.062  
     -1976.216       -1539.906  
  -6946125.230    -5400775.574    23803463.813    23803463.442    23803471.828  
     -3590.726       -2797.966  
 -15320962.680   -11916141.737    21657517.231    21657516.428    21657522.511  
      2791.241        2174.988  
 -17439094.315   -13559385.584    21219279.776    21219279.624    21219283.989  
     -1412.928       -1100.987  
  -7316301.660    -5676213.950    23253841.343    23253841.193    23253847.412  
     -1743.677       -1358.706  
  -1464347.501    -1126528.470    24894130.132    24894130.465    24894138.166  
     -2704.971       -2107.767  
 99  8  2  0 50 30.0000000  0  8  1 14 15 21 22 25 29 30            
 -16835284.393   -13106352.564    21376970.762    21376970.343    21376975.448  
       664.693         517.944  
 -11738141.597    -9107982.985    22576040.368    22576040.152    22576046.762  
      2841.173        2213.901  
   1936354.381     1499690.860    22746723.254    22746722.512    22746729.549  
     -1988.992       -1549.858  
  -6838264.525    -5316728.357    23823988.986    23823988.640    23823997.049  
     -3599.698       -2804.955  
 -15404505.933   -11981240.330    21641619.506    21641618.646    21641624.662  
      2778.434        2165.014  
 -17396594.683   -13526269.003    21227367.160    21227367.002    21227371.366  
     -1420.329       -1106.744  
  -7263918.869    -5635396.238    23263809.344    23263809.329    23263815.627  
     -1748.615       -1362.556  
  -1383021.428    -1063157.546    24909606.100    24909606.455    24909613.974  
     -2716.735       -2116.922  
 99  8  2  0 51  0.0000000  0  8  1 14 15 21 22 25 29 30            
 -16855152.528   -13121834.220    21373189.989    21373189.527    21373194.673  
       659.887         514.199  
 -11823234.353    -9174288.988    22559847.712    22559847.549    22559854.037  
      2831.908        2206.684  
   1996215.932     1546336.149    22758114.619    22758113.880    22758121.012  
     -2001.676       -1559.737  
  -6730149.869    -5232483.263    23844562.316    23844562.142    23844570.476  
     -3607.623       -2811.129  
 -15487665.630   -12046040.037    21625794.569    21625793.809    21625799.790  
      2765.441        2154.894  
 -17353877.862   -13492983.176    21235495.937    21235495.789    21235500.106  
     -1427.412       -1112.266  
  -7211385.589    -5594461.260    23273806.060    23273806.167    23273812.561  
     -1753.475       -1366.347  
  -1301349.185     -999516.882    24925147.802    24925148.235    24925155.620  
     -2727.883       -2125.635  
 99  8  2  0 51 30.0000000  0  8  1 14 15 21 22 25 29 30            
 -16874868.306   -13137197.155    21369438.164    21369437.703    21369442.867  
       654.606         510.083  
 -11908046.669    -9240376.463    22543708.536    22543708.333    22543714.734  
      2822.331        2199.219  
   2056457.988     1593277.935    22769578.392    22769577.714    22769584.870  
     -2014.409       -1569.672  
  -6621811.897    -5148064.139    23865178.459    23865178.315    23865186.570  
     -3614.896       -2816.779  
 -15570423.286   -12110526.460    21610046.234    21610045.451    21610051.536  
      2751.846        2144.300  
 -17310948.019   -13459531.362    21243665.360    21243665.143    21243669.434  
     -1434.631       -1117.890  
  -7158706.657    -5553412.798    23283830.775    23283830.770    23283837.111  
     -1758.437       -1370.212  
  -1219349.760     -935621.245    24940751.983    24940752.342    24940759.538  
     -2738.709       -2134.054  
 99  8  2  0 52  0.0000000  0  8  1 14 15 21 22 25 29 30            
 -16894426.515   -13152437.308    21365716.332    21365715.880    21365721.041  
       649.359         505.993  
 -11992579.378    -9306246.068    22527622.591    22527622.339    22527628.630  
      2813.013        2191.960  
   2117077.246     1640513.655    22781113.977    22781113.294    22781120.423  
     -2026.907       -1579.409  
  -6513263.718    -5063481.241    23885834.886    23885834.529    23885842.591  
     -3621.594       -2822.020  
 -15652774.992   -12174696.570    21594375.164    21594374.417    21594380.520  
      2738.409        2133.819  
 -17267797.019   -13425907.208    21251876.662    21251876.546    21251880.805  
     -1442.228       -1123.814  
  -7105887.788    -5512255.267    23293881.983    23293881.982    23293888.223  
     -1762.692       -1373.522  
  -1137027.631     -871474.198    24956417.394    24956417.799    24956424.897  
     -2749.509       -2142.457  
 99  8  2  0 52 30.0000000  0  9  1 14 15 16 21 22 25 29 30         
 -16913829.665   -13167556.626    21362023.988    21362023.594    21362028.757  
       644.222         501.989  
 -12076828.602    -9371894.771    22511590.574    22511590.256    22511596.543  
      2803.705        2184.704  
   2178070.556     1688040.837    22792720.700    22792719.941    22792727.109  
     -2039.235       -1589.008  
   -240107.6693          0.0003          0.0003   25302503.6773          0.0003 
      3470.5633          0.0003 
  -6404523.871    -4978749.025    23906527.758    23906527.197    23906535.161  
     -3627.777       -2826.829  
 -15734736.486   -12238562.616    21578778.467    21578777.720    21578783.745  
      2725.758        2123.962  
 -17224409.440   -13392098.714    21260133.092    21260132.933    21260137.203  
     -1450.524       -1130.278  
  -7052951.555    -5471006.280    23303955.634    23303955.586    23303961.622  
     -1766.353       -1376.374  
  -1054366.072     -807062.648    24972147.610    24972147.894    24972154.899  
     -2761.114       -2151.527  
 99  8  2  0 53  0.0000000  0  8  1 14 15 21 22 25 29 30            
 -16933074.554   -13182552.624    21358361.782    21358361.374    21358366.606  
       638.985         497.909  
 -12160804.680    -9437330.632    22495610.277    22495610.076    22495616.414  
      2794.734        2177.712  
   2239435.266     1735857.430    22804397.965    22804397.246    22804404.537  
     -2051.702       -1598.727  
  -6295592.948    -4893867.893    23927256.629    23927256.076    23927264.159  
     -3634.549       -2832.102  
 -15816312.027   -12302127.911    21563255.156    21563254.407    21563260.373  
      2712.499        2113.632  
 -17180753.006   -13358080.720    21268440.675    21268440.495    21268444.750  
     -1459.920       -1137.599  
  -6999906.890    -5429672.806    23314049.802    23314049.654    23314055.650  
     -1770.123       -1379.319  
   -971357.313     -742380.544    24987943.757    24987943.925    24987950.976  
     -2772.680       -2160.532  
 99  8  2  0 53 30.0000000  0  9  1 14 15 16 21 22 25 29 30         
 -16952177.916   -13197438.337    21354726.482    21354726.075    21354731.381  
       634.523         494.431  
 -12244519.261    -9502562.733    22479679.897    22479679.730    22479685.994  
      2786.039        2170.939  
   2301168.041     1783960.813    22816145.185    22816144.511    22816151.989  
     -2063.901       -1608.231  
   -109941.4883     -70923.3473   25262885.7363   25262887.4693   25262961.9923 
      3467.9633       2705.7483 
  -6186455.497    -4808825.857    23948025.175    23948024.372    23948032.475  
     -3641.685       -2837.679  
 -15897493.100   -12365385.839    21547806.902    21547806.164    21547812.127  
      2699.471        2103.486  
 -17136818.736   -13323846.238    21276801.112    21276800.924    21276805.298  
     -1469.166       -1144.807  
  -6946749.794    -5388251.715    23324165.192    23324165.062    23324171.017  
     -1773.926       -1382.283  
   -888007.668     -677432.804    25003804.771    25003804.995    25003812.003  
     -2784.333       -2169.604  
 99  8  2  0 54  0.0000000  0  9  1 14 15 16 21 22 25 29 30         
 -16971155.153   -13212225.766    21351115.102    21351114.734    21351120.111  
       630.594         491.369  
 -12327979.605    -9567596.739    22463797.897    22463797.779    22463803.943  
      2777.720        2164.454  
   2363266.071     1832348.823    22827962.051    22827961.318    22827968.879  
     -2076.077       -1617.720  
   -213950.8803    -148016.5353          0.0003   25243095.1273   25244155.9653 
      3465.8853       2705.1683 
  -6077093.148    -4723608.559    23968836.291    23968835.325    23968843.513  
     -3649.114       -2843.452  
 -15978283.224   -12428339.133    21532432.935    21532432.242    21532438.238  
      2686.352        2093.256  
 -17092605.095   -13289394.061    21285214.715    21285214.522    21285218.981  
     -1478.474       -1152.060  
  -6893478.314    -5346741.508    23334302.327    23334302.295    23334308.141  
     -1777.613       -1385.146  
   -804304.579     -612209.678    25019732.818    25019733.127    25019740.198  
     -2796.022       -2178.721  
 99  8  2  0 54 30.0000000  0  9  1 14 15 16 21 22 25 29 30         
 -16990017.399   -13226923.596    21347525.731    21347525.358    21347530.717  
       626.864         488.461  
 -12411184.985    -9632432.063    22447964.552    22447964.350    22447970.470  
      2769.274        2157.871  
   2425725.990     1881018.839    22839847.689    22839846.961    22839854.671  
     -2087.862       -1626.912  
   -317888.5833    -148016.5353          0.0003   25223316.4293   25244155.9653 
      3463.4673       2705.1683 
  -5967507.086    -4638216.936    23989689.532    23989688.780    23989697.076  
     -3656.460       -2849.194  
 -16058673.122   -12490980.553    21517135.307    21517134.500    21517140.598  
      2672.902        2082.778  
 -17048114.177   -13254725.827    21293681.085    21293680.890    21293685.371  
     -1487.438       -1159.047  
  -6840088.227    -5305138.859    23344462.106    23344462.134    23344467.775  
     -1781.762       -1388.383  
   -720260.918     -546721.155    25035725.769    25035726.220    25035733.146  
     -2806.803       -2187.123  
 99  8  2  0 55  0.0000000  0  9  1 14 15 16 21 22 25 29 30         
 -17008761.469   -13241529.334    21343958.887    21343958.477    21343963.775  
       622.919         485.390  
 -12494119.857    -9697056.605    22432182.666    22432182.388    22432188.522  
      2759.633        2150.359  
   2488545.291     1929968.877    22851801.646    22851801.030    22851808.897  
     -2099.994       -1636.354  
    -64375.3053          0.0003          0.0003   25203551.7633          0.0003 
      3460.4023          0.0003 
  -5857693.465    -4552647.989    24010586.402    24010585.728    24010593.993  
     -3664.224       -2855.234  
 -16138639.820   -12553292.214    21501918.195    21501917.321    21501923.457  
      2658.473        2071.532  
 -17003359.431   -13219852.010    21302197.551    21302197.397    21302201.936  
     -1495.798       -1165.561  
  -6786549.966    -5263420.757    23354650.277    23354650.152    23354655.730  
     -1787.300       -1392.695  
   -635896.774     -480982.945    25051779.829    25051780.244    25051787.060  
     -2817.359       -2195.343  
 99  8  2  0 55 30.0000000  0  9  1 14 15 16 21 22 25 29 30         
 -17027394.566   -13256048.605    21340413.165    21340412.700    21340417.980  
       619.159         482.459  
 -12576764.120    -9761454.703    22416455.956    22416455.644    22416461.797  
      2749.901        2142.780  
   2551720.398     1979196.159    22863823.648    22863822.910    22863830.774  
     -2111.688       -1645.467  
   -168150.2573          0.0003          0.0003   25183804.0333          0.0003 
      3457.7393          0.0003 
  -5747657.616    -4466905.864    24031525.813    24031525.081    24031533.292  
     -3671.515       -2860.916  
 -16218186.711   -12615276.751    21486780.707    21486779.940    21486786.113  
      2644.555        2060.692  
 -16958375.166   -13184799.349    21310757.755    21310757.621    21310762.181  
     -1503.322       -1171.418  
  -6732851.936    -5221578.163    23364868.722    23364868.592    23364874.142  
     -1792.503       -1396.748  
   -551211.382     -414994.359    25067895.317    25067895.561    25067902.108  
     -2828.294       -2203.847  
 99  8  2  0 56  0.0000000  0  9  1 14 15 16 21 22 25 29 30         
 -17045912.707   -13270478.305    21336889.322    21336888.826    21336894.143  
       615.296         479.451  
 -12659108.878    -9825619.414    22400786.161    22400785.862    22400792.081  
      2739.588        2134.740  
   2615248.241     2028698.307    22875912.627    22875911.850    22875919.752  
     -2123.435       -1654.619  
   -271851.0253          0.0003          0.0003   25164070.4223          0.0003 
      3455.7083          0.0003 
  -5637411.240    -4380999.694    24052505.232    24052504.475    24052512.697  
     -3678.092       -2866.045  
 -16297312.520   -12676933.156    21471723.486    21471722.652    21471728.887  
      2630.515        2049.753  
 -16913158.105   -13149565.293    21319362.274    21319362.150    21319366.757  
     -1511.012       -1177.408  
  -6678996.954    -5179613.261    23375116.971    23375116.869    23375122.485  
     -1797.684       -1400.792  
   -466199.102     -348751.083    25084072.738    25084072.860    25084079.437  
     -2839.122       -2212.293  
 99  8  2  0 56 30.0000000  0  8  1 14 15 21 22 25 29 30            
 -17064311.052   -13284814.665    21333388.187    21333387.705    21333393.037  
       611.191         476.251  
 -12741133.500    -9889534.668    22385177.142    22385176.982    22385183.259  
      2728.734        2126.280  
   2679125.732     2078472.907    22888067.889    22888067.284    22888075.249  
     -2135.035       -1663.662  
  -5526971.497    -4294942.859    24073521.336    24073520.566    24073528.911  
     -3684.514       -2871.046  
 -16376023.164   -12738266.066    21456745.196    21456744.416    21456750.615  
      2616.868        2039.111  
 -16867721.068   -13114159.822    21328008.698    21328008.536    21328013.133  
     -1518.002       -1182.863  
  -6624989.097    -5137529.224    23385394.235    23385394.194    23385399.831  
     -1802.885       -1404.836  
   -380864.752     -282256.838    25100311.534    25100311.628    25100318.001  
     -2850.022       -2220.809  
 99  8  2  0 57  0.0000000  0  8  1 14 15 21 22 25 29 30            
 -17082582.512   -13299052.148    21329911.288    21329910.769    21329916.070  
       606.995         472.979  
 -12822826.526    -9953191.531    22369631.390    22369631.206    22369637.529  
      2717.675        2117.667  
   2743349.870     2128517.616    22900289.313    22900288.721    22900296.719  
     -2146.576       -1672.659  
  -5416338.742    -4208735.613    24094574.081    24094573.369    24094581.801  
     -3691.086       -2876.179  
 -16454326.440   -12799281.552    21441844.572    21441843.821    21441849.958  
      2603.451        2028.661  
 -16822079.051   -13078594.625    21336694.049    21336693.894    21336698.525  
     -1524.786       -1188.151  
  -6570829.674    -5095327.070    23395700.478    23395700.446    23395705.963  
     -1807.474       -1408.424  
   -295186.081     -215494.274    25116615.687    25116615.769    25116622.142  
     -2861.838       -2229.992  
 99  8  2  0 57 30.0000000  0  8  1 14 15 21 22 25 29 30            
 -17100729.237   -13313192.449    21326458.018    21326457.559    21326462.838  
       602.711         469.640  
 -12904201.583   -10016600.623    22354146.296    22354146.034    22354152.292  
      2707.213        2109.515  
   2807918.032     2178830.398    22912576.200    22912575.739    22912583.659  
     -2157.998       -1681.557  
  -5305510.699    -4122376.204    24115663.928    24115663.224    24115671.781  
     -3697.586       -2881.222  
 -16532226.024   -12859982.488    21427020.960    21427020.191    21427026.054  
      2589.716        2017.961  
 -16776229.529   -13042867.743    21345418.854    21345418.784    21345423.374  
     -1532.076       -1193.829  
  -6516544.557    -5053026.988    23406030.690    23406030.651    23406036.107  
     -1811.441       -1411.499  
   -209155.709     -148457.637    25132986.809    25132986.966    25132993.155  
     -2873.405       -2239.033  
 99  8  2  0 58  0.0000000  0  8  1 14 15 21 22 25 29 30            
 -17118754.038   -13327237.736    21323028.005    21323027.523    21323032.814  
       598.840         466.621  
 -12985255.048   -10079759.127    22338722.424    22338722.162    22338728.241  
      2696.250        2100.968  
   2872826.395     2229408.270    22924928.065    22924927.533    22924935.340  
     -2169.309       -1690.375  
  -5194498.488    -4035873.293    24136788.653    24136788.007    24136796.719  
     -3703.409       -2885.772  
 -16609711.649   -12920360.846    21412276.123    21412275.236    21412280.989  
      2575.894        2007.185  
 -16730161.581   -13006970.653    21354185.413    21354185.292    21354189.791  
     -1539.128       -1199.323  
  -6462146.090    -5010638.588    23416382.372    23416382.309    23416387.857  
     -1815.250       -1414.490  
   -122780.969      -81152.733    25149423.042    25149423.363    25149429.873  
     -2884.702       -2247.813  
 99  8  2  0 58 30.0000000  0  8  1 14 15 21 22 25 29 30            
 -17136659.663   -13341190.170    21319620.641    21319620.171    21319625.454  
       594.801         463.481  
 -13065976.003   -10142658.539    22323361.715    22323361.510    22323367.464  
      2685.277        2092.419  
   2938072.166     2280249.067    22937344.173    22937343.569    22937351.318  
     -2180.392       -1699.003  
  -5083300.699    -3949225.803    24157948.552    24157948.109    24157957.058  
     -3709.680       -2890.648  
 -16686774.180   -12980409.519    21397611.541    21397610.660    21397616.412  
      2561.628        1996.073  
 -16683887.672   -12970913.077    21362991.140    21362990.995    21362995.459  
     -1545.919       -1204.614  
  -6407627.354    -4968156.460    23426756.930    23426756.863    23426762.465  
     -1819.402       -1417.724  
    -36068.967      -13584.975    25165923.692    25165924.137    25165930.676  
     -2896.041       -2256.656  
 99  8  2  0 59  0.0000000  0  8  1 14 15 21 22 25 29 30            
 -17154442.426   -13355046.874    21316236.738    21316236.253    21316241.484  
       590.792         460.364  
 -13146370.067   -10205303.222    22308063.178    22308063.033    22308068.976  
      2674.528        2084.047  
   3003652.491     2331350.550    22949823.705    22949823.131    22949830.887  
     -2191.524       -1707.679  
  -4971920.627    -3862436.246    24179143.420    24179143.102    24179152.021  
     -3715.529       -2895.207  
 -16763396.089   -13040114.846    21383030.785    21383029.915    21383035.790  
      2546.723        1984.457  
 -16637397.542   -12934687.016    21371837.985    21371837.833    21371842.276  
     -1553.412       -1210.449  
  -6352983.331    -4925576.728    23437155.359    23437155.280    23437160.968  
     -1823.355       -1420.789  
     50968.407       54236.309    25182486.290    25182486.776    25182493.291  
     -2906.197       -2264.568  
 99  8  2  0 59 30.0000000  0  8  1 14 15 21 22 25 29 30            
 -17172105.027   -13368809.949    21312875.739    21312875.213    21312880.365  
       586.616         457.103  
 -13226442.756   -10267697.483    22292825.804    22292825.674    22292831.630  
      2663.449        2075.414  
   3069564.138     2382710.215    22962366.435    22962365.770    22962373.471  
     -2202.680       -1716.364  
  -4860361.682    -3775507.312    24200372.205    24200372.165    24200381.016  
     -3721.776       -2900.087  
 -16839569.356   -13099470.585    21368535.418    21368534.579    21368540.512  
      2531.611        1972.680  
 -16590677.331   -12898281.673    21380728.643    21380728.490    21380732.903  
     -1561.251       -1216.558  
  -6298213.991    -4882899.334    23447577.654    23447577.594    23447583.327  
     -1828.085       -1424.484  
    138297.772      122285.105    25199104.723    25199104.987    25199111.543  
     -2915.784       -2272.034  
 99  8  2  1  0  0.0000000  0  9  1 14 15 16 21 22 25 29 30         
 -17189643.427   -13382476.244    21309538.311    21309537.778    21309542.891  
       582.322         453.748  
 -13306178.533   -10329829.211    22277652.637    22277652.427    22277658.492  
      2652.218        2066.656  
   3135803.725     2434325.401    22974971.582    22974970.864    22974978.519  
     -2213.524       -1724.824  
   -144363.0483     -77094.4063          0.0003   25006536.5573   25008834.2043 
      3441.7623       2682.6683 
  -4748625.321    -3688440.130    24221635.026    24221635.053    24221643.773  
     -3727.735       -2904.716  
 -16915301.427   -13158482.526    21354124.033    21354123.179    21354129.146  
      2516.973        1961.271  
 -16543731.351   -12861700.407    21389662.158    21389662.035    21389666.471  
     -1568.658       -1222.335  
  -6243297.201    -4840107.076    23458027.930    23458027.828    23458033.789  
     -1833.474       -1428.685  
    225915.112      190558.280    25215777.401    25215777.756    25215784.689  
     -2925.622       -2279.720  
 99  8  2  1  0 30.0000000  0  9  1 14 15 16 21 22 25 29 30         
 -17207041.005   -13396032.813    21306227.577    21306227.080    21306232.211  
       577.450         449.960  
 -13385588.356   -10391706.948    22262541.400    22262541.216    22262547.349  
      2641.642        2058.414  
   3202367.955     2486193.550    22987638.342    22987637.667    22987645.400  
     -2224.232       -1733.171  
   -247576.3053    -164226.9763          0.0003   24986895.7133   24987627.3603 
      3438.8463       2679.7993 
  -4636696.295    -3601222.833    24242934.793    24242934.593    24242943.263  
     -3734.238       -2909.793  
 -16990592.822   -13217151.105    21339796.525    21339795.665    21339801.612  
      2502.524        1950.020  
 -16496556.548   -12824940.835    21398639.226    21398639.119    21398643.464  
     -1576.505       -1228.446  
  -6188214.694    -4797185.675    23468509.586    23468509.599    23468515.797  
     -1838.815       -1432.837  
    313825.126      259059.525    25232505.714    25232506.269    25232513.508  
     -2935.282       -2287.225  
 99  8  2  1  1  0.0000000  0  8  1 14 15 21 22 25 29 30            
 -17224292.943   -13409475.890    21302944.618    21302944.176    21302949.221  
       572.592         446.175  
 -13464682.601   -10453338.782    22247490.177    22247490.018    22247496.179  
      2631.112        2050.214  
   3269253.913     2538312.397    23000366.264    23000365.653    23000373.505  
     -2234.956       -1741.527  
  -4524573.307    -3513854.399    24264271.223    24264271.048    24264279.567  
     -3740.816       -2914.925  
 -17065453.528   -13275484.075    21325551.000    21325550.141    21325556.067  
      2488.077        1938.758  
 -16449138.920   -12787992.047    21407662.475    21407662.380    21407666.732  
     -1584.831       -1234.935  
  -6132971.836    -4754139.314    23479022.019    23479022.006    23479028.215  
     -1844.212       -1437.055  
    402029.592      327790.284    25249290.588    25249291.031    25249298.453  
     -2945.212       -2294.983  
 99  8  2  1  1 30.0000000  0  9  1 14 15 16 21 22 25 29 30         
 -17241405.121   -13422810.068    21299688.361    21299687.910    21299692.827  
       568.105         442.680  
 -13543456.600   -10514721.082    22232499.977    22232499.724    22232505.942  
      2620.377        2041.851  
   3336458.414     2590679.462    23013154.911    23013154.307    23013162.169  
     -2245.437       -1749.683  
   -108845.2833          0.0003          0.0003   24947662.9743          0.0003 
      3432.9313          0.0003 
  -4412247.552    -3426327.943    24285646.298    24285646.011    24285654.495  
     -3747.434       -2920.074  
 -17139885.893   -13333483.273    21311386.909    21311386.028    21311391.962  
      2473.951        1927.754  
 -16401477.268   -12750853.107    21416732.225    21416732.075    21416736.466  
     -1592.520       -1240.923  
  -6077561.732    -4710962.636    23489566.273    23489566.194    23489572.375  
     -1849.894       -1441.470  
    490539.096      396758.679    25266133.272    25266133.836    25266141.401  
     -2955.583       -2303.055  
 99  8  2  1  2  0.0000000  0  9  1 14 15 16 21 22 25 29 30         
 -17258377.673   -13436035.449    21296458.575    21296458.152    21296463.015  
       563.498         439.085  
 -13621909.777   -10575853.376    22217570.701    22217570.451    22217576.792  
      2610.072        2033.819  
   3403978.537     2643292.477    23026003.874    23026003.134    23026010.850  
     -2255.827       -1757.788  
   -211788.1373     -56769.1833          0.0003   24928073.5903   24950944.8503 
      3429.7273       2674.8583 
  -4299731.450    -3338653.161    24307057.560    24307057.221    24307065.746  
     -3753.469       -2924.787  
 -17213880.779   -13391141.575    21297306.031    21297305.185    21297311.152  
      2459.047        1916.138  
 -16353584.103   -12713533.769    21425845.919    21425845.813    21425850.250  
     -1600.365       -1247.038  
  -6021983.718    -4667655.120    23500142.335    23500142.339    23500148.433  
     -1855.118       -1445.544  
    579371.250      465978.477    25283037.541    25283038.185    25283045.576  
     -2966.364       -2311.447  
 99  8  2  1  2 30.0000000  0  9  1 14 15 16 21 22 25 29 30         
 -17275214.765   -13449155.279    21293254.558    21293254.141    21293259.063  
       559.248         435.784  
 -13700058.242   -10636748.248    22202699.228    22202699.153    22202705.649  
      2599.827        2025.840  
   3471811.073     2696148.929    23038912.062    23038911.278    23038918.905  
     -2266.185       -1765.857  
   -314633.2053     -56769.1833          0.0003   24908502.8113   24950944.8503 
      3426.6303       2674.8583 
  -4187046.994    -3250847.186    24328500.895    24328500.470    24328509.152  
     -3758.562       -2928.737  
 -17287423.360   -13448447.438    21283311.156    21283310.405    21283316.422  
      2444.020        1904.432  
 -16305446.763   -12676024.165    21435006.140    21435006.012    21435010.532  
     -1608.451       -1253.337  
  -5966262.564    -4624236.079    23510745.844    23510745.784    23510751.797  
     -1859.400       -1448.879  
    668518.334      535443.694    25300002.034    25300002.566    25300009.584  
     -2976.664       -2319.446  
 99  8  2  1  3  0.0000000  0  8  1 14 15 21 22 25 29 30            
 -17291930.440   -13462180.503    21290073.660    21290073.251    21290078.232  
       555.048         432.507  
 -13777893.494   -10697399.054    22187887.531    22187887.498    22187894.071  
      2589.152        2017.523  
   3539952.907     2749246.378    23051878.853    23051878.181    23051885.925  
     -2276.603       -1773.971  
  -4074215.870    -3162926.943    24349971.981    24349971.532    24349980.372  
     -3763.440       -2932.530  
 -17360511.058   -13505398.837    21269403.011    21269402.195    21269408.207  
      2428.411        1892.269  
 -16257080.481   -12638336.169    21444209.908    21444209.733    21444214.358  
     -1615.916       -1259.148  
  -5910415.318    -4580718.788    23521373.364    23521373.301    23521379.246  
     -1863.820       -1452.321  
    757972.719      605148.368    25317024.876    25317025.252    25317031.882  
     -2987.033       -2327.542  
 99  8  2  1  3 30.0000000  0  8  1 14 15 21 22 25 29 30            
 -17308522.203   -13475109.166    21286916.396    21286915.913    21286920.946  
       550.876         429.254  
 -13855410.135   -10757801.587    22173136.605    22173136.468    22173143.170  
      2578.528        2009.244  
   3608400.374     2802581.992    23064904.097    23064903.401    23064910.987  
     -2286.695       -1781.838  
  -3961243.726    -3074896.831    24371469.939    24371469.526    24371478.329  
     -3768.132       -2936.201  
 -17433134.470   -13561988.472    21255583.059    21255582.338    21255588.271  
      2413.083        1880.321  
 -16208507.692   -12600487.257    21453452.824    21453452.742    21453457.485  
     -1622.252       -1264.096  
  -5854445.483    -4537105.964    23532024.266    23532024.202    23532030.066  
     -1867.661       -1455.327  
    847724.101      675084.475    25334103.918    25334104.332    25334110.909  
     -2996.397       -2334.857  
 99  8  2  1  4  0.0000000  0  8  1 14 15 21 22 25 29 30            
 -17324981.152   -13487934.344    21283784.343    21283783.877    21283788.901  
       546.215         425.618  
 -13932607.188   -10817955.099    22158446.472    22158446.394    22158453.017  
      2567.705        2000.802  
   3677150.256     2856153.240    23077986.941    23077986.233    23077993.751  
     -2296.677       -1789.622  
  -3848134.246    -2986759.674    24392994.366    24392993.790    24393002.476  
     -3772.672       -2939.762  
 -17505297.131   -13618219.062    21241850.898    21241850.155    21241856.088  
      2397.688        1868.325  
 -16159740.780   -12562487.081    21462732.814    21462732.709    21462737.528  
     -1629.033       -1269.380  
  -5798363.521    -4493405.777    23542696.210    23542696.249    23542702.299  
     -1871.286       -1458.150  
    937758.271      745240.968    25351237.106    25351237.393    25351244.066  
     -3005.997       -2342.333  
 99  8  2  1  4 30.0000000  0  8  1 14 15 21 22 25 29 30            
 -17341301.405   -13500651.438    21280678.647    21280678.193    21280683.294  
       541.677         422.085  
 -14009467.728   -10877846.383    22143820.368    22143820.319    22143826.865  
      2556.004        1991.690  
   3746199.594     2909957.841    23091126.663    23091126.030    23091133.461  
     -2306.619       -1797.357  
  -3734871.126    -2898502.808    24414547.832    24414547.197    24414555.905  
     -3778.305       -2944.133  
 -17577001.027   -13674092.177    21228206.010    21228205.249    21228211.249  
      2382.505        1856.494  
 -16110777.647   -12524333.998    21472050.104    21472050.040    21472054.806  
     -1635.168       -1274.153  
  -5742169.016    -4449617.883    23553389.606    23553389.688    23553395.865  
     -1875.238       -1461.219  
   1028068.222      815612.336    25368422.828    25368423.013    25368429.831  
     -3015.023       -2349.391  
 99  8  2  1  5  0.0000000  0  8  1 14 15 21 22 25 29 30            
 -17357480.541   -13513258.567    21277599.842    21277599.454    21277604.554  
       536.766         418.258  
 -14085964.015   -10937453.838    22129263.648    22129263.568    22129270.018  
      2543.637        1982.052  
   3815544.829     2963992.994    23104322.732    23104322.082    23104329.536  
     -2316.505       -1805.066  
  -3621425.323    -2810103.560    24436135.736    24436135.139    24436144.071  
     -3784.758       -2949.160  
 -17648240.450   -13729603.363    21214649.569    21214648.814    21214654.868  
      2366.567        1844.078  
 -16061638.093   -12486043.450    21481400.959    21481400.943    21481405.721  
     -1641.145       -1278.810  
  -5685845.002    -4405729.102    23564107.798    23564107.787    23564114.069  
     -1879.893       -1464.852  
   1118653.628      886198.323    25385660.729    25385660.835    25385667.936  
     -3024.167       -2356.503  
 99  8  2  1  5 30.0000000  0  8  1 14 15 21 22 25 29 30            
 -17373513.648   -13525751.910    21274548.906    21274548.484    21274553.551  
       532.041         414.575  
 -14162086.933   -10996770.350    22114777.981    22114777.802    22114784.259  
      2531.046        1972.239  
   3885183.438     3018256.754    23117574.754    23117573.984    23117581.448  
     -2326.174       -1812.603  
  -3507785.832    -2721553.435    24457760.669    24457760.032    24457769.109  
     -3791.274       -2954.235  
 -17719001.270   -13784741.617    21201184.215    21201183.434    21201189.565  
      2350.737        1831.744  
 -16012314.923   -12447609.820    21490786.860    21490786.847    21490791.519  
     -1647.286       -1283.599  
  -5629379.407    -4361729.992    23574852.866    23574852.924    23574859.222  
     -1884.733       -1468.621  
   1209503.585      956990.465    25402948.589    25402948.803    25402956.353  
     -3032.720       -2363.157  
 99  8  2  1  6  0.0000000  0  8  1 14 15 21 22 25 29 30            
 -17389405.218   -13538134.951    21271524.841    21271524.389    21271529.535  
       527.301         410.880  
 -14237828.566   -11055789.771    22100364.784    22100364.648    22100371.093  
      2518.386        1962.380  
   3955111.911     3072746.373    23130881.745    23130880.926    23130888.614  
     -2335.760       -1820.066  
  -3393958.950    -2632857.284    24479421.642    24479420.692    24479429.842  
     -3797.223       -2958.871  
 -17789281.392   -13839505.302    21187810.230    21187809.486    21187815.707  
      2334.535        1819.118  
 -15962790.159   -12409019.104    21500211.111    21500211.092    21500215.756  
     -1654.435       -1289.169  
  -5572758.349    -4317609.739    23585627.802    23585627.626    23585633.960  
     -1890.088       -1472.800  
   1300619.915     1027990.158    25420287.264    25420287.559    25420295.408  
     -3041.644       -2370.114  
 99  8  2  1  6 30.0000000  0  8  1 14 15 21 22 25 29 30            
 -17405155.240   -13550407.693    21268527.679    21268527.250    21268532.469  
       522.653         407.264  
 -14313199.239   -11114520.130    22086022.328    22086022.086    22086028.475  
      2506.337        1952.991  
   4025326.938     3127459.291    23144243.158    23144242.324    23144250.294  
     -2345.214       -1827.429  
  -3279956.322    -2544024.182    24501115.317    24501114.714    24501124.125  
     -3802.759       -2963.173  
 -17859073.660   -13893888.838    21174529.017    21174528.368    21174534.700  
      2318.380        1806.525  
 -15913054.193   -12370263.809    21509675.683    21509675.614    21509680.169  
     -1661.407       -1294.602  
  -5515970.137    -4273359.231    23596434.289    23596434.116    23596440.475  
     -1895.840       -1477.270  
   1392006.310     1099200.270    25437677.653    25437677.826    25437685.600  
     -3050.594       -2377.091  
 99  8  2  1  7  0.0000000  0  8  1 14 15 21 22 25 29 30            
 -17420760.383   -13562567.529    21265558.056    21265557.684    21265562.916  
       517.703         403.403  
 -14388214.390   -11172973.472    22071747.291    22071747.108    22071753.511  
      2494.709        1943.926  
   4095825.504     3182393.154    23157658.618    23157657.824    23157665.843  
     -2354.630       -1834.778  
  -3165802.190    -2455073.062    24522837.647    24522837.437    24522847.246  
     -3807.279       -2966.684  
 -17928384.352   -13947897.117    21161339.699    21161338.978    21161345.289  
      2302.364        1794.048  
 -15863101.829   -12331339.893    21519181.393    21519181.322    21519185.792  
     -1668.835       -1300.392  
  -5459007.101    -4228972.489    23607273.957    23607273.770    23607280.161  
     -1901.544       -1481.724  
   1483655.289     1170615.026    25455117.987    25455118.150    25455125.717  
     -3059.305       -2383.883  
 99  8  2  1  7 30.0000000  0  9  1 14 15 16 21 22 25 29 30         
 -17436217.014   -13574611.639    21262616.835    21262616.443    21262621.600  
       512.646         399.463  
 -14462882.803   -11231156.607    22057538.273    22057538.104    22057544.524  
      2483.126        1934.904  
   4166604.144     3237545.268    23171127.556    23171126.648    23171134.668  
     -2364.089       -1842.145  
    -44650.3613     -21744.2463   24713751.0653   24713753.4433   24713824.1213 
      3395.0233       2645.4723 
  -3051526.909    -2366027.514    24544583.454    24544583.344    24544593.326  
     -3811.248       -2969.799  
 -17997224.065   -14001538.409    21148239.931    21148239.287    21148245.497  
      2286.943        1782.032  
 -15812920.692   -12292237.716    21528730.722    21528730.603    21528734.944  
     -1676.630       -1306.464  
  -5401875.570    -4184454.437    23618145.645    23618145.483    23618151.871  
     -1907.249       -1486.170  
   1575568.1071    1242235.3441   25472608.1551   25472608.5861   25472616.2111 
     -3068.4841      -2391.0271 
 99  8  2  1  8  0.0000000  0  9  1 14 15 16 21 22 25 29 30         
 -17451524.475   -13586539.513    21259703.919    21259703.497    21259708.696  
       507.874         395.744  
 -14537212.759   -11289076.014    22043393.661    22043393.573    22043399.945  
      2472.128        1926.324  
   4237659.845     3292913.251    23184648.886    23184648.078    23184656.238  
     -2372.967       -1849.058  
   -146439.4773    -101059.7113   24694383.1213   24694383.6073   24694393.6033 
      3390.9303       2642.2793 
  -2937138.020    -2276893.456    24566351.159    24566350.999    24566360.822  
     -3814.776       -2972.551  
 -18065605.476   -14054822.574    21135227.624    21135226.827    21135232.816  
      2271.794        1770.229  
 -15762514.579   -12252960.236    21538322.786    21538322.642    21538326.928  
     -1683.619       -1311.912  
  -5344587.379    -4139814.338    23629047.077    23629046.971    23629053.449  
     -1911.836       -1489.739  
   1667758.0011    1314071.5911   25490151.5681   25490151.8101   25490159.4351 
     -3077.4821      -2398.0211 
 99  8  2  1  8 30.0000000  0  9  1 14 15 16 21 22 25 29 30         
 -17466684.157   -13598352.234    21256819.052    21256818.648    21256823.866  
       502.919         391.881  
 -14611199.898   -11346728.293    22029314.451    22029314.356    22029320.613  
      2460.218        1917.050  
   4308989.327     3348494.586    23198222.485    23198221.703    23198229.870  
     -2382.207       -1856.264  
   -248105.5843    -180280.1323   24675035.4133   24675037.1773   24675044.6633 
      3386.8353       2639.0933 
  -2822630.041    -2187666.573    24588141.579    24588141.279    24588150.919  
     -3819.059       -2975.875  
 -18133528.290   -14107749.398    21122302.344    21122301.534    21122307.501  
      2256.500        1758.308  
 -15711906.235   -12213525.172    21547953.341    21547953.161    21547957.423  
     -1690.087       -1316.954  
  -5287161.297    -4095066.779    23639975.023    23639974.793    23639981.270  
     -1916.435       -1493.339  
   1760227.9651    1386126.0551   25507747.9921   25507748.1481   25507756.0471 
     -3086.9121      -2405.3871 
 99  8  2  1  9  0.0000000  0  9  1 14 15 16 21 22 25 29 30         
 -17481699.464   -13610052.443    21253961.665    21253961.265    21253966.519  
       498.400         388.368  
 -14684819.802   -11404094.418    22015305.117    22015305.022    22015311.134  
      2447.848        1907.417  
   4380589.432     3404286.788    23211847.303    23211846.603    23211854.999  
     -2391.031       -1863.134  
   -349651.4481    -259406.7451   24655710.5891   24655711.1891   24655718.9381 
      3383.0481       2636.1431 
  -2707996.198    -2098341.629    24609955.366    24609955.361    24609965.018  
     -3823.154       -2979.084  
 -18200992.230   -14160318.656    21109464.311    21109463.533    21109469.504  
      2241.141        1746.344  
 -15661113.744   -12173946.618    21557618.856    21557618.662    21557622.906  
     -1696.001       -1321.561  
  -5229607.098    -4050219.417    23650927.085    23650927.000    23650933.417  
     -1920.341       -1496.363  
   1852979.4711    1458399.9501   25525397.8861   25525398.2321   25525406.3171 
     -3096.5011      -2412.8421 
 99  8  2  1  9 30.0000000  0  9  1 14 15 16 21 22 25 29 30         
 -17496582.772   -13621649.788    21251129.438    21251129.021    21251134.315  
       493.941         384.886  
 -14758063.132   -11461167.109    22001367.462    22001367.317    22001373.252  
      2435.205        1897.565  
   4452457.104     3460287.480    23225523.213    23225522.539    23225530.969  
     -2400.018       -1870.136  
   -451077.9641    -338440.3031   24636410.425    24636410.7621   24636418.2961 
      3379.0261       2633.0051 
  -2593221.861    -2008907.192    24631796.500    24631796.383    24631805.884  
     -3828.396       -2983.163  
 -18267988.054   -14212523.147    21096715.361    21096714.625    21096720.656  
      2225.374        1734.054  
 -15610147.834   -12134232.932    21567317.294    21567317.119    21567321.408  
     -1701.575       -1325.903  
  -5171932.739    -4005278.403    23661902.342    23661902.120    23661908.471  
     -1924.526       -1499.635  
   1946016.3091    1530896.1121   25543102.0441   25543102.6571   25543110.8251 
     -3105.9791      -2420.2361 
 99  8  2  1 10  0.0000000  0  9  1 14 15 16 21 22 25 29 30         
 -17511334.627   -13633144.707    21248322.221    21248321.831    21248327.108  
       489.336         381.299  
 -14830926.887   -11517944.030    21987501.980    21987501.812    21987507.590  
      2422.265        1887.479  
   4524588.543     3516493.698    23239249.550    23239248.839    23239257.180  
     -2408.822       -1877.001  
   -552387.269     -417382.529    24617132.080    24617131.785    24617139.668  
      3375.013        2629.890  
  -2478294.196    -1919353.292    24653666.978    24653666.715    24653675.907  
     -3833.524       -2987.159  
 -18334505.151   -14264354.609    21084057.677    21084056.893    21084062.774  
      2208.970        1721.275  
 -15559022.331   -12094394.892    21577046.073    21577045.903    21577050.298  
     -1706.915       -1330.062  
  -5114138.140    -3960243.671    23672900.314    23672900.078    23672906.308  
     -1928.638       -1502.819  
   2039334.827     1603611.784    25560860.416    25560860.768    25560868.670  
     -3115.220       -2427.425  
 99  8  2  1 10 30.0000000  0  9  1 14 15 16 21 22 25 29 30         
 -17525947.446   -13644531.286    21245541.516    21245541.116    21245546.388  
       484.606         377.612  
 -14903403.889   -11574419.583    21973710.127    21973709.897    21973715.575  
      2409.382        1877.439  
   4596980.479     3572902.897    23253025.413    23253024.715    23253033.013  
     -2417.473       -1883.740  
   -653581.438     -496235.082    24597875.769    24597875.274    24597882.949  
      3371.286        2626.975  
  -2363214.894    -1829681.200    24675565.852    24675565.626    24675574.698  
     -3838.383       -2990.952  
 -18400529.777   -14315802.322    21071493.672    21071492.829    21071498.630  
      2192.497        1708.435  
 -15507732.740   -12054428.990    21586806.031    21586805.928    21586810.396  
     -1712.669       -1334.549  
  -5056210.301    -3915105.110    23683923.366    23683923.319    23683929.572  
     -1933.409       -1506.556  
   2132926.186     1676540.075    25578669.963    25578670.515    25578678.350  
     -3124.207       -2434.451  
 99  8  2  1 11  0.0000000  0  9  1 14 15 16 21 22 25 29 30         
 -17540414.416   -13655804.210    21242788.620    21242788.203    21242793.458  
       479.811         373.877  
 -14975493.655   -11630593.398    21959991.896    21959991.675    21959997.240  
      2396.553        1867.442  
   4669630.051     3629512.865    23266850.462    23266849.628    23266857.875  
     -2425.981       -1890.375  
   -754662.930     -574999.741    24578640.584    24578639.887    24578647.824  
      3367.440        2623.977  
  -2248004.317    -1739906.851    24697489.941    24697489.590    24697498.541  
     -3842.549       -2994.181  
 -18466051.225   -14366857.956    21059025.255    21059024.442    21059030.208  
      2175.623        1695.292  
 -15456261.735   -12014321.726    21596600.625    21596600.532    21596605.004  
     -1718.849       -1339.361  
  -4998133.368    -3869850.374    23694974.789    23694974.870    23694981.154  
     -1938.484       -1510.509  
   2226776.2391    1749669.9751   25596529.3631   25596529.6481   25596537.6281 
     -3132.5241      -2440.9131 
 99  8  2  1 11 30.0000000  0  9  1 14 15 16 21 22 25 29 30         
 -17554732.685   -13666961.274    21240063.932    21240063.561    21240068.794  
       474.471         369.716  
 -15047201.720   -11686469.779    21946346.373    21946346.093    21946351.601  
      2383.792        1857.501  
   4742533.892     3686320.963    23280723.666    23280722.905    23280731.129  
     -2434.373       -1896.910  
   -855627.286     -653673.220    24559427.544    24559426.937    24559434.749  
      3363.419        2620.846  
  -2132667.053    -1650033.763    24719438.533    24719437.840    24719446.601  
     -3846.742       -2997.439  
 -18531068.200   -14417520.490    21046652.745    21046651.966    21046657.777  
      2158.723        1682.120  
 -15404608.751   -11974072.658    21606429.800    21606429.756    21606434.295  
     -1724.890       -1344.072  
  -4939906.264    -3824478.629    23706054.851    23706054.879    23706061.306  
     -1943.446       -1514.376  
   2320870.742     1822990.426    25614435.535    25614435.511    25614443.573  
     -3140.628       -2447.249  
 99  8  2  1 12  0.0000000  0  9  1 14 15 16 21 22 25 29 30         
 -17568882.711   -13677987.235    21237371.291    21237370.928    21237376.098  
       468.687         365.209  
 -15118521.332   -11742043.479    21932774.726    21932774.474    21932779.867  
      2370.746        1847.331  
   4815688.837     3743324.730    23294644.687    23294643.975    23294651.953  
     -2442.670       -1903.381  
   -956468.181     -732250.488    24540238.093    24540237.371    24540245.111  
      3359.166        2617.516  
  -2017214.626    -1560070.933    24741408.586    24741407.917    24741416.738  
     -3850.316       -3000.252  
 -18595573.277   -14467784.146    21034377.703    21034376.933    21034382.720  
      2141.628        1668.801  
 -15352764.905   -11933674.877    21616295.420    21616295.310    21616299.862  
     -1731.255       -1349.032  
  -4881525.746    -3778987.350    23717164.114    23717164.263    23717170.735  
     -1948.686       -1518.465  
   2415208.315     1896500.232    25632387.671    25632387.593    25632395.654  
     -3148.473       -2453.349  
 99  8  2  1 12 30.0000000  0  9  1 14 15 16 21 22 25 29 30         
 -17582858.363   -13688877.323    21234711.861    21234711.440    21234716.518  
       463.008         360.789  
 -15189450.291   -11797312.770    21919277.366    21919277.120    21919282.499  
      2357.697        1837.164  
   4889091.437     3800521.471    23308612.896    23308612.169    23308620.059  
     -2450.892       -1909.775  
  -1057187.331     -810732.924    24521071.745    24521071.220    24521078.612  
      3355.357        2614.568  
  -1901652.646    -1470022.758    24763399.344    24763398.785    24763407.667  
     -3853.926       -3003.053  
 -18659576.936   -14517657.091    21022198.016    21022197.302    21022203.120  
      2125.216        1656.015  
 -15300736.916   -11893133.604    21626195.989    21626195.883    21626200.468  
     -1737.324       -1353.755  
  -4822989.272    -3733374.514    23728303.579    23728303.562    23728309.763  
     -1953.846       -1522.475  
   2509776.2771    1970189.5241   25650383.0851   25650383.2441   25650391.2811 
     -3156.2031      -2459.3781 
 99  8  2  1 13  0.0000000  0  9  1 14 15 16 21 22 25 29 30         
 -17596661.924   -13699633.322    21232085.040    21232084.635    21232089.705  
       457.147         356.220  
 -15259982.733   -11852273.100    21905855.409    21905855.212    21905860.570  
      2344.407        1826.810  
   4962738.458     3857908.657    23322627.463    23322626.819    23322634.765  
     -2459.072       -1916.152  
  -1157785.040     -889120.718    24501928.891    24501928.177    24501935.356  
      3350.787        2610.992  
  -1785973.230    -1379883.054    24785412.523    24785411.828    24785420.791  
     -3858.391       -3006.543  
 -18723082.637   -14567142.002    21010113.269    21010112.480    21010118.312  
      2108.548        1643.022  
 -15248528.742   -11852451.922    21636130.875    21636130.748    21636135.371  
     -1743.313       -1358.430  
  -4764296.352    -3687639.781    23739472.639    23739472.666    23739478.707  
     -1959.152       -1526.611  
   2604568.5721    2044053.6131   25668421.4841   25668421.8131   25668429.2921 
     -3163.7201      -2465.2551 
 99  8  2  1 13 30.0000000  0  9  1 14 15 16 21 22 25 29 30         
 -17610294.239   -13710255.881    21229490.831    21229490.459    21229495.590  
       451.583         351.882  
 -15330127.992   -11906931.722    21892507.086    21892506.911    21892512.358  
      2331.873        1817.045  
   5036627.131     3915484.155    23336688.155    23336687.468    23336695.485  
     -2466.902       -1922.261  
  -1258239.237     -967396.684    24482813.099    24482812.383    24482819.539  
      3345.945        2607.228  
  -1670156.550    -1289636.421    24807451.608    24807450.963    24807460.118  
     -3862.706       -3009.903  
 -18786097.300   -14616244.293    20998121.800    20998121.079    20998126.992  
      2092.185        1630.270  
 -15196148.719   -11811636.342    21646098.428    21646098.296    21646103.010  
     -1748.888       -1362.772  
  -4705454.311    -3641788.839    23750670.255    23750670.140    23750676.149  
     -1963.893       -1530.310  
   2699597.2181    2118101.9501   25686505.2601   25686505.2201   25686512.1471 
     -3171.6421      -2471.4191 
 99  8  2  1 14  0.0000000  0  9  1 14 15 16 21 22 25 29 30         
 -17623762.064   -13720750.272    21226927.957    21226927.569    21226932.771  
       446.437         347.874  
 -15399888.264   -11961290.356    21879231.910    21879231.804    21879237.418  
      2318.863        1806.909  
   5110753.834     3973245.105    23350794.111    23350793.333    23350801.568  
     -2474.810       -1928.414  
  -1358536.759    -1045550.577    24463727.260    24463726.473    24463733.529  
      3340.675        2603.120  
  -1554201.452    -1199281.935    24829517.058    24829516.441    24829525.793  
     -3867.473       -3013.601  
 -18848610.282   -14664955.662    20986226.067    20986225.293    20986231.112  
      2075.469        1617.252  
 -15143594.706   -11770685.172    21656099.117    21656098.995    21656103.703  
     -1754.406       -1367.065  
  -4646445.577    -3595808.022    23761899.262    23761899.211    23761905.288  
     -1969.827       -1534.921  
   2794865.1691    2192336.7691   25704634.2051   25704633.9941   25704640.7601 
     -3179.5761      -2477.5801 
 99  8  2  1 14 30.0000000  0  9  1 14 15 16 21 22 25 29 30         
 -17637087.028   -13731133.347    21224392.261    21224391.914    21224397.120  
       441.977         344.394  
 -15469260.373   -12015346.538    21866030.799    21866030.664    21866036.369  
      2305.778        1796.709  
   5185115.211     4031188.931    23364944.628    23364943.782    23364952.223  
     -2482.636       -1934.520  
  -1458678.910    -1123583.380    24444670.692    24444670.045    24444677.127  
      3335.275        2598.917  
  -1438106.500    -1108818.479    24851608.915    24851608.518    24851618.010  
     -3872.179       -3017.268  
 -18910616.832   -14713272.416    20974426.704    20974425.894    20974431.615  
      2058.135        1603.738  
 -15090881.632   -11729610.063    21666130.093    21666130.007    21666134.685  
     -1759.995       -1371.428  
  -4587259.652    -3549689.131    23773162.086    23773161.979    23773168.175  
     -1975.924       -1539.686  
   2890365.1941    2266752.3591   25722806.8481   25722807.1221   25722813.6951 
     -3187.2901      -2483.5901 
 99  8  2  1 15  0.0000000  0  9  1 14 15 16 21 22 25 29 30         
 -17650288.147   -13741419.919    21221880.227    21221879.825    21221885.081  
       438.037         341.324  
 -15538240.965   -12069097.642    21852904.171    21852904.079    21852909.772  
      2292.909        1786.682  
   5259707.485     4089312.695    23379138.915    23379138.083    23379146.736  
     -2490.122       -1940.348  
  -1558651.057    -1201483.700    24425646.578    24425645.998    24425653.079  
      3329.506        2594.432  
  -1321872.059    -1018246.332    24873727.427    24873727.178    24873736.829  
     -3876.676       -3020.786  
 -18972091.289   -14761174.549    20962728.518    20962727.724    20962733.461  
      2040.295        1589.836  
 -15037999.907   -11688403.538    21676193.152    21676193.109    21676197.701  
     -1765.396       -1375.632  
  -4527898.879    -3503434.005    23784457.912    23784457.989    23784464.375  
     -1981.432       -1543.970  
   2986105.4121    2341355.1201   25741025.8731   25741025.9931   25741032.4411 
     -3195.4531      -2489.9871 
 99  8  2  1 15 30.0000000  0  9  1 14 15 16 21 22 25 29 30         
 -17663369.886   -13751613.477    21219390.879    21219390.438    21219395.756  
       434.131         338.288  
 -15606829.999   -12122543.639    21839852.145    21839852.076    21839857.693  
      2279.685        1776.384  
   5334527.935     4147614.224    23393376.566    23393375.892    23393384.621  
     -2497.658       -1946.221  
  -1658451.358    -1279250.127    24406655.366    24406654.618    24406661.622  
      3324.281        2590.344  
  -1205520.892     -927583.235    24895868.315    24895868.153    24895877.847  
     -3879.871       -3023.264  
 -19033020.404   -14808651.744    20951134.039    20951133.256    20951139.031  
      2021.800        1575.434  
 -14984951.290   -11647066.965    21686288.071    21686288.007    21686292.545  
     -1770.974       -1379.976  
  -4468371.817    -3457049.307    23795785.497    23795785.600    23795792.178  
     -1987.007       -1548.318  
   3082089.5911    2416148.0871   25759290.9171   25759291.0601   25759297.9081 
     -3203.2111      -2496.0051 
 99  8  2  1 16  0.0000000  0  9  1 14 15 16 21 22 25 29 30         
 -17676331.287   -13761713.264    21216924.369    21216923.937    21216929.292  
       430.121         335.161  
 -15675003.808   -12175666.092    21826879.263    21826879.047    21826884.658  
      2265.599        1765.405  
   5409573.399     4206091.092    23407657.325    23407656.588    23407665.277  
     -2505.067       -1951.995  
  -1758108.451    -1356904.936    24387691.485    24387690.596    24387697.615  
      3319.923        2586.962  
  -1089073.713     -836845.281    24918027.738    24918027.429    24918037.165  
     -3882.716       -3025.483  
 -19093390.957   -14855693.696    20939645.849    20939645.137    20939650.922  
      2003.384        1561.085  
 -14931737.269   -11605601.504    21696414.464    21696414.352    21696418.886  
     -1776.340       -1384.157  
  -4408676.416    -3410533.441    23807145.210    23807145.288    23807151.907  
     -1992.225       -1552.383  
   3178304.0631    2491120.5001   25777599.4921   25777599.8441   25777607.0641 
     -3210.7201      -2501.8661 
 99  8  2  1 16 30.0000000  0  9  1 14 15 16 21 22 25 29 30         
 -17689157.957   -13771708.073    21214483.595    21214483.130    21214488.425  
       424.996         331.161  
 -15742757.335   -12228461.054    21813986.106    21813985.945    21813991.592  
      2251.376        1754.321  
   5484840.441     4264740.616    23421980.246    23421979.489    23421988.098  
     -2512.625       -1957.891  
  -1857637.657    -1434460.069    24368751.680    24368750.750    24368757.861  
      3315.227        2583.290  
   -972544.998     -746043.813    24940202.533    24940202.257    24940212.044  
     -3885.735       -3027.853  
 -19153210.321   -14902306.148    20928262.697    20928261.895    20928267.632  
      1984.829        1546.613  
 -14878347.626   -11563999.200    21706574.253    21706574.101    21706578.673  
     -1782.883       -1389.262  
  -4348840.216    -3363907.877    23818531.840    23818531.857    23818538.518  
     -1996.828       -1555.967  
   3274753.5951    2566276.0171   25795953.3871   25795953.5521   25795960.8171 
     -3219.2391      -2508.5531 
 99  8  2  1 17  0.0000000  0  9  1 14 15 16 21 22 25 29 30         
 -17701825.031   -13781578.518    21212073.173    21212072.658    21212077.893  
       419.370         326.786  
 -15810092.136   -12280929.740    21801172.686    21801172.569    21801178.192  
      2237.675        1743.646  
   5560325.789     4323560.253    23436344.813    23436344.145    23436352.525  
     -2519.752       -1963.437  
  -1957038.259    -1511915.002    24349836.137    24349835.431    24349842.604  
      3311.269        2580.198  
   -855939.071     -655182.178    24962391.750    24962391.724    24962401.548  
     -3887.970       -3029.605  
 -19212488.777   -14948497.110    20916982.372    20916981.567    20916987.253  
      1967.154        1532.846  
 -14824772.715   -11522252.530    21716769.212    21716769.065    21716773.682  
     -1788.712       -1393.800  
  -4288867.530    -3317175.957    23829944.508    23829944.477    23829951.006  
     -2001.390       -1559.517  
   3371437.2871    2641614.0381   25814352.1191   25814351.8711   25814359.0141 
     -3226.6381      -2514.2281 
 99  8  2  1 17 30.0000000  0  9  1 14 15 16 21 22 25 29 30         
 -17714316.842   -13791312.397    21209696.004    21209695.505    21209700.756  
       413.436         322.155  
 -15877012.526   -12333075.517    21788438.175    21788438.115    21788443.648  
      2223.495        1732.592  
   5636026.305     4382547.533    23450750.222    23450749.519    23450758.021  
     -2527.040       -1969.117  
  -2056311.579    -1589270.718    24330944.723    24330944.125    24330951.536  
      3307.009        2576.883  
   -739268.278     -564269.971    24984593.512    24984593.612    24984603.316  
     -3890.251       -3031.366  
 -19271239.405   -14994276.775    20905802.443    20905801.648    20905807.351  
      1949.529        1519.115  
 -14771021.159   -11480368.216    21726997.728    21726997.640    21727002.321  
     -1794.653       -1398.429  
  -4228751.433    -3270332.302    23841384.432    23841384.312    23841390.701  
     -2006.404       -1563.426  
   3468349.3771    2717129.9691   25832794.2051   25832793.9011   25832800.7041 
     -3234.2601      -2520.1761 
 99  8  2  1 18  0.0000000  0  9  1 14 15 16 21 22 25 29 30         
 -17726632.078   -13800908.686    21207352.558    21207352.047    21207357.235  
       407.460         317.501  
 -15943505.381   -12384888.140    21775785.162    21775785.015    21775790.426  
      2209.383        1721.598  
   5711938.178     4441699.518    23465195.871    23465195.127    23465203.755  
     -2533.922       -1974.482  
  -2155456.051    -1666526.056    24312078.034    24312077.471    24312084.980  
      3302.273        2573.191  
   -622518.848     -473296.498    25006810.720    25006810.431    25006820.145  
     -3893.114       -3033.605  
 -19329467.443   -15039649.229    20894722.043    20894721.225    20894726.859  
      1932.302        1505.690  
 -14717097.992   -11438350.173    21737258.847    21737258.863    21737263.563  
     -1800.355       -1402.875  
  -4168491.438    -3223376.501    23852851.567    23852851.479    23852857.737  
     -2011.054       -1567.049  
   3565486.2891    2792821.0921   25851278.7021   25851278.4251   25851285.1001 
     -3241.8451      -2526.0591 
 99  8  2  1 18 30.0000000  0  9  1 14 15 16 21 22 25 29 30         
 -17738768.260   -13810365.455    21205043.125    21205042.648    21205047.793  
       401.718         313.031  
 -16009581.519   -12436376.056    21763211.501    21763211.263    21763216.476  
      2195.626        1710.877  
   5788058.557     4501013.973    23479681.064    23479680.318    23479689.126  
     -2540.742       -1979.793  
  -2254445.203    -1743660.364    24293241.142    24293240.391    24293247.842  
      3296.789        2568.928  
   -505680.409     -382253.657    25029044.551    25029044.234    25029053.898  
     -3896.171       -3035.968  
 -19387178.621   -15084618.938    20883739.870    20883739.091    20883744.717  
      1915.123        1492.302  
 -14663000.557   -11396196.345    21747553.233    21747553.244    21747557.985  
     -1805.957       -1407.235  
  -4108081.099    -3176303.544    23864347.142    23864347.188    23864353.363  
     -2016.410       -1571.226  
   3662839.2721    2868680.5891   25869804.2031   25869804.1271   25869810.5121 
     -3248.6411      -2531.4221 
 99  8  2  1 19  0.0000000  0  9  1 14 15 16 21 22 25 29 30         
 -17750735.363   -13819690.467    21202765.940    21202765.422    21202770.493  
       396.163         308.700  
 -16075242.478   -12487540.457    21750716.631    21750716.406    21750721.586  
      2181.892        1700.180  
   5864384.105     4560488.300    23494205.515    23494204.791    23494213.501  
     -2547.550       -1985.104  
  -2353259.122    -1820658.138    24274437.446    24274436.760    24274444.153  
      3290.682        2564.167  
   -388745.199     -291135.397    25051296.921    25051296.430    25051306.070  
     -3899.469       -3038.539  
 -19444370.286   -15129183.832    20872856.604    20872855.869    20872861.443  
      1897.762        1478.774  
 -14608747.322   -11353921.113    21757877.328    21757877.318    21757882.032  
     -1810.915       -1411.104  
  -4047505.839    -3129102.079    23875874.244    23875874.237    23875880.541  
     -2021.868       -1575.481  
   3760388.8101    2944693.1911   25888367.1281   25888367.1611   25888373.5851 
     -3255.1071      -2536.3751 
 99  8  2  1 19 30.0000000  0  9  1 14 15 16 21 22 25 29 30         
 -17762541.808   -13828890.294    21200519.288    21200518.781    21200523.832  
       390.929         304.617  
 -16140489.080   -12538381.971    21738300.591    21738300.320    21738305.541  
      2167.841        1689.227  
   5940911.671     4620120.053    23508768.351    23508767.713    23508776.237  
     -2554.200       -1990.277  
  -2451889.090    -1897512.546    24255668.878    24255668.048    24255675.455  
      3284.922        2559.673  
   -271713.403     -199941.857    25073567.274    25073566.928    25073576.690  
     -3902.698       -3041.066  
 -19501042.323   -15173343.816    20862072.302    20862071.527    20862077.011  
      1880.486        1465.312  
 -14554341.518   -11311526.995    21768230.543    21768230.475    21768235.051  
     -1816.005       -1415.066  
  -3986776.324    -3081780.434    23887430.706    23887430.719    23887437.067  
     -2026.759       -1579.279  
   3858135.9891    3020859.9481   25906967.5291   25906967.7701   25906974.4811 
     -3261.2201      -2541.2571 
 99  8  2  1 20  0.0000000  0  8  1 14 15 16 21 22 25 29            
 -17774181.662   -13837960.313    21198304.223    21198303.746    21198308.869  
       384.994         299.998  
 -16205317.063   -12588897.280    21725964.175    21725963.919    21725969.251  
      2154.095        1678.512  
   6017637.983     4679906.685    23523369.100    23523368.451    23523376.904  
     -2560.942       -1995.544  
  -2550343.756    -1974230.362    24236933.490    24236932.705    24236940.105  
      3278.469        2554.645  
   -154578.946     -108668.305    25095857.229    25095856.876    25095866.884  
     -3906.283       -3043.841  
 -19557201.969   -15217104.533    20851385.482    20851384.664    20851390.076  
      1863.361        1451.970  
 -14499784.626   -11269015.153    21778612.577    21778612.440    21778616.944  
     -1821.287       -1419.182  
  -3925894.539    -3034340.126    23899016.175    23899016.152    23899022.540  
     -2032.264       -1583.581  
 99  8  2  1 20 30.0000000  0  8  1 14 15 16 21 22 25 29            
 -17785655.001   -13846900.577    21196120.870    21196120.424    21196125.553  
       379.703         295.876  
 -16269746.018   -12639101.653    21713703.709    21713703.467    21713708.885  
      2140.910        1668.248  
   6094559.563     4739845.450    23538006.975    23538006.253    23538014.845  
     -2567.322       -2000.507  
  -2648609.171    -2050800.758    24218234.088    24218233.391    24218240.697  
      3272.332        2549.859  
    -37354.405      -17324.548    25118164.298    25118163.858    25118174.215  
     -3908.927       -3045.915  
 -19612853.013   -15260468.942    20840795.458    20840794.606    20840799.975  
      1846.530        1438.858  
 -14445076.692   -11226385.605    21789023.260    21789023.113    21789027.532  
     -1825.998       -1422.855  
  -3864851.847    -2986774.490    23910632.220    23910632.163    23910638.746  
     -2037.423       -1587.589  
 99  8  2  1 21  0.0000000  0  8  1 14 15 16 21 22 25 29            
 -17796962.838   -13855711.874    21193968.962    21193968.541    21193973.732  
       374.095         291.507  
 -16333771.639   -12688991.738    21701520.128    21701519.869    21701525.311  
      2127.336        1657.665  
   6171673.254     4799933.925    23552681.348    23552680.541    23552689.315  
     -2573.692       -2005.469  
  -2746688.687    -2127226.251    24199570.090    24199569.467    24199576.772  
      3266.347        2545.203  
     79948.393       74080.177    25140485.744    25140485.701    25140496.339  
     -3911.326       -3047.793  
 -19667993.368   -15303435.420    20830302.615    20830301.757    20830307.010  
      1829.387        1425.499  
 -14390226.267   -11183645.032    21799460.904    21799460.789    21799465.216  
     -1830.897       -1426.671  
  -3803650.855    -2939085.456    23922278.625    23922278.377    23922284.924  
     -2042.732       -1591.729  
 99  8  2  1 21 30.0000000  0  8  1 14 15 16 21 22 25 29            
 -17808111.007   -13864398.761    21191847.451    21191847.052    21191852.349  
       369.185         287.678  
 -16397382.769   -12738558.844    21689415.346    21689415.125    21689420.648  
      2113.380        1646.787  
   6248976.009     4860169.720    23567391.444    23567390.848    23567399.762  
     -2579.820       -2010.251  
  -2844593.916    -2203515.999    24180939.464    24180938.682    24180945.848  
      3260.785        2540.862  
    197322.331      165540.337    25162821.373    25162821.240    25162831.771  
     -3913.477       -3049.464  
 -19722611.671   -15345995.094    20819909.021    20819908.173    20819913.493  
      1811.787        1411.782  
 -14335225.910   -11140787.627    21809927.073    21809926.989    21809931.405  
     -1835.641       -1430.369  
  -3742288.193    -2891270.478    23933955.495    23933955.291    23933961.962  
     -2048.022       -1595.853  
 99  8  2  1 22  0.0000000  0  8  1 14 15 16 21 22 25 29            
 -17819111.592   -13872970.640    21189754.189    21189753.779    21189758.979  
       364.362         283.920  
 -16460572.689   -12787797.728    21677390.680    21677390.488    21677396.063  
      2099.427        1635.916  
   6326464.023     4920549.878    23582137.147    23582136.543    23582145.392  
     -2585.903       -2014.969  
  -2942319.401    -2279665.627    24162342.715    24162342.033    24162349.333  
      3254.273        2535.794  
    314764.850      257053.930    25185170.384    25185170.023    25185180.288  
     -3915.628       -3051.131  
 -19776688.878   -15388133.141    20809618.381    20809617.565    20809622.982  
      1793.390        1397.446  
 -14280086.358   -11097821.755    21820419.764    21820419.717    21820424.026  
     -1840.271       -1433.976  
  -3680751.966    -2843320.251    23945665.355    23945665.221    23945671.922  
     -2054.112       -1600.605  
 99  8  2  1 22 30.0000000  0  8  1 14 15 16 21 22 25 29            
 -17829969.383   -13881431.257    21187688.109    21187687.656    21187692.807  
       359.386         280.040  
 -16523333.020   -12836701.862    21665447.762    21665447.562    21665453.156  
      2084.622        1624.379  
   6404134.161     4981071.965    23596917.520    23596916.926    23596925.661  
     -2592.008       -2019.761  
  -3039850.166    -2355663.574    24143783.126    24143782.452    24143789.771  
      3247.959        2530.872  
    432273.546      348619.103    25207531.419    25207531.301    25207541.450  
     -3918.261       -3053.180  
 -19830202.753   -15429832.213    20799435.081    20799434.211    20799439.657  
      1774.362        1382.613  
 -14224803.470   -11054744.201    21830939.824    21830939.697    21830944.046  
     -1845.090       -1437.739  
  -3619038.802    -2795232.152    23957408.921    23957408.829    23957415.464  
     -2059.892       -1605.115  
 99  8  2  1 23  0.0000000  0  8  1 14 15 16 21 22 25 29            
 -17840673.502   -13889772.129    21185651.172    21185650.713    21185655.853  
       354.250         276.039  
 -16585649.867   -12885260.408    21653589.195    21653588.961    21653594.607  
      2069.784        1612.815  
   6481982.949     5041733.272    23611731.734    23611731.185    23611739.868  
     -2597.911       -2024.350  
  -3137202.818    -2431522.719    24125257.408    24125256.760    24125264.128  
      3242.183        2526.369  
    549862.342      440246.700    25229908.201    25229907.834    25229917.998  
     -3921.248       -3055.514  
 -19883143.112   -15471084.405    20789360.777    20789359.934    20789365.450  
      1754.939        1367.483  
 -14169384.951   -11011560.950    21841485.655    21841485.478    21841489.829  
     -1849.581       -1441.237  
  -3557164.072    -2747018.141    23969183.247    23969183.256    23969189.962  
     -2065.087       -1609.159  
 99  8  2  1 23 30.0000000  0  8  1 14 15 16 21 22 25 29            
 -17851221.977   -13897991.718    21183643.820    21183643.351    21183648.476  
       348.811         271.800  
 -16647519.469   -12933470.454    21641815.758    21641815.522    21641821.134  
      2054.729        1601.083  
   6560007.284     5102531.349    23626579.142    23626578.690    23626587.378  
     -2603.847       -2028.966  
  -3234375.986    -2507242.015    24106765.875    24106765.210    24106772.647  
      3235.892        2521.477  
    667545.898      531948.128    25252303.098    25252302.452    25252312.541  
     -3924.511       -3058.074  
 -19935494.531   -15511877.686    20779398.565    20779397.790    20779403.228  
      1735.092        1352.019  
 -14113831.573   -10968272.618    21852057.042    21852056.885    21852061.293  
     -1854.098       -1444.753  
  -3495136.500    -2698685.020    23980986.581    23980986.767    23980993.547  
     -2070.195       -1613.136  
 99  8  2  1 24  0.0000000  0  8  1 14 15 16 21 22 25 29            
 -17861598.252   -13906077.124    21181669.205    21181668.776    21181673.945  
       342.797         267.115  
 -16708942.097   -12981332.200    21630127.413    21630127.174    21630132.744  
      2039.880        1589.517  
   6638204.110     5163463.833    23641459.503    23641458.976    23641467.850  
     -2609.356       -2033.253  
  -3331362.653    -2582815.976    24088309.756    24088309.158    24088316.652  
      3229.881        2516.791  
    785325.930      623724.734    25274715.954    25274715.379    25274725.349  
     -3927.459       -3060.350  
 -19987257.255   -15552212.236    20769548.466    20769547.659    20769553.141  
      1715.839        1337.019  
 -14058140.673   -10924877.131    21862654.609    21862654.456    21862658.903  
     -1858.839       -1448.446  
  -3432962.512    -2650237.779    23992818.073    23992818.201    23992825.028  
     -2074.786       -1616.719  
 99  8  2  1 24 30.0000000  0  8  1 14 15 16 21 22 25 29            
 -17871786.223   -13914015.807    21179730.504    21179730.075    21179735.274  
       336.538         262.234  
 -16769903.701   -13028834.708    21618526.829    21618526.597    21618532.159  
      2024.453        1577.495  
   6716569.684     5224527.803    23656372.171    23656371.547    23656380.369  
     -2614.899       -2037.579  
  -3428167.443    -2658248.212    24069888.044    24069887.697    24069895.317  
      3223.931        2512.147  
    903196.356      715571.802    25297145.792    25297145.331    25297155.266  
     -3930.249       -3062.553  
 -20038445.012   -15592098.765    20759807.764    20759806.970    20759812.439  
      1696.938        1322.292  
 -14002294.811   -10881360.893    21873281.634    21873281.486    21873285.980  
     -1863.960       -1452.432  
  -3370656.393    -2601687.615    24004674.567    24004674.756    24004681.558  
     -2078.922       -1619.935  
 99  8  2  1 25  0.0000000  0  8  1 14 15 16 21 22 25 29            
 -17881789.259   -13921810.381    21177826.978    21177826.555    21177831.751  
       330.522         257.550  
 -16830403.278   -13075977.186    21607014.163    21607013.965    21607019.519  
      2008.932        1565.401  
   6795101.213     5285721.098    23671316.303    23671315.600    23671324.575  
     -2620.473       -2041.922  
  -3524786.300    -2733535.543    24051501.799    24051501.545    24051509.329  
      3217.293        2506.983  
   1021148.087      807482.232    25319591.445    25319590.746    25319600.612  
     -3932.782       -3064.502  
 -20089066.784   -15631544.264    20750174.789    20750173.984    20750179.388  
      1677.918        1307.473  
 -13946297.045   -10837726.287    21883937.604    21883937.493    21883942.012  
     -1869.250       -1456.559  
  -3308217.011    -2553033.628    24016556.532    24016556.713    24016563.496  
     -2083.791       -1623.734  
 99  8  2  1 25 30.0000000  0  8  1 14 15 16 21 22 25 29            
 -17891611.249   -13929463.878    21175957.972    21175957.496    21175962.676  
       324.372         252.758  
 -16890438.006   -13122757.444    21595589.992    21595589.730    21595595.254  
      1993.520        1553.390  
   6873795.462     5347041.168    23686291.306    23686290.571    23686299.758  
     -2625.817       -2046.085  
  -3621198.809    -2808662.093    24033155.036    24033154.682    24033162.561  
      3210.313        2501.534  
   1139157.729      899437.747    25342047.593    25342047.293    25342057.215  
     -3934.403       -3065.757  
 -20139122.704   -15670548.845    20740649.464    20740648.697    20740653.977  
      1659.331        1292.984  
 -13890131.946   -10793961.281    21894625.548    21894625.390    21894629.954  
     -1875.073       -1461.091  
  -3245622.674    -2504258.881    24028468.077    24028468.069    24028474.947  
     -2089.207       -1627.939  
 99  8  2  1 26  0.0000000  0  8  1 14 15 16 21 22 25 29            
 -17901243.825   -13936969.774    21174125.009    21174124.477    21174129.646  
       317.757         247.603  
 -16950010.564   -13169177.567    21584253.631    21584253.374    21584258.896  
      1977.918        1541.235  
   6952649.016     5408485.371    23701296.858    23701295.986    23701305.179  
     -2631.170       -2050.254  
  -3717403.780    -2883626.940    24014847.814    24014847.497    24014855.356  
      3203.173        2495.972  
   1257203.602      991421.567    25364510.522    25364510.790    25364520.786  
     -3935.321       -3066.486  
 -20188625.514   -15709122.429    20731229.356    20731228.588    20731233.828  
      1640.906        1278.624  
 -13833786.151   -10750055.474    21905347.767    21905347.682    21905352.208  
     -1881.275       -1465.932  
  -3182859.729    -2455352.742    24040411.723    24040411.520    24040418.357  
     -2095.040       -1632.500  
 99  8  2  1 26 30.0000000  0  8  1 14 15 16 21 22 25 29            
 -17910683.970   -13944325.726    21172328.513    21172328.029    21172333.237  
       311.497         242.724  
 -17009123.521   -13215239.564    21573004.757    21573004.494    21573010.076  
      1963.117        1529.702  
   7031658.330     5470050.975    23716332.195    23716331.196    23716340.238  
     -2636.182       -2054.166  
  -3813393.479    -2958424.038    23996581.295    23996581.205    23996589.024  
      3196.097        2490.465  
   1375275.310     1083425.487    25386978.762    25386979.246    25386989.237  
     -3936.119       -3067.095  
 -20237578.683   -15747267.724    20721913.749    20721912.995    20721918.294  
      1622.565        1264.331  
 -13777270.507   -10706017.317    21916102.355    21916102.297    21916106.769  
     -1886.346       -1469.880  
  -3119919.961    -2406308.817    24052388.791    24052388.574    24052395.317  
     -2101.114       -1637.233  
 99  8  2  1 27  0.0000000  0  8  1 14 15 16 21 22 25 29            
 -17919926.139   -13951527.412    21170569.748    21170569.275    21170574.509  
       304.659         237.398  
 -17067798.468   -13260960.255    21561839.234    21561839.000    21561844.610  
      1948.429        1518.254  
   7110820.157     5531735.396    23731396.128    23731395.164    23731404.350  
     -2641.335       -2058.180  
  -3909171.548    -3033056.217    23978355.448    23978355.200    23978363.013  
      3189.038        2484.964  
   1493372.3331    1175449.1721   25409451.6411   25409452.3401   25409462.4211 
     -3937.0291      -3067.8331 
 -20285970.860   -15784975.877    20712704.963    20712704.184    20712709.595  
      1603.574        1249.538  
 -13720606.254   -10661863.366    21926885.194    21926885.143    21926889.607  
     -1891.431       -1473.839  
  -3056792.960    -2357118.985    24064401.481    24064401.229    24064407.927  
     -2107.252       -1642.013  
 99  8  2  1 27 30.0000000  0  8  1 14 15 16 21 22 25 29            
 -17928964.173   -13958570.025    21168849.797    21168849.383    21168854.595  
       297.913         232.139  
 -17126032.038   -13306337.016    21550757.742    21550757.488    21550763.116  
      1933.677        1506.761  
   7190131.714     5593536.498    23746488.460    23746487.637    23746497.066  
     -2646.178       -2061.954  
  -4004743.597    -3107527.872    23960168.679    23960168.390    23960176.111  
      3182.366        2479.766  
   1611502.2191    1267498.4921   25431931.0291   25431931.6301   25431941.7761 
     -3938.2281      -3068.7781 
 -20333797.325   -15822243.222    20703603.843    20703603.065    20703608.486  
      1584.861        1234.962  
 -13663786.120   -10617587.943    21937697.692    21937697.644    21937702.158  
     -1896.412       -1477.718  
  -2993487.489    -2307790.068    24076448.100    24076447.834    24076454.401  
     -2112.971       -1646.488  
 99  8  2  1 28  0.0000000  0  8  1 14 15 16 21 22 25 29            
 -17937801.000   -13965455.855    21167168.220    21167167.825    21167172.995  
       291.220         226.922  
 -17183813.882   -13351361.782    21539762.199    21539761.936    21539767.595  
      1918.301        1494.774  
   7269589.384     5655451.467    23761608.723    23761608.011    23761617.254  
     -2651.089       -2065.778  
  -4100114.239    -3181842.586    23942020.159    23942019.869    23942027.506  
      3175.462        2474.380  
   1729676.9411    1359582.7171   25454419.1071   25454419.5811   25454429.6131 
     -3940.1921      -3070.2811 
 -20381060.272   -15859071.464    20694609.859    20694609.106    20694614.606  
      1565.954        1220.220  
 -13606829.118   -10573205.872    21948536.317    21948536.289    21948540.777  
     -1900.654       -1481.028  
  -2930018.092    -2258333.450    24088525.806    24088525.696    24088532.181  
     -2118.352       -1650.648  
 99  8  2  1 28 30.0000000  0  8  1 14 15 16 21 22 25 29            
 -17946452.024   -13972196.902    21165522.113    21165521.609    21165526.750  
       285.468         222.442  
 -17241135.752   -13396028.136    21528854.143    21528853.887    21528859.542  
      1903.075        1482.917  
   7349189.880     5717477.693    23776756.334    23776755.606    23776764.717  
     -2655.706       -2069.379  
  -4195277.739    -3255995.863    23923911.144    23923910.704    23923918.432  
      3168.789        2469.184  
   1847915.2481    1451716.4331   25476918.8141   25476919.7201   25476929.4911 
     -3942.6081      -3072.1531 
 -20427755.587   -15895457.391    20685723.884    20685723.129    20685728.765  
      1546.945        1205.414  
 -13549756.750   -10528733.901    21959396.841    21959396.812    21959401.294  
     -1904.235       -1483.818  
  -2866393.162    -2208755.609    24100633.220    24100633.225    24100639.557  
     -2123.385       -1654.589  
 99  8  2  1 29  0.0000000  0  8  1 14 15 16 21 22 25 29            
 -17954930.010   -13978803.109    21163908.757    21163908.267    21163913.433  
       279.904         218.108  
 -17297989.662   -13440329.849    21518035.113    21518034.904    21518040.503  
      1886.929        1470.326  
   7428929.886     5779612.643    23791930.564    23791929.874    23791938.723  
     -2660.388       -2073.025  
  -4290239.981    -3329992.357    23905840.528    23905839.965    23905847.505  
      3161.837        2463.762  
   1966225.3211    1543906.1531   25499432.2651   25499433.3071   25499443.0281 
     -3944.8071      -3073.8991 
 -20473873.766   -15931393.596    20676947.820    20676947.067    20676952.639  
      1527.661        1190.384  
 -13492570.806   -10484173.431    21970278.979    21970278.922    21970283.406  
     -1908.337       -1487.020  
  -2802622.299    -2159064.070    24112768.415    24112768.515    24112774.928  
     -2128.211       -1658.346  
 99  8  2  1 29 30.0000000  0  7  1 14 15 16 22 25 29               
 -17963253.016   -13985288.552    21162325.003    21162324.505    21162329.585  
       274.669         214.023  
 -17354351.632   -13484248.231    21507309.757    21507309.535    21507315.148  
      1870.349        1457.410  
   7508806.058     5841853.684    23807130.752    23807130.001    23807138.714  
     -2664.876       -2076.517  
  -4384985.534    -3403819.980    23887811.190    23887810.416    23887817.860  
      3154.444        2458.004  
 -20519421.325   -15966885.167    20668280.471    20668279.652    20668285.181  
      1508.740        1175.635  
 -13435266.986   -10439521.121    21981183.551    21981183.465    21981187.934  
     -1912.015       -1489.878  
  -2738710.334    -2109262.588    24124930.443    24124930.532    24124936.992  
     -2132.787       -1661.916  
 99  8  2  1 30  0.0000000  0  7  1 14 15 16 22 25 29               
 -17971418.819   -13991651.499    21160771.132    21160770.607    21160775.619  
       269.356         209.886  
 -17410216.730   -13527779.449    21496679.044    21496678.774    21496684.395  
      1853.820        1444.534  
   7588815.417     5904198.519    23822356.297    23822355.531    23822364.196  
     -2669.312       -2079.984  
  -4479510.848    -3477475.992    23869823.580    23869822.814    23869830.168  
      3147.091        2452.280  
 -20564403.595   -16001936.257    20659720.565    20659719.772    20659725.331  
      1489.910        1160.970  
 -13377859.843   -10394788.293    21992107.851    21992107.721    21992112.185  
     -1915.361       -1492.488  
  -2674657.233    -2059351.129    24137119.576    24137119.481    24137125.872  
     -2137.630       -1665.696  
 99  8  2  1 30 30.0000000  0  7  1 14 15 16 22 25 29               
 -17979418.279   -13997884.825    21159248.770    21159248.264    21159253.337  
       263.574         205.385  
 -17465587.014   -13570925.096    21486142.357    21486142.105    21486147.768  
      1837.311        1431.671  
   7668954.600     5966644.508    23837606.595    23837605.726    23837614.298  
     -2673.481       -2083.232  
  -4573815.553    -3550960.081    23851877.858    23851877.182    23851884.506  
      3139.715        2446.529  
 -20608817.168   -16036544.205    20651268.902    20651268.127    20651273.725  
      1470.696        1146.000  
 -13320353.415   -10349978.105    22003050.802    22003050.764    22003055.395  
     -1918.738       -1495.118  
  -2610452.563    -2009321.558    24149337.297    24149337.328    24149343.599  
     -2142.869       -1669.765  
 99  8  2  1 31  0.0000000  0  7  1 14 15 16 22 25 29               
 -17987231.926   -14003973.360    21157761.797    21157761.348    21157766.481  
       257.206         200.420  
 -17520457.319   -13613681.146    21475700.819    21475700.579    21475706.305  
      1820.644        1418.680  
   7749220.116     6029188.924    23852880.459    23852879.703    23852888.516  
     -2677.590       -2086.432  
  -4667896.770    -3624270.023    23833974.766    23833974.130    23833981.383  
      3132.181        2440.652  
 -20652655.938   -16070704.248    20642926.647    20642925.861    20642931.529  
      1451.769        1131.250  
 -13262737.121   -10305082.310    22014014.908    22014014.826    22014019.615  
     -1922.529       -1498.072  
  -2546093.725    -1959171.866    24161584.555    24161584.574    24161590.759  
     -2147.962       -1673.739  
 99  8  2  1 31 30.0000000  0  7  1 14 15 16 22 25 29               
 -17994845.720   -14009906.165    21156313.007    21156312.524    21156317.623  
       250.190         194.952  
 -17574826.445   -13656046.675    21465354.666    21465354.472    21465360.180  
      1804.093        1405.788  
   7829609.121     6091829.581    23868177.818    23868177.088    23868186.079  
     -2681.663       -2089.609  
  -4761753.109    -3697404.717    23816114.499    23816113.833    23816121.028  
      3124.909        2434.986  
 -20695922.702   -16104418.585    20634693.329    20634692.578    20634698.183  
      1432.560        1116.280  
 -13205004.626   -10260095.955    22025001.154    22025001.007    22025005.808  
     -1926.254       -1500.978  
  -2481572.640    -1908895.729    24173862.617    24173862.447    24173868.845  
     -2153.436       -1677.994  
 99  8  2  1 32  0.0000000  0  7  1 14 15 16 22 25 29               
 -18002248.257   -14015674.354    21154904.356    21154903.839    21154908.898  
       243.280         189.567  
 -17628707.597   -13698031.965    21455101.372    21455101.188    21455106.892  
      1788.037        1393.269  
   7910118.169     6154563.778    23883498.133    23883497.534    23883506.626  
     -2685.597       -2092.676  
  -4855393.717    -3770371.298    23798295.075    23798294.489    23798301.761  
      3117.682        2429.366  
 -20738603.576   -16137676.383    20626571.456    20626570.668    20626576.295  
      1412.718        1100.815  
 -13147161.728   -10215023.578    22036008.316    22036008.143    22036013.030  
     -1929.976       -1503.881  
  -2416873.734    -1858481.095    24186174.212    24186174.008    24186180.669  
     -2159.670       -1682.853  
 99  8  2  1 32 30.0000000  0  7  1 14 15 16 22 25 29               
 -18009446.086   -14021283.030    21153534.582    21153534.075    21153539.184  
       236.591         184.354  
 -17682111.993   -13739645.762    21444938.796    21444938.597    21444944.362  
      1772.218        1380.950  
   7990744.054     6217389.016    23898840.896    23898840.179    23898849.414  
     -2689.591       -2095.786  
  -4948805.268    -3843159.423    23780519.414    23780518.762    23780526.033  
      3109.663        2423.108  
 -20780676.522   -16170460.474    20618565.157    20618564.440    20618570.056  
      1392.114        1084.760  
 -13089205.399   -10169862.812    22047037.010    22047036.855    22047041.829  
     -1934.023       -1507.033  
  -2351990.345    -1807922.689    24198521.154    24198520.879    24198527.645  
     -2165.860       -1687.688  
 99  8  2  1 33  0.0000000  0  7  1 14 15 16 22 25 29               
 -18016458.658   -14026747.352    21152200.070    21152199.590    21152204.711  
       230.926         179.945  
 -17735050.817   -13780896.783    21434864.843    21434864.645    21434870.406  
      1756.996        1369.089  
   8071483.302     6280302.619    23914205.151    23914204.403    23914213.663  
     -2693.237       -2098.619  
  -5041986.343    -3915767.953    23762787.494    23762786.947    23762794.189  
      3102.225        2417.312  
 -20822138.980   -16202768.857    20610675.246    20610674.434    20610680.025  
      1371.945        1069.051  
 -13031122.518   -10124603.434    22058089.746    22058089.597    22058094.599  
     -1938.046       -1510.164  
  -2286936.844    -1757231.704    24210899.991    24210899.907    24210906.972  
     -2171.114       -1691.780  
 99  8  2  1 33 30.0000000  0  7  1 14 15 16 22 25 29               
 -18023302.223   -14032079.979    21150897.724    21150897.229    21150902.332  
       225.359         175.603  
 -17787528.995   -13821788.861    21424878.498    21424878.325    21424884.077  
      1741.596        1357.084  
   8152333.189     6343302.384    23929590.290    23929589.667    23929599.069  
     -2696.890       -2101.470  
  -5134932.829    -3988193.702    23745100.481    23745099.803    23745106.991  
      3094.112        2410.994  
 -20862983.630   -16234595.827    20602902.631    20602901.903    20602907.505  
      1351.151        1052.844  
 -12972921.875   -10079252.301    22069164.831    22069164.683    22069169.800  
     -1941.914       -1513.180  
  -2221718.979    -1706412.623    24223310.223    24223310.361    24223317.525  
     -2176.678       -1696.116  
 99  8  2  1 34  0.0000000  0  7  1 14 15 16 22 25 29               
 -18029987.629   -14037289.372    21149625.444    21149624.952    21149630.078  
       220.085         171.497  
 -17839547.195   -13862322.511    21414979.672    21414979.517    21414985.328  
      1726.163        1345.064  
   8233289.974     6406385.472    23944996.142    23944995.425    23945004.766  
     -2700.322       -2104.141  
  -5227621.531    -4060418.568    23727462.265    23727461.594    23727468.863  
      3085.145        2404.011  
 -20903211.804   -16265942.428    20595247.531    20595246.757    20595252.308  
      1330.806        1036.993  
 -12914607.814   -10033812.788    22080261.463    22080261.412    22080266.573  
     -1945.820       -1516.221  
  -2156337.995    -1655466.482    24235751.698    24235751.967    24235759.196  
     -2182.047       -1700.294  
 99  8  2  1 34 30.0000000  0  7  1 14 15 16 22 25 29               
 -18036507.810   -14042370.021    21148384.648    21148384.215    21148389.321  
       214.657         167.265  
 -17891095.778   -13902490.237    21405170.312    21405170.183    21405175.963  
      1710.348        1332.738  
   8314350.771     6469549.596    23960421.680    23960420.792    23960430.339  
     -2703.642       -2106.723  
  -5320039.261    -4132432.298    23709875.612    23709874.994    23709882.294  
      3076.114        2396.972  
 -20942841.759   -16296822.882    20587706.225    20587705.432    20587710.939  
      1311.436        1021.896  
 -12856170.457    -9988277.198    22091381.722    22091381.615    22091386.734  
     -1949.982       -1519.471  
  -2090804.788    -1604401.731    24248222.361    24248222.577    24248229.864  
     -2186.859       -1704.043  
 99  8  2  1 35  0.0000000  0  7  1 14 15 16 22 25 29               
 -18042862.689   -14047321.865    21147175.376    21147174.947    21147180.002  
       208.760         162.667  
 -17942160.116   -13942280.621    21395453.210    21395452.994    21395458.755  
      1693.840        1319.873  
   8395512.361     6532792.249    23975866.054    23975865.271    23975875.155  
     -2707.022       -2109.357  
  -5412192.143    -4204239.663    23692339.447    23692338.850    23692346.070  
      3067.397        2390.163  
 -20981900.036   -16327257.876    20580273.660    20580272.872    20580278.266  
      1292.416        1007.074  
 -12797604.841    -9942641.667    22102526.323    22102526.290    22102531.320  
     -1954.234       -1522.781  
  -2025125.728    -1553223.303    24260720.736    24260721.071    24260728.343  
     -2191.855       -1707.936  
 99  8  2  1 35 30.0000000  0  7  1 14 15 16 22 25 29               
 -18049025.680   -14052124.188    21146002.605    21146002.166    21146007.236  
       202.034         157.431  
 -17992718.443   -13981676.722    21385832.266    21385832.098    21385837.799  
      1676.568        1306.416  
   8476771.227     6596110.725    23991329.243    23991328.525    23991338.307  
     -2710.389       -2111.989  
  -5504079.086    -4275839.833    23674853.799    23674853.263    23674860.445  
      3058.320        2383.094  
 -21020392.042   -16357251.618    20572948.784    20572948.046    20572953.393  
      1273.684         992.481  
 -12738917.806    -9896911.517    22113694.099    22113694.011    22113698.890  
     -1958.415       -1526.035  
  -1959286.494    -1501920.063    24273249.558    24273249.877    24273257.310  
     -2197.742       -1712.537  
 99  8  2  1 36  0.0000000  0  7  1 14 15 16 22 25 29               
 -18054986.501   -14056768.969    21144868.289    21144867.849    21144872.889  
       195.209         152.110  
 -18042764.860   -14020673.927    21376308.782    21376308.586    21376314.205  
      1659.773        1293.333  
   8558124.131     6659502.489    24006810.441    24006809.782    24006819.374  
     -2713.312       -2114.263  
  -5595702.768    -4347234.834    23657418.205    23657417.749    23657425.131  
      3050.052        2376.676  
 -21058328.852   -16386812.739    20565729.723    20565728.959    20565734.202  
      1255.229         978.105  
 -12680108.414    -9851086.027    22124885.180    22124885.101    22124889.787  
     -1962.233       -1529.015  
  -1893273.842    -1450481.739    24285811.385    24285811.681    24285819.093  
     -2203.078       -1716.668  
 99  8  2  1 36 30.0000000  0  7  1 14 15 16 22 25 29               
 -18060740.585   -14061252.665    21143773.321    21143772.862    21143777.969  
       188.589         146.948  
 -18092304.713   -14059276.404    21366881.672    21366881.475    21366887.060  
      1642.901        1280.179  
   8639568.113     6722965.201    24022308.889    24022308.239    24022317.784  
     -2716.276       -2116.581  
  -5687084.048    -4418440.968    23640028.533    23640028.289    23640035.746  
      3041.990        2370.380  
 -21095703.820   -16415936.054    20558617.534    20558616.735    20558621.910  
      1236.269         963.321  
 -12621185.361    -9805171.966    22136098.038    22136097.879    22136102.391  
     -1965.782       -1531.780  
  -1827099.740    -1398917.590    24298404.050    24298404.375    24298411.614  
     -2208.475       -1720.882  
 99  8  2  1 37  0.0000000  0  7  1 14 15 16 22 25 29               
 -18066290.298   -14065577.110    21142717.226    21142716.753    21142721.915  
       181.176         141.173  
 -18141333.997   -14097481.034    21357551.801    21357551.519    21357557.098  
      1625.598        1266.702  
   8721099.681     6786496.176    24037823.854    24037823.276    24037832.756  
     -2719.223       -2118.883  
  -5778228.931    -4489462.901    23622684.193    23622683.887    23622691.474  
      3034.121        2364.253  
 -21132493.121   -16444603.013    20551616.708    20551615.889    20551621.069  
      1216.108         947.611  
 -12562160.949    -9759178.936    22147330.103    22147329.918    22147334.412  
     -1969.224       -1534.460  
  -1760764.951    -1347228.198    24311027.272    24311027.607    24311034.775  
     -2214.124       -1725.294  
 99  8  2  1 37 30.0000000  0  7  1 14 15 16 22 25 29               
 -18071619.810   -14069729.970    21141703.023    21141702.570    21141707.724  
       174.266         135.789  
 -18189855.380   -14135289.901    21348318.429    21348318.167    21348323.759  
      1609.069        1253.816  
   8802715.857     6850093.069    24053354.883    24053354.291    24053364.048  
     -2721.936       -2120.983  
  -5869127.845    -4560293.193    23605386.793    23605386.380    23605393.929  
      3025.677        2357.675  
 -21168673.072   -16472795.150    20544731.821    20544731.039    20544736.217  
      1195.742         931.743  
 -12503041.920    -9713112.157    22158580.211    22158579.993    22158584.296  
     -1972.249       -1536.816  
  -1694258.120    -1295404.751    24323683.141    24323683.372    24323690.814  
     -2219.735       -1729.657  
 99  8  2  1 38  0.0000000  0  7  1 14 15 16 22 25 29               
 -18076747.037   -14073725.210    21140727.370    21140726.903    21140732.065  
       167.171         130.261  
 -18237883.819   -14172714.658    21339178.790    21339178.582    21339184.221  
      1592.514        1240.916  
   8884413.163     6913753.199    24068901.512    24068900.861    24068910.713  
     -2724.746       -2123.169  
  -5959768.600    -4630922.324    23588138.445    23588137.991    23588145.435  
      3016.793        2350.737  
 -21204229.367   -16500501.323    20537965.670    20537964.855    20537970.082  
      1174.512         915.199  
 -12443823.625    -9666968.045    22169849.118    22169848.880    22169853.176  
     -1975.785       -1539.579  
  -1627589.021    -1243454.860    24336370.136    24336370.183    24336377.694  
     -2225.134       -1733.860  
 99  8  2  1 38 30.0000000  0  7  1 14 15 16 22 25 29               
 -18081665.994   -14077558.167    21139791.396    21139790.895    21139796.097  
       160.491         125.061  
 -18285406.377   -14209745.220    21330135.546    21330135.310    21330140.936  
      1575.351        1227.547  
   8966188.569     6977474.173    24084463.048    24084462.344    24084472.145  
     -2727.064       -2124.979  
  -6050142.697    -4701343.706    23570940.782    23570940.357    23570947.631  
      3007.874        2343.802  
 -21239148.762   -16527711.216    20531320.666    20531319.934    20531325.100  
      1153.309         898.678  
 -12384507.745    -9620747.903    22181136.546    22181136.337    22181140.704  
     -1978.807       -1541.930  
  -1560752.097    -1191374.203    24349088.929    24349088.938    24349096.420  
     -2230.921       -1738.381  
 99  8  2  1 39  0.0000000  0  7  1 14 15 16 22 25 29               
 -18086366.310   -14081220.751    21138896.915    21138896.416    21138901.676  
       153.127         119.325  
 -18332398.884   -14246362.754    21321193.213    21321192.972    21321198.561  
      1557.693        1213.789  
   9048038.968     7041253.590    24100038.916    24100038.136    24100047.787  
     -2729.480       -2126.863  
  -6140240.707    -4771549.912    23553795.764    23553795.306    23553802.575  
      2998.655        2336.613  
 -21273423.320   -16554418.635    20524798.441    20524797.725    20524802.848  
      1131.968         882.054  
 -12325090.600    -9574448.835    22192443.237    22192443.096    22192447.459  
     -1982.265       -1544.621  
  -1493729.484    -1139148.834    24361842.712    24361842.825    24361850.407  
     -2237.217       -1743.276  
 99  8  2  1 39 30.0000000  0  7  1 14 15 16 22 25 29               
 -18090855.384   -14084718.734    21138042.622    21138042.148    21138047.386  
       146.290         113.990  
 -18378868.137   -14282572.558    21312350.562    21312350.234    21312355.776  
      1540.257        1200.198  
   9129960.931     7105088.755    24115628.194    24115627.453    24115637.122  
     -2731.894       -2128.751  
  -6230055.583    -4841535.525    23536704.678    23536704.067    23536711.184  
      2989.037        2329.120  
 -21307060.927   -16580629.726    20518397.393    20518396.633    20518401.831  
      1110.777         865.538  
 -12265570.928    -9528069.883    22203769.468    22203769.354    22203773.755  
     -1985.751       -1547.336  
  -1426512.362    -1086771.885    24374633.672    24374633.843    24374641.519  
     -2243.664       -1748.304  
 99  8  2  1 40  0.0000000  0  7  1 14 15 16 22 25 29               
 -18095138.874   -14088056.519    21137227.538    21137227.040    21137232.217  
       139.067         108.362  
 -18424810.106   -14318371.489    21303608.014    21303607.736    21303613.319  
      1522.526        1186.384  
   9211951.282     7168977.235    24131230.547    24131229.768    24131239.489  
     -2734.201       -2130.552  
  -6319588.067    -4911301.061    23519667.166    23519666.623    23519673.753  
      2979.653        2321.801  
 -21340073.131   -16606353.494    20512115.287    20512114.600    20512119.818  
      1090.130         849.451  
 -12205948.730    -9481611.028    22215115.243    22215115.106    22215119.497  
     -1989.032       -1549.895  
  -1359107.592    -1034248.720    24387460.534    24387460.713    24387468.406  
     -2250.111       -1753.340  
 99  8  2  1 40 30.0000000  0  7  1 14 15 16 22 25 29               
 -18099205.060   -14091224.976    21136453.770    21136453.288    21136458.375  
       132.040         102.890  
 -18470223.926   -14353758.875    21294965.911    21294965.699    21294971.311  
      1505.080        1172.789  
   9294006.996     7232916.628    24146845.056    24146844.358    24146854.344  
     -2736.303       -2132.181  
  -6408838.261    -4980846.658    23502683.561    23502682.853    23502690.018  
      2970.255        2314.486  
 -21372473.856   -16631600.789    20505949.717    20505948.938    20505954.124  
      1069.941         833.721  
 -12146232.686    -9435079.056    22226478.814    22226478.692    22226483.089  
     -1992.299       -1552.436  
  -1291513.947     -981578.387    24400323.559    24400323.465    24400331.147  
     -2256.118       -1758.020  
 99  8  2  1 41  0.0000000  0  7  1 14 15 16 22 25 29               
 -18103065.706   -14094233.273    21135719.142    21135718.679    21135723.743  
       125.448          97.747  
 -18515125.660   -14388747.233    21286421.325    21286421.119    21286426.756  
      1488.344        1159.749  
   9376125.041     7296904.588    24162471.568    24162470.880    24162480.880  
     -2738.194       -2133.658  
  -6497804.577    -5050171.056    23485753.906    23485753.112    23485760.339  
      2960.723        2307.064  
 -21404279.369   -16656384.281    20499897.283    20499896.488    20499901.676  
      1050.357         818.458  
 -12086410.305    -9388464.215    22237862.741    22237862.608    22237866.994  
     -1995.953       -1555.294  
  -1223749.203     -928774.697    24413218.910    24413218.676    24413226.219  
     -2261.557       -1762.264  
 99  8  2  1 41 30.0000000  0  7  1 14 15 16 22 25 29               
 -18106732.261   -14097090.327    21135021.517    21135021.024    21135026.035  
       118.737          92.518  
 -18559525.153   -14423344.236    21277972.447    21277972.215    21277977.793  
      1471.432        1146.567  
   9458301.854     7360938.312    24178109.305    24178108.652    24178118.748  
     -2740.322       -2135.304  
  -6586479.542    -5119268.427    23468879.683    23468878.832    23468886.088  
      2950.897        2299.401  
 -21435494.824   -16680707.987    20493957.026    20493956.287    20493961.536  
      1030.534         803.011  
 -12026471.629    -9341758.774    22249268.656    22249268.574    22249273.014  
     -2000.135       -1558.548  
  -1155825.568     -875847.228    24426144.395    24426144.122    24426151.515  
     -2266.685       -1766.265  
 99  8  2  1 42  0.0000000  0  7  1 14 15 16 22 25 29               
 -18110193.789   -14099787.624    21134362.802    21134362.281    21134367.378  
       112.022          87.293  
 -18603416.073   -14457544.945    21269620.326    21269620.107    21269625.602  
      1454.683        1133.518  
   9540534.602     7425015.634    24193757.713    24193757.081    24193767.262  
     -2741.922       -2136.565  
  -6674869.344    -5188143.592    23452059.693    23452058.871    23452066.176  
      2941.741        2292.263  
 -21466122.394   -16704573.600    20488128.839    20488128.057    20488133.278  
      1011.220         787.967  
 -11966405.598    -9294954.079    22260698.722    22260698.732    22260703.259  
     -2004.090       -1561.623  
  -1087756.113     -822806.152    24439097.544    24439097.393    24439104.713  
     -2271.483       -1769.980  
 99  8  2  1 42 30.0000000  0  7  1 14 15 16 22 25 29               
 -18113457.143   -14102330.504    21133741.800    21133741.269    21133746.431  
       105.571          82.267  
 -18646798.764   -14491349.635    21261364.867    21261364.657    21261370.109  
      1437.383        1120.041  
   9622820.042     7489134.000    24209416.102    24209415.529    24209425.840  
     -2743.667       -2137.909  
  -6762980.891    -5256801.920    23435292.545    23435291.769    23435299.212  
      2932.543        2285.100  
 -21496156.381   -16727976.691    20482413.616    20482412.822    20482418.006  
       991.023         772.230  
 -11906221.062    -9248057.058    22272151.379    22272151.362    22272156.050  
     -2008.139       -1564.784  
  -1019539.700     -769650.560    24452078.706    24452078.623    24452086.022  
     -2276.325       -1773.765  
 99  8  2  1 43  0.0000000  0  7  1 14 15 16 22 25 29               
 -18116526.492   -14104722.212    21133157.667    21133157.152    21133162.357  
        99.029          77.167  
 -18689651.646   -14524741.484    21253210.224    21253210.007    21253215.483  
      1419.491        1106.096  
   9705154.824     7553290.828    24225084.199    24225083.430    24225093.801  
     -2745.248       -2139.147  
  -6850820.443    -5325248.307    23418577.154    23418576.417    23418583.968  
      2923.462        2278.017  
 -21525577.173   -16750901.954    20476815.046    20476814.202    20476819.417  
       970.292         756.071  
 -11845923.457    -9201071.931    22283625.566    22283625.584    22283630.391  
     -2011.446       -1567.365  
   -951174.569     -716379.063    24465088.138    24465088.230    24465095.625  
     -2281.341       -1777.665  
 99  8  2  1 43 30.0000000  0  7  1 14 15 16 22 25 29               
 -18119387.979   -14106951.945    21132613.138    21132612.656    21132617.856  
        91.656          71.419  
 -18731969.418   -14557716.360    21245157.338    21245157.140    21245162.646  
      1401.679        1092.218  
   9787536.340     7617484.062    24240760.996    24240760.213    24240770.542  
     -2746.806       -2140.362  
  -6938392.291    -5393486.077    23401912.625    23401912.017    23401919.603  
      2914.634        2271.147  
 -21554367.818   -16773336.203    20471336.317    20471335.506    20471340.786  
       949.206         739.641  
 -11785532.930    -9154014.392    22295117.463    22295117.493    22295122.339  
     -2014.516       -1569.750  
   -882656.181     -662988.187    24478126.834    24478126.850    24478134.353  
     -2286.630       -1781.788  
 99  8  2  1 44  0.0000000  0  7  1 14 15 16 22 25 29               
 -18122027.871   -14109009.006    21132110.813    21132110.311    21132115.509  
        84.455          65.808  
 -18773754.104   -14590275.840    21237205.910    21237205.718    21237211.304  
      1383.839        1078.312  
   9869960.851     7681710.817    24256446.106    24256445.269    24256455.549  
     -2748.121       -2141.388  
  -7025692.451    -5461512.156    23385299.861    23385299.329    23385306.845  
      2905.280        2263.852  
 -21582532.837   -16795282.954    20465976.665    20465975.903    20465981.193  
       928.417         723.443  
 -11725065.907    -9106897.241    22306624.055    22306624.043    22306628.787  
     -2016.520       -1571.312  
   -813978.191     -609472.915    24491195.837    24491195.874    24491203.322  
     -2291.936       -1785.921  
 99  8  2  1 44 30.0000000  0  7  1 14 15 16 22 25 29               
 -18124453.436   -14110899.058    21131649.279    21131648.796    21131653.921  
        77.132          60.102  
 -18814990.740   -14622408.274    21229358.941    21229358.726    21229364.301  
      1365.198        1063.786  
   9952425.428     7745968.787    24272138.728    24272138.003    24272148.260  
     -2749.537       -2142.495  
  -7112701.120    -5529311.068    23368742.497    23368742.025    23368749.599  
      2895.293        2256.066  
 -21610060.462   -16816733.023    20460738.473    20460737.668    20460742.845  
       906.865         706.645  
 -11664535.786    -9059730.918    22318142.811    22318142.607    22318147.299  
     -2018.867       -1573.143  
   -745141.635     -555834.117    24504295.020    24504295.056    24504302.471  
     -2297.158       -1789.982  
 99  8  2  1 45  0.0000000  0  7  1 14 15 16 22 25 29               
 -18126652.819   -14112612.864    21131230.785    21131230.298    21131235.447  
        69.674          54.292  
 -18855673.132   -14654108.828    21221617.389    21221617.143    21221622.673  
      1347.215        1049.777  
  10034927.157     7810255.725    24287838.345    24287837.700    24287847.908  
     -2750.522       -2143.269  
  -7199410.802    -5596877.016    23352242.112    23352241.627    23352249.153  
      2885.321        2248.301  
 -21636949.486   -16837685.487    20455621.714    20455620.869    20455625.949  
       885.939         690.344  
 -11603935.371    -9012509.832    22329674.549    22329674.436    22329679.082  
     -2021.276       -1575.023  
   -676148.694     -502073.443    24517423.777    24517424.003    24517431.397  
     -2302.303       -1794.009  
 99  8  2  1 45 30.0000000  0  7  1 14 15 16 22 25 29               
 -18128626.956   -14114151.151    21130855.152    21130854.623    21130859.838  
        62.136          48.421  
 -18895822.514   -14685394.045    21213977.234    21213976.954    21213982.460  
      1329.373        1035.875  
  10117462.967     7874569.214    24303544.297    24303543.785    24303553.969  
     -2751.710       -2144.195  
  -7285813.460    -5664203.706    23335800.109    23335799.605    23335807.164  
      2874.944        2240.212  
 -21663219.523   -16858155.629    20450622.632    20450621.793    20450626.865  
       865.531         674.442  
 -11543246.783    -8965220.024    22341223.212    22341223.079    22341227.623  
     -2024.634       -1577.634  
   -606993.732     -448186.520    24530583.607    24530583.871    24530591.225  
     -2307.972       -1798.426  
 99  8  2  1 46  0.0000000  0  7  1 14 15 16 22 25 29               
 -18130386.937   -14115522.573    21130520.097    21130519.635    21130524.928  
        55.333          43.116  
 -18935429.787   -14716256.838    21206440.140    21206439.869    21206445.408  
      1311.204        1021.718  
  10200029.114     7938906.359    24319256.281    24319255.639    24319265.901  
     -2752.663       -2144.931  
  -7371900.824    -5731284.740    23319418.069    23319417.647    23319425.086  
      2864.368        2231.981  
 -21688877.770   -16878149.053    20445740.009    20445739.214    20445744.194  
       844.982         658.423  
 -11482461.132    -8917854.590    22352790.291    22352790.146    22352794.753  
     -2027.662       -1579.995  
   -537676.291     -394172.990    24543774.566    24543774.746    24543781.869  
     -2313.207       -1802.486  
 99  8  2  1 46 30.0000000  0  7  1 14 15 16 22 25 29               
 -18131945.098   -14116736.722    21130223.665    21130223.156    21130228.393  
        48.692          37.942  
 -18974495.672   -14746697.775    21199006.095    21199005.834    21199011.383  
      1293.566        1007.973  
  10282622.750     8003264.904    24334973.412    24334972.741    24334983.159  
     -2753.260       -2145.390  
  -7457674.674    -5798121.469    23303095.677    23303095.357    23303102.699  
      2854.277        2224.122  
 -21713917.702   -16897660.666    20440975.145    20440974.316    20440979.277  
       824.794         642.698  
 -11421578.732    -8870413.776    22364375.748    22364375.640    22364380.267  
     -2030.831       -1582.465  
   -468195.610     -340032.240    24556996.398    24556996.627    24557003.533  
     -2318.736       -1806.807  
 99  8  2  1 47  0.0000000  0  7  1 14 15 16 22 25 29               
 -18133293.634   -14117787.526    21129967.122    21129966.585    21129971.767  
        41.460          32.308  
 -19013030.876   -14776725.193    21191673.060    21191672.845    21191678.450  
      1275.602         993.975  
  10365240.920     8067642.580    24350695.392    24350694.673    24350705.047  
     -2754.374       -2146.261  
  -7543143.158    -5864720.253    23286831.473    23286831.205    23286838.475  
      2843.646        2215.838  
 -21738351.747   -16916700.165    20436325.556    20436324.676    20436329.633  
       804.273         626.709  
 -11360595.130    -8822894.092    22375980.631    22375980.512    22375985.062  
     -2034.513       -1585.331  
   -398524.699     -285743.250    24570254.339    24570254.635    24570261.455  
     -2325.621       -1812.175  
 99  8  2  1 47 30.0000000  0  7  1 14 15 16 22 25 29               
 -18134431.279   -14118674.005    21129750.589    21129750.098    21129755.277  
        34.202          26.648  
 -19051031.414   -14806335.988    21184441.916    21184441.612    21184447.254  
      1257.539         979.899  
  10447880.508     8132036.952    24366421.329    24366420.682    24366431.004  
     -2755.013       -2146.764  
  -7628294.061    -5931071.572    23270627.743    23270627.456    23270634.652  
      2832.862        2207.434  
 -21762175.571   -16935264.170    20431791.969    20431791.128    20431796.047  
       783.741         610.704  
 -11299518.140    -8775301.633    22387603.289    22387603.207    22387607.657  
     -2037.173       -1587.415  
   -328666.243     -231308.135    24583548.072    24583548.221    24583555.183  
     -2331.686       -1816.907  
 99  8  2  1 48  0.0000000  0  7  1 14 15 16 22 25 29               
 -18135349.099   -14119389.191    21129575.989    21129575.484    21129580.610  
        26.759          20.847  
 -19088484.642   -14835520.308    21177314.808    21177314.514    21177320.135  
      1239.380         965.752  
  10530538.443     8196445.598    24382150.860    24382150.080    24382160.360  
     -2755.612       -2147.228  
  -7713115.939    -5997166.505    23254486.563    23254486.257    23254493.567  
      2821.857        2198.838  
 -21785371.741   -16953339.095    20427377.745    20427376.982    20427381.918  
       762.632         594.256  
 -11238373.884    -8727656.766    22399238.718    22399238.644    22399243.067  
     -2039.241       -1589.019  
   -258625.425     -176730.915    24596876.433    24596876.614    24596883.583  
     -2337.865       -1821.710  
 99  8  2  1 48 30.0000000  0  7  1 14 15 16 22 25 29               
 -18136037.909   -14119925.920    21129444.848    21129444.374    21129449.495  
        18.916          14.741  
 -19125396.198   -14864282.550    21170290.754    21170290.510    21170296.074  
      1221.198         951.590  
  10613211.506     8260866.050    24397883.129    24397882.362    24397892.480  
     -2755.987       -2147.511  
  -7797614.630    -6063009.622    23238407.056    23238406.659    23238413.901  
      2811.197        2190.550  
 -21807940.554   -16970925.170    20423083.042    20423082.223    20423087.195  
       741.897         578.104  
 -11177166.316    -8679962.558    22410886.200    22410886.132    22410890.442  
     -2041.418       -1590.715  
   -188393.187     -122004.555    24610241.301    24610241.446    24610248.397  
     -2344.246       -1826.679  
 99  8  2  1 49  0.0000000  0  7  1 14 15 16 22 25 29               
 -18136484.284   -14120273.740    21129359.891    21129359.415    21129364.574  
        10.940           8.528  
 -19161757.208   -14892615.791    21163371.404    21163371.207    21163376.716  
      1202.892         937.318  
  10695896.736     8325295.965    24413617.481    24413616.805    24413627.001  
     -2756.356       -2147.801  
  -7881787.861    -6128599.121    23222389.595    23222389.112    23222396.278  
      2800.202        2181.972  
 -21829879.911   -16988020.757    20418908.155    20418907.351    20418912.261  
       720.599         561.504  
 -11115890.136    -8632214.891    22422546.781    22422546.628    22422550.936  
     -2043.693       -1592.493  
   -117979.579      -67136.861    24623640.816    24623640.874    24623647.709  
     -2349.823       -1831.021  
 99  8  2  1 49 30.0000000  0  7  1 14 15 16 22 25 29               
 -18136690.813   -14120434.669    21129320.500    21129320.051    21129325.314  
         3.051           2.377  
 -19197576.308   -14920526.763    21156555.252    21156555.048    21156560.454  
      1185.128         923.474  
  10778590.835     8389732.777    24429353.515    24429352.961    24429363.254  
     -2756.468       -2147.886  
  -7965632.397    -6193932.513    23206434.641    23206434.175    23206441.105  
      2789.543        2173.678  
 -21851175.543   -17004614.748    20414855.675    20414854.872    20414859.820  
       699.281         544.897  
 -11054548.493    -8584416.220    22434219.649    22434219.572    22434223.873  
     -2045.652       -1594.013  
    -47400.600      -12140.347    24637071.427    24637071.595    24637078.409  
     -2355.440       -1835.405  
 99  8  2  1 50  0.0000000  0  7  1 14 15 16 22 25 29               
 -18136664.493   -14120414.159    21129325.429    21129325.026    21129330.308  
        -4.740          -3.693  
 -19232857.007   -14948018.211    21149841.536    21149841.361    21149846.676  
      1167.050         909.389  
  10861290.913     8454174.249    24445090.907    24445090.438    24445100.647  
     -2756.701       -2148.070  
  -8049156.001    -6259015.842    23190540.833    23190540.307    23190546.879  
      2778.828        2165.327  
 -21871831.920   -17020710.615    20410924.769    20410923.986    20410929.013  
       678.104         528.395  
 -10993144.710    -8536569.123    22445904.453    22445904.329    22445908.549  
     -2047.959       -1595.809  
     23354.028       42993.077    24650535.498    24650535.704    24650542.428  
     -2361.347       -1839.997  
 99  8  2  1 50 30.0000000  0  7  1 14 15 16 22 25 29               
 -18136399.331   -14120207.530    21129375.930    21129375.512    21129380.767  
       -13.010         -10.137  
 -19267590.077   -14975082.932    21143232.028    21143231.910    21143237.170  
      1148.318         894.791  
  10943993.669     8518617.811    24460829.018    24460828.461    24460838.619  
     -2756.926       -2148.253  
  -8132356.674    -6323847.512    23174708.405    23174707.831    23174714.277  
      2767.618        2156.583  
 -21891861.830   -17036318.320    20407113.107    20407112.336    20407117.474  
       657.039         511.978  
 -10931669.769    -8488666.580    22457602.771    22457602.645    22457606.813  
     -2050.496       -1597.794  
     94279.729       98259.811    24664032.352    24664032.434    24664039.078  
     -2367.009       -1844.422  
 99  8  2  1 51  0.0000000  0  7  1 14 15 16 22 25 29               
 -18135899.525   -14119818.062    21129471.140    21129470.655    21129475.908  
       -20.450         -15.933  
 -19301766.113   -15001713.604    21136728.623    21136728.470    21136733.733  
      1129.915         880.452  
  11026696.168     8583061.175    24476566.821    24476566.380    24476576.740  
     -2756.812       -2148.163  
  -8215218.895    -6388415.464    23158940.195    23158939.627    23158945.989  
      2756.353        2147.815  
 -21911261.127   -17051434.639    20403421.545    20403420.750    20403425.916  
       636.015         495.597  
 -10870126.032    -8440710.428    22469314.315    22469314.125    22469318.252  
     -2052.641       -1599.462  
    165368.518      153653.622    24677559.838    24677560.143    24677566.884  
     -2372.446       -1848.670  
 99  8  2  1 51 30.0000000  0  7  1 14 15 16 22 25 29               
 -18135173.922   -14119252.644    21129609.278    21129608.772    21129613.958  
       -28.125         -21.918  
 -19335385.006   -15027910.138    21130331.199    21130330.992    21130336.345  
      1111.154         865.834  
  11109395.687     8647502.215    24492303.930    24492303.532    24492314.067  
     -2756.637       -2148.028  
  -8297738.212    -6452716.193    23143237.010    23143236.627    23143242.999  
      2744.851        2138.840  
 -21930026.094   -17066056.674    20399850.630    20399849.866    20399855.003  
       614.963         479.192  
 -10808518.884    -8392704.866    22481037.803    22481037.545    22481041.782  
     -2054.649       -1601.028  
    236625.3771     209178.4021   24691119.4011   24691119.7641   24691126.4331 
     -2378.0221      -1852.9991 
 99  8  2  1 52  0.0000000  0  7  1 14 15 16 22 25 29               
 -18134218.265   -14118507.970    21129791.072    21129790.622    21129795.797  
       -35.647         -27.780  
 -19368430.787   -15053660.090    21124042.755    21124042.537    21124047.987  
      1092.030         850.933  
  11192088.911     8711938.343    24508040.022    24508039.534    24508050.293  
     -2756.226       -2147.701  
  -8379910.330    -6516746.362    23127600.164    23127599.727    23127606.237  
      2733.463        2129.967  
 -21948166.455   -17080192.012    20396398.648    20396397.876    20396402.946  
       594.477         463.228  
 -10746848.112    -8344649.728    22492773.313    22492773.149    22492777.462  
     -2056.818       -1602.715  
    308031.4261     264819.3821   24704707.4501   24704707.9311   24704714.5171 
     -2382.5351      -1856.5361 
 99  8  2  1 52 30.0000000  0  7  1 14 15 16 22 25 29               
 -18133031.953   -14117583.559    21130016.845    21130016.388    21130021.530  
       -43.226         -33.684  
 -19400904.369   -15078964.180    21117863.153    21117862.953    21117868.437  
      1073.110         836.185  
  11274772.705     8776367.119    24523774.443    24523773.834    24523784.717  
     -2755.956       -2147.490  
  -8461742.363    -6580511.544    23112027.949    23112027.573    23112034.101  
      2722.255        2121.233  
 -21965682.909   -17093841.172    20393065.444    20393064.618    20393069.675  
       573.318         446.737  
 -10685102.530    -8296536.302    22504523.066    22504522.878    22504527.288  
     -2059.465       -1604.775  
    379580.948      320572.201    24718322.872    24718323.255    24718329.729  
     -2387.424       -1860.328  
 99  8  2  1 53  0.0000000  0  7  1 14 15 16 22 25 29               
 -18131628.802   -14116490.178    21130283.815    21130283.366    21130288.542  
       -50.334         -39.222  
 -19432820.812   -15103834.132    21111789.610    21111789.410    21111794.934  
      1054.776         821.905  
  11357444.266     8840786.327    24539506.476    24539505.785    24539516.755  
     -2755.398       -2147.055  
  -8543244.908    -6644019.974    23096518.559    23096518.172    23096524.767  
      2711.412        2112.791  
 -21982558.763   -17106991.167    20389853.964    20389853.219    20389858.309  
       551.875         430.030  
 -10623277.935    -8248361.304    22516287.783    22516287.622    22516292.130  
     -2061.975       -1606.738  
    451274.699      376437.448    24731965.893    24731966.188    24731972.716  
     -2392.082       -1863.956  
 99  8  2  1 53 30.0000000  0  7  1 14 15 16 22 25 29               
 -18130001.584   -14115222.203    21130593.464    21130593.020    21130598.216  
       -58.243         -45.388  
 -19464187.875   -15128276.000    21105820.641    21105820.432    21105825.964  
      1036.302         807.507  
  11440100.422     8905193.541    24555235.630    24555235.034    24555245.891  
     -2755.014       -2146.760  
  -8624419.119    -6707272.541    23081071.771    23081071.255    23081077.995  
      2700.178        2104.040  
 -21998792.966   -17119641.172    20386764.665    20386763.893    20386769.037  
       530.692         413.522  
 -10561381.770    -8200130.538    22528066.045    22528066.005    22528070.612  
     -2064.436       -1608.651  
    523110.967      432413.749    24745636.098    24745636.300    24745642.758  
     -2396.948       -1867.766  
 99  8  2  1 54  0.0000000  0  7  1 14 15 16 22 25 29               
 -18128141.312   -14113772.628    21130947.485    21130947.006    21130952.249  
       -65.864         -51.321  
 -19495004.263   -15152288.770    21099956.495    21099956.317    21099961.793  
      1018.017         793.257  
  11522738.395     8969586.613    24570961.333    24570960.791    24570971.577  
     -2754.281       -2146.189  
  -8705258.778    -6770264.417    23065688.496    23065687.878    23065694.747  
      2689.072        2095.379  
 -22014409.810   -17131810.117    20383792.820    20383792.058    20383797.230  
       510.251         397.597  
 -10499411.694    -8151842.181    22539858.619    22539858.485    22539863.077  
     -2067.005       -1610.657  
    595096.305      488506.164    24759334.435    24759334.563    24759341.419  
     -2402.339       -1871.940  
 99  8  2  1 54 30.0000000  0  7  1 14 15 16 22 25 29               
 -18126050.323   -14112143.278    21131345.390    21131344.931    21131350.152  
       -73.652         -57.389  
 -19525269.554   -15175872.113    21094197.255    21094197.089    21094202.529  
       999.559         778.875  
  11605354.933     9033962.991    24586683.005    24586682.383    24586693.282  
     -2753.526       -2145.592  
  -8785758.033    -6832991.008    23050369.866    23050369.276    23050376.368  
      2677.277        2086.185  
 -22029399.522   -17143490.396    20380940.349    20380939.623    20380944.777  
       489.049         381.076  
 -10437365.152    -8103494.238    22551665.779    22551665.578    22551670.187  
     -2069.397       -1612.515  
    667251.232      544730.732    24773065.234    24773065.351    24773072.307  
     -2407.978       -1876.338  
 99  8  2  1 55  0.0000000  0  7  1 14 15 16 22 25 29               
 -18123722.830   -14110329.643    21131788.331    21131787.850    21131793.090  
       -81.661         -63.629  
 -19554974.125   -15199018.528    21088544.674    21088544.531    21088550.013  
       980.474         764.009  
  11687947.104     9098320.351    24602399.648    24602399.113    24602410.295  
     -2752.686       -2144.950  
  -8865893.125    -6895433.854    23035120.705    23035120.034    23035127.166  
      2665.021        2076.631  
 -22043757.503   -17154678.411    20378208.207    20378207.435    20378212.615  
       468.206         364.835  
 -10375252.078    -8055094.450    22563485.367    22563485.229    22563489.870  
     -2071.558       -1614.201  
    739576.694      601088.163    24786828.315    24786828.494    24786835.616  
     -2413.972       -1881.013  
 99  8  2  1 55 30.0000000  0  7  1 14 15 16 22 25 29               
 -18121148.438   -14108323.615    21132278.192    21132277.773    21132282.984  
       -90.146         -70.250  
 -19584094.226   -15221709.511    21083003.286    21083003.146    21083008.709  
       960.670         748.572  
  11770511.871     9162656.371    24618111.003    24618110.548    24618122.085  
     -2751.796       -2144.251  
  -8945661.483    -6957590.939    23019941.178    23019940.602    23019947.715  
      2652.861        2067.162  
 -22057497.523   -17165384.901    20375593.533    20375592.768    20375598.039  
       447.687         348.843  
 -10313062.444    -8006635.015    22575319.503    22575319.416    22575324.182  
     -2074.637       -1616.603  
    812088.424      657590.760    24800627.142    24800627.127    24800634.351  
     -2420.239       -1885.902  
 99  8  2  1 56  0.0000000  0  7  1 14 15 16 22 25 29               
 -18118324.320   -14106123.001    21132815.624    21132815.195    21132820.352  
       -98.255         -76.562  
 -19612618.724   -15243936.394    21077575.336    21077575.117    21077580.722  
       940.740         733.044  
  11853046.240     9226968.711    24633816.594    24633816.356    24633827.863  
     -2750.720       -2143.420  
  -9025074.225    -7019470.909    23004829.430    23004828.862    23004835.974  
      2641.169        2058.052  
 -22070616.737   -17175607.642    20373097.060    20373096.302    20373101.545  
       426.507         332.346  
 -10250776.835    -7958100.785    22587172.101    22587171.940    22587176.786  
     -2077.838       -1619.090  
    884786.560      714238.580    24814461.482    24814461.279    24814468.566  
     -2426.452       -1890.736  
 99  8  2  1 56 30.0000000  0  7  1 14 15 16 22 25 29               
 -18115262.128   -14103736.861    21133398.409    21133397.960    21133402.990  
      -106.078         -82.659  
 -19640544.836   -15265697.001    21072261.181    21072260.912    21072266.549  
       920.971         717.637  
  11935547.412     9291255.198    24649516.209    24649515.937    24649527.222  
     -2749.435       -2142.416  
  -9104132.459    -7081074.652    22989785.220    22989784.614    22989791.566  
      2629.252        2048.766  
 -22083083.552   -17185322.018    20370724.716    20370723.926    20370729.195  
       404.668         315.323  
 -10188400.928    -7909496.209    22599041.880    22599041.698    22599046.604  
     -2080.571       -1621.222  
    957666.126      771027.822    24828330.168    24828329.880    24828337.284  
     -2432.364       -1895.350  
 99  8  2  1 57  0.0000000  0  7  1 14 15 16 22 25 29               
 -18111960.549   -14101164.193    21134026.689    21134026.199    21134031.220  
      -114.067         -88.882  
 -19667876.540   -15286994.433    21067059.983    21067059.800    21067065.457  
       901.194         702.228  
  12018012.667     9355513.683    24665209.546    24665208.958    24665219.952  
     -2748.229       -2141.473  
  -9182838.695    -7142404.121    22974807.794    22974807.255    22974814.034  
      2617.665        2039.731  
 -22094899.227   -17194529.011    20368476.179    20368475.442    20368480.721  
       383.102         298.519  
 -10125940.050    -7860825.408    22610927.929    22610927.729    22610932.625  
     -2083.515       -1623.512  
   1030728.158      827959.247    24842233.208    24842232.994    24842240.685  
     -2438.396       -1900.040  
 99  8  2  1 57 30.0000000  0  7  1 14 15 16 22 25 29               
 -18108418.221   -14098403.933    21134700.646    21134700.243    21134705.298  
      -122.167         -95.195  
 -19694623.495   -15307836.213    21061970.238    21061969.998    21061975.651  
       881.984         687.261  
  12100438.495     9419741.490    24680895.099    24680894.268    24680905.193  
     -2746.870       -2140.411  
  -9261191.863    -7203458.465    22959897.660    22959897.069    22959903.800  
      2605.605        2030.342  
 -22106067.960   -17203231.902    20366350.854    20366350.076    20366355.330  
       361.440         281.644  
 -10063393.731    -7812088.046    22622830.026    22622829.906    22622834.901  
     -2086.079       -1625.514  
   1103959.515      885022.586    24856168.418    24856168.462    24856176.284  
     -2443.562       -1904.069  
 99  8  2  1 58  0.0000000  0  7  1 14 15 16 22 25 29               
 -18104640.054   -14095459.901    21135419.598    21135419.176    21135424.324  
      -129.820        -101.156  
 -19720804.375   -15328236.904    21056988.225    21056987.952    21056993.560  
       863.196         672.623  
  12182822.281     9483936.534    24696572.222    24696571.475    24696582.430  
     -2745.509       -2139.343  
  -9339172.519    -7264222.538    22945058.262    22945057.724    22945064.409  
      2592.751        2020.320  
 -22116586.674   -17211428.284    20364349.207    20364348.436    20364353.619  
       339.767         264.755  
 -10000790.538    -7763306.358    22634743.209    22634743.014    22634747.998  
     -2087.456       -1626.588  
   1177339.384      942201.632    24870132.100    24870132.161    24870140.113  
     -2448.527       -1907.942  
 99  8  2  1 58 30.0000000  0  7  1 14 15 16 22 25 29               
 -18100629.962   -14092335.147    21136182.628    21136182.252    21136187.460  
      -137.600        -107.217  
 -19746421.734   -15348198.482    21052113.305    21052113.063    21052118.698  
       844.661         658.178  
  12265160.837     9548096.323    24712240.855    24712239.928    24712251.098  
     -2743.670       -2137.919  
  -9416755.375    -7324676.656    22930294.597    22930294.119    22930300.640  
      2579.597        2010.080  
 -22126465.428   -17219125.994    20362469.359    20362468.554    20362473.724  
       319.068         248.624  
  -9938156.922    -7714500.962    22646662.163    22646661.906    22646666.883  
     -2088.136       -1627.114  
   1250874.009      999501.271    24884125.342    24884125.269    24884133.346  
     -2453.683       -1911.961  
 99  8  2  1 59  0.0000000  0  7  1 14 15 16 22 25 29               
 -18096371.260   -14089016.674    21136993.025    21136992.636    21136997.894  
      -146.080        -113.830  
 -19771475.677   -15367721.039    21047345.617    21047345.400    21047351.030  
       825.743         643.433  
  12347451.403     9612218.732    24727900.499    24727899.382    24727910.688  
     -2742.095       -2136.688  
  -9493938.568    -7384819.345    22915607.157    22915606.672    22915613.055  
      2566.126        1999.582  
 -22135726.031   -17226342.028    20360707.129    20360706.306    20360711.462  
       298.571         232.649  
  -9875494.321    -7665672.987    22658586.389    22658586.213    22658591.180  
     -2089.153       -1627.914  
   1324563.588     1056921.670    24898148.083    24898148.038    24898156.071  
     -2458.618       -1915.801  
 99  8  2  1 59 30.0000000  0  7  1 14 15 16 22 25 29               
 -18091856.814   -14085498.918    21137852.130    21137851.669    21137856.942  
      -154.726        -120.567  
 -19795958.224   -15386798.350    21042686.768    21042686.546    21042692.097  
       806.517         628.454  
  12429691.072     9676301.468    24743550.184    24743549.183    24743560.475  
     -2740.376       -2135.352  
  -9570719.837    -7444648.846    22900996.151    22900995.707    22901001.980  
      2552.871        1989.252  
 -22144374.517   -17233081.085    20359061.414    20359060.544    20359065.708  
       278.108         216.712  
  -9812808.595    -7616826.990    22670515.041    22670514.874    22670519.790  
     -2089.775       -1628.395  
   1398399.754     1114456.319    24912198.719    24912198.619    24912206.703  
     -2463.791       -1919.825  
 99  8  2  2  0  0.0000000  0  7  1 14 15 16 22 25 29               
 -18087089.459   -14081784.088    21138759.281    21138758.799    21138764.016  
      -163.104        -127.097  
 -19819863.559   -15405425.886    21038137.896    21038137.634    21038143.058  
       787.071         613.301  
  12511876.646     9740342.071    24759189.645    24759188.770    24759199.928  
     -2738.649       -2134.013  
  -9647110.165    -7504173.726    22886459.506    22886459.095    22886465.252  
      2539.955        1979.181  
 -22152412.356   -17239344.316    20357531.780    20357530.971    20357536.173  
       257.792         200.876  
  -9750102.632    -7567965.230    22682447.458    22682447.319    22682452.239  
     -2090.803       -1629.197  
   1472407.365     1172124.531    24926281.546    24926281.645    24926289.933  
     -2470.061       -1924.722  
 99  8  2  2  0 30.0000000  0  7  1 14 15 16 22 25 29               
 -18082067.014   -14077870.495    21139714.842    21139714.432    21139719.719  
      -171.707        -133.798  
 -19843184.652   -15423598.170    21033700.005    21033699.780    21033705.234  
       767.691         598.198  
  12594005.237     9804338.277    24774818.301    24774817.521    24774828.664  
     -2736.578       -2132.396  
  -9723127.812    -7563408.218    22871993.924    22871993.393    22871999.423  
      2527.902        1969.790  
 -22159845.945   -17245136.707    20356117.216    20356116.378    20356121.561  
       237.625         185.163  
  -9687358.940    -7519074.060    22694387.201    22694387.021    22694391.803  
     -2092.338       -1630.394  
   1546600.654     1229937.427    24940399.906    24940400.183    24940408.546  
     -2476.235       -1929.542  
 99  8  2  2  1  0.0000000  0  7  1 14 15 16 22 25 29               
 -18076783.886   -14073753.775    21140720.275    21140719.844    21140725.058  
      -180.335        -140.519  
 -19865922.232   -15441315.772    21029373.215    21029372.986    21029378.453  
       748.241         583.044  
  12676074.083     9868287.926    24790435.525    24790434.767    24790446.005  
     -2734.558       -2130.821  
  -9798784.100    -7622361.121    22857596.948    22857596.449    22857602.553  
      2515.826        1960.381  
 -22166661.627   -17250447.604    20354820.209    20354819.405    20354824.514  
       216.754         168.895  
  -9624555.385    -7470136.243    22706338.161    22706338.109    22706342.839  
     -2094.386       -1631.989  
   1620974.865     1287891.316    24954552.949    24954553.097    24954561.617  
     -2482.016       -1934.020  
 99  8  2  2  1 30.0000000  0  7  1 14 15 16 22 25 29               
 -18071247.078   -14069439.376    21141774.056    21141773.583    21141778.716  
      -188.682        -147.028  
 -19888077.512   -15458579.636    21025157.264    21025157.028    21025162.473  
       728.905         567.980  
  12758080.157     9932188.658    24806040.582    24806039.932    24806051.391  
     -2732.430       -2129.154  
  -9874077.373    -7681031.157    22843269.197    22843268.591    22843274.755  
      2503.704        1950.940  
 -22172844.206   -17255265.181    20353643.713    20353642.881    20353647.965  
       195.495         152.331  
  -9561696.052    -7421154.964    22718299.896    22718299.844    22718304.609  
     -2096.284       -1633.469  
   1695533.911     1345989.238    24968741.392    24968741.216    24968749.750  
     -2488.587       -1939.162  
 99  8  2  2  2  0.0000000  0  7  1 14 15 16 22 25 29               
 -18065465.442   -14064934.202    21142874.266    21142873.791    21142878.945  
      -196.849        -153.387  
 -19909662.370   -15475399.014    21021049.811    21021049.594    21021055.039  
       710.025         553.267  
  12840021.069     9996038.593    24821633.472    24821632.721    24821644.363  
     -2730.218       -2127.424  
  -9949002.489    -7739414.342    22829011.289    22829010.760    22829016.883  
      2491.317        1941.287  
 -22178383.459   -17259581.462    20352589.576    20352588.736    20352593.914  
       173.756         135.395  
  -9498772.855    -7372123.931    22730273.808    22730273.770    22730278.529  
     -2098.494       -1635.187  
   1770284.3571    1404236.2161   24982965.6191   24982965.4371   24982974.1781 
     -2494.7341      -1943.9771 
 99  8  2  2  2 30.0000000  0  7  1 14 15 16 22 25 29               
 -18059425.658   -14060227.879    21144023.495    21144023.055    21144028.307  
      -205.790        -160.355  
 -19930672.839   -15491770.810    21017051.610    21017051.384    21017056.907  
       690.622         538.150  
  12921893.784    10059835.378    24837213.220    24837212.597    24837224.167  
     -2727.924       -2125.652  
 -10023548.812    -7797502.349    22814825.445    22814825.043    22814831.162  
      2478.230        1931.087  
 -22183255.864   -17263378.123    20351662.273    20351661.481    20351666.688  
       150.971         117.640  
  -9435784.029    -7323041.745    22742260.395    22742260.300    22742264.886  
     -2100.847       -1637.017  
   1845214.3151    1462623.0841   24997224.5331   24997224.4211   24997232.9211 
     -2500.6731      -1948.5611 
 99  8  2  2  3  0.0000000  0  7  1 14 15 16 22 25 29               
 -18053122.772   -14055316.541    21145222.850    21145222.427    21145227.673  
      -214.401        -167.064  
 -19951104.393   -15507691.514    21013163.545    21013163.333    21013168.908  
       671.414         523.181  
  13003695.084    10123576.518    24852779.865    24852779.243    24852790.444  
     -2725.412       -2123.697  
 -10097698.308    -7855281.143    22800715.302    22800714.795    22800720.965  
      2464.990        1920.771  
 -22187442.603   -17266640.506    20350865.541    20350864.778    20350869.891  
       128.297          99.971  
  -9372728.720    -7273907.760    22754259.689    22754259.418    22754263.994  
     -2102.735       -1638.495  
   1920318.719     1521145.940    25011516.624    25011516.359    25011524.812  
     -2506.290       -1952.945  
 99  8  2  2  3 30.0000000  0  7  1 14 15 16 22 25 29               
 -18046562.068   -14050204.304    21146471.368    21146470.924    21146476.079  
      -223.152        -173.886  
 -19970961.706   -15523164.755    21009384.809    21009384.582    21009390.165  
       652.285         508.273  
  13085422.229    10187259.869    24868332.212    24868331.640    24868342.714  
     -2723.011       -2121.820  
 -10171444.880    -7912745.985    22786681.704    22786681.245    22786687.394  
      2451.433        1910.203  
 -22190958.042   -17269379.787    20350196.614    20350195.803    20350200.890  
       106.170          82.727  
  -9309620.643    -7224732.673    22766268.747    22766268.517    22766273.185  
     -2104.717       -1640.036  
   1995594.311     1579802.211    25025841.221    25025840.894    25025849.320  
     -2511.916       -1957.326  
 99  8  2  2  4  0.0000000  0  7  1 14 15 16 22 25 29               
 -18039730.357   -14044880.894    21147771.467    21147771.011    21147776.101  
      -232.211        -180.948  
 -19990239.339   -15538186.300    21005716.399    21005716.201    21005721.726  
       632.801         493.091  
  13167072.502    10250883.324    24883870.111    24883869.405    24883880.436  
     -2720.229       -2119.651  
 -10244781.183    -7969891.162    22772726.440    22772725.805    22772731.880  
      2437.779        1899.572  
 -22193813.385   -17271604.711    20349653.218    20349652.416    20349657.554  
        84.383          65.752  
  -9246441.144    -7175501.929    22778291.437    22778291.212    22778295.866  
     -2106.978       -1641.806  
   2071031.524     1638584.383    25040196.616    25040196.460    25040204.620  
     -2516.992       -1961.291  
 99  8  2  2  4 30.0000000  0  7  1 14 15 16 22 25 29               
 -18032624.496   -14039343.863    21149123.631    21149123.203    21149128.348  
      -241.147        -187.904  
 -20008917.559   -15552740.768    21002162.117    21002161.951    21002167.337  
       612.800         477.507  
  13248642.812    10314444.465    24899392.634    24899391.676    24899402.924  
     -2717.497       -2117.533  
 -10317700.139    -8026711.124    22758850.395    22758849.773    22758855.922  
      2423.803        1888.675  
 -22196019.500   -17273323.744    20349233.363    20349232.602    20349237.771  
        63.157          49.214  
  -9183197.717    -7126221.364    22790326.360    22790326.074    22790330.792  
     -2108.977       -1643.362  
   2146621.460     1697485.641    25054581.312    25054581.112    25054588.990  
     -2522.061       -1965.260  
 99  8  2  2  5  0.0000000  0  7  1 14 15 16 22 25 29               
 -18025260.349   -14033605.569    21150524.858    21150524.458    21150529.742  
      -249.670        -194.545  
 -20027008.591   -15566837.689    20998719.570    20998719.401    20998724.667  
       593.323         462.331  
  13330130.399    10377941.103    24914898.621    24914897.865    24914909.516  
     -2714.843       -2115.464  
 -10390202.737    -8083206.640    22745053.521    22745052.907    22745059.207  
      2410.005        1877.931  
 -22197603.489   -17274558.009    20348931.997    20348931.181    20348936.315  
        42.758          33.319  
  -9119901.739    -7076899.869    22802371.067    22802370.824    22802375.683  
     -2110.461       -1644.508  
   2222350.598     1756495.333    25068992.229    25068992.047    25068999.754  
     -2526.453       -1968.694  
 99  8  2  2  5 30.0000000  0  7  1 14 15 16 22 25 29               
 -18017640.239   -14027667.812    21151974.839    21151974.435    21151979.771  
      -258.343        -201.308  
 -20044505.583   -15580471.719    20995390.035    20995389.783    20995395.117  
       573.177         446.632  
  13411532.732    10441371.397    24930388.849    24930388.026    24930399.583  
     -2711.938       -2113.193  
 -10462295.403    -8139382.722    22731334.672    22731334.030    22731340.547  
      2396.231        1867.192  
 -22198582.033   -17275320.494    20348745.762    20348744.944    20348750.040  
        22.390          17.447  
  -9056562.375    -7027544.546    22814424.093    22814423.843    22814428.844  
     -2112.130       -1645.814  
   2298217.976     1815612.884    25083429.312    25083429.287    25083436.153  
     -2531.313       -1972.440  
 99  8  2  2  6  0.0000000  0  7  1 14 15 16 22 25 29               
 -18009770.139   -14021535.261    21153472.458    21153472.033    21153477.296  
      -266.221        -207.441  
 -20061397.307   -15593634.114    20992175.574    20992175.390    20992180.792  
       553.056         430.956  
  13492846.551    10504732.664    24945862.783    24945861.806    24945873.112  
     -2708.882       -2110.806  
 -10533981.101    -8195241.702    22717693.160    22717692.658    22717699.293  
      2382.853        1856.764  
 -22198946.197   -17275604.245    20348676.564    20348675.707    20348680.797  
         1.916           1.495  
  -8993176.813    -6978153.229    22826485.948    22826485.699    22826490.659  
     -2113.341       -1646.756  
   2374229.112     1874842.334    25097893.743    25097893.704    25097900.609  
     -2536.179       -1976.232  
 99  8  2  2  6 30.0000000  0  8  1  3 14 15 16 22 25 29            
 -18001665.124   -14015219.660    21155014.789    21155014.345    21155019.534  
      -274.158        -213.630  
   -107581.6993     -42272.1863          0.0003   25251973.4563   25256974.7393 
      2497.6313       1944.2863 
 -20077687.958   -15606328.139    20989075.548    20989075.385    20989080.811  
       533.170         415.461  
  13574069.292    10568022.967    24961319.079    24961318.254    24961329.417  
     -2705.852       -2108.452  
 -10605266.666    -8250788.884    22704128.020    22704127.461    22704134.132  
      2369.626        1846.452  
 -22198689.802   -17275404.437    20348725.292    20348724.478    20348729.582  
       -18.929         -14.751  
  -8929761.119    -6928738.434    22838553.596    22838553.439    22838558.294  
     -2114.469       -1647.641  
   2450387.362     1934186.491    25112386.116    25112386.209    25112393.096  
     -2541.051       -1980.026  
 99  8  2  2  7  0.0000000  0  9  1  3 14 15 16 18 22 25 29         
 -17993315.257   -14008713.273    21156603.734    21156603.299    21156608.367  
      -282.409        -220.057  
   -182589.5303     -42272.1863          0.0003   25237699.9283   25256974.7393 
      2503.0473       1944.2863 
 -20093382.387   -15618557.572    20986088.995    20986088.829    20986094.287  
       512.969         399.719  
  13655197.966    10631239.988    24976757.815    24976756.914    24976767.964  
     -2702.686       -2105.995  
 -10676163.290    -8306033.007    22690636.942    22690636.371    22690642.959  
      2356.740        1836.427  
    -20268.7313      -5317.7423   25508326.1183   25508323.8983   25508306.9203 
      3056.2393       2381.8003 
 -22197805.165   -17274715.090    20348893.567    20348892.771    20348897.866  
       -40.046         -31.202  
  -8866303.103    -6879290.660    22850629.370    22850629.207    22850633.947  
     -2116.126       -1648.924  
   2526696.735     1993648.332    25126907.340    25126907.351    25126914.354  
     -2546.221       -1984.073  
 99  8  2  2  7 30.0000000  0  8  1 14 15 16 18 22 25 29            
 -17984714.788   -14002011.606    21158240.421    21158239.976    21158244.999  
      -290.938        -226.702  
 -20108456.246   -15630303.438    20983220.628    20983220.410    20983225.913  
       492.304         383.616  
  13736229.898    10694381.620    24992177.492    24992176.818    24992188.080  
     -2699.335       -2103.363  
 -10746661.454    -8360966.624    22677221.705    22677221.059    22677227.620  
      2343.172        1825.855  
   -111993.1253     -63683.1883          0.0003   25490869.3153   25494085.0763 
      3058.7733       2383.5703 
 -22196275.763   -17273523.330    20349184.594    20349183.788    20349188.870  
       -61.912         -48.243  
  -8802787.137    -6829797.729    22862716.235    22862716.045    22862720.597  
     -2118.078       -1650.448  
   2603174.389     2053241.280    25141460.319    25141460.468    25141467.713  
     -2552.067       -1988.618  
 99  8  2  2  8  0.0000000  0  9  1  3 14 15 16 18 22 25 29         
 -17975854.182   -13995107.226    21159926.565    21159926.124    21159931.219  
      -299.668        -233.507  
    -79610.8543     -47419.3643          0.0003   25209066.8783   25210038.1393 
      2512.5823       1958.4363 
 -20122920.384   -15641574.192    20980468.147    20980467.932    20980473.531  
       472.172         367.928  
  13817162.627    10757445.961    25007578.691    25007577.946    25007589.323  
     -2695.920       -2100.694  
 -10816747.484    -8415579.102    22663884.810    22663884.148    22663890.646  
      2329.348        1815.081  
   -203793.5723     -63683.1883          0.0003   25473400.2593   25494085.0763 
      3061.3963       2383.5703 
 -22194092.074   -17271821.737    20349600.152    20349599.337    20349604.394  
       -83.301         -64.906  
  -8739219.628    -6780264.639    22874812.904    22874812.694    22874817.181  
     -2119.451       -1651.518  
   2679820.651     2112965.622    25156045.470    25156045.684    25156052.960  
     -2557.502       -1992.859  
 99  8  2  2  8 30.0000000  0  8  1  3 14 15 16 22 25 29            
 -17966715.313   -13987986.024    21161665.677    21161665.186    21161670.361  
      -309.445        -241.130  
   -155057.9323     -47419.3643          0.0003   25194709.7643   25210038.1393 
      2517.4273       1958.4363 
 -20136777.917   -15652372.266    20977831.058    20977830.883    20977836.563  
       451.713         351.978  
  13897993.121    10820430.652    25022960.087    25022959.365    25022971.026  
     -2692.613       -2098.135  
 -10886410.904    -8469862.268    22650628.207    22650627.558    22650634.052  
      2315.041        1803.924  
 -22191266.439   -17269619.926    20350137.817    20350137.031    20350142.040  
      -104.779         -81.651  
  -8675618.262    -6730705.165    22886915.834    22886915.672    22886920.169  
     -2120.623       -1652.435  
   2756633.4121    2172819.6761   25170662.2771   25170662.3851   25170670.1301 
     -2563.2341      -1997.3111 
 99  8  2  2  9  0.0000000  0  8  1  3 14 15 16 22 25 29            
 -17957284.906   -13980637.651    21163460.169    21163459.693    21163464.960  
      -319.039        -248.599  
   -230654.6263     -47419.3643          0.0003   25180324.1783   25210038.1393 
      2522.3213       1958.4363 
 -20150021.384   -15662691.843    20975310.911    20975310.721    20975316.408  
       431.371         336.133  
  13978718.569    10883333.482    25038321.806    25038321.006    25038332.785  
     -2688.990       -2095.317  
 -10955643.506    -8523809.741    22637453.726    22637453.014    22637459.359  
      2300.359        1792.489  
 -22187805.807   -17266923.307    20350796.387    20350795.568    20350800.529  
      -125.692         -97.944  
  -8611980.761    -6681117.527    22899025.751    22899025.557    22899030.030  
     -2121.661       -1653.238  
   2833622.351     2232811.011    25185312.770    25185312.785    25185320.790  
     -2569.027       -2001.797  
 99  8  2  2  9 30.0000000  0  8  1  3 14 15 16 22 25 29            
 -17947564.725   -13973063.472    21165309.775    21165309.360    21165314.642  
      -329.065        -256.413  
    -55648.3703          0.0003          0.0003   25165912.1083          0.0003 
      2526.7113          0.0003 
 -20162665.761   -15672544.595    20972904.730    20972904.492    20972910.239  
       411.827         320.905  
  14059336.254    10946152.317    25053662.941    25053662.160    25053673.986  
     -2685.555       -2092.648  
 -11024427.161    -8577407.377    22624364.436    22624363.868    22624370.101  
      2285.359        1780.799  
 -22183724.984   -17263743.430    20351572.956    20351572.144    20351577.000  
      -146.305        -114.003  
  -8548320.385    -6631512.077    22911139.928    22911139.661    22911144.241  
     -2122.321       -1653.752  
   2910786.973     2292939.234    25199996.878    25199996.772    25200004.707  
     -2574.852       -2006.377  
 99  8  2  2 10  0.0000000  0  8  1  3 14 15 16 22 25 29            
 -17937544.283   -13965255.322    21167216.700    21167216.233    21167221.478  
      -338.801        -264.000  
   -131523.6043          0.0003          0.0003   25151473.5183          0.0003 
      2531.8383          0.0003 
 -20174732.474   -15681947.222    20970608.358    20970608.155    20970614.034  
       392.660         305.968  
  14139843.362    11008884.979    25068983.260    25068982.421    25068994.237  
     -2681.576       -2089.519  
 -11092770.208    -8630661.684    22611359.025    22611358.576    22611364.726  
      2270.998        1769.606  
 -22179033.551   -17260087.748    20352465.775    20352464.955    20352469.701  
      -166.304        -129.588  
  -8484639.621    -6581890.727    22923257.829    22923257.574    22923262.362  
     -2123.087       -1654.358  
   2988119.2761    2353198.1131   25214712.3571   25214712.3341   25214720.7551 
     -2580.2471      -2010.5581 
 99  8  2  2 10 30.0000000  0  8  1  3 14 15 16 22 25 29            
 -17927230.350   -13957218.483    21169179.336    21169178.916    21169184.147  
      -348.560        -271.606  
   -207549.7643          0.0003          0.0003   25137006.2113          0.0003 
      2536.5843          0.0003 
 -20186219.569   -15690898.199    20968422.370    20968422.178    20968428.071  
       373.268         290.861  
  14220237.504    11071529.621    25084281.817    25084280.951    25084292.905  
     -2677.846       -2086.633  
 -11160686.058    -8683583.110    22598435.100    22598434.654    22598440.705  
      2256.926        1758.644  
 -22173728.614   -17255954.011    20353475.225    20353474.429    20353479.197  
      -187.329        -145.969  
  -8420925.020    -6532243.017    22935382.172    22935381.963    22935386.921  
     -2124.601       -1655.527  
   3065616.0891    2413585.0891   25229457.9761   25229458.8781   25229467.9521 
     -2586.0341      -2015.0511 
 99  8  2  2 11  0.0000000  0  7  1 14 15 16 22 25 29               
 -17916633.411   -13948961.124    21171195.837    21171195.471    21171200.661  
      -357.850        -278.842  
 -20197130.951   -15699400.566    20966345.992    20966345.832    20966351.647  
       354.165         275.972  
  14300515.797    11134084.010    25099558.485    25099557.575    25099569.519  
     -2673.974       -2083.612  
 -11228170.815    -8736168.608    22585593.354    22585592.781    22585598.800  
      2241.987        1746.999  
 -22167793.225   -17251329.019    20354604.667    20354603.877    20354608.680  
      -208.331        -162.337  
  -8357157.264    -6482553.885    22947516.737    22947516.588    22947521.492  
     -2126.445       -1656.966  
   3143278.7841    2474101.4451   25244237.4441   25244237.9911   25244246.7541 
     -2591.2101      -2019.1231 
 99  8  2  2 11 30.0000000  0  7  1 14 15 16 22 25 29               
 -17905760.183   -13940488.461    21173265.006    21173264.596    21173269.726  
      -366.939        -285.927  
 -20207467.870   -15707455.294    20964378.911    20964378.772    20964384.591  
       334.843         260.918  
  14380675.582    11196546.015    25114812.233    25114811.584    25114823.684  
     -2670.003       -2080.528  
 -11295212.521    -8788408.884    22572835.794    22572835.225    22572841.243  
      2227.580        1735.775  
 -22161225.835   -17246211.561    20355854.463    20355853.647    20355858.455  
      -229.551        -178.870  
  -8293340.892    -6432826.866    22959660.691    22959660.446    22959665.260  
     -2127.882       -1658.087  
   3221098.8871    2534740.4951   25259046.2901   25259046.6841   25259055.4901 
     -2596.7091      -2023.4241 
 99  8  2  2 12  0.0000000  0  7  1 14 15 16 22 25 29               
 -17894620.363   -13931808.083    21175384.921    21175384.486    21175389.519  
      -375.656        -292.722  
 -20217209.000   -15715045.772    20962525.265    20962525.076    20962530.914  
       314.513         245.071  
  14460713.783    11258913.316    25130043.348    25130042.706    25130054.643  
     -2665.846       -2077.275  
 -11361819.953    -8840310.760    22560160.867    22560160.229    22560166.338  
      2212.864        1724.312  
 -22154019.020   -17240595.850    20357225.833    20357225.023    20357229.896  
      -250.732        -195.377  
  -8229480.257    -6383065.358    22971812.833    22971812.663    22971817.587  
     -2129.392       -1659.270  
   3299083.8701    2595507.9601   25273886.4541   25273886.9341   25273895.5791 
     -2602.2511      -2027.7321 
 99  8  2  2 12 30.0000000  0  7  1 14 15 16 22 25 29               
 -17883222.752   -13922926.822    21177553.860    21177553.406    21177558.421  
      -384.084        -299.281  
 -20226334.101   -15722156.228    20960788.810    20960788.635    20960794.472  
       293.904         229.020  
  14540627.969    11321183.967    25145250.664    25145250.044    25145261.946  
     -2661.576       -2073.949  
 -11427986.065    -8891868.736    22547569.755    22547569.169    22547575.455  
      2198.259        1712.933  
 -22146183.962   -17234490.592    20358716.721    20358715.880    20358720.814  
      -271.451        -211.517  
  -8165575.911    -6333269.785    22983973.449    22983973.183    22983978.252  
     -2130.727       -1660.299  
   3377230.956     2656401.727    25288757.831    25288758.124    25288766.398  
     -2607.535       -2031.854  
 99  8  2  2 13  0.0000000  0  7  1 14 15 16 22 25 29               
 -17871572.394   -13913848.618    21179770.843    21179770.369    21179775.415  
      -392.307        -305.685  
 -20234834.222   -15728779.687    20959171.270    20959171.114    20959176.919  
       273.141         212.838  
  14620415.344    11383355.818    25160433.610    25160433.070    25160444.994  
     -2657.159       -2070.504  
 -11493700.648    -8943074.873    22535064.569    22535063.969    22535070.452  
      2183.165        1701.167  
 -22137732.214   -17227904.799    20360324.948    20360324.115    20360329.116  
      -291.492        -227.132  
  -8101632.079    -6283443.446    22996141.462    22996141.264    22996146.351  
     -2131.694       -1661.058  
   3455540.470     2717422.115    25303660.230    25303660.129    25303668.338  
     -2612.486       -2035.692  
 99  8  2  2 13 30.0000000  0  7  1 14 15 16 22 25 29               
 -17859668.490   -13904572.834    21182036.029    21182035.562    21182040.668  
      -400.992        -312.460  
 -20242703.880   -15734911.881    20957673.847    20957673.609    20957679.348  
       251.930         196.308  
  14700073.339    11445426.852    25175591.762    25175591.170    25175603.356  
     -2653.022       -2067.275  
 -11558971.737    -8993935.429    22522643.616    22522643.170    22522649.832  
      2168.607        1689.822  
 -22128672.609   -17220845.357    20362048.834    20362048.057    20362053.079  
      -312.179        -243.255  
  -8037661.330    -6233596.122    23008314.745    23008314.502    23008319.645  
     -2132.704       -1661.852  
   3533997.376     2778557.314    25318590.548    25318590.256    25318598.232  
     -2617.488       -2039.594  
 99  8  2  2 14  0.0000000  0  8  1 14 15 16 18 22 25 29            
 -17847503.637   -13895093.720    21184350.860    21184350.436    21184355.560  
      -409.990        -319.471  
 -20249944.689   -15740554.063    20956296.022    20956295.791    20956301.442  
       231.030         180.026  
  14779599.255    11507394.948    25190725.227    25190724.488    25190736.779  
     -2648.568       -2063.812  
 -11623810.252    -9044458.932    22510305.222    22510304.788    22510311.494  
      2154.056        1678.482  
    -81274.3223          0.0003          0.0003   25262551.4383          0.0003 
      3093.4623          0.0003 
 -22118992.827   -17213302.658    20363890.872    20363890.076    20363895.047  
      -333.003        -259.481  
  -7973663.038    -6183727.336    23020493.111    23020492.939    23020498.220  
     -2133.804       -1662.704  
   3612597.6591    2839804.2371   25333547.9261   25333547.2871   25333555.3691 
     -2622.3121      -2043.3641 
 99  8  2  2 14 30.0000000  0  8  1 14 15 16 18 22 25 29            
 -17835067.059   -13885402.877    21186717.485    21186717.050    21186722.152  
      -419.070        -326.543  
 -20256568.591   -15745715.530    20955035.486    20955035.287    20955040.933  
       210.718         164.196  
  14858990.609    11569258.169    25205833.501    25205832.316    25205844.614  
     -2644.125       -2060.360  
 -11688215.520    -9094644.837    22498049.458    22498048.872    22498055.523  
      2139.555        1667.184  
   -174118.9963    -121152.2823   25244881.2093   25244883.6733   25244886.2663 
      3096.1453       2412.5843 
 -22108678.764   -17205265.709    20365853.597    20365852.806    20365857.711  
      -354.599        -276.309  
  -7909636.389    -6133836.452    23032676.934    23032676.775    23032682.276  
     -2134.452       -1663.204  
   3691334.540     2901157.650    25348530.804    25348530.527    25348538.430  
     -2626.980       -2046.990  
 99  8  2  2 15  0.0000000  0  8  1 14 15 16 18 22 25 29            
 -17822352.000   -13875495.047    21189137.075    21189136.637    21189141.748  
      -428.798        -334.128  
 -20262585.008   -15750403.642    20953890.563    20953890.371    20953896.038  
       190.314         148.296  
  14938244.548    11631014.335    25220914.944    25220914.103    25220926.233  
     -2639.605       -2056.822  
 -11752177.407    -9144485.251    22485877.833    22485877.286    22485883.909  
      2124.430        1655.406  
   -267037.2673    -193556.0083   25227199.1163   25227201.6893   25227204.6313 
      3098.2373       2414.1973 
 -22097707.209   -17196716.439    20367941.437    20367940.670    20367945.520  
      -376.778        -293.592  
  -7845599.903    -6083937.925    23044862.801    23044862.525    23044868.176  
     -2134.837       -1663.512  
   3770221.217     2962627.707    25363542.661    25363542.405    25363550.085  
     -2632.128       -2051.012  
 99  8  2  2 15 30.0000000  0  8  1 14 15 16 18 22 25 29            
 -17809340.452   -13865356.182    21191613.133    21191612.696    21191617.718  
      -438.790        -341.910  
 -20267994.937   -15754619.168    20952861.052    20952860.865    20952866.458  
       170.207         132.630  
  15017358.466    11692661.462    25235969.636    25235969.046    25235981.291  
     -2634.816       -2053.100  
 -11815691.772    -9193976.945    22473791.478    22473790.920    22473797.491  
      2109.670        1643.903  
   -360025.1011    -266014.0101   25209505.6451   25209504.2181   25209510.9401 
      3100.8951       2416.2931 
 -22086068.632   -17187647.412    20370156.229    20370155.431    20370160.208  
      -399.188        -311.052  
  -7781555.580    -6034033.276    23057049.898    23057049.730    23057055.444  
     -2135.033       -1663.660  
   3849263.437     3024219.006    25378583.990    25378583.596    25378591.280  
     -2637.713       -2055.340  
 99  8  2  2 16  0.0000000  0  8  1 14 15 16 18 22 25 29            
 -17796029.092   -13854983.697    21194146.191    21194145.744    21194150.742  
      -448.571        -349.536  
 -20272798.022   -15758361.823    20951946.919    20951946.750    20951952.442  
       149.962         116.852  
  15096329.876    11754197.491    25250997.467    25250996.945    25251009.149  
     -2629.984       -2049.350  
 -11878758.159    -9243119.569    22461790.437    22461789.916    22461796.369  
      2094.708        1632.238  
   -453088.3631    -338530.8411   25191795.243    25191794.8121   25191801.6351 
      3103.2421       2418.1341 
 -22073763.222   -17178058.766    20372497.904    20372497.127    20372501.757  
      -420.911        -327.982  
  -7717493.679    -5984114.922    23069240.454    23069240.329    23069245.997  
     -2135.801       -1664.258  
   3928487.749     3085952.194    25393659.786    25393659.454    25393667.108  
     -2643.934       -2060.211  
 99  8  2  2 16 30.0000000  0  8  1 14 15 16 18 22 25 29            
 -17782426.213   -13844384.059    21196734.751    21196734.311    21196739.243  
      -458.316        -357.129  
 -20276990.998   -15761629.072    20951148.932    20951148.771    20951154.524  
       129.490         100.901  
  15175156.121    11815620.406    25265997.865    25265997.226    25266009.329  
     -2625.148       -2045.553  
 -11941370.600    -9291908.469    22449875.855    22449875.304    22449881.587  
      2079.317        1620.245  
   -546209.347     -411092.6501   25174074.745    25174074.523    25174081.0791 
      3104.848        2419.3281 
 -22060814.282   -17167968.673    20374962.005    20374961.183    20374965.848  
      -442.293        -344.646  
  -7653404.604    -5934175.401    23081436.337    23081436.166    23081441.714  
     -2136.855       -1665.077  
   4007900.886     3147832.476    25408771.488    25408771.313    25408779.003  
     -2650.427       -2065.271  
 99  8  2  2 17  0.0000000  0  8  1 14 15 16 18 22 25 29            
 -17768534.639   -13833559.460    21199378.220    21199377.812    21199382.693  
      -467.891        -364.588  
 -20280574.085   -15764421.084    20950467.157    20950466.979    20950472.684  
       109.475          85.305  
  15253834.388    11876928.060    25280970.092    25280969.407    25280981.381  
     -2620.042       -2041.603  
 -12003527.004    -9340342.021    22438048.003    22438047.468    22438053.599  
      2064.454        1608.671  
   -639381.688     -483694.391    25156344.646    25156344.303    25156350.933  
      3106.507        2420.627  
 -22047241.570   -17157392.528    20377544.812    20377544.026    20377548.674  
      -462.427        -360.333  
  -7589276.333    -5884205.323    23093639.793    23093639.570    23093644.830  
     -2138.519       -1666.381  
   4087499.375     3209857.255    25423918.421    25423918.355    25423926.058  
     -2656.130       -2069.693  
 99  8  2  2 17 30.0000000  0  8  1 14 15 16 18 22 25 29            
 -17754356.455   -13822511.521    21202076.292    21202075.866    21202080.777  
      -477.041        -371.720  
 -20283563.003   -15766750.108    20949898.472    20949898.305    20949903.882  
        90.031          70.158  
  15332361.992    11938118.311    25295913.166    25295912.704    25295924.692  
     -2614.922       -2037.590  
 -12065237.117    -9388427.812    22426305.042    22426304.504    22426310.582  
      2049.717        1597.185  
   -732605.750     -556336.450    25138604.640    25138604.274    25138611.095  
      3108.704        2422.383  
 -22033067.701   -17146347.950    20380242.036    20380241.181    20380245.841  
      -482.349        -375.853  
  -7525087.904    -5834188.376    23105854.607    23105854.361    23105859.501  
     -2140.386       -1667.832  
   4167273.954     3272019.218    25439098.825    25439098.899    25439106.681  
     -2662.055       -2074.329  
 99  8  2  2 18  0.0000000  0  8  1 14 15 16 18 22 25 29            
 -17739907.610   -13811252.688    21204825.748    21204825.338    21204830.383  
      -486.220        -378.878  
 -20285972.964   -15768628.002    20949439.940    20949439.782    20949445.283  
        70.624          55.028  
  15410736.725    11999189.444    25310827.301    25310826.847    25310839.272  
     -2609.950       -2033.724  
 -12126502.855    -9436167.325    22414646.548    22414645.973    22414652.118  
      2034.552        1585.367  
   -825889.105     -629024.703    25120853.263    25120852.967    25120859.960  
      3110.303        2423.593  
 -22018298.903   -17134839.789    20383052.415    20383051.553    20383056.250  
      -502.147        -391.284  
  -7460843.848    -5784128.104    23118079.827    23118079.633    23118084.839  
     -2142.486       -1669.477  
   4247218.539     3334313.609    25454312.037    25454311.739    25454319.802  
     -2667.414       -2078.492  
 99  8  2  2 18 30.0000000  0  8  1 14 15 16 18 22 25 29            
 -17725179.680   -13799776.387    21207628.378    21207627.928    21207633.063  
      -495.776        -386.321  
 -20287812.124   -15770061.113    20949090.010    20949089.810    20949095.351  
        51.973          40.493  
  15488956.129    12060139.510    25325711.718    25325711.374    25325724.145  
     -2604.722       -2029.631  
 -12187310.739    -9483550.080    22403075.100    22403074.549    22403080.658  
      2019.211        1573.408  
   -919236.917     -701763.136    25103089.722    25103089.390    25103096.560  
      3112.797        2425.557  
 -22002940.273   -17122872.013    20385974.993    20385974.142    20385978.844  
      -521.917        -406.689  
  -7396547.166    -5734026.807    23130315.163    23130314.966    23130320.135  
     -2143.913       -1670.585  
   4327306.1871    3396719.5391   25469552.1501   25469551.9051   25469559.9801 
     -2671.8981      -2082.0121 
 99  8  2  2 19  0.0000000  0  8  1 14 15 16 18 22 25 29            
 -17710154.251   -13788068.276    21210487.557    21210487.116    21210492.365  
      -505.931        -394.228  
 -20289088.589   -15771055.755    20948847.060    20948846.876    20948852.457  
        33.147          25.829  
  15567017.524    12120966.519    25340566.746    25340566.141    25340578.632  
     -2599.345       -2025.461  
 -12247643.365    -9530562.511    22391594.125    22391593.576    22391599.602  
      2003.105        1560.867  
  -1012659.879     -774560.141    25085311.933    25085311.447    25085318.768  
      3115.548        2427.694  
 -21986982.053   -17110437.026    20389011.569    20389010.808    20389015.572  
      -541.882        -422.243  
  -7332203.796    -5683889.132    23142559.325    23142559.166    23142564.366  
     -2145.456       -1671.778  
   4407531.614     3459232.807    25484818.401    25484818.160    25484826.319  
     -2676.469       -2085.550  
 99  8  2  2 19 30.0000000  0  8  1 14 15 16 18 22 25 29            
 -17694824.327   -13776122.900    21213404.775    21213404.323    21213409.623  
      -515.882        -401.985  
 -20289793.552   -15771605.073    20948712.863    20948712.690    20948718.265  
        13.859          10.801  
  15644918.104    12181668.244    25355390.918    25355390.375    25355402.746  
     -2593.901       -2021.233  
 -12307486.536    -9577193.540    22380206.188    22380205.713    22380211.759  
      1986.651        1548.040  
  -1106160.424     -847417.610    25067519.208    25067518.751    25067526.164  
      3118.204        2429.779  
 -21970414.901   -17097527.548    20392164.189    20392163.384    20392168.262  
      -562.528        -438.331  
  -7267821.784    -5633721.352    23154810.804    23154810.656    23154816.020  
     -2146.428       -1672.542  
   4487888.070     3521848.210    25500109.930    25500109.698    25500117.949  
     -2680.606       -2088.763  
 99  8  2  2 20  0.0000000  0  8  1 14 15 16 18 22 25 29            
 -17679182.580   -13763934.537    21216381.352    21216380.899    21216386.197  
      -526.732        -410.437  
 -20289903.437   -15771690.696    20948691.995    20948691.760    20948697.382  
        -6.516          -5.077  
  15722655.455    12242242.741    25370184.271    25370183.476    25370195.745  
     -2588.433       -2016.946  
 -12366830.115    -9623435.278    22368913.350    22368912.886    22368919.072  
      1969.772        1534.889  
  -1199739.581     -920336.374    25049712.131    25049711.301    25049718.586  
      3120.566        2431.608  
 -21953227.993   -17084135.146    20395434.752    20395433.948    20395438.880  
      -583.034        -454.313  
  -7203408.597    -5583529.271    23167068.128    23167068.053    23167073.599  
     -2147.658       -1673.502  
   4568369.3451    3584560.8691   25515425.0941   25515424.7661   25515433.1061 
     -2684.7491      -2092.0341 
 99  8  2  2 20 30.0000000  0  8  1 14 15 16 18 22 25 29            
 -17663218.546   -13751495.039    21219419.248    21219418.800    21219424.109  
      -537.425        -418.770  
 -20289397.056   -15771296.108    20948788.297    20948788.126    20948793.765  
       -27.271         -21.250  
  15800227.055    12302688.112    25384945.667    25384944.942    25384957.051  
     -2582.833       -2012.624  
 -12425669.760    -9669284.336    22357716.455    22357715.982    22357722.319  
      1952.969        1521.788  
  -1293387.977     -993309.093    25031890.865    25031890.415    25031897.810  
      3122.796        2433.325  
 -21935426.004   -17070263.464    20398822.356    20398821.595    20398826.468  
      -603.820        -470.509  
  -7138964.045    -5533312.756    23179331.565    23179331.438    23179337.103  
     -2148.573       -1674.206  
   4648982.7271    3647376.4601   25530765.4951   25530765.0131   25530773.0131 
     -2689.6751      -2095.8541 
 99  8  2  2 21  0.0000000  0  8  1 14 15 16 18 22 25 29            
 -17646947.316   -13738816.174    21222515.618    21222515.171    21222520.399  
      -547.264        -426.444  
 -20288256.880   -15770407.662    20949005.458    20949005.239    20949010.792  
       -48.787         -38.016  
  15877630.286    12363002.303    25399674.781    25399674.183    25399686.434  
     -2577.238       -2008.265  
 -12484018.871    -9714751.161    22346612.883    22346612.401    22346618.829  
      1937.107        1509.435  
  -1387107.415    -1066337.198    25014056.398    25014056.113    25014063.529  
      3125.194        2435.215  
 -21916999.503   -17055905.152    20402328.851    20402328.097    20402332.939  
      -624.626        -486.722  
  -7074495.835    -5483077.817    23191599.348    23191599.192    23191605.027  
     -2149.298       -1674.781  
   4729738.3101    3710302.8051   25546133.1721   25546132.4751   25546140.2221 
     -2694.1451      -2099.3551 
 99  8  2  2 21 30.0000000  0  8  1 14 15 16 18 22 25 29            
 -17630384.456   -13725910.053    21225667.386    21225666.958    21225672.154  
      -556.681        -433.775  
 -20286469.706   -15769015.064    20949345.714    20949345.432    20949350.894  
       -70.155         -54.664  
  15954862.752    12423183.389    25414371.466    25414370.976    25414383.286  
     -2571.497       -2003.772  
 -12541902.660    -9759855.406    22335597.884    22335597.427    22335603.873  
      1921.910        1497.595  
  -1480889.144    -1139413.863    24996210.504    24996210.241    24996217.419  
      3127.196        2436.772  
 -21897948.578   -17041060.273    20405954.126    20405953.364    20405958.270  
      -645.203        -502.758  
  -7010010.229    -5432829.316    23203870.244    23203870.191    23203876.184  
     -2149.590       -1675.002  
   4810636.6711    3773340.3121   25561527.6111   25561527.0391   25561534.8731 
     -2698.9501      -2103.0761 
 99  8  2  2 22  0.0000000  0  8  1 14 15 16 18 22 25 29            
 -17613535.526   -13712781.022    21228873.638    21228873.153    21228878.315  
      -566.312        -441.280  
 -20284039.828   -15767121.654    20949807.962    20949807.762    20949813.277  
       -91.659         -71.422  
  16031921.908    12483229.419    25429035.355    25429034.949    25429047.380  
     -2565.794       -1999.310  
 -12599328.426    -9804602.733    22324670.199    22324669.651    22324676.178  
      1906.552        1485.629  
  -1574734.431    -1212540.027    24978352.568    24978352.113    24978359.274  
      3129.297        2438.405  
 -21878287.293   -17025739.782    20409695.589    20409694.782    20409699.676  
      -665.432        -518.521  
  -6945515.656    -5382573.835    23216143.014    23216143.019    23216149.126  
     -2149.904       -1675.244  
   4891689.0751    3836497.9481   25576951.6861   25576951.1711   25576958.8561 
     -2704.3631      -2107.2871 
 99  8  2  2 22 30.0000000  0  9  1  3 14 15 16 18 22 25 29         
 -17596405.790   -13699433.196    21232133.197    21232132.762    21232138.025  
      -575.709        -448.605  
    -51863.3953     -26992.5873          0.0003   24783170.6443   24783813.3773 
      2618.0913       2039.9273 
 -20280973.042   -15764731.952    20950391.541    20950391.371    20950396.897  
      -112.636         -87.770  
  16108805.520    12543138.648    25443666.159    25443665.748    25443677.994  
     -2559.622       -1994.517  
 -12656293.381    -9848990.996    22313830.295    22313829.614    22313836.164  
      1891.127        1473.603  
  -1668643.793    -1285716.106    24960481.916    24960481.748    24960488.972  
      3131.497        2440.126  
 -21858012.413   -17009941.172    20413553.710    20413552.916    20413557.850  
      -686.151        -534.666  
  -6881014.305    -5332313.084    23228417.342    23228417.271    23228423.297  
     -2150.145       -1675.436  
   4972890.962     3899772.036    25592404.110    25592403.573    25592411.118  
     -2709.319       -2111.158  
 99  8  2  2 23  0.0000000  0  9  1  3 14 15 16 18 22 25 29         
 -17578987.426   -13685860.450    21235447.800    21235447.372    21235452.648  
      -585.338        -456.107  
   -130432.2823     -90253.8733   24768216.8013   24768219.4693   24768252.8203 
      2620.2923       2041.7133 
 -20277284.839   -15761858.026    20951093.371    20951093.198    20951098.766  
      -132.942        -103.590  
  16185510.534    12602908.818    25458262.798    25458262.191    25458274.592  
     -2553.611       -1989.842  
 -12712788.563    -9893013.200    22303079.549    22303078.888    22303085.491  
      1875.323        1461.295  
  -1762621.163    -1358945.232    24942598.663    24942598.459    24942605.452  
      3133.817        2441.924  
 -21837118.560   -16993660.244    20417529.659    20417528.887    20417533.792  
      -706.460        -550.492  
  -6816502.433    -5282044.109    23240693.686    23240693.566    23240699.372  
     -2150.462       -1675.682  
   5054236.3621    3963158.0691   25607883.7311   25607883.1211   25607890.7281 
     -2713.7731      -2114.6481 
 99  8  2  2 23 30.0000000  0  9  1  3 14 15 16 18 22 25 29         
 -17561269.571   -13672054.336    21238819.522    21238819.026    21238824.220  
      -595.636        -464.131  
   -209071.7923    -151529.5213   24753252.0323   24753254.8573   24753311.7083 
      2622.5673       2043.5123 
 -20272990.707   -15758511.946    20951910.510    20951910.349    20951915.949  
      -153.126        -119.318  
  16262034.780    12662538.064    25472824.659    25472824.087    25472836.667  
     -2547.744       -1985.261  
 -12768791.013    -9936651.453    22292422.542    22292421.941    22292428.575  
      1858.314        1448.037  
  -1856662.442    -1432224.160    24924703.224    24924703.038    24924709.844  
      3135.843        2443.513  
 -21815612.001   -16976901.883    20421622.211    20421621.421    20421626.328  
      -727.089        -566.563  
  -6751976.289    -5231764.005    23252972.635    23252972.540    23252978.148  
     -2151.184       -1676.250  
   5135726.8171    4026657.0391   25623390.7831   25623390.3731   25623397.8291 
     -2718.9131      -2118.6551 
 99  8  2  2 24  0.0000000  0  9  1  3 14 15 16 18 22 25 29         
 -17543245.186   -13658009.370    21242249.392    21242248.922    21242254.143  
      -605.989        -472.200  
    -35937.5523      -4577.5813   24738272.8503   24738275.3743   24738258.7243 
      2625.1313       2045.5013 
 -20268095.877   -15754697.797    20952841.945    20952841.773    20952847.406  
      -173.251        -135.004  
  16338376.102    12722024.799    25487351.965    25487351.476    25487363.996  
     -2541.741       -1980.590  
 -12824281.962    -9979891.140    22281863.009    22281862.417    22281868.968  
      1841.059        1434.584  
  -1950770.943    -1505555.463    24906794.963    24906794.793    24906801.442  
      3137.847        2445.069  
 -21793485.858   -16959660.727    20425832.664    20425831.919    20425836.796  
      -747.937        -582.813  
  -6687426.573    -5181465.545    23265256.051    23265255.982    23265261.574  
     -2152.281       -1677.103  
   5217368.9071    4090274.1831   25638926.6661   25638926.3421   25638933.8331 
     -2724.1911      -2122.7531 
 99  8  2  2 24 30.0000000  0  9  1  3 14 15 16 18 22 25 29         
 -17524914.782   -13643725.954    21245737.509    21245737.050    21245742.358  
      -616.195        -480.149  
   -114740.7893     -61886.2073          0.0003   24723279.6063   24724280.6293 
      2628.2313       2047.9463 
 -20262604.783   -15750419.028    20953886.893    20953886.705    20953892.348  
      -193.004        -150.390  
  16414532.004    12781367.019    25501844.301    25501843.801    25501856.124  
     -2535.482       -1975.700  
 -12879260.266   -10022731.369    22271400.986    22271400.446    22271406.888  
      1824.024        1421.319  
  -2044932.359    -1578927.976    24888876.749    24888876.390    24888882.989  
      3139.385        2446.266  
 -21770739.863   -16941936.579    20430161.164    20430160.365    20430165.159  
      -768.382        -598.734  
  -6622843.862    -5131141.388    23277545.908    23277545.819    23277551.283  
     -2153.425       -1677.989  
   5299166.8361    4154015.1621   25654491.9991   25654491.8581   25654501.8041 
     -2729.5401      -2126.9031 
 99  8  2  2 25  0.0000000  0  9  1  3 14 15 16 18 22 25 29         
 -17506281.910   -13629206.840    21249283.212    21249282.752    21249288.135  
      -625.927        -487.740  
   -193636.5863    -127458.1463   24708262.1743   24708266.2243   24708348.5083 
      2631.3993       2049.9663 
 -20256519.157   -15745676.984    20955045.022    20955044.774    20955050.462  
      -212.862        -165.868  
  16490499.855    12840562.719    25516300.496    25516300.121    25516312.409  
     -2529.049       -1970.683  
 -12933733.729   -10065178.210    22261034.991    22261034.451    22261040.912  
      1807.573        1408.497  
  -2139135.118    -1652332.738    24870950.578    24870950.205    24870956.625  
      3140.667        2447.285  
 -21747393.425   -16923744.547    20434603.865    20434603.047    20434607.791  
      -788.022        -614.043  
  -6558229.994    -5080792.930    23289841.777    23289841.560    23289846.945  
     -2154.167       -1678.569  
   5381137.0991    4217888.0061   25670090.2411   25670090.1611   25670099.5921 
     -2735.1811      -2131.3391 
 99  8  2  2 25 30.0000000  0  8  1 14 15 16 18 22 25 29            
 -17487354.779   -13614458.426    21252884.830    21252884.415    21252889.802  
      -635.722        -495.365  
 -20249827.500   -15740462.711    20956318.297    20956318.102    20956323.828  
      -233.037        -181.587  
  16566277.1741   12899609.9041   25530720.1391   25530719.7081   25530732.4201 
     -2522.4831      -1965.5691 
 -12987715.251   -10107241.722    22250762.601    22250762.106    22250768.577  
      1791.462        1395.945  
  -2233363.634    -1725757.517    24853019.404    24853019.210    24853025.528  
      3141.480        2447.889  
 -21723450.402   -16905087.636    20439159.978    20439159.192    20439164.024  
      -807.910        -629.540  
  -6493588.540    -5030422.987    23302142.549    23302142.368    23302147.858  
     -2155.019       -1679.234  
   5463280.4231    4281895.8031   25685721.0981   25685721.2191   25685730.2241 
     -2740.9061      -2135.7121 
 99  8  2  2 26  0.0000000  0  9  1  3 14 15 16 18 22 25 29         
 -17468135.458   -13599482.337    21256542.130    21256541.746    21256547.009  
      -645.602        -503.068  
    -83502.5733     -34346.2623          0.0003   24678197.1913   24682961.1163 
      2635.1113       2053.5063 
 -20242531.709   -15734777.688    20957706.689    20957706.503    20957712.155  
      -253.361        -197.429  
  16641861.4191   12958506.7001   25545103.3421   25545102.6241   25545115.5871 
     -2516.3851      -1960.8411 
 -13041219.783   -10148933.559    22240581.030    22240580.559    22240586.940  
      1775.469        1383.481  
  -2327611.753    -1799197.522    24835084.654    24835084.321    24835090.799  
      3142.016        2448.308  
 -21698916.475   -16885970.289    20443828.518    20443827.733    20443832.667  
      -827.600        -644.884  
  -6428923.607    -4980034.745    23314447.780    23314447.698    23314453.121  
     -2155.874       -1679.903  
   5545595.3071    4346037.2241   25701385.0341   25701385.1801   25701393.8321 
     -2746.8511      -2140.4041 
 99  8  2  2 26 30.0000000  0  8  1  3 14 15 16 18 22 25            
 -17448625.652   -13584279.892    21260254.805    21260254.345    21260259.574  
      -655.236        -510.575  
   -162584.7043     -34346.2623          0.0003   24663148.3513   24682961.1163 
      2636.7433       2053.5063 
 -20234630.932   -15728621.248    20959210.163    20959209.970    20959215.577  
      -273.465        -213.088  
  16717250.386    13017251.308    25559449.396    25559448.814    25559461.670  
     -2509.704       -1955.590  
 -13094253.633   -10190258.632    22230489.120    22230488.639    22230494.908  
      1759.913        1371.357  
  -2421882.141    -1872654.888    24817145.325    24817144.997    24817151.749  
      3142.766        2448.902  
 -21673802.633   -16866401.061    20448607.505    20448606.746    20448611.693  
      -846.812        -659.855  
  -6364250.336    -4929640.016    23326754.803    23326754.656    23326759.904  
     -2155.855       -1679.894  
 99  8  2  2 27  0.0000000  0  8  1  3 14 15 16 18 22 25            
 -17428819.504   -13568846.531    21264023.616    21264023.194    21264028.614  
      -665.242        -518.372  
   -241703.2593     -34346.2623          0.0003   24648091.6333   24682961.1163 
      2637.6353       2053.5063 
 -20226124.641   -15721992.975    20960828.850    20960828.653    20960834.243  
      -293.687        -228.852  
  16792441.773    13075842.055    25573757.974    25573757.360    25573770.066  
     -2503.084       -1950.439  
 -13146814.111   -10231214.842    22220487.185    22220486.729    22220492.981  
      1743.973        1358.939  
  -2516186.1211   -1946138.4521   24799199.5801   24799199.3271   24799206.3321 
      3144.2761       2450.1171 
 -21648100.735   -16846373.607    20453498.475    20453497.685    20453502.619  
      -866.814        -675.442  
  -6299574.298    -4879243.118    23339062.336    23339062.135    23339067.091  
     -2155.984       -1679.998  
 99  8  2  2 27 30.0000000  0  8  1  3 14 15 16 18 22 25            
 -17408711.770   -13553178.173    21267849.835    21267849.483    21267855.040  
      -675.271        -526.183  
    -67791.9763          0.0003          0.0003   24633032.4263          0.0003 
      2638.2483          0.0003 
 -20217014.725   -15714894.344    20962562.461    20962562.263    20962567.751  
      -313.572        -244.342  
  16867432.861    13134276.615    25588028.490    25588027.724    25588040.355  
     -2496.343       -1945.227  
 -13198889.089   -10271792.745    22210577.622    22210577.154    22210583.443  
      1727.542        1346.140  
  -2610546.1381   -2019665.5871   24781242.7621   24781242.7981   24781250.2841 
      3146.6751       2451.9611 
 -21621794.088   -16825874.921    20458504.427    20458503.637    20458508.621  
      -886.921        -691.106  
  -6234890.063    -4828839.831    23351371.250    23351371.135    23351375.920  
     -2156.180       -1680.131  
 99  8  2  2 28  0.0000000  0  8  1  3 14 15 16 18 22 25            
 -17388302.961   -13537275.201    21271733.568    21271733.182    21271738.679  
      -685.375        -534.058  
   -146952.2693          0.0003          0.0003   24617968.7123          0.0003 
      2639.4743          0.0003 
 -20207305.362   -15707328.607    20964410.061    20964409.898    20964415.315  
      -333.696        -260.024  
  16942221.458    13192553.436    25602260.381    25602259.534    25602272.268  
     -2489.324       -1939.716  
 -13250464.239   -10311981.170    22200763.224    22200762.706    22200768.997  
      1710.894        1333.160  
  -2704985.100    -2093254.316    24763271.348    24763271.619    24763279.223  
      3149.373        2454.072  
 -21594881.021   -16804903.696    20463625.822    20463625.056    20463630.013  
      -907.088        -706.822  
  -6170200.461    -4778432.374    23363681.235    23363681.168    23363685.988  
     -2156.415       -1680.320  
 99  8  2  2 28 30.0000000  0  8  1  3 14 15 16 18 22 25            
 -17367576.325   -13521124.572    21275677.807    21275677.371    21275682.778  
      -696.305        -542.573  
   -226156.5243          0.0003          0.0003   24602896.3903          0.0003 
      2640.8383          0.0003 
 -20196982.250   -15699284.632    20966374.458    20966374.264    20966379.668  
      -354.268        -276.053  
  17016805.363    13250670.791    25616453.495    25616452.499    25616465.261  
     -2482.730       -1934.601  
 -13301533.043   -10351775.030    22191045.146    22191044.546    22191050.919  
      1693.817        1319.854  
  -2799507.493    -2166908.021    24745284.537    24745284.495    24745292.252  
      3152.011        2456.113  
 -21567357.785   -16783457.021    20468863.378    20468862.590    20468867.503  
      -927.579        -722.787  
  -6105492.940    -4728010.980    23375994.572    23375994.478    23375999.449  
     -2157.314       -1681.028  
 99  8  2  2 29  0.0000000  0  7  1 14 15 16 18 22 25               
 -17346518.639   -13504715.982    21279685.010    21279684.602    21279689.921  
      -707.613        -551.388  
 -20186048.151   -15690764.569    20968455.091    20968454.857    20968460.353  
      -374.765        -292.025  
  17091182.045    13308626.669    25630606.973    25630605.964    25630618.432  
     -2475.754       -1929.177  
 -13352087.578   -10391168.170    22181424.806    22181424.220    22181430.728  
      1676.438        1306.313  
  -2894112.308    -2240626.013    24727282.058    24727281.947    24727289.530  
      3154.762        2458.255  
 -21539220.367   -16761531.755    20474217.833    20474217.022    20474221.857  
      -948.216        -738.870  
  -6040755.713    -4677566.426    23388313.545    23388313.513    23388318.489  
     -2158.427       -1681.887  
 99  8  2  2 29 30.0000000  0  7  1 14 15 16 18 22 25               
 -17325127.277   -13488047.387    21283755.745    21283755.309    21283760.624  
      -718.679        -560.011  
 -20174499.070   -15681765.291    20970652.715    20970652.539    20970658.119  
      -395.197        -307.948  
  17165349.467    13366419.499    25644720.721    25644719.809    25644731.976  
     -2468.809       -1923.747  
 -13402120.134   -10430154.563    22171903.812    22171903.324    22171909.873  
      1659.006        1292.731  
  -2988795.915    -2314405.387    24709264.620    24709264.460    24709271.897  
      3157.143        2460.104  
 -21510476.973   -16739134.298    20479687.526    20479686.715    20479691.610  
      -968.041        -754.321  
  -5975990.716    -4627100.209    23400638.066    23400637.947    23400642.826  
     -2159.183       -1682.479  
 99  8  2  2 30  0.0000000  0  8  1  3 14 15 16 18 22 25            
 -17303402.089   -13471118.669    21287889.935    21287889.507    21287894.762  
      -729.724        -568.617  
    -64028.5003          0.0003          0.0003   24557611.1583          0.0003 
      2647.1963          0.0003 
 -20162340.470   -15672291.064    20972966.392    20972966.207    20972971.842  
      -415.323        -323.627  
  17239305.045    13424047.259    25658793.880    25658793.083    25658805.355  
     -2461.543       -1918.073  
 -13451633.091   -10468736.086    22162481.830    22162481.321    22162487.828  
      1641.895        1279.403  
  -3083534.835    -2388227.862    24691236.667    24691236.396    24691243.714  
      3158.658        2461.297  
 -21481142.576   -16716276.325    20485269.708    20485268.868    20485273.768  
      -987.455        -769.448  
  -5911206.418    -4576618.965    23412966.019    23412965.995    23412970.909  
     -2159.957       -1683.076  
 99  8  2  2 30 30.0000000  0  8  1  3 14 15 16 18 22 25            
 -17281349.772   -13453935.038    21292086.492    21292085.976    21292091.087  
      -740.320        -576.871  
   -143468.3403      -5664.9733          0.0003   24542494.2493   24566407.1503 
      2648.6013       2062.4963 
 -20149585.484   -15662352.118    20975393.629    20975393.425    20975399.097  
      -434.957        -338.929  
  17313046.7191   13481508.3331   25672826.0851   25672825.4301   25672837.8971 
     -2454.5651      -1912.6351 
 -13500627.619   -10506913.639    22153158.424    22153157.934    22153164.400  
      1624.353        1265.728  
  -3178309.861    -2462078.493    24673201.763    24673201.453    24673208.618  
      3159.559        2461.993  
 -21451230.053   -16692967.862    20490961.867    20490961.093    20490965.930  
     -1006.742        -784.475  
  -5846393.664    -4526115.564    23425299.597    23425299.563    23425304.424  
     -2160.828       -1683.764  
 99  8  2  2 31  0.0000000  0  9  1  3 14 15 16 18 19 22 25         
 -17258997.179   -13436517.425    21296339.986    21296339.474    21296344.631  
      -749.843        -584.294  
   -222946.7763    -165588.5673   24527376.7483   24527369.9933   24527354.6353 
      2649.8883       2064.9193 
 -20136253.676   -15651963.699    20977930.600    20977930.460    20977936.069  
      -453.965        -353.742  
  17386572.5761   13538801.3671   25686817.1621   25686816.6121   25686829.5811 
     -2446.8831      -1906.6841 
 -13549096.554   -10544681.628    22143934.972    22143934.517    22143941.045  
      1606.861        1252.100  
  -3273115.337    -2535952.862    24655161.027    24655160.637    24655167.710  
      3160.661        2462.855  
   -221952.9443    -157328.1553   25461718.7753   25461718.6093   25461705.8003 
      2337.1963       1821.0813 
 -21420745.177   -16669213.409    20496762.985    20496762.213    20496766.971  
     -1025.580        -799.156  
  -5781569.756    -4475603.468    23437635.318    23437635.218    23437640.025  
     -2160.766       -1683.709  
 99  8  2  2 31 30.0000000  0  9  1  3 14 15 16 18 19 22 25         
 -17236365.981   -13418882.723    21300646.472    21300646.029    21300651.296  
      -758.970        -591.408  
   -302456.9771    -227545.0051   24512247.1701   24512246.4361   24512254.0071 
      2650.7651       2065.5221 
 -20122348.816   -15641128.752    20980576.663    20980576.472    20980582.030  
      -472.959        -368.540  
  17459879.4471   13595923.7091   25700766.7631   25700766.3491   25700779.2921 
     -2439.6571      -1901.0121 
 -13597040.637   -10582040.636    22134811.523    22134811.042    22134817.551  
      1589.454        1238.535  
  -3367943.466    -2609844.848    24637115.771    24637115.297    24637122.564  
      3161.351        2463.395  
   -292037.3181    -211938.9071   25448381.8421   25448381.0291   25448389.9851 
      2335.2751       1819.6581 
 -21389698.999   -16645021.573    20502670.877    20502670.075    20502674.835  
     -1044.206        -813.669  
  -5716746.559    -4425091.912    23449970.801    23449970.725    23449975.504  
     -2160.733       -1683.692  
 99  8  2  2 32  0.0000000  0  9  1  3 14 15 16 18 19 22 25         
 -17213451.108   -13401026.974    21305007.120    21305006.679    21305011.970  
      -768.624        -598.927  
   -381984.1181    -289514.0801   24497113.977    24497112.9201   24497120.3471 
      2651.1691       2065.8281 
 -20107870.489   -15629846.957    20983331.751    20983331.565    20983337.099  
      -492.254        -383.572  
  17532965.0611   13652873.5881   25714674.2881   25714674.0991   25714686.7301 
     -2432.2011      -1895.2281 
 -13644463.467   -10618993.477    22125787.452    22125786.868    22125793.258  
      1572.201        1225.090  
  -3462790.860    -2683751.896    24619066.781    24619066.390    24619073.673  
      3162.030        2463.918  
   -362065.0771    -266505.7921   25435055.635    25435055.2261   25435064.0121 
      2333.2721       1818.1231 
 -21358087.983   -16620389.604    20508686.200    20508685.399    20508690.191  
     -1063.080        -828.373  
  -5651911.744    -4374571.309    23462308.643    23462308.471    23462313.294  
     -2161.448       -1684.239  
 99  8  2  2 32 30.0000000  0  9  1  3 14 15 16 18 19 22 25         
 -17190243.985   -13382943.494    21309423.408    21309422.939    21309428.200  
      -778.686        -606.769  
   -461517.030     -351487.660    24481978.854    24481978.270    24481985.583  
      2651.033        2065.740  
 -20092803.250   -15618106.262    20986198.957    20986198.783    20986204.270  
      -512.316        -399.203  
  17605827.351    13709649.495    25728539.244    25728539.362    25728551.716  
     -2425.060       -1889.663  
 -13691369.888   -10655543.907    22116861.530    22116860.897    22116867.265  
      1554.829        1211.557  
  -3557664.787    -2757679.563    24601012.697    24601012.340    24601019.715  
      3162.802        2464.522  
   -432030.608     -321024.208    25421741.671    25421740.906    25421749.809  
      2331.019        1816.380  
 -21325903.634   -16595310.884    20514810.626    20514809.865    20514814.668  
     -1082.627        -843.604  
  -5587058.653    -4324036.466    23474649.888    23474649.580    23474654.569  
     -2161.955       -1684.643  
 99  8  2  2 33  0.0000000  0  9  1  3 14 15 16 18 19 22 25         
 -17166728.855   -13364620.015    21313898.083    21313897.643    21313902.987  
      -789.217        -614.976  
   -541053.139     -413463.725    24466843.526    24466843.031    24466850.367  
      2651.483        2066.080  
 -20077130.752   -15605893.931    20989181.357    20989181.143    20989186.612  
      -532.728        -415.115  
  17678463.8041   13766249.3701   25742361.6611   25742361.4801   25742374.0831 
     -2417.4231      -1883.7091 
 -13737760.013   -10691692.026    22108033.630    22108033.107    22108039.482  
      1537.790        1198.273  
  -3652568.030    -2831630.100    24582953.163    24582952.745    24582960.121  
      3163.956        2465.420  
   -501931.860     -375492.510    25408439.639    25408438.986    25408447.869  
      2329.046        1814.810  
 -21293132.330   -16569774.791    20521046.788    20521046.021    20521050.856  
     -1102.213        -858.869  
  -5522198.890    -4273496.419    23486992.081    23486991.881    23486997.056  
     -2162.249       -1684.872  
 99  8  2  2 33 30.0000000  0  9  1  3 14 15 16 18 19 22 25         
 -17142881.920   -13346037.984    21318435.917    21318435.521    21318440.855  
      -800.591        -623.840  
   -620600.944     -475448.932    24451705.754    24451705.502    24451712.970  
      2651.667        2066.224  
 -20060831.144   -15593192.945    20992282.991    20992282.810    20992288.311  
      -554.003        -431.689  
  17750872.3241   13822671.6051   25756140.6251   25756140.3691   25756153.1161 
     -2409.6481      -1877.6411 
 -13783638.648   -10727441.580    22099303.382    22099302.731    22099309.036  
      1520.591        1184.873  
  -3747502.007    -2905604.590    24564887.836    24564887.417    24564894.783  
      3164.961        2466.193  
   -571768.994     -429910.857    25395149.668    25395149.151    25395158.185  
      2326.611        1812.932  
 -21259763.165   -16543772.833    20527396.665    20527395.901    20527400.806  
     -1122.468        -874.649  
  -5457314.593    -4222937.264    23499338.976    23499338.884    23499344.254  
     -2163.377       -1685.745  
