     2.10           Observation         GPS                 RINEX VERSION / TYPE
RinexObsWriter      NIMA                11-14-01 10:04:27   PGM / RUN BY / DATE
The AS bit flag is set if receiver is in Z mode             COMMENT
Signal to Noise ratio information is omitted                COMMENT
This file contains SMOOTHED obs data                        COMMENT
85408                                                       MARKER NAME
Monitor Station     NIMA                                    OBSERVER / AGENCY
1                   ZY12                                    REC # / TYPE / VERS
85408               AshTech Geodetic 3                      ANT # / TYPE
  -740289.7851 -5457071.6555  3207245.8294                  APPROX POSITION XYZ
        0.0000        0.0000        0.0000                  ANTENNA: DELTA H/E/N
     1     1     0                                          WAVELENGTH FACT L1/2
     7    L1    L2    C1    P1    P2    D1    D2            # / TYPES OF OBSERV
  1999     8     1     0     0    0.0000000                 TIME OF FIRST OBS
                                                            END OF HEADER
 99  8  1  0  0  0.0000000  0  8  1 14 15 21 22 25 29 30            
 -16516576.875   -12842477.301    21896021.799    21896021.446    21896028.658  
      1027.453         800.614  
  -4300194.093    -3339686.971    24551542.253    24551542.049    24551551.986  
      3326.744        2592.276  
  -9777941.570    -7606004.783    22051797.447    22051796.722    22051804.797  
      -110.769         -86.314  
   3503363.197     2737309.555    21926342.540    21926341.980    21926349.470  
     -2374.518       -1850.271  
  -3291147.016    -2541701.332    23670927.088    23670926.293    23670938.207  
      3521.714        2744.191  
 -20211042.451   -15724462.482    20701150.044    20701149.968    20701155.199  
      -165.323        -128.821  
  -9667922.075    -7519027.045    22298340.787    22298340.684    22298346.923  
     -1368.374       -1066.261  
  -9125307.874    -7094953.351    23702658.375    23702658.630    23702665.768  
     -1035.023        -806.504  
 99  8  1  0  0 30.0000000  0  8  1 14 15 21 22 25 29 30            
 -16547351.151   -12866457.201    21890165.504    21890165.158    21890172.382  
      1024.056         797.969  
  -4399989.324    -3417449.356    24532551.916    24532551.592    24532561.446  
      3326.167        2591.809  
  -9774318.080    -7603181.297    22052487.020    22052486.290    22052494.278  
      -130.864        -101.973  
   3574818.349     2792988.818    21939940.037    21939939.427    21939947.018  
     -2389.066       -1861.607  
  -3396785.000    -2624016.320    23650824.452    23650823.746    23650835.766  
      3520.840        2743.493  
 -20205858.919   -15720423.348    20702136.465    20702136.372    20702141.671  
      -180.190        -140.411  
  -9626841.621    -7487016.325    22306158.330    22306158.204    22306164.405  
     -1370.483       -1067.908  
  -9093982.135    -7070543.693    23708619.688    23708619.883    23708626.740  
     -1053.452        -820.865  
 99  8  1  0  1  0.0000000  0  8  1 14 15 21 22 25 29 30            
 -16578016.236   -12890352.022    21884330.088    21884329.731    21884336.881  
      1020.059         794.849  
  -4499772.539    -3495202.369    24513563.541    24513563.311    24513573.160  
      3325.723        2591.463  
  -9770092.908    -7599888.959    22053291.058    22053290.313    22053298.316  
      -151.047        -117.698  
   3646696.175     2848997.438    21953617.868    21953617.273    21953624.970  
     -2402.952       -1872.429  
  -3502397.524    -2706311.484    23630726.797    23630726.030    23630738.162  
      3519.754        2742.649  
 -20200233.414   -15716039.818    20703206.931    20703206.853    20703212.210  
      -194.966        -151.923  
  -9585690.410    -7454950.474    22313989.267    22313989.106    22313995.284  
     -1373.327       -1070.125  
  -9062095.945    -7045697.318    23714687.543    23714687.696    23714694.479  
     -1072.497        -835.717  
 99  8  1  0  1 30.0000000  0  8  1 14 15 21 22 25 29 30            
 -16608562.124   -12914153.963    21878517.306    21878516.940    21878524.049  
      1016.189         791.828  
  -4599539.360    -3572942.595    24494578.650    24494578.162    24494588.097  
      3325.268        2591.120  
  -9765266.873    -7596128.418    22054209.464    22054208.683    22054216.674  
      -170.938        -133.200  
   3718977.231     2905320.268    21967372.497    21967371.908    21967379.582  
     -2415.996       -1882.595  
  -3607982.085    -2788584.879    23610634.397    23610633.649    23610645.851  
      3518.850        2741.953  
 -20194172.649   -15711317.130    20704360.257    20704360.147    20704365.536  
      -209.111        -162.944  
  -9544444.280    -7422810.651    22321838.148    22321837.978    22321844.180  
     -1376.552       -1072.639  
  -9029635.981    -7020403.825    23720864.357    23720864.469    23720871.383  
     -1091.554        -850.557  
 99  8  1  0  2  0.0000000  0  8  1 14 15 21 22 25 29 30            
 -16638995.264   -12937868.054    21872726.061    21872725.708    21872732.689  
      1012.694         789.110  
  -4699297.646    -3650676.160    24475595.249    24475594.589    24475604.650  
      3325.459        2591.264  
  -9759840.776    -7591900.300    22055242.021    22055241.183    22055249.204  
      -190.830        -148.698  
   3791652.896     2961950.581    21981202.180    21981201.665    21981209.282  
     -2429.074       -1892.775  
  -3713525.678    -2870826.356    23590549.719    23590549.091    23590561.233  
      3517.324        2740.765  
 -20187694.429   -15706269.149    20705592.951    20705592.853    20705598.276  
      -222.682        -173.521  
  -9503100.412    -7390594.672    22329705.589    22329705.332    22329711.716  
     -1379.749       -1075.125  
  -8996609.893    -6994669.197    23727148.764    23727148.927    23727155.948  
     -1110.157        -865.057  
 99  8  1  0  2 30.0000000  0  8  1 14 15 21 22 25 29 30            
 -16669315.741   -12961494.361    21866956.294    21866955.888    21866962.758  
      1008.845         786.107  
  -4799062.982    -3728415.265    24456610.167    24456609.770    24456619.829  
      3325.605        2591.386  
  -9753815.228    -7587205.082    22056388.359    22056387.654    22056395.888  
      -210.879        -164.313  
   3864718.230     3018884.537    21995106.070    21995105.559    21995113.173  
     -2441.898       -1902.775  
  -3819013.598    -2953024.459    23570475.899    23570475.251    23570487.164  
      3515.420        2739.284  
 -20180804.867   -15700900.642    20706903.919    20706903.840    20706909.252  
      -236.719        -184.457  
  -9461654.313    -7358299.052    22337592.325    22337592.168    22337598.748  
     -1383.319       -1077.910  
  -8963028.082    -6968501.553    23733538.904    23733539.159    23733546.302  
     -1128.571        -879.407  
 99  8  1  0  3  0.0000000  0  8  1 14 15 21 22 25 29 30            
 -16699531.909   -12985039.382    21861206.204    21861205.859    21861212.726  
      1005.636         783.613  
  -4898841.946    -3806164.941    24437622.397    24437622.352    24437632.444  
      3326.155        2591.799  
  -9747191.063    -7582043.407    22057648.734    22057648.103    22057656.490  
      -230.794        -179.831  
   3938171.472     3076120.754    22009083.749    22009083.318    22009090.923  
     -2455.219       -1913.161  
  -3924456.022    -3035187.098    23550410.734    23550410.030    23550421.790  
      3514.105        2738.257  
 -20173495.840   -15695205.282    20708294.804    20708294.699    20708300.042  
      -250.565        -195.244  
  -9420103.760    -7325922.016    22345499.076    22345498.942    22345505.557  
     -1386.741       -1080.573  
  -8928904.445    -6941911.720    23740032.467    23740032.638    23740039.804  
     -1146.355        -893.265  
 99  8  1  0  3 30.0000000  0  8  1 14 15 21 22 25 29 30            
 -16729658.046   -13008514.260    21855473.391    21855473.025    21855479.879  
      1002.972         781.537  
  -4998633.442    -3883924.403    24418632.446    24418632.489    24418642.696  
      3326.783        2592.297  
  -9739969.073    -7576415.879    22059022.981    22059022.371    22059030.884  
      -250.484        -195.183  
   4012032.266     3133674.543    22023139.121    22023138.634    22023146.257  
     -2468.677       -1923.643  
  -4029864.206    -3117323.087    23530352.206    23530351.310    23530362.972  
      3513.270        2737.619  
 -20165773.673   -15689187.993    20709764.241    20709764.161    20709769.448  
      -264.056        -205.755  
  -9378455.532    -7293468.885    22353424.492    22353424.344    22353430.906  
     -1389.547       -1082.759  
  -8894256.910    -6914913.626    23746625.700    23746625.768    23746633.041  
     -1163.258        -906.433  
 99  8  1  0  4  0.0000000  0  8  1 14 15 21 22 25 29 30            
 -16759699.240   -13031922.947    21849756.812    21849756.384    21849763.152  
       999.824         779.072  
  -5098428.452    -3961686.596    24399641.996    24399641.957    24399652.210  
      3326.102        2591.759  
  -9732150.246    -7570323.291    22060510.898    22060510.305    22060518.830  
      -270.636        -210.890  
   4086313.306     3191555.802    22037274.369    22037273.854    22037281.599  
     -2483.267       -1935.010  
  -4135239.244    -3199433.252    23510299.792    23510298.923    23510310.370  
      3512.005        2736.608  
 -20157634.282   -15682845.590    20711313.136    20711313.008    20711318.272  
      -278.491        -217.012  
  -9336720.533    -7260948.135    22361366.437    22361366.309    22361372.693  
     -1392.757       -1085.276  
  -8859094.794    -6887514.568    23753316.662    23753316.830    23753324.197  
     -1180.748        -920.066  
 99  8  1  0  4 30.0000000  0  8  1 14 15 21 22 25 29 30            
 -16789647.757   -13055259.423    21844057.756    21844057.315    21844064.139  
       996.796         776.721  
  -5198197.434    -4039428.503    24380656.747    24380656.393    24380666.706  
      3324.877        2590.827  
  -9723735.515    -7563766.353    22062112.281    22062111.672    22062120.109  
      -290.399        -226.285  
   4161024.711     3249772.402    22051491.423    22051490.944    22051498.800  
     -2497.507       -1946.106  
  -4240588.429    -3281523.272    23490252.339    23490251.451    23490262.764  
      3511.180        2735.981  
 -20149063.760   -15676167.244    20712944.009    20712943.924    20712949.154  
      -292.838        -228.186  
  -9294889.439    -7228352.507    22369326.865    22369326.660    22369332.873  
     -1396.005       -1087.800  
  -8823421.131    -6859716.909    23760105.224    23760105.495    23760112.705  
     -1197.602        -933.191  
 99  8  1  0  5  0.0000000  0  8  1 14 15 21 22 25 29 30            
 -16819507.850   -13078526.998    21838375.532    21838375.086    21838381.978  
       993.603         774.240  
  -5297915.635    -4117130.866    24361681.135    24361680.534    24361690.802  
      3322.995        2589.359  
  -9714725.885    -7556745.851    22063826.732    22063826.195    22063834.593  
      -310.213        -241.722  
   4236170.250     3308327.296    22065791.219    22065790.749    22065798.665  
     -2512.108       -1957.478  
  -4345896.159    -3363580.993    23470212.942    23470211.894    23470223.144  
      3509.233        2734.462  
 -20140069.897   -15669159.015    20714655.521    20714655.433    20714660.637  
      -306.641        -238.943  
  -9252958.357    -7195678.967    22377306.168    22377305.988    22377312.153  
     -1399.266       -1090.335  
  -8787239.926    -6831523.754    23766990.459    23766990.576    23766997.619  
     -1214.621        -946.462  
 99  8  1  0  5 30.0000000  0  8  1 14 15 21 22 25 29 30            
 -16849260.376   -13101710.766    21832713.876    21832713.386    21832720.285  
       989.739         771.221  
  -5397565.850    -4194780.267    24342718.141    24342717.627    24342727.717  
      3320.526        2587.427  
  -9705122.197    -7549262.457    22065654.361    22065653.818    22065662.112  
      -329.947        -257.099  
   4311747.999     3367218.988    22080173.241    22080172.776    22080180.702  
     -2526.316       -1968.549  
  -4451137.466    -3445586.948    23450186.121    23450184.936    23450196.150  
      3506.808        2732.566  
 -20130665.533   -15661830.917    20716445.145    20716445.012    20716450.217  
      -320.192        -249.500  
  -9210936.749    -7162934.884    22385302.609    22385302.503    22385308.671  
     -1402.075       -1092.519  
  -8750540.792    -6802927.017    23773973.962    23773974.118    23773981.138  
     -1231.862        -959.898  
 99  8  1  0  6  0.0000000  0  8  1 14 15 21 22 25 29 30            
 -16878891.055   -13124799.580    21827075.298    21827074.848    21827081.768  
       985.667         768.053  
  -5497139.012    -4272369.590    24323769.785    24323769.418    24323779.414  
      3317.877        2585.361  
  -9694925.359    -7541316.869    22067594.699    22067594.160    22067602.411  
      -349.782        -272.565  
   4387752.387     3426443.111    22094636.505    22094636.061    22094643.935  
     -2540.580       -1979.674  
  -4556290.459    -3527524.091    23430175.961    23430174.936    23430185.998  
      3503.558        2730.032  
 -20120855.219   -15654186.491    20718311.973    20718311.837    20718317.031  
      -333.705        -260.030  
  -9168828.388    -7130123.199    22393315.633    22393315.495    22393321.766  
     -1405.061       -1094.852  
  -8713322.066    -6773925.410    23781056.335    23781056.409    23781063.500  
     -1249.185        -973.394  
 99  8  1  0  6 30.0000000  0  8  1 14 15 21 22 25 29 30            
 -16908392.680   -13147787.832    21821461.339    21821460.844    21821467.723  
       981.112         764.495  
  -5596648.639    -4349909.437    24304833.619    24304833.319    24304843.177  
      3316.092        2583.947  
  -9684136.474    -7532909.940    22069647.768    22069647.183    22069655.375  
      -369.591        -288.002  
   4464173.165     3485991.703    22109179.076    22109178.575    22109186.376  
     -2554.251       -1990.329  
  -4661351.180    -3609389.329    23410183.373    23410182.471    23410193.367  
      3500.311        2727.506  
 -20110643.979   -15646229.655    20720255.128    20720254.979    20720260.101  
      -347.100        -270.472  
  -9126635.664    -7097245.772    22401344.725    22401344.583    22401350.850  
     -1407.842       -1097.020  
  -8675588.549    -6744522.668    23788236.678    23788236.820    23788243.920  
     -1266.506        -986.897  
 99  8  1  0  7  0.0000000  0  8  1 14 15 21 22 25 29 30            
 -16937766.326   -13170676.356    21815871.609    21815871.202    21815878.078  
       976.834         761.166  
  -5696118.742    -4427418.493    24285905.029    24285904.725    24285914.341  
      3315.216        2583.285  
  -9672756.638    -7524042.536    22071813.353    22071812.735    22071820.883  
      -389.171        -303.249  
   4540998.986     3545855.896    22123798.655    22123798.072    22123805.986  
     -2567.538       -2000.683  
  -4766309.550    -3691174.812    23390210.360    23390209.394    23390220.232  
      3497.019        2724.947  
 -20100035.732   -15637963.468    20722273.826    20722273.667    20722278.749  
      -360.360        -280.799  
  -9084372.893    -7064313.772    22409387.088    22409386.960    22409393.259  
     -1409.763       -1098.518  
  -8637337.493    -6714716.642    23795515.379    23795515.668    23795522.842  
     -1283.657       -1000.258  
 99  8  1  0  7 30.0000000  0  8  1 14 15 21 22 25 29 30            
 -16967005.199   -13193459.856    21810307.722    21810307.245    21810314.126  
       972.647         757.905  
  -5795564.079    -4504908.239    24266981.216    24266980.919    24266990.278  
      3314.592        2582.786  
  -9660786.920    -7514715.476    22074091.069    22074090.473    22074098.648  
      -408.913        -318.632  
   4618218.627     3606026.963    22138493.041    22138492.549    22138500.461  
     -2580.543       -2010.815  
  -4871175.982    -3772888.666    23370254.860    23370253.811    23370264.630  
      3493.965        2722.563  
 -20089020.501   -15629380.152    20724369.948    20724369.792    20724374.866  
      -374.002        -291.431  
  -9042040.819    -7031327.761    22417442.589    22417442.457    22417448.800  
     -1412.436       -1100.596  
  -8598575.794    -6684512.719    23802891.514    23802891.799    23802898.964  
     -1300.415       -1013.308  
 99  8  1  0  8  0.0000000  0  8  1 14 15 21 22 25 29 30            
 -16996137.974   -13216160.681    21804763.969    21804763.465    21804770.346  
       969.536         755.479  
  -5895001.681    -4582391.967    24248058.948    24248058.631    24248067.689  
      3314.481        2582.716  
  -9648228.479    -7504929.675    22076480.843    22076480.223    22076488.429  
      -428.439        -333.850  
   4695826.890     3666500.864    22153261.468    22153260.968    22153268.894  
     -2593.380       -2020.805  
  -4975953.303    -3854533.084    23350315.988    23350315.084    23350326.058  
      3491.250        2720.449  
 -20077593.305   -15620475.826    20726544.398    20726544.291    20726549.372  
      -387.937        -302.288  
  -8999630.521    -6998280.804    22425512.916    22425512.867    22425519.178  
     -1414.991       -1102.592  
  -8559321.017    -6653924.585    23810361.619    23810361.792    23810368.918  
     -1316.792       -1026.079  
 99  8  1  0  8 30.0000000  0  8  1 14 15 21 22 25 29 30            
 -17025175.755   -13238787.472    21799238.226    21799237.749    21799244.570  
       966.516         753.125  
  -5994433.042    -4659870.852    24229137.915    24229137.483    24229146.144  
      3314.064        2582.380  
  -9635082.542    -7494686.087    22078982.306    22078981.737    22078990.059  
      -447.946        -349.050  
   4773821.329     3727275.695    22168103.356    22168102.885    22168110.820  
     -2606.330       -2030.906  
  -5080652.054    -3936116.286    23330392.211    23330391.347    23330402.347  
      3488.642        2718.420  
 -20065742.118   -15611241.110    20728799.613    20728799.480    20728804.558  
      -402.105        -313.335  
  -8957142.504    -6965173.267    22433598.246    22433598.141    22433604.288  
     -1417.569       -1104.599  
  -8519567.676    -6622947.960    23817926.591    23817926.757    23817933.747  
     -1333.455       -1039.048  
 99  8  1  0  9  0.0000000  0  8  1 14 15 21 22 25 29 30            
 -17054136.006   -13261353.849    21793727.273    21793726.755    21793733.515  
       964.013         751.178  
  -6093834.800    -4737326.630    24210222.233    24210221.919    24210230.449  
      3312.722        2581.336  
  -9621349.964    -7483985.366    22081595.493    22081594.925    22081603.284  
      -467.567        -364.337  
   4852212.043     3788359.292    22183020.640    22183020.130    22183028.152  
     -2619.756       -2041.365  
  -5185266.222    -4017633.580    23310484.538    23310483.630    23310494.718  
      3485.771        2716.174  
 -20053469.367   -15601677.909    20731135.000    20731134.865    20731139.975  
      -416.108        -324.241  
  -8914575.359    -6932004.072    22441698.575    22441698.490    22441704.472  
     -1420.425       -1106.825  
  -8479310.649    -6591578.848    23825587.377    23825587.504    23825594.346  
     -1350.347       -1052.222  
 99  8  1  0  9 30.0000000  0  8  1 14 15 21 22 25 29 30            
 -17083026.541   -13283865.898    21788229.562    21788229.037    21788235.740  
       961.981         749.596  
  -6193193.123    -4814748.592    24191315.021    24191314.617    24191322.954  
      3311.249        2580.199  
  -9607031.903    -7472828.430    22084320.217    22084319.590    22084327.917  
      -486.988        -379.471  
   4931009.039     3849759.483    22198015.322    22198014.785    22198022.911  
     -2633.423       -2052.019  
  -5289803.481    -4099090.945    23290591.430    23290590.559    23290601.717  
      3483.281        2714.241  
 -20040781.173   -15591790.981    20733549.462    20733549.309    20733554.463  
      -429.635        -334.784  
  -8871916.250    -6898763.217    22449816.381    22449816.264    22449822.244  
     -1423.418       -1109.153  
  -8438545.459    -6559813.762    23833344.691    23833344.864    23833351.594  
     -1367.448       -1065.550  
 99  8  1  0 10  0.0000000  0  8  1 14 15 21 22 25 29 30            
 -17111847.474   -13306323.707    21782745.109    21782744.589    21782751.256  
       959.292         747.501  
  -6292498.054    -4892128.915    24172417.830    24172417.399    24172425.758  
      3308.997        2578.431  
  -9592129.773    -7461216.384    22087156.098    22087155.392    22087163.693  
      -506.448        -394.638  
   5010225.017     3911486.138    22213089.624    22213089.155    22213097.449  
     -2647.489       -2062.974  
  -5394260.563    -4180485.828    23270713.589    23270712.752    23270723.983  
      3480.589        2712.134  
 -20027685.854   -15581586.820    20736041.330    20736041.216    20736046.429  
      -443.255        -345.394  
  -8829166.072    -6865451.400    22457951.466    22457951.356    22457957.240  
     -1426.594       -1111.629  
  -8397257.055    -6527640.978    23841201.567    23841201.710    23841208.402  
     -1385.284       -1079.451  
 99  8  1  0 10 30.0000000  0  8  1 14 15 21 22 25 29 30            
 -17140580.727   -13328713.194    21777277.318    21777276.804    21777283.466  
       956.214         745.092  
  -6391730.873    -4969453.059    24153534.115    24153533.880    24153542.255  
      3306.424        2576.431  
  -9576644.713    -7449150.107    22090102.814    22090102.104    22090110.342  
      -525.999        -409.869  
   5089859.468     3973538.882    22228243.714    22228243.212    22228251.638  
     -2661.489       -2073.889  
  -5498642.238    -4261821.958    23250850.093    23250849.318    23250860.614  
      3478.043        2710.145  
 -20014190.431   -15571070.891    20738609.409    20738609.290    20738614.472  
      -456.470        -355.694  
  -8786315.820    -6832061.601    22466105.578    22466105.447    22466111.278  
     -1430.226       -1114.466  
  -8355427.573    -6495046.574    23849161.513    23849161.647    23849168.215  
     -1403.302       -1093.480  
 99  8  1  0 11  0.0000000  0  8  1 14 15 21 22 25 29 30            
 -17169228.065   -13351035.740    21771825.792    21771825.320    21771831.985  
       953.270         742.805  
  -6490893.308    -5046722.316    24134664.072    24134663.750    24134672.272  
      3304.324        2574.793  
  -9560577.782    -7436630.414    22093159.996    22093159.462    22093167.688  
      -545.357        -424.952  
   5169908.651     4035914.790    22243476.709    22243476.181    22243484.698  
     -2675.164       -2084.547  
  -5602941.968    -4343094.230    23231002.336    23231001.458    23231012.708  
      3475.279        2708.004  
 -20000307.801   -15560253.243    20741251.130    20741251.029    20741256.266  
      -469.228        -365.632  
  -8743354.281    -6798585.095    22474280.775    22474280.685    22474286.598  
     -1434.057       -1117.448  
  -8313064.029    -6462036.012    23857222.921    23857223.057    23857229.725  
     -1421.133       -1107.372  
 99  8  1  0 11 30.0000000  0  8  1 14 15 21 22 25 29 30            
 -17197778.277   -13373282.595    21766392.691    21766392.321    21766398.942  
       949.961         740.226  
  -6589993.656    -5123943.223    24115805.851    24115805.486    24115813.970  
      3302.176        2573.126  
  -9543930.663    -7423658.626    22096327.820    22096327.365    22096335.488  
      -564.582        -439.935  
   5250353.977     4098599.397    22258785.047    22258784.517    22258792.998  
     -2687.971       -2094.520  
  -5707157.122    -4424300.596    23211170.630    23211169.754    23211180.915  
      3472.112        2705.527  
 -19986042.441   -15549137.364    20743965.658    20743965.570    20743970.898  
      -481.774        -375.408  
  -8700280.242    -6765020.913    22482477.491    22482477.449    22482483.316  
     -1437.517       -1120.154  
  -8270169.230    -6428611.489    23865385.464    23865385.634    23865392.479  
     -1438.665       -1121.022  
 99  8  1  0 12  0.0000000  0  8  1 14 15 21 22 25 29 30            
 -17226222.944   -13395447.213    21760979.720    21760979.389    21760986.029  
       946.259         737.340  
  -6689022.384    -5201108.309    24096961.340    24096960.860    24096969.403  
      3299.521        2571.046  
  -9526704.082    -7410235.314    22099606.092    22099605.575    22099613.613  
      -584.016        -455.079  
   5331184.820     4161584.399    22274166.684    22274166.226    22274174.558  
     -2700.975       -2104.654  
  -5811261.993    -4505421.044    23191359.974    23191359.084    23191370.051  
      3468.030        2702.359  
 -19971398.056   -15537726.145    20746752.296    20746752.245    20746757.648  
      -494.713        -385.492  
  -8657106.567    -6731379.096    22490693.059    22490693.056    22490698.966  
     -1440.934       -1122.810  
  -8226746.953    -6394775.948    23873648.537    23873648.759    23873655.503  
     -1456.206       -1134.705  
 99  8  1  0 12 30.0000000  0  8  1 14 15 21 22 25 29 30            
 -17254566.736   -13417533.220    21755586.054    21755585.705    21755592.335  
       943.230         734.981  
  -6787976.249    -5278215.084    24078130.856    24078130.532    24078139.034  
      3297.276        2569.295  
  -9508899.984    -7396361.992    22102994.309    22102993.737    22103001.599  
      -603.097        -469.949  
   5412393.987     4224864.203    22289620.384    22289619.860    22289628.038  
     -2713.210       -2114.194  
  -5915246.766    -4586447.911    23171572.276    23171571.328    23171581.989  
      3464.060        2699.260  
 -19956367.933   -15526014.341    20749612.456    20749612.344    20749617.778  
      -507.506        -395.461  
  -8613842.985    -6697667.228    22498925.886    22498925.890    22498931.735  
     -1443.381       -1124.713  
  -8182811.953    -6360540.881    23882009.151    23882009.392    23882016.100  
     -1472.783       -1147.626  
 99  8  1  0 13  0.0000000  0  8  1 14 15 21 22 25 29 30            
 -17282812.623   -13439542.939    21750211.044    21750210.696    21750217.220  
       939.722         732.244  
  -6886856.257    -5355264.296    24059314.475    24059314.186    24059322.689  
      3294.599        2567.217  
  -9490519.429    -7382039.480    22106492.145    22106491.540    22106499.291  
      -622.303        -484.916  
   5493975.267     4288433.953    22305144.799    22305144.271    22305152.485  
     -2725.548       -2123.806  
  -6019096.111    -4667369.244    23151810.302    23151809.379    23151819.818  
      3459.344        2695.587  
 -19940945.668   -15513996.978    20752547.149    20752547.064    20752552.535  
      -520.650        -405.704  
  -8570511.853    -6663902.719    22507171.604    22507171.521    22507177.457  
     -1445.322       -1126.234  
  -8138375.183    -6325914.827    23890465.213    23890465.385    23890472.357  
     -1489.875       -1160.935  
 99  8  1  0 13 30.0000000  0  8  1 14 15 21 22 25 29 30            
 -17310950.946   -13461468.854    21744856.511    21744856.121    21744862.606  
       935.986         729.337  
  -6985651.519    -5432247.480    24040514.293    24040513.967    24040522.443  
      3291.482        2564.786  
  -9471563.643    -7367268.749    22110099.308    22110098.744    22110106.508  
      -641.629        -499.973  
   5575924.329     4352290.286    22320739.181    22320738.699    22320746.913  
     -2738.074       -2133.564  
  -6122805.819    -4748181.777    23132074.801    23132073.971    23132084.223  
      3454.517        2691.825  
 -19925122.190   -15501666.978    20755558.324    20755558.200    20755563.603  
      -534.374        -416.396  
  -8527130.147    -6630098.818    22515426.654    22515426.639    22515432.829  
     -1447.120       -1127.620  
  -8093425.979    -6290889.467    23899018.603    23899018.868    23899026.122  
     -1507.096       -1174.356  
 99  8  1  0 14  0.0000000  0  8  1 14 15 21 22 25 29 30            
 -17338988.297   -13483316.084    21739521.098    21739520.694    21739527.223  
       932.998         727.006  
  -7084362.154    -5509164.726    24021730.174    24021729.874    24021738.355  
      3289.022        2562.868  
  -9452034.406    -7352051.175    22113815.484    22113815.018    22113822.881  
      -660.517        -514.684  
   5658247.424     4416438.065    22336404.833    22336404.340    22336412.531  
     -2750.383       -2143.148  
  -6226385.559    -4828893.025    23112364.055    23112363.182    23112373.396  
      3450.853        2688.968  
 -19908887.290   -15489016.389    20758647.701    20758647.582    20758652.974  
      -548.182        -427.152  
  -8483693.350    -6596251.977    22523692.350    22523692.320    22523698.703  
     -1448.991       -1129.086  
  -8047962.554    -6255463.405    23907670.152    23907670.376    23907677.641  
     -1523.963       -1187.502  
 99  8  1  0 14 30.0000000  0  8  1 14 15 21 22 25 29 30            
 -17366931.464   -13505089.934    21734203.742    21734203.319    21734209.828  
       929.833         724.545  
  -7182992.124    -5586019.123    24002961.291    24002961.003    24002969.584  
      3286.357        2560.794  
  -9431933.010    -7336387.753    22117640.681    22117640.183    22117648.111  
      -679.552        -529.518  
   5740943.436     4480876.433    22352141.445    22352140.962    22352149.129  
     -2762.705       -2152.757  
  -6329861.335    -4909523.260    23092673.139    23092672.181    23092682.397  
      3447.567        2686.406  
 -19892230.130   -15476036.762    20761817.419    20761817.305    20761822.661  
      -562.147        -438.038  
  -8440190.090    -6562353.366    22531970.812    22531970.776    22531977.245  
     -1451.393       -1130.956  
  -8001986.386    -6219637.802    23916419.329    23916419.509    23916426.631  
     -1541.149       -1200.894  
 99  8  1  0 15  0.0000000  0  8  1 14 15 21 22 25 29 30            
 -17394773.453   -13526784.945    21728905.647    21728905.195    21728911.643  
       926.321         721.809  
  -7281544.439    -5662812.990    23984207.252    23984206.891    23984215.630  
      3283.802        2558.797  
  -9411260.866    -7320279.588    22121574.642    22121574.018    22121581.966  
      -698.557        -544.329  
   5824011.701     4545604.859    22367948.798    22367948.320    22367956.492  
     -2775.184       -2162.481  
  -6433234.974    -4990073.939    23073001.669    23073000.709    23073010.771  
      3444.231        2683.819  
 -19875166.580   -15462740.471    20765064.461    20765064.327    20765069.719  
      -575.357        -448.329  
  -8396604.695    -6528390.745    22540265.065    22540264.869    22540271.318  
     -1454.427       -1133.313  
  -7955483.333    -6183401.648    23925268.770    23925268.864    23925275.776  
     -1558.963       -1214.784  
 99  8  1  0 15 30.0000000  0  8  1 14 15 21 22 25 29 30            
 -17422516.078   -13548402.536    21723626.445    21723626.019    21723632.329  
       923.252         719.416  
  -7380018.871    -5739546.228    23965467.932    23965467.650    23965476.440  
      3281.192        2556.777  
  -9390019.709    -7303728.052    22125616.841    22125616.070    22125624.124  
      -717.552        -559.132  
   5907463.472     4610632.142    22383829.245    22383828.738    22383836.835  
     -2788.401       -2172.776  
  -6536515.474    -5070552.048    23053347.835    23053347.003    23053356.970  
      3441.111        2681.381  
 -19857711.882   -15449139.393    20768385.884    20768385.771    20768391.194  
      -588.296        -458.414  
  -8352912.774    -6494345.110    22548579.276    22548579.121    22548585.641  
     -1458.394       -1136.417  
  -7908455.097    -6146756.273    23934217.984    23934218.111    23934224.897  
     -1576.151       -1228.161  
 99  8  1  0 16  0.0000000  0  8  1 14 15 21 22 25 29 30            
 -17450168.574   -13569949.902    21718364.427    21718363.975    21718370.210  
       920.093         716.955  
  -7478422.018    -5816223.885    23946742.122    23946741.973    23946750.859  
      3278.862        2554.954  
  -9368211.120    -7286734.370    22129766.842    22129766.088    22129774.256  
      -736.440        -573.846  
   5991315.596     4675971.373    22399785.802    22399785.314    22399793.385  
     -2801.833       -2183.246  
  -6639697.046    -5150953.073    23033712.840    23033712.043    23033721.953  
      3437.559        2678.604  
 -19839874.273   -15435239.943    20771780.168    20771780.075    20771785.533  
      -600.989        -468.302  
  -8309102.034    -6460206.902    22556915.895    22556915.875    22556922.600  
     -1462.352       -1139.494  
  -7860915.946    -6109712.789    23943264.413    23943264.608    23943271.388  
     -1593.090       -1241.361  
 99  8  1  0 16 30.0000000  0  8  1 14 15 21 22 25 29 30            
 -17477722.157   -13591420.196    21713121.147    21713120.656    21713126.903  
       916.824         714.410  
  -7576758.588    -5892849.700    23928029.056    23928028.921    23928037.697  
      3277.067        2553.556  
  -9345836.219    -7269299.403    22134024.506    22134023.842    22134032.089  
      -755.157        -588.430  
   6075572.573     4741626.074    22415819.385    22415818.898    22415826.987  
     -2815.131       -2193.604  
  -6742762.915    -5231263.950    23014099.769    23014099.081    23014108.976  
      3433.452        2675.416  
 -19821664.262   -15421050.308    20775245.401    20775245.331    20775250.772  
      -612.884        -477.570  
  -8265175.102    -6425978.154    22565274.973    22565274.935    22565281.622  
     -1466.084       -1142.399  
  -7812873.672    -6072277.230    23952406.639    23952406.771    23952413.684  
     -1609.582       -1254.223  
 99  8  1  0 17  0.0000000  0  8  1 14 15 21 22 25 29 30            
 -17505173.394   -13612810.741    21707897.334    21707896.844    21707903.037  
       913.528         711.838  
  -7675047.068    -5969438.014    23909325.294    23909325.149    23909333.857  
      3275.655        2552.451  
  -9322896.905    -7251424.623    22138389.656    22138389.040    22138397.260  
      -773.892        -603.030  
   6160231.743     4807594.172    22431929.574    22431929.135    22431937.145  
     -2828.494       -2204.024  
  -6845693.334    -5311469.260    22994512.665    22994511.901    22994521.791  
      3428.922        2671.888  
 -19803102.202   -15406586.351    20778777.665    20778777.573    20778783.000  
      -624.542        -486.659  
  -8221128.541    -6391656.181    22573656.866    22573656.800    22573663.406  
     -1470.041       -1145.486  
  -7764338.052    -6034457.251    23961642.351    23961642.542    23961649.841  
     -1625.626       -1266.719  
 99  8  1  0 17 30.0000000  0  8  1 14 15 21 22 25 29 30            
 -17532524.270   -13634123.089    21702692.704    21702692.191    21702698.273  
       910.096         709.171  
  -7773287.868    -6045989.186    23890630.734    23890630.430    23890639.107  
      3274.005        2551.168  
  -9299394.528    -7233111.097    22142862.128    22142861.466    22142869.480  
      -792.709        -617.694  
   6245291.173     4873874.156    22448116.030    22448115.561    22448123.548  
     -2841.819       -2214.401  
  -6948485.042    -5391566.492    22974951.918    22974950.961    22974960.961  
      3423.949        2668.017  
 -19784173.588   -15391836.766    20782379.730    20782379.627    20782384.950  
      -637.163        -496.490  
  -8176963.389    -6357241.802    22582061.306    22582061.274    22582067.849  
     -1473.971       -1148.547  
  -7715327.108    -5996266.878    23970968.449    23970968.730    23970976.283  
     -1641.512       -1279.093  
 99  8  1  0 18  0.0000000  0  8  1 14 15 21 22 25 29 30            
 -17559767.220   -13655351.337    21697508.439    21697507.972    21697514.100  
       906.073         706.031  
  -7871486.329    -6122507.342    23871944.014    23871943.647    23871952.437  
      3272.445        2549.953  
  -9275330.719    -7214360.096    22147441.364    22147440.661    22147448.582  
      -811.454        -632.294  
   6330738.309     4940456.261    22464376.240    22464375.715    22464383.612  
     -2854.360       -2224.176  
  -7051120.971    -5471542.338    22955420.635    22955419.710    22955429.870  
      3418.709        2663.930  
 -19764872.501   -15376796.942    20786052.658    20786052.536    20786057.833  
      -649.424        -506.040  
  -8132685.408    -6322739.498    22590487.236    22590487.195    22590493.681  
     -1477.857       -1151.577  
  -7665845.235    -5957709.590    23980384.446    23980384.625    23980392.169  
     -1657.249       -1291.350  
 99  8  1  0 18 30.0000000  0  8  1 14 15 21 22 25 29 30            
 -17586888.768   -13676485.000    21692347.357    21692346.895    21692353.002  
       902.058         702.902  
  -7969628.204    -6198981.391    23853268.020    23853267.732    23853276.658  
      3270.213        2548.226  
  -9250707.273    -7195173.014    22152126.969    22152126.298    22152134.248  
      -830.204        -646.903  
   6416552.399     5007324.310    22480706.095    22480705.623    22480713.548  
     -2866.621       -2233.730  
  -7153605.770    -5551400.440    22935918.249    22935917.435    22935927.491  
      3413.511        2659.870  
 -19745210.867   -15361476.172    20789794.138    20789794.028    20789799.341  
      -661.448        -515.415  
  -8088289.972    -6288145.677    22598935.611    22598935.541    22598941.809  
     -1481.843       -1154.682  
  -7615894.772    -5918787.174    23989889.512    23989889.830    23989897.193  
     -1673.028       -1303.663  
 99  8  1  0 19  0.0000000  0  8  1 14 15 21 22 25 29 30            
 -17613896.538   -13697529.995    21687207.934    21687207.430    21687213.561  
       898.248         699.933  
  -8067693.709    -6275395.982    23834606.708    23834606.478    23834615.270  
      3267.014        2545.716  
  -9225525.680    -7175551.014    22156918.691    22156918.122    22156926.130  
      -848.807        -661.404  
   6502729.638     5074475.319    22497105.115    22497104.609    22497112.664  
     -2878.808       -2243.227  
  -7255935.916    -5631138.046    22916445.433    22916444.578    22916454.480  
      3408.272        2655.790  
 -19725191.501   -15345876.651    20793603.670    20793603.542    20793608.904  
      -673.473        -524.789  
  -8043783.658    -6253465.457    22607405.087    22607404.941    22607411.021  
     -1485.266       -1157.353  
  -7565469.067    -5879494.431    23999485.283    23999485.513    23999492.799  
     -1689.017       -1316.108  
 99  8  1  0 19 30.0000000  0  8  1 14 15 21 22 25 29 30            
 -17640791.892   -13718487.392    21682089.798    21682089.314    21682095.552  
       894.797         697.241  
  -8165647.377    -6351723.384    23815966.782    23815966.502    23815975.307  
      3263.151        2542.698  
  -9199787.543    -7155495.329    22161816.459    22161815.915    22161823.939  
      -867.159        -675.708  
   6589268.596     5141908.183    22513572.934    22513572.423    22513580.603  
     -2890.636       -2252.437  
  -7358106.219    -5710751.130    22897003.177    22897002.169    22897011.831  
      3403.007        2651.688  
 -19704811.426   -15329996.067    20797481.770    20797481.710    20797487.078  
      -685.222        -533.944  
  -7999192.945    -6218719.469    22615890.306    22615890.215    22615896.388  
     -1487.567       -1159.148  
  -7514556.597    -5839822.399    24009173.422    24009173.806    24009181.203  
     -1705.273       -1328.786  
 99  8  1  0 20  0.0000000  0  8  1 14 15 21 22 25 29 30            
 -17667583.669   -13739364.080    21676991.492    21676991.039    21676997.237  
       891.332         694.546  
  -8263476.218    -6427953.542    23797350.592    23797350.257    23797359.002  
      3258.747        2539.273  
  -9173494.590    -7135007.331    22166819.877    22166819.226    22166827.281  
      -885.752        -690.196  
   6676167.161     5209621.282    22530109.111    22530108.689    22530116.969  
     -2902.603       -2261.761  
  -7460113.939    -5790237.522    22877591.592    22877590.645    22877600.138  
      3397.684        2647.535  
 -19684082.239   -15313843.442    20801426.494    20801426.373    20801431.664  
      -696.812        -542.970  
  -7954534.966    -6183921.066    22624388.232    22624388.203    22624394.495  
     -1489.621       -1160.746  
  -7463146.306    -5799762.437    24018956.692    24018957.031    24018964.355  
     -1722.100       -1341.907  
 99  8  1  0 20 30.0000000  0  8  1 14 15 21 22 25 29 30            
 -17694282.257   -13760168.139    21671910.976    21671910.468    21671916.678  
       888.660         692.460  
  -8361178.253    -6504084.893    23778758.565    23778758.185    23778766.895  
      3254.980        2536.340  
  -9146648.672    -7114088.454    22171928.392    22171927.758    22171935.965  
      -904.034        -704.446  
   6763425.541     5277614.761    22546713.795    22546713.407    22546721.782  
     -2914.706       -2271.202  
  -7561965.039    -5869601.870    22858209.876    22858208.933    22858218.301  
      3392.446        2643.461  
 -19662999.055   -15297414.979    20805438.531    20805438.439    20805443.629  
      -708.805        -552.314  
  -7909826.733    -6149083.488    22632895.903    22632895.832    22632902.191  
     -1490.914       -1161.754  
  -7411228.822    -5759307.270    24028836.370    24028836.688    24028843.996  
     -1739.105       -1355.156  
 99  8  1  0 21  0.0000000  0  8  1 14 15 21 22 25 29 30            
 -17720899.083   -13780908.492    21666846.006    21666845.455    21666851.708  
       885.663         690.119  
  -8458768.753    -6580129.321    23760187.452    23760187.190    23760196.018  
      3251.096        2533.313  
  -9119251.789    -7092740.262    22177141.726    22177141.202    22177149.567  
      -922.492        -718.822  
   6851050.721     5345894.058    22563388.452    22563388.034    22563396.439  
     -2927.013       -2280.783  
  -7663654.134    -5948839.970    22838859.105    22838858.056    22838867.369  
      3386.890        2639.134  
 -19641544.222   -15280696.922    20809521.337    20809521.200    20809526.304  
      -721.631        -562.307  
  -7865078.097    -6114214.435    22641411.353    22641411.292    22641417.705  
     -1492.599       -1163.059  
  -7358793.651    -5718448.700    24038814.680    24038814.921    24038822.163  
     -1756.497       -1368.697  
 99  8  1  0 21 30.0000000  0  8  1 14 15 21 22 25 29 30            
 -17747430.879   -13801582.583    21661797.072    21661796.556    21661802.873  
       882.936         688.005  
  -8556260.037    -6656096.438    23741635.387    23741635.098    23741644.001  
      3248.296        2531.146  
  -9091305.532    -7070963.979    22182459.683    22182459.201    22182467.678  
      -940.757        -733.062  
   6939035.761     5414453.742    22580131.444    22580130.943    22580139.410  
     -2938.830       -2289.995  
  -7765188.246    -6027957.299    22819537.572    22819536.645    22819545.868  
      3381.974        2635.299  
 -19619695.588   -15263672.005    20813678.937    20813678.820    20813683.943  
      -735.111        -572.809  
  -7820267.648    -6079297.216    22649938.566    22649938.540    22649945.006  
     -1495.150       -1165.050  
  -7305849.052    -5677193.144    24048889.736    24048889.869    24048897.220  
     -1773.255       -1381.764  
 99  8  1  0 22  0.0000000  0  8  1 14 15 21 22 25 29 30            
 -17773873.811   -13822187.425    21656765.008    21656764.558    21656770.954  
       879.842         685.587  
  -8653672.720    -6732002.297    23723098.328    23723098.017    23723106.979  
      3245.985        2529.343  
  -9062811.721    -7048761.019    22187882.097    22187881.478    22187889.902  
      -958.821        -747.127  
   7027372.951     5483287.846    22596941.615    22596941.126    22596949.499  
     -2950.345       -2298.965  
  -7866569.511    -6106955.550    22800245.316    22800244.378    22800253.448  
      3376.801        2631.270  
 -19597445.750   -15246334.464    20817912.880    20817912.753    20817917.932  
      -748.235        -583.043  
  -7775365.098    -6044308.245    22658483.381    22658483.316    22658489.726  
     -1498.465       -1167.631  
  -7252401.919    -5635546.041    24059060.008    24059060.265    24059067.882  
     -1789.800       -1394.644  
 99  8  1  0 22 30.0000000  0  8  1 14 15 21 22 25 29 30            
 -17800216.310   -13842714.000    21651752.186    21651751.729    21651758.138  
       876.260         682.798  
  -8751009.583    -6807849.105    23704575.640    23704575.397    23704584.242  
      3242.894        2526.934  
  -9033772.189    -7026132.817    22193408.114    22193407.495    22193415.804  
      -977.231        -761.486  
   7116061.749     5552395.910    22613818.806    22613818.185    22613826.548  
     -2962.406       -2308.370  
  -7967783.106    -6185823.119    22780984.809    22780983.871    22780993.033  
      3370.672        2626.486  
 -19574791.528   -15228681.814    20822223.775    20822223.685    20822228.877  
      -762.000        -593.769  
  -7730347.464    -6009229.592    22667050.153    22667049.980    22667056.248  
     -1502.837       -1171.048  
  -7198457.716    -5593511.604    24069325.217    24069325.596    24069333.069  
     -1806.516       -1407.674  
 99  8  1  0 23  0.0000000  0  8  1 14 15 21 22 25 29 30            
 -17826454.929   -13863159.622    21646759.017    21646758.635    21646765.096  
       872.665         679.996  
  -8848248.483    -6883619.552    23686071.563    23686071.392    23686080.159  
      3239.299        2524.122  
  -9004188.576    -7003080.663    22199037.669    22199037.087    22199045.216  
      -995.357        -775.601  
   7205108.851     5621783.171    22630764.067    22630763.450    22630771.783  
     -2974.381       -2317.696  
  -8068823.636    -6264555.848    22761757.205    22761756.315    22761765.476  
      3364.942        2622.020  
 -19551742.006   -15210721.136    20826609.947    20826609.868    20826615.056  
      -774.865        -603.793  
  -7685202.009    -5974051.326    22675641.072    22675640.889    22675647.179  
     -1507.189       -1174.431  
  -7144020.106    -5551092.678    24079684.598    24079684.970    24079692.069  
     -1822.826       -1420.399  
 99  8  1  0 23 30.0000000  0  8  1 14 15 21 22 25 29 30            
 -17852587.064   -13883522.266    21641786.187    21641785.761    21641792.300  
       869.398         677.449  
  -8945375.619    -6959302.927    23667588.636    23667588.604    23667597.280  
      3235.549        2521.208  
  -8974063.131    -6979606.306    22204770.523    22204769.883    22204777.908  
     -1013.178        -789.490  
   7294515.325     5691450.455    22647777.504    22647776.949    22647785.338  
     -2986.166       -2326.878  
  -8169688.769    -6343151.894    22742562.951    22742562.103    22742571.386  
      3359.101        2617.472  
 -19528318.486   -15192469.032    20831067.363    20831067.227    20831072.435  
      -786.612        -612.944  
  -7639927.464    -5938772.485    22684256.330    22684256.249    22684262.632  
     -1511.077       -1177.461  
  -7089102.021    -5508299.365    24090135.494    24090135.788    24090142.479  
     -1838.603       -1432.674  
 99  8  1  0 24  0.0000000  0  8  1 14 15 21 22 25 29 30            
 -17878618.893   -13903806.751    21636832.437    21636831.997    21636838.545  
       866.225         674.977  
  -9042373.801    -7034885.788    23649130.533    23649130.296    23649138.966  
      3230.980        2517.647  
  -8943397.395    -6955710.957    22210606.129    22210605.473    22210613.534  
     -1031.111        -803.453  
   7384291.117     5761405.531    22664861.438    22664860.843    22664869.127  
     -2998.864       -2336.774  
  -8270358.362    -6421595.567    22723405.987    22723405.128    22723414.487  
      3352.416        2612.266  
 -19504559.008   -15173955.147    20835588.705    20835588.563    20835593.755  
      -797.366        -621.321  
  -7594543.450    -5903408.340    22692892.528    22692892.550    22692898.921  
     -1514.478       -1180.103  
  -7033703.901    -5465132.005    24100677.532    24100677.723    24100684.343  
     -1854.435       -1445.015  
 99  8  1  0 24 30.0000000  0  8  1 14 15 21 22 25 29 30            
 -17904563.417   -13924023.205    21631895.335    21631894.829    21631901.355  
       863.377         672.762  
  -9139229.514    -7110357.687    23630699.455    23630699.257    23630707.696  
      3226.131        2513.855  
  -8912193.517    -6931396.280    22216544.017    22216543.350    22216551.559  
     -1049.144        -817.510  
   7474457.083     5831664.648    22682019.579    22682018.945    22682027.200  
     -3011.978       -2346.989  
  -8370834.571    -6499888.562    22704285.856    22704284.982    22704294.332  
      3346.185        2607.414  
 -19480465.620   -15155181.067    20840173.562    20840173.378    20840178.624  
      -808.845        -630.266  
  -7549059.437    -5867966.276    22701548.197    22701548.130    22701554.216  
     -1517.644       -1182.582  
  -6977836.728    -5421599.149    24111308.823    24111308.869    24111315.477  
     -1870.091       -1457.213  
 99  8  1  0 25  0.0000000  0  8  1 14 15 21 22 25 29 30            
 -17930422.133   -13944172.796    21626974.465    21626974.045    21626980.454  
       860.377         670.423  
  -9235952.711    -7185726.313    23612293.445    23612293.403    23612301.680  
      3222.057        2510.682  
  -8880453.517    -6906663.841    22222583.664    22222583.100    22222591.543  
     -1066.979        -831.406  
   7565003.902     5902220.534    22699250.086    22699249.514    22699257.621  
     -3024.482       -2356.741  
  -8471134.117    -6578043.884    22685199.175    22685198.421    22685207.853  
      3340.235        2602.775  
 -19456033.556   -15136143.080    20844822.690    20844822.609    20844827.870  
      -820.112        -639.047  
  -7503488.404    -5832456.407    22710220.134    22710220.022    22710225.989  
     -1520.659       -1184.937  
  -6921506.972    -5377705.851    24122027.863    24122028.015    24122034.703  
     -1885.231       -1469.014  
 99  8  1  0 25 30.0000000  0  8  1 14 15 21 22 25 29 30            
 -17956189.471   -13964251.186    21622071.126    21622070.656    21622076.936  
       857.246         667.980  
  -9332561.611    -7261005.884    23593909.345    23593909.232    23593917.404  
      3218.229        2507.713  
  -8848179.284    -6881515.126    22228725.158    22228724.595    22228733.097  
     -1084.716        -845.229  
   7655917.892     5973062.506    22716550.452    22716549.889    22716557.971  
     -3036.544       -2366.138  
  -8571244.226    -6656051.624    22666148.825    22666148.054    22666157.398  
      3333.599        2597.612  
 -19431258.173   -15116837.584    20849537.381    20849537.243    20849542.476  
      -831.808        -648.162  
  -7457824.553    -5796874.214    22718909.320    22718909.355    22718915.454  
     -1523.826       -1187.390  
  -6864730.041    -5333464.106    24132832.138    24132832.343    24132839.303  
     -1900.169       -1480.650  
 99  8  1  0 26  0.0000000  0  8  1 14 15 21 22 25 29 30            
 -17981856.419   -13984251.356    21617186.812    21617186.361    21617192.593  
       853.689         665.214  
  -9429053.019    -7336193.879    23575547.292    23575547.295    23575555.509  
      3214.443        2504.772  
  -8815372.649    -6855951.549    22234968.196    22234967.550    22234976.021  
     -1102.495        -859.082  
   7747191.126     6044184.419    22733919.283    22733918.721    22733926.908  
     -3048.428       -2375.394  
  -8671156.092    -6733904.877    22647136.136    22647135.441    22647144.655  
      3327.234        2592.643  
 -19406114.998   -15097245.496    20854321.986    20854321.825    20854327.032  
      -844.615        -658.140  
  -7412060.765    -5761214.152    22727617.849    22727617.858    22727623.988  
     -1527.377       -1190.161  
  -6807502.098    -5288870.900    24143722.315    24143722.422    24143729.560  
     -1915.282       -1492.404  
 99  8  1  0 26 30.0000000  0  8  1 14 15 21 22 25 29 30            
 -18007409.894   -14004163.109    21612324.092    21612323.626    21612329.846  
       849.741         662.135  
  -9525434.825    -7411296.469    23557206.395    23557206.248    23557214.410  
      3210.976        2502.059  
  -8782035.772    -6829974.811    22241311.834    22241311.230    22241319.895  
     -1120.046        -872.755  
   7838806.230     6115572.730    22751353.154    22751352.554    22751360.783  
     -3059.140       -2383.742  
  -8770883.146    -6811614.118    22628158.770    22628157.972    22628167.067  
      3321.091        2587.850  
 -19380581.822   -15077349.508    20859180.814    20859180.655    20859185.811  
      -857.446        -668.140  
  -7366193.679    -5725473.599    22736346.015    22736346.023    22736352.174  
     -1530.611       -1192.684  
  -6749812.427    -5243917.889    24154700.250    24154700.420    24154707.593  
     -1930.910       -1504.600  
 99  8  1  0 27  0.0000000  0  8  1 14 15 21 22 25 29 30            
 -18032843.739   -14023981.651    21607484.021    21607483.613    21607489.923  
       845.882         659.129  
  -9621701.700    -7486309.509    23538887.407    23538887.302    23538895.330  
      3206.711        2498.737  
  -8748170.600    -6803586.409    22247756.106    22247755.617    22247764.180  
     -1137.664        -886.486  
   7930735.739     6187206.037    22768846.856    22768846.258    22768854.499  
     -3069.703       -2391.971  
  -8870412.940    -6889169.660    22609218.829    22609218.031    22609226.975  
      3314.089        2582.413  
 -19354678.256   -15057164.906    20864110.113    20864109.934    20864115.094  
      -869.398        -677.450  
  -7320227.127    -5689655.531    22745093.079    22745093.169    22745099.346  
     -1534.059       -1195.371  
  -6691647.888    -5198594.880    24165768.703    24165768.756    24165775.945  
     -1946.756       -1516.966  
 99  8  1  0 27 30.0000000  0  8  1 14 15 21 22 25 29 30            
 -18058169.123   -14043715.687    21602664.718    21602664.263    21602670.623  
       842.404         656.418  
  -9717830.714    -7561215.142    23520594.544    23520594.538    23520602.391  
      3201.868        2494.960  
  -8713779.332    -6776788.050    22254300.929    22254300.318    22254308.556  
     -1155.105        -900.082  
   8022985.073     6259088.533    22786401.244    22786400.801    22786409.061  
     -3080.327       -2400.257  
  -8969726.050    -6966556.375    22590320.031    22590319.252    22590328.019  
      3306.922        2576.818  
 -19328423.085   -15036706.322    20869106.219    20869106.065    20869111.284  
      -880.933        -686.442  
  -7274160.143    -5653759.204    22753859.413    22753859.517    22753865.552  
     -1537.093       -1197.736  
  -6633004.949    -5152899.089    24176928.019    24176928.186    24176935.218  
     -1963.087       -1529.683  
 99  8  1  0 28  0.0000000  0  8  1 14 15 21 22 25 29 30            
 -18083393.736   -14063371.204    21597864.538    21597864.119    21597870.488  
       839.277         653.979  
  -9813814.551    -7636007.634    23502329.411    23502329.467    23502337.216  
      3197.203        2491.328  
  -8678864.130    -6749581.451    22260945.273    22260944.522    22260952.629  
     -1172.545        -913.670  
   8115551.084     6331217.792    22804016.070    22804015.617    22804023.902  
     -3090.791       -2408.401  
  -9068832.766    -7043782.261    22571460.515    22571459.732    22571468.425  
      3300.256        2571.623  
 -19301833.857   -15015987.436    20874165.887    20874165.777    20874171.072  
      -891.496        -694.671  
  -7228002.564    -5617792.274    22762643.198    22762643.092    22762649.021  
     -1540.002       -1199.997  
  -6573863.136    -5106814.578    24188182.459    24188182.547    24188189.444  
     -1979.512       -1542.490  
 99  8  1  0 28 30.0000000  0  8  1 14 15 21 22 25 29 30            
 -18108526.421   -14082955.083    21593081.901    21593081.478    21593087.822  
       836.215         651.592  
  -9909658.609    -7710691.193    23484090.793    23484090.889    23484098.600  
      3192.521        2487.680  
  -8643426.850    -6721968.058    22267688.721    22267688.063    22267696.197  
     -1189.959        -927.239  
   8208434.837     6403594.648    22821691.240    22821690.825    22821699.251  
     -3101.519       -2416.765  
  -9167733.367    -7120847.533    22552640.158    22552639.437    22552648.073  
      3293.099        2566.048  
 -19274942.193   -14995032.885    20879283.158    20879283.058    20879288.424  
      -901.336        -702.341  
  -7181756.382    -5581756.314    22771443.460    22771443.381    22771449.457  
     -1543.120       -1202.427  
  -6514231.923    -5060348.728    24199529.671    24199529.932    24199536.811  
     -1995.630       -1555.022  
 99  8  1  0 29  0.0000000  0  8  1 14 15 21 22 25 29 30            
 -18133569.706   -14102469.302    21588316.444    21588315.951    21588322.163  
       833.207         649.248  
 -10005369.686    -7785271.124    23465877.454    23465877.584    23465885.354  
      3188.269        2484.359  
  -8607469.634    -6693949.495    22274531.382    22274530.698    22274538.722  
     -1207.222        -940.691  
   8301644.349     6476225.341    22839428.503    22839428.064    22839436.620  
     -3112.583       -2425.390  
  -9266416.106    -7197743.061    22533861.399    22533860.632    22533869.157  
      3285.858        2560.404  
 -19247754.280   -14973847.493    20884456.881    20884456.765    20884462.079  
      -911.418        -710.194  
  -7135416.652    -5545647.468    22780261.458    22780261.354    22780267.672  
     -1546.314       -1204.924  
  -6454134.144    -5013519.318    24210965.721    24210966.003    24210973.033  
     -2010.820       -1566.865  
 99  8  1  0 29 30.0000000  0  8  1 14 15 21 22 25 29 30            
 -18158510.393   -14121903.571    21583570.334    21583569.877    21583576.071  
       829.410         646.295  
 -10100960.006    -7859756.963    23447687.160    23447687.291    23447695.128  
      3184.347        2481.308  
  -8570994.530    -6665527.397    22281472.401    22281471.682    22281479.727  
     -1224.500        -954.153  
   8395193.176     6549120.444    22857230.260    22857229.779    22857238.514  
     -3123.945       -2434.243  
  -9364889.123    -7274475.158    22515122.615    22515121.756    22515130.256  
      3278.976        2555.039  
 -19220245.546   -14952412.107    20889691.648    20889691.543    20889696.812  
      -922.518        -718.844  
  -7088978.387    -5509461.845    22789098.175    22789098.141    22789104.589  
     -1549.616       -1207.491  
  -6393575.736    -4966331.002    24222489.489    24222489.695    24222497.012  
     -2026.339       -1578.969  
 99  8  1  0 30  0.0000000  0  8  1 14 15 21 22 25 29 30            
 -18183337.078   -14141249.009    21578846.012    21578845.520    21578851.666  
       825.802         643.481  
 -10196432.121    -7934150.706    23429519.698    23429519.606    23429527.331  
      3180.541        2478.340  
  -8534003.991    -6636703.665    22288511.298    22288510.746    22288518.904  
     -1241.494        -967.392  
   8489083.078     6622281.307    22875096.967    22875096.409    22875105.336  
     -3135.410       -2443.167  
  -9463154.184    -7351045.206    22496423.235    22496422.421    22496430.944  
      3271.896        2549.529  
 -19192404.222   -14930717.562    20894989.646    20894989.548    20894994.821  
      -933.655        -727.521  
  -7042434.250    -5473193.707    22797955.403    22797955.314    22797961.714  
     -1553.304       -1210.370  
  -6332560.978    -4918787.059    24234099.981    24234100.271    24234107.714  
     -2040.998       -1590.381  
 99  8  1  0 30 30.0000000  0  8  1 14 15 21 22 25 29 30            
 -18208050.562   -14160506.247    21574143.291    21574142.726    21574148.834  
       821.934         640.466  
 -10291782.656    -8008449.712    23411375.257    23411375.070    23411382.699  
      3176.221        2474.966  
  -8496500.073    -6607479.890    22295648.383    22295647.723    22295655.823  
     -1258.577        -980.705  
   8583323.116     6695714.989    22893030.110    22893029.599    22893038.688  
     -3147.000       -2452.209  
  -9561196.598    -7427441.779    22477766.260    22477765.476    22477773.993  
      3264.448        2543.724  
 -19164207.228   -14908745.864    20900355.394    20900355.270    20900360.518  
      -945.964        -737.115  
  -6995779.164    -5436839.117    22806833.598    22806833.526    22806840.011  
     -1556.879       -1213.153  
  -6271104.715    -4870899.082    24245794.521    24245794.844    24245802.548  
     -2055.982       -1602.062  
 99  8  1  0 31  0.0000000  0  8  1 14 15 21 22 25 29 30            
 -18232649.648   -14179674.333    21569462.260    21569461.684    21569467.794  
       818.115         637.489  
 -10386999.352    -8082644.434    23393256.027    23393255.924    23393263.528  
      3171.479        2471.277  
  -8458485.036    -6577857.848    22302882.661    22302881.809    22302889.879  
     -1275.587        -993.960  
   8677902.126     6769412.814    22911027.918    22911027.441    22911036.584  
     -3158.116       -2460.866  
  -9659012.854    -7503662.102    22459152.298    22459151.516    22459160.145  
      3256.834        2537.784  
 -19135633.819   -14886480.847    20905792.747    20905792.618    20905797.845  
      -958.761        -747.091  
  -6949017.012    -5400401.115    22815732.252    22815732.099    22815738.661  
     -1560.525       -1215.994  
  -6209194.953    -4822657.736    24257575.685    24257575.770    24257583.655  
     -2071.385       -1614.056  
 99  8  1  0 31 30.0000000  0  8  1 14 15 21 22 25 29 30            
 -18257137.347   -14198755.633    21564802.385    21564801.845    21564807.976  
       814.696         634.825  
 -10482057.563    -8156715.642    23375166.813    23375166.758    23375174.501  
      3165.855        2466.893  
  -8419960.910    -6547839.113    22310213.519    22310212.796    22310220.840  
     -1292.563       -1007.190  
   8772815.215     6843370.955    22929089.442    22929088.945    22929098.013  
     -3169.183       -2469.497  
  -9756598.786    -7579702.967    22440582.306    22440581.473    22440590.173  
      3248.901        2531.605  
 -19106683.660   -14863922.264    20911301.782    20911301.673    20911306.885  
      -970.837        -756.495  
  -6902138.745    -5363872.623    22824652.823    22824652.727    22824659.291  
     -1564.513       -1219.100  
  -6146812.424    -4774048.016    24269446.534    24269446.868    24269454.642  
     -2087.222       -1626.408  
 99  8  1  0 32  0.0000000  0  8  1 14 15 21 22 25 29 30            
 -18281531.351   -14217763.922    21560160.297    21560159.764    21560165.970  
       811.563         632.384  
 -10576948.333    -8230656.384    23357109.479    23357109.402    23357117.270  
      3160.367        2462.624  
  -8380930.187    -6517425.625    22317640.925    22317640.120    22317648.229  
     -1309.485       -1020.371  
   8868056.152     6917584.566    22947213.398    22947212.869    22947221.859  
     -3180.181       -2478.059  
  -9853937.663    -7655551.324    22422059.326    22422058.514    22422067.178  
      3240.390        2524.975  
 -19077384.164   -14841091.472    20916877.317    20916877.221    20916882.398  
      -982.457        -765.554  
  -6855138.377    -5327248.980    22833596.688    22833596.663    22833603.142  
     -1568.718       -1222.380  
  -6083960.825    -4725072.791    24281406.938    24281407.266    24281414.782  
     -2102.876       -1638.605  
 99  8  1  0 32 30.0000000  0  8  1 14 15 21 22 25 29 30            
 -18305830.662   -14236698.420    21555536.167    21555535.677    21555541.921  
       808.178         629.747  
 -10671678.332    -8304471.843    23339082.757    23339082.568    23339090.662  
      3154.753        2458.251  
  -8341394.854    -6486618.945    22325163.963    22325163.249    22325171.579  
     -1326.348       -1033.519  
   8963615.137     6992045.999    22965397.681    22965397.221    22965406.140  
     -3190.639       -2486.205  
  -9951029.335    -7731207.047    22403583.399    22403582.500    22403591.179  
      3232.231        2518.621  
 -19047741.552   -14817993.316    20922518.159    20922518.037    20922523.198  
      -993.736        -774.340  
  -6808024.385    -5290536.807    22842562.412    22842562.346    22842568.722  
     -1572.492       -1225.324  
  -6020636.194    -4675728.972    24293457.333    24293457.618    24293465.114  
     -2118.692       -1650.938  
 99  8  1  0 33  0.0000000  0  8  1 14 15 21 22 25 29 30            
 -18330032.136   -14255556.681    21550930.662    21550930.201    21550936.496  
       805.095         627.347  
 -10766242.486    -8378158.088    23321087.572    23321087.377    23321095.533  
      3149.522        2454.169  
  -8301357.546    -6455421.106    22332782.725    22332782.066    22332790.390  
     -1342.887       -1046.404  
   9059489.717     7066753.354    22983642.135    22983641.621    22983650.511  
     -3201.253       -2494.487  
 -10047874.959    -7806671.055    22385153.866    22385153.205    22385161.934  
      3224.127        2512.308  
 -19017770.316   -14794639.094    20928221.425    20928221.358    20928226.516  
     -1004.398        -782.650  
  -6760794.005    -5253733.948    22851550.292    22851550.132    22851556.424  
     -1576.364       -1228.333  
  -5956846.986    -4626023.146    24305596.042    24305596.295    24305603.950  
     -2133.985       -1662.847  
 99  8  1  0 33 30.0000000  0  8  1 14 15 21 22 25 29 30            
 -18354137.760   -14274340.261    21546343.440    21546343.042    21546349.312  
       802.130         625.036  
 -10860650.452    -8451722.659    23303122.237    23303122.023    23303130.103  
      3144.528        2450.279  
  -8260820.510    -6423833.875    22340496.706    22340496.080    22340504.440  
     -1359.510       -1059.359  
   9155693.118     7141716.935    23001949.102    23001948.588    23001957.412  
     -3212.125       -2502.956  
 -10144478.031    -7881946.060    22366770.915    22366770.230    22366778.902  
      3216.183        2506.113  
 -18987485.565   -14771040.577    20933984.456    20933984.371    20933989.458  
     -1014.509        -790.529  
  -6713443.818    -5216837.739    22860560.844    22860560.699    22860566.933  
     -1580.168       -1231.301  
  -5892604.273    -4575963.947    24317820.821    24317821.104    24317829.133  
     -2148.707       -1674.311  
 99  8  1  0 34  0.0000000  0  8  1 14 15 21 22 25 29 30            
 -18378152.755   -14293053.217    21541773.639    21541773.138    21541779.343  
       798.775         622.426  
 -10954908.737    -8525170.599    23285185.295    23285185.249    23285193.179  
      3139.265        2446.172  
  -8219785.908    -6391858.942    22348305.345    22348304.732    22348313.260  
     -1376.123       -1072.303  
   9252218.440     7216931.356    23020317.190    23020316.730    23020325.618  
     -3222.826       -2511.301  
 -10240843.815    -7957036.164    22348433.222    22348432.407    22348440.937  
      3208.280        2499.952  
 -18956890.090   -14747199.936    20939806.608    20939806.550    20939811.556  
     -1025.452        -799.057  
  -6665986.809    -5179858.282    22869591.584    22869591.481    22869597.715  
     -1583.744       -1234.076  
  -5827926.180    -4525565.468    24330128.572    24330129.030    24330137.062  
     -2163.065       -1685.516  
 99  8  1  0 34 30.0000000  0  8  1 14 15 21 22 25 29 30            
 -18402064.770   -14311685.931    21537223.292    21537222.850    21537229.019  
       795.504         619.876  
 -11049002.759    -8598490.548    23267279.737    23267279.741    23267287.633  
      3133.707        2441.857  
  -8178256.249    -6359498.235    22356208.331    22356207.721    22356216.169  
     -1392.377       -1084.962  
   9349055.816     7292388.945    23038744.833    23038744.361    23038753.294  
     -3232.969       -2519.189  
 -10336976.289    -8031944.459    22330139.782    22330138.972    22330147.427  
      3200.716        2494.060  
 -18925958.647   -14723097.508    20945692.744    20945692.646    20945697.598  
     -1036.481        -807.644  
  -6618419.078    -5142792.560    22878643.283    22878643.202    22878649.540  
     -1587.377       -1236.913  
  -5762826.205    -4474838.231    24342516.847    24342517.289    24342525.260  
     -2176.743       -1696.161  
 99  8  1  0 35  0.0000000  0  8  1 14 15 21 22 25 29 30            
 -18425875.977   -14330240.088    21532692.110    21532691.712    21532697.831  
       791.985         617.126  
 -11142921.388    -8671673.807    23249407.569    23249407.593    23249415.567  
      3127.792        2437.249  
  -8136233.891    -6326753.590    22364204.997    22364204.359    22364212.779  
     -1408.947       -1097.873  
   9446202.466     7368087.527    23057231.445    23057230.983    23057239.870  
     -3243.375       -2527.304  
 -10432875.905    -8106671.311    22311890.554    22311889.762    22311898.097  
      3192.726        2487.833  
 -18894691.782   -14698733.710    20951642.656    20951642.550    20951647.465  
     -1047.850        -816.505  
  -6570728.918    -5105631.432    22887718.440    22887718.290    22887724.688  
     -1591.701       -1240.295  
  -5697303.808    -4423781.851    24354985.736    24354985.964    24354993.745  
     -2191.315       -1707.511  
 99  8  1  0 35 30.0000000  0  8  1 14 15 21 22 25 29 30            
 -18449579.711   -14348710.506    21528181.462    21528181.053    21528187.087  
       788.371         614.310  
 -11236665.230    -8744720.894    23231568.798    23231568.736    23231576.674  
      3121.612        2432.416  
  -8093721.284    -6293626.955    22372294.692    22372294.076    22372302.754  
     -1425.191       -1110.537  
   9543649.114     7444019.863    23075775.161    23075774.609    23075783.506  
     -3253.023       -2534.823  
 -10528536.125    -8181211.611    22293686.838    22293686.107    22293694.461  
      3184.500        2481.420  
 -18863087.637   -14674107.102    20957656.692    20957656.600    20957661.526  
     -1059.167        -825.326  
  -6522918.515    -5068376.618    22896816.456    22896816.361    22896822.909  
     -1595.692       -1243.395  
  -5631348.457    -4372388.089    24367536.749    24367536.955    24367544.677  
     -2205.740       -1718.757  
 99  8  1  0 36  0.0000000  0  8  1 14 15 21 22 25 29 30            
 -18473169.070   -14367091.792    21523692.518    21523692.113    21523698.068  
       784.099         610.986  
 -11330216.182    -8817617.668    23213766.613    23213766.542    23213774.527  
      3115.055        2427.315  
  -8050720.653    -6260120.019    22380477.420    22380476.847    22380485.543  
     -1441.591       -1123.319  
   9641389.027     7520180.730    23094374.535    23094374.025    23094382.860  
     -3263.119       -2542.682  
 -10623938.562    -8255551.050    22275532.301    22275531.564    22275539.834  
      3175.565        2474.461  
 -18831137.815   -14649211.143    20963736.496    20963736.420    20963741.355  
     -1070.805        -834.393  
  -6474988.171    -5031028.336    22905937.547    22905937.393    22905943.877  
     -1599.843       -1246.626  
  -5564956.680    -4320654.255    24380170.679    24380170.992    24380178.602  
     -2220.558       -1730.307  
 99  8  1  0 36 30.0000000  0  8  1 14 15 21 22 25 29 30            
 -18496635.421   -14385377.229    21519226.996    21519226.590    21519232.424  
       780.322         608.044  
 -11423582.962    -8890370.958    23195999.492    23195999.457    23196007.324  
      3109.351        2422.877  
  -8007234.414    -6226234.698    22388752.556    22388751.915    22388760.713  
     -1457.575       -1135.769  
   9739434.666     7596579.805    23113032.191    23113031.629    23113040.414  
     -3273.480       -2550.755  
 -10719074.105    -8329682.531    22257428.639    22257427.840    22257435.958  
      3166.842        2467.670  
 -18798858.385   -14624058.344    20969879.039    20969878.942    20969883.903  
     -1080.999        -842.335  
  -6426939.568    -4993587.898    22915080.987    22915080.879    22915087.280  
     -1603.328       -1249.347  
  -5498119.755    -4268573.541    24392889.474    24392889.757    24392897.186  
     -2235.395       -1741.865  
 99  8  1  0 37  0.0000000  0  8  1 14 15 21 22 25 29 30            
 -18519990.626   -14403576.060    21514782.537    21514782.185    21514788.000  
       776.708         605.227  
 -11516781.549    -8962993.162    23178264.531    23178264.374    23178272.236  
      3103.847        2418.581  
  -7963264.742    -6191972.667    22397119.744    22397119.157    22397127.869  
     -1473.724       -1148.356  
   9837800.919     7673228.718    23131750.811    23131750.250    23131758.835  
     -3284.253       -2559.153  
 -10813943.040    -8403606.237    22239375.665    22239374.776    22239382.945  
      3157.702        2460.548  
 -18766281.986   -14598674.149    20976078.072    20976077.937    20976083.033  
     -1090.664        -849.867  
  -6378794.258    -4956072.120    22924242.831    22924242.705    22924249.008  
     -1606.318       -1251.682  
  -5430829.906    -4216139.904    24405694.489    24405694.694    24405701.980  
     -2250.348       -1753.520  
 99  8  1  0 37 30.0000000  0  8  1 14 15 21 22 25 29 30            
 -18543240.554   -14421692.852    21510358.257    21510357.839    21510363.719  
       773.372         602.624  
 -11609813.000    -9035485.137    23160561.316    23160561.028    23160568.973  
      3098.140        2414.131  
  -7918814.250    -6157335.969    22405578.722    22405577.939    22405586.563  
     -1489.694       -1160.797  
   9936487.243     7750127.064    23150530.305    23150529.787    23150538.169  
     -3294.896       -2567.449  
 -10908538.582    -8477316.937    22221374.610    22221373.744    22221381.859  
      3148.678        2453.514  
 -18733423.746   -14573070.334    20982330.649    20982330.561    20982335.733  
     -1099.947        -857.105  
  -6330561.219    -4918487.988    22933421.290    22933421.198    22933427.530  
     -1609.299       -1254.000  
  -5363108.741    -4163370.166    24418581.501    24418581.691    24418588.920  
     -2264.444       -1764.493  
 99  8  1  0 38  0.0000000  0  8  1 14 15 21 22 25 29 30            
 -18566397.063   -14439736.857    21505951.590    21505951.235    21505957.227  
       770.324         600.254  
 -11702678.203    -9107847.563    23142889.511    23142889.277    23142897.294  
      3092.775        2409.949  
  -7873885.759    -6122326.803    22414128.224    22414127.585    22414136.229  
     -1505.641       -1173.231  
  10035500.953     7827280.494    23169372.083    23169371.572    23169379.901  
     -3306.057       -2576.143  
 -11002863.543    -8550816.789    22203424.989    22203424.124    22203432.255  
      3139.602        2446.443  
 -18700299.526   -14547259.258    20988634.027    20988633.915    20988639.070  
     -1108.431        -863.713  
  -6282241.079    -4880835.980    22942616.422    22942616.287    22942622.617  
     -1612.217       -1256.273  
  -5294969.247    -4110274.464    24431547.834    24431548.081    24431555.446  
     -2278.187       -1775.214  
 99  8  1  0 38 30.0000000  0  8  1 14 15 21 22 25 29 30            
 -18589471.124   -14457716.627    21501560.752    21501560.358    21501566.351  
       767.876         598.345  
 -11795384.125    -9180085.847    23125248.070    23125247.782    23125255.977  
      3087.505        2405.846  
  -7828481.355    -6086946.780    22422768.661    22422767.986    22422776.517  
     -1521.326       -1185.456  
  10134832.681     7904681.754    23188274.284    23188273.793    23188282.091  
     -3316.029       -2583.917  
 -11096919.862    -8624107.320    22185526.480    22185525.641    22185533.764  
      3130.848        2439.615  
 -18666917.359   -14521247.177    20994986.513    20994986.360    20994991.447  
     -1117.254        -870.589  
  -6233830.735    -4843113.665    22951828.571    22951828.516    22951834.826  
     -1615.226       -1258.620  
  -5226424.696    -4056863.151    24444591.367    24444591.483    24444599.016  
     -2291.470       -1785.556  
 99  8  1  0 39  0.0000000  0  8  1 14 15 21 22 25 29 30            
 -18612467.322   -14475635.720    21497184.722    21497184.346    21497190.369  
       765.254         596.301  
 -11887914.097    -9252187.032    23107639.954    23107639.713    23107648.044  
      3081.288        2400.996  
  -7782603.660    -6051197.973    22431498.821    22431498.161    22431506.791  
     -1536.932       -1197.605  
  10234461.257     7982314.299    23207233.059    23207232.528    23207241.081  
     -3325.558       -2591.344  
 -11190706.810    -8697187.953    22167679.360    22167678.464    22167686.548  
      3121.786        2432.561  
 -18633251.172   -14495013.787    21001392.963    21001392.802    21001397.931  
     -1127.093        -878.251  
  -6185319.941    -4805313.070    22961059.960    22961059.879    22961066.311  
     -1618.729       -1261.352  
  -5157481.780    -4003141.401    24457710.810    24457710.898    24457718.413  
     -2304.614       -1795.803  
 99  8  1  0 39 30.0000000  0  8  1 14 15 21 22 25 29 30            
 -18635371.485   -14493483.102    21492826.243    21492825.833    21492831.883  
       761.930         593.711  
 -11980245.674    -9324133.611    23090069.485    23090069.351    23090077.909  
      3074.425        2395.657  
  -7736255.124    -6015082.273    22440318.812    22440318.180    22440326.666  
     -1552.742       -1209.925  
  10334377.992     8060171.370    23226246.478    23226245.933    23226254.866  
     -3335.302       -2598.927  
 -11284218.720    -8770054.258    22149884.407    22149883.589    22149891.755  
      3112.633        2425.426  
 -18599269.410   -14468534.502    21007859.333    21007859.251    21007864.450  
     -1138.100        -886.831  
  -6136686.558    -4767416.963    22970314.635    22970314.495    22970321.096  
     -1623.139       -1264.780  
  -5088127.330    -3949099.002    24470908.435    24470908.578    24470916.182  
     -2318.797       -1806.835  
 99  8  1  0 40  0.0000000  0  8  1 14 15 21 22 25 29 30            
 -18658175.666   -14511252.574    21488486.770    21488486.396    21488492.424  
       758.227         590.820  
 -12072376.829    -9395924.031    23072537.408    23072537.205    23072545.790  
      3067.612        2390.344  
  -7689438.515    -5978601.838    22449227.838    22449227.071    22449235.560  
     -1568.392       -1222.126  
  10434581.496     8138251.905    23245314.468    23245314.055    23245323.201  
     -3344.804       -2606.331  
 -11377449.914    -8842701.819    22132142.865    22132142.130    22132150.406  
      3102.895        2417.838  
 -18564964.708   -14441803.572    21014387.311    21014387.187    21014392.391  
     -1148.938        -895.281  
  -6087927.624    -4729423.022    22979593.037    22979592.948    22979599.632  
     -1627.509       -1268.191  
  -5018343.856    -3894722.308    24484187.810    24484188.024    24484195.562  
     -2333.336       -1818.188  
 99  8  1  0 40 30.0000000  0  8  1 14 15 21 22 25 29 30            
 -18680860.237   -14528928.852    21484170.071    21484169.695    21484175.772  
       753.981         587.519  
 -12164300.533    -9467552.795    23055044.926    23055044.674    23055053.179  
      3060.782        2385.029  
  -7642156.223    -5941758.540    22458225.420    22458224.688    22458233.142  
     -1583.781       -1234.111  
  10535057.967     8216545.148    23264434.730    23264434.279    23264443.392  
     -3353.845       -2613.387  
 -11470394.878    -8915126.333    22114455.919    22114455.087    22114463.567  
      3093.357        2410.402  
 -18530321.507   -14414808.874    21020979.599    21020979.496    21020984.755  
     -1160.557        -904.333  
  -6039038.858    -4691327.903    22988896.241    22988896.108    22988902.850  
     -1631.795       -1271.520  
  -4948117.808    -3840000.761    24497551.289    24497551.472    24497559.189  
     -2348.426       -1829.933  
 99  8  1  0 41  0.0000000  0  8  1 14 15 21 22 25 29 30            
 -18703411.890   -14546501.546    21479878.620    21479878.231    21479884.416  
       749.451         583.984  
 -12256020.519    -9539022.814    23037591.112    23037590.968    23037599.316  
      3053.963        2379.716  
  -7594411.280    -5904554.724    22467311.095    22467310.242    22467318.863  
     -1599.194       -1246.121  
  10635821.828     8295062.320    23283609.759    23283609.225    23283618.237  
     -3363.672       -2621.048  
 -11563044.084    -8987320.406    22096825.299    22096824.470    22096833.033  
      3083.365        2402.619  
 -18495340.387   -14387550.860    21027636.235    21027636.137    21027641.422  
     -1171.395        -912.772  
  -5990021.760    -4653132.794    22998223.775    22998223.666    22998230.388  
     -1635.943       -1274.754  
  -4877433.750    -3784922.291    24511002.103    24511002.329    24511009.905  
     -2363.654       -1841.813  
 99  8  1  0 41 30.0000000  0  8  1 14 15 21 22 25 29 30            
 -18725828.877   -14563969.318    21475612.778    21475612.414    21475618.595  
       745.274         580.735  
 -12347548.919    -9610343.563    23020173.822    23020173.706    23020181.819  
      3048.156        2375.195  
  -7546205.970    -5866992.201    22476484.022    22476483.372    22476492.149  
     -1614.380       -1257.954  
  10736873.928     8373804.097    23302839.671    23302838.998    23302847.952  
     -3373.104       -2628.395  
 -11655394.918    -9059281.974    22079251.328    22079250.544    22079259.230  
      3073.456        2394.894  
 -18460048.788   -14360050.913    21034352.007    21034351.944    21034357.203  
     -1181.148        -920.373  
  -5940882.356    -4614842.376    23007574.645    23007574.576    23007581.267  
     -1639.805       -1277.775  
  -4806302.227    -3729495.173    24524538.131    24524538.328    24524545.823  
     -2378.136       -1853.058  
 99  8  1  0 42  0.0000000  0  8  1 14 15 21 22 25 29 30            
 -18748118.612   -14581337.927    21471371.140    21471370.768    21471376.941  
       740.958         577.369  
 -12438901.748    -9681527.483    23002789.928    23002789.790    23002797.813  
      3042.076        2370.448  
  -7497542.729    -5829072.833    22485744.522    22485743.817    22485752.366  
     -1629.631       -1269.840  
  10838214.520     8452770.678    23322124.263    23322123.613    23322132.557  
     -3382.818       -2635.961  
 -11747438.296    -9131003.973    22061736.009    22061735.194    22061743.907  
      3063.038        2386.781  
 -18424464.752   -14332323.094    21041123.511    21041123.409    21041128.606  
     -1191.097        -928.132  
  -5891629.270    -4576463.372    23016947.172    23016947.133    23016953.820  
     -1643.591       -1280.712  
  -4734740.559    -3673732.854    24538156.278    24538156.278    24538163.538  
     -2392.420       -1864.219  
 99  8  1  0 42 30.0000000  0  8  1 14 15 21 22 25 29 30            
 -18770283.465   -14598609.228    21467153.312    21467152.930    21467159.103  
       736.795         574.125  
 -12530071.731    -9752568.947    22985440.884    22985440.618    22985448.575  
      3035.814        2365.569  
  -7448424.494    -5790798.946    22495091.307    22495090.575    22495099.185  
     -1644.981       -1281.803  
  10939847.154     8531964.822    23341464.374    23341463.646    23341472.746  
     -3392.865       -2643.788  
 -11839177.167    -9202488.692    22044278.573    22044277.738    22044286.464  
      3052.735        2378.752  
 -18388575.202   -14304357.212    21047953.101    21047953.022    21047958.207  
     -1201.358        -936.121  
  -5842262.073    -4537995.462    23026341.473    23026341.461    23026348.153  
     -1647.641       -1283.875  
  -4662754.999    -3617640.238    24551854.748    24551854.761    24551861.936  
     -2406.599       -1875.267  
 99  8  1  0 43  0.0000000  0  8  1 14 15 21 22 25 29 30            
 -18792338.109   -14615794.643    21462956.493    21462956.098    21462962.221  
       733.468         571.532  
 -12621053.977    -9823464.119    22968127.457    22968127.197    22968135.100  
      3029.474        2360.618  
  -7398853.746    -5752172.439    22504524.313    22504523.701    22504532.266  
     -1659.759       -1293.319  
  11041777.095     8611390.609    23360860.777    23360860.228    23360869.482  
     -3402.256       -2651.100  
 -11930610.603    -9273735.415    22026879.330    22026878.474    22026887.053  
      3042.959        2371.133  
 -18352395.671   -14276165.368    21054837.883    21054837.791    21054842.989  
     -1210.645        -943.363  
  -5792778.177    -4499436.599    23035758.016    23035757.982    23035764.670  
     -1651.188       -1286.645  
  -4590362.493    -3561230.551    24565630.179    24565630.318    24565637.735  
     -2419.493       -1885.326  
 99  8  1  0 43 30.0000000  0  8  1 14 15 21 22 25 29 30            
 -18814286.023   -14632896.896    21458779.956    21458779.539    21458785.624  
       729.889         568.740  
 -12711833.526    -9894201.344    22950852.443    22950852.274    22950860.246  
      3022.465        2355.168  
  -7348833.070    -5713195.370    22514042.972    22514042.377    22514050.935  
     -1674.864       -1305.083  
  11143995.198     8691040.940    23380312.210    23380311.697    23380321.012  
     -3412.267       -2658.900  
 -12021745.585    -9344749.583    22009536.826    22009536.080    22009544.419  
      3032.754        2363.183  
 -18315925.814   -14247747.300    21061777.857    21061777.757    21061782.995  
     -1220.606        -951.124  
  -5743183.414    -4460791.359    23045195.513    23045195.574    23045202.239  
     -1655.054       -1289.651  
  -4517576.061    -3504513.868    24579480.555    24579480.838    24579488.380  
     -2432.871       -1895.745  
 99  8  1  0 44  0.0000000  0  8  1 14 15 21 22 25 29 30            
 -18836132.090   -14649919.782    21454622.751    21454622.336    21454628.501  
       726.417         566.044  
 -12802394.877    -9964768.559    22933618.943    22933618.903    22933626.781  
      3014.860        2349.239  
  -7298365.048    -5673869.687    22523646.913    22523646.291    22523654.684  
     -1689.703       -1316.651  
  11246515.615     8770926.838    23399821.167    23399820.715    23399830.163  
     -3422.291       -2666.712  
 -12112575.592    -9415526.097    21992252.646    21992251.765    21992259.904  
      3022.619        2355.280  
 -18279158.503   -14219097.446    21068774.463    21068774.357    21068779.623  
     -1230.593        -958.903  
  -5693480.843    -4422062.091    23054653.577    23054653.542    23054660.341  
     -1658.527       -1292.355  
  -4444385.689    -3447482.418    24593407.942    24593408.296    24593415.926  
     -2446.462       -1906.339  
 99  8  1  0 44 30.0000000  0  8  1 14 15 21 22 25 29 30            
 -18857876.737   -14666863.636    21450484.786    21450484.350    21450490.576  
       723.174         563.510  
 -12892727.124   -10035157.242    22916429.232    22916429.148    22916436.971  
      3007.282        2343.335  
  -7247452.480    -5634197.625    22533335.100    22533334.447    22533343.015  
     -1704.478       -1328.164  
  11349326.589     8851039.154    23419385.452    23419385.004    23419394.659  
     -3431.685       -2674.029  
 -12203099.029    -9486063.742    21975026.595    21975025.719    21975033.722  
      3012.201        2347.161  
 -18242101.872   -14190222.141    21075826.096    21075826.003    21075831.275  
     -1239.793        -966.075  
  -5643669.911    -4383248.403    23064132.262    23064132.226    23064139.057  
     -1662.239       -1295.249  
  -4370798.190    -3390141.548    24607411.239    24607411.609    24607419.124  
     -2459.301       -1916.342  
 99  8  1  0 45  0.0000000  0  8  1 14 15 21 22 25 29 30            
 -18879526.760   -14683733.762    21446364.693    21446364.321    21446370.632  
       720.297         561.272  
 -12982832.036   -10105368.778    22899282.724    22899282.627    22899290.471  
      2999.832        2337.526  
  -7196098.148    -5594181.324    22543107.374    22543106.882    22543115.475  
     -1719.033       -1339.504  
  11452411.835     8931365.161    23439002.039    23439001.588    23439011.275  
     -3440.393       -2680.824  
 -12293307.107    -9556355.643    21957860.343    21957859.561    21957867.598  
      3001.821        2339.086  
 -18204767.946   -14161130.768    21082930.500    21082930.359    21082935.724  
     -1249.147        -973.360  
  -5593751.452    -4344350.899    23073631.456    23073631.388    23073638.225  
     -1665.446       -1297.749  
  -4296823.412    -3332498.884    24621488.284    24621488.682    24621496.040  
     -2472.223       -1926.408  
 99  8  1  0 45 30.0000000  0  8  1 14 15 21 22 25 29 30            
 -18901086.958   -14700533.892    21442261.916    21442261.549    21442267.779  
       717.096         558.771  
 -13072709.284   -10175402.928    22882179.649    22882179.493    22882187.246  
      2991.990        2331.416  
  -7144304.659    -5553822.827    22552963.658    22552962.880    22552971.587  
     -1733.859       -1351.059  
  11555762.177     9011897.756    23458669.334    23458668.789    23458678.418  
     -3449.550       -2687.956  
 -12383194.084    -9626397.341    21940755.130    21940754.416    21940762.553  
      2990.649        2330.367  
 -18167147.973   -14131816.497    21090089.211    21090089.149    21090094.576  
     -1258.780        -980.870  
  -5543726.810    -4305370.676    23083150.669    23083150.671    23083157.596  
     -1669.691       -1301.057  
  -4222453.410    -3274548.247    24635640.467    24635640.871    24635648.285  
     -2485.853       -1937.031  
 99  8  1  0 46  0.0000000  0  8  1 14 15 21 22 25 29 30            
 -18922556.320   -14717263.236    21438176.495    21438176.057    21438182.251  
       713.889         556.274  
 -13162354.972   -10245256.640    22865120.597    22865120.425    22865128.159  
      2984.306        2325.428  
  -7092074.909    -5513124.378    22562902.316    22562901.813    22562910.714  
     -1748.234       -1362.260  
  11659365.774     9092627.686    23478384.670    23478384.082    23478393.673  
     -3457.412       -2694.081  
 -12472752.435    -9696182.971    21923712.667    21923711.865    21923720.081  
      2979.674        2321.816  
 -18129243.194   -14102280.299    21097302.306    21097302.222    21097307.655  
     -1268.434        -988.393  
  -5493574.002    -4266290.580    23092694.408    23092694.449    23092701.330  
     -1674.181       -1304.555  
  -4147684.126    -3216286.481    24649868.946    24649869.210    24649876.611  
     -2498.769       -1947.085  
 99  8  1  0 46 30.0000000  0  8  1 14 15 21 22 25 29 30            
 -18943925.370   -14733914.412    21434110.109    21434109.703    21434115.917  
       710.433         553.584  
 -13251770.384   -10314930.915    22848105.438    22848105.271    22848112.967  
      2976.621        2319.444  
  -7039411.583    -5472088.066    22572924.059    22572923.401    22572932.313  
     -1762.771       -1373.596  
  11763197.637     9173535.493    23498143.314    23498142.831    23498152.307  
     -3464.951       -2699.952  
 -12561968.491    -9765701.881    21906735.255    21906734.411    21906742.803  
      2968.014        2312.739  
 -18091042.235   -14072513.312    21104571.755    21104571.635    21104577.048  
     -1278.373        -996.138  
  -5443270.489    -4227093.047    23102266.956    23102266.937    23102273.720  
     -1679.587       -1308.771  
  -4072525.245    -3157721.111    24664171.396    24664171.581    24664179.070  
     -2512.057       -1957.450  
 99  8  1  0 47  0.0000000  0  8  1 14 15 21 22 25 29 30            
 -18965193.094   -14750486.644    21430063.063    21430062.634    21430068.783  
       707.171         551.042  
 -13340962.214   -10384430.983    22831132.908    22831132.705    22831140.345  
      2969.355        2313.784  
  -6986317.289    -5430715.953    22583027.560    22583026.914    22583035.864  
     -1776.965       -1384.649  
  11867262.525     9254624.854    23517946.154    23517945.720    23517955.244  
     -3472.878       -2706.144  
 -12650842.651    -9834954.398    21889822.719    21889822.057    21889830.497  
      2956.824        2304.008  
 -18052545.612   -14042515.943    21111897.478    21111897.352    21111902.731  
     -1288.033       -1003.659  
  -5392811.131    -4187774.098    23111869.071    23111869.075    23111875.714  
     -1684.513       -1312.608  
  -3996964.304    -3098842.487    24678550.121    24678550.380    24678557.981  
     -2525.331       -1967.797  
 99  8  1  0 47 30.0000000  0  8  1 14 15 21 22 25 29 30            
 -18986350.568   -14766972.967    21426036.981    21426036.493    21426042.619  
       703.275         548.009  
 -13429934.559   -10453759.997    22814202.036    22814201.815    22814209.519  
      2962.063        2308.102  
  -6932794.928    -5389010.267    22593212.624    22593211.923    22593220.911  
     -1791.148       -1395.698  
  11971572.979     9335905.598    23537795.853    23537795.397    23537804.913  
     -3481.176       -2712.591  
 -12739371.874    -9903938.119    21872976.175    21872975.478    21872983.862  
      2945.167        2294.927  
 -18013764.872   -14012297.178    21119277.277    21119277.133    21119282.472  
     -1297.248       -1010.842  
  -5342192.065    -4148330.681    23121501.542    23121501.554    23121508.110  
     -1689.959       -1316.845  
  -3921007.455    -3039655.339    24693004.280    24693004.475    24693012.197  
     -2538.421       -1977.984  
 99  8  1  0 48  0.0000000  0  8  1 14 15 21 22 25 29 30            
 -19007381.361   -14783360.580    21422034.923    21422034.486    21422040.545  
       698.716         544.458  
 -13518680.383   -10522912.506    22797314.180    22797313.980    22797321.761  
      2954.421        2302.145  
  -6878847.531    -5346973.407    22603478.312    22603477.755    22603486.893  
     -1805.305       -1406.720  
  12076136.101     9417383.217    23557693.669    23557693.157    23557702.874  
     -3489.848       -2719.374  
 -12827551.414    -9972649.368    21856196.247    21856195.464    21856203.728  
      2933.496        2285.840  
 -17974707.006   -13981862.475    21126709.834    21126709.659    21126714.939  
     -1306.595       -1018.125  
  -5291416.224    -4108765.097    23131163.907    23131163.856    23131170.433  
     -1694.888       -1320.695  
  -3844666.189    -2980168.679    24707531.565    24707531.728    24707539.576  
     -2550.839       -1987.665  
 99  8  1  0 48 30.0000000  0  8  1 14 15 21 22 25 29 30            
 -19028278.612   -14799644.130    21418058.270    21418057.861    21418063.898  
       694.341         541.040  
 -13607207.213   -10591894.379    22780468.155    22780467.828    22780475.603  
      2947.182        2296.500  
  -6824477.586    -5304607.256    22613824.911    22613824.177    22613833.251  
     -1819.415       -1417.730  
  12180966.644     9499069.192    23577642.269    23577641.814    23577651.788  
     -3499.154       -2726.607  
 -12915386.896   -10041092.519    21839481.689    21839480.918    21839489.025  
      2922.250        2277.073  
 -17935377.007   -13951215.719    21134194.073    21134193.956    21134199.177  
     -1315.384       -1024.976  
  -5240510.862    -4069098.595    23140850.806    23140850.876    23140857.484  
     -1698.666       -1323.644  
  -3767955.323    -2920394.021    24722129.196    24722129.393    24722137.125  
     -2563.256       -1997.334  
 99  8  1  0 49  0.0000000  0  8  1 14 15 21 22 25 29 30            
 -19049040.814   -14815822.452    21414107.373    21414106.972    21414112.964  
       689.669         537.398  
 -13695509.116   -10660700.987    22763664.790    22763664.449    22763672.276  
      2939.308        2290.366  
  -6769688.010    -5261914.155    22624250.774    22624250.247    22624259.404  
     -1833.369       -1428.608  
  12286089.458     9580982.925    23597646.658    23597646.116    23597656.293  
     -3508.979       -2734.275  
 -13002888.120   -10109275.208    21822830.780    21822829.944    21822837.998  
      2911.117        2268.397  
 -17895782.406   -13920362.783    21141728.701    21141728.577    21141733.731  
     -1324.445       -1032.039  
  -5189507.759    -4029355.919    23150556.502    23150556.485    23150563.243  
     -1701.727       -1326.015  
  -3690877.344    -2860333.279    24736796.539    24736796.794    24736804.564  
     -2575.250       -2006.695  
 99  8  1  0 49 30.0000000  0  8  1 14 15 21 22 25 29 30            
 -19069656.224   -14831886.389    21410184.404    21410183.998    21410189.976  
       684.680         533.514  
 -13783560.360   -10729312.276    22746909.133    22746908.833    22746916.645  
      2930.581        2283.564  
  -6714481.492    -5218896.136    22634756.401    22634755.840    22634764.806  
     -1847.180       -1439.366  
  12391497.519     9663118.906    23617705.103    23617704.638    23617714.959  
     -3518.219       -2741.464  
 -13090053.019   -10177195.831    21806243.723    21806242.978    21806250.959  
      2899.945        2259.693  
 -17855904.897   -13889289.396    21149317.144    21149317.012    21149322.058  
     -1334.120       -1039.571  
  -5138412.737    -3989541.640    23160279.575    23160279.481    23160286.461  
     -1704.728       -1328.356  
  -3613441.849    -2799993.964    24751532.058    24751532.204    24751540.046  
     -2587.436       -2016.182  
 99  8  1  0 50  0.0000000  0  8  1 14 15 21 22 25 29 30            
 -19090126.119   -14847836.941    21406289.165    21406288.694    21406294.727  
       680.077         529.926  
 -13871347.874   -10797718.050    22730203.618    22730203.333    22730211.179  
      2922.109        2276.963  
  -6658861.003    -5175555.572    22645340.879    22645340.204    22645349.083  
     -1860.844       -1450.005  
  12497180.865     9745469.382    23637815.897    23637815.492    23637826.067  
     -3527.250       -2748.489  
 -13176889.691   -10244860.678    21789719.202    21789718.442    21789726.461  
      2889.155        2251.285  
 -17815736.272   -13857989.167    21156960.945    21156960.806    21156965.854  
     -1343.786       -1047.105  
  -5087233.244    -3949661.540    23170018.422    23170018.495    23170025.626  
     -1707.328       -1330.390  
  -3535637.244    -2739367.034    24766337.591    24766337.914    24766345.818  
     -2599.576       -2025.636  
 99  8  1  0 50 30.0000000  0  8  1 14 15 21 22 25 29 30            
 -19110465.980   -14863686.170    21402418.565    21402418.128    21402424.205  
       676.162         526.881  
 -13958884.052   -10865927.989    22713546.057    22713545.692    22713553.505  
      2913.568        2270.309  
  -6602829.722    -5131894.889    22656003.454    22656002.746    22656011.601  
     -1874.497       -1460.644  
  12603128.695     9828025.950    23657977.361    23657976.848    23657987.501  
     -3535.755       -2755.129  
 -13263388.302   -10312262.116    21773259.096    21773258.311    21773266.232  
      2877.509        2242.203  
 -17775272.608   -13826459.034    21164660.844    21164660.708    21164665.796  
     -1353.515       -1054.688  
  -5035967.169    -3909713.957    23179774.064    23179774.127    23179781.223  
     -1710.474       -1332.836  
  -3457457.172    -2678447.547    24781214.905    24781215.222    24781223.069  
     -2612.402       -2035.631  
 99  8  1  0 51  0.0000000  0  9  1 14 15 16 21 22 25 29 30         
 -19130697.743   -14879451.161    21398568.557    21398568.140    21398574.217  
       672.762         524.226  
 -14046153.746   -10933930.268    22696939.099    22696938.773    22696946.540  
      2904.546        2263.273  
  -6546390.049    -5087916.006    22666743.487    22666742.763    22666751.818  
     -1888.048       -1471.199  
   -244835.1113    -168874.6933   25520308.4473   25520313.9943   25520412.1153 
      3478.6343       2714.7083 
  12709312.583     9910766.452    23678183.395    23678182.982    23678193.809  
     -3542.885       -2760.689  
 -13349532.160   -10379387.116    21756866.525    21756865.694    21756873.455  
      2865.540        2232.888  
 -17734523.437   -13794706.435    21172415.005    21172414.910    21172420.103  
     -1362.956       -1062.041  
  -4984588.896    -3869678.958    23189551.309    23189551.181    23189558.207  
     -1714.714       -1336.147  
  -3378890.338    -2617226.675    24796165.980    24796166.137    24796173.914  
     -2625.258       -2045.649  
 99  8  1  0 51 30.0000000  0  8  1 14 15 21 22 25 29 30            
 -19150833.564   -14895141.397    21394736.944    21394736.492    21394742.461  
       669.764         521.892  
 -14133159.562   -11001726.938    22680382.389    22680382.116    22680389.790  
      2896.001        2256.618  
  -6489545.008    -5043621.229    22677560.868    22677560.144    22677569.168  
     -1901.584       -1481.755  
  12815705.095     9993669.513    23698429.257    23698428.936    23698439.705  
     -3550.035       -2766.251  
 -13435311.554   -10446228.108    21740543.296    21740542.417    21740550.032  
      2853.082        2223.174  
 -17693499.345   -13762739.611    21180221.571    21180221.489    21180226.748  
     -1371.806       -1068.942  
  -4933076.145    -3829539.164    23199353.907    23199353.838    23199360.791  
     -1719.536       -1339.901  
  -3299938.596    -2555705.842    24811190.039    24811190.116    24811197.793  
     -2638.211       -2055.756  
 99  8  1  0 52  0.0000000  0  8  1 14 15 21 22 25 29 30            
 -19170889.502   -14910769.382    21390920.477    21390920.016    21390925.882  
       667.366         520.026  
 -14219925.018   -11069336.326    22663871.510    22663871.192    22663878.710  
      2888.392        2250.689  
  -6432297.550    -4999012.907    22688454.787    22688454.043    22688463.053  
     -1914.766       -1492.028  
  12922315.525    10076742.386    23718716.710    23718716.410    23718727.163  
     -3557.189       -2771.829  
 -13520712.964   -10512774.567    21724291.802    21724291.035    21724298.576  
      2840.337        2213.241  
 -17652223.710   -13730576.775    21188076.057    21188075.954    21188081.179  
     -1379.939       -1075.277  
  -4881414.214    -3789283.122    23209184.814    23209184.790    23209191.671  
     -1724.485       -1343.763  
  -3220598.087    -2493882.086    24826287.953    24826288.072    24826295.847  
     -2650.838       -2065.592  
 99  8  1  0 52 30.0000000  0  8  1 14 15 21 22 25 29 30            
 -19190872.159   -14926340.269    21387117.892    21387117.429    21387123.232  
       664.850         518.070  
 -14306454.782   -11136762.039    22647405.287    22647405.030    22647412.537  
      2880.201        2244.306  
  -6374650.584    -4954093.257    22699424.721    22699424.062    22699432.963  
     -1928.187       -1502.473  
  13029140.138    10159982.155    23739045.131    23739044.659    23739055.288  
     -3564.405       -2777.451  
 -13605725.149   -10579017.725    21708114.505    21708113.674    21708121.166  
      2827.453        2203.209  
 -17610700.915   -13698221.344    21195977.561    21195977.460    21195982.657  
     -1388.095       -1081.630  
  -4829600.110    -3748908.504    23219044.698    23219044.671    23219051.414  
     -1729.696       -1347.814  
  -3140881.180    -2431765.013    24841457.268    24841457.633    24841465.586  
     -2663.371       -2075.367  
 99  8  1  0 53  0.0000000  0  8  1 14 15 21 22 25 29 30            
 -19210774.581   -14941848.633    21383330.534    21383330.100    21383335.827  
       661.692         515.603  
 -14392733.805   -11203992.372    22630986.758    22630986.512    22630994.074  
      2871.741        2237.712  
  -6316607.246    -4908864.741    22710469.987    22710469.373    22710478.318  
     -1941.426       -1512.795  
  13136187.570    10243395.535    23759415.570    23759415.216    23759425.856  
     -3572.256       -2783.585  
 -13690369.490   -10644974.261    21692007.148    21692006.301    21692013.699  
      2815.399        2193.819  
 -17568938.924   -13665679.528    21203924.653    21203924.545    21203929.662  
     -1396.271       -1088.003  
  -4777635.936    -3708416.931    23228933.203    23228933.108    23228939.723  
     -1734.587       -1351.626  
  -3060791.025    -2369357.157    24856697.873    24856698.264    24856706.330  
     -2675.919       -2085.109  
 99  8  1  0 53 30.0000000  0  8  1 14 15 21 22 25 29 30            
 -19230567.796   -14957271.901    21379563.973    21379563.538    21379569.301  
       657.751         512.530  
 -14478762.074   -11271027.312    22614616.034    22614615.786    22614623.376  
      2863.386        2231.204  
  -6258169.881    -4863329.195    22721590.335    22721589.695    22721598.561  
     -1954.425       -1522.930  
  13243480.883    10327000.542    23779832.903    23779832.579    23779843.211  
     -3580.849       -2790.256  
 -13774651.780   -10710648.680    21675968.591    21675967.810    21675975.183  
      2803.498        2184.544  
 -17526930.402   -13632945.613    21211918.673    21211918.536    21211923.585  
     -1404.345       -1094.293  
  -4725535.842    -3667819.463    23238847.566    23238847.350    23238854.068  
     -1738.899       -1354.984  
  -2980333.754    -2306663.198    24872008.377    24872008.818    24872016.749  
     -2688.162       -2094.678  
 99  8  1  0 54  0.0000000  0  8  1 14 15 21 22 25 29 30            
 -19250232.046   -14972594.675    21375821.992    21375821.540    21375827.365  
       652.953         508.794  
 -14564529.986   -11337859.390    22598294.821    22598294.620    22598302.192  
      2854.085        2223.963  
  -6199341.899    -4817489.287    22732785.098    22732784.415    22732793.248  
     -1967.539       -1533.144  
  13351030.234    10410805.074    23800299.117    23800298.784    23800309.356  
     -3589.236       -2796.808  
 -13858581.850   -10776048.643    21659997.183    21659996.395    21660003.701  
      2791.746        2175.381  
 -17484676.972   -13600020.855    21219959.242    21219959.116    21219964.125  
     -1412.767       -1100.859  
  -4673309.284    -3627123.447    23248785.953    23248785.734    23248792.534  
     -1742.852       -1358.072  
  -2899506.622    -2243681.090    24887389.200    24887389.669    24887397.759  
     -2700.264       -2104.099  
 99  8  1  0 54 30.0000000  0  8  1 14 15 21 22 25 29 30            
 -19269745.216   -14987799.719    21372108.725    21372108.262    21372114.106  
       647.737         504.727  
 -14650013.478   -11404469.833    22582027.759    22582027.570    22582035.087  
      2844.594        2216.567  
  -6140126.098    -4771347.173    22744053.623    22744052.927    22744061.718  
     -1980.330       -1543.112  
  13458826.154    10494801.712    23820812.120    23820811.776    23820822.343  
     -3597.357       -2803.129  
 -13942162.858   -10841176.600    21644092.277    21644091.417    21644098.640  
      2780.103        2166.310  
 -17442176.531   -13566903.629    21228046.801    21228046.676    21228051.664  
     -1420.721       -1107.049  
  -4620974.853    -3586343.392    23258744.718    23258744.613    23258751.570  
     -1746.435       -1360.863  
  -2818328.828    -2180425.707    24902836.822    24902837.349    24902845.372  
     -2711.848       -2113.110  
 99  8  1  0 55  0.0000000  0  8  1 14 15 21 22 25 29 30            
 -19289090.456   -15002873.909    21368427.397    21368426.964    21368432.798  
       641.897         500.178  
 -14735208.028   -11470855.133    22565815.787    22565815.584    22565822.990  
      2835.058        2209.134  
  -6080525.419    -4724905.164    22755395.293    22755394.594    22755403.471  
     -1993.048       -1553.026  
  13566868.804    10578990.620    23841371.864    23841371.587    23841382.201  
     -3605.435       -2809.419  
 -14025383.820   -10906024.009    21628255.697    21628254.864    21628262.047  
      2767.655        2156.612  
 -17399437.181   -13533600.229    21236179.928    21236179.762    21236184.722  
     -1428.764       -1113.320  
  -4568523.452    -3545472.192    23268725.830    23268725.791    23268732.921  
     -1750.397       -1363.951  
  -2736800.615    -2116897.264    24918351.155    24918351.724    24918359.613  
     -2723.345       -2122.087  
 99  8  1  0 55 30.0000000  0  8  1 14 15 21 22 25 29 30            
 -19308262.925   -15017813.473    21364778.962    21364778.553    21364784.368  
       636.524         495.992  
 -14820123.122   -11537022.668    22549656.896    22549656.758    22549664.091  
      2826.079        2202.141  
  -6020543.090    -4678165.774    22766809.549    22766808.930    22766817.941  
     -2005.720       -1562.893  
  13675143.492    10663360.331    23861975.890    23861975.792    23861986.245  
     -3612.883       -2815.234  
 -14108218.816   -10970570.662    21612492.581    21612491.732    21612498.996  
      2754.754        2146.555  
 -17356456.338   -13500108.657    21244359.000    21244358.798    21244363.714  
     -1436.721       -1119.523  
  -4515948.333    -3504504.588    23278730.574    23278730.582    23278737.717  
     -1754.622       -1367.241  
  -2654933.091    -2053104.473    24933930.259    24933930.765    24933938.384  
     -2734.522       -2130.787  
 99  8  1  0 56  0.0000000  0  8  1 14 15 21 22 25 29 30            
 -19327294.005   -15032642.862    21361157.430    21361157.030    21361162.880  
       632.294         492.700  
 -14904771.390   -11602982.279    22533548.937    22533548.731    22533555.979  
      2817.183        2195.207  
  -5960181.929    -4631131.194    22778296.014    22778295.407    22778304.365  
     -2018.354       -1572.741  
  13783636.243    10747899.951    23882621.891    23882621.570    23882631.845  
     -3619.905       -2820.700  
 -14190659.098   -11034809.756    21596804.587    21596803.799    21596811.105  
      2741.297        2136.074  
 -17313233.182   -13466428.259    21252584.030    21252583.894    21252588.793  
     -1444.936       -1125.925  
  -4463244.336    -3463436.553    23288760.009    23288759.943    23288766.983  
     -1758.900       -1370.570  
  -2572731.576    -1989051.382    24949572.859    24949573.275    24949580.876  
     -2745.541       -2139.383  
 99  8  1  0 56 30.0000000  0  9  1 14 15 16 21 22 25 29 30         
 -19346212.829   -15047384.781    21357557.284    21357556.865    21357562.774  
       629.178         490.268  
 -14989163.038   -11668741.927    22517489.832    22517489.518    22517496.725  
      2808.916        2188.764  
  -5899444.953    -4583803.763    22789853.991    22789853.411    22789862.332  
     -2030.702       -1582.352  
    -42632.1473          0.0003          0.0003   25302177.9893          0.0003 
      3469.1763          0.0003 
  13892339.229    10832603.365    23903307.768    23903307.304    23903317.529  
     -3626.779       -2826.056  
 -14272689.521   -11098729.477    21581194.728    21581193.985    21581201.208  
      2727.547        2125.357  
 -17269758.599   -13432551.950    21260856.980    21260856.831    21260861.727  
     -1453.322       -1132.455  
  -4410407.040    -3422264.653    23298814.729    23298814.703    23298821.496  
     -1763.693       -1374.309  
  -2490200.063    -1924741.017    24965278.274    24965278.603    24965286.070  
     -2756.618       -2148.020  
 99  8  1  0 57  0.0000000  0  9  1 14 15 16 21 22 25 29 30         
 -19365047.261   -15062060.938    21353973.129    21353972.712    21353978.694  
       626.458         488.147  
 -15073298.283   -11734301.768    22501479.247    22501479.051    22501486.324  
      2800.009        2181.827  
  -5838335.327    -4536185.956    22801482.826    22801482.235    22801491.163  
     -2043.188       -1592.092  
   -146681.1763       -643.8963          0.0003   25282378.1053   25307456.8133 
      3467.4083       2702.2783 
  14001247.311    10917466.592    23924032.409    23924031.939    23924042.298  
     -3633.768       -2831.514  
 -14354308.504   -11162328.591    21565663.192    21565662.354    21565669.525  
      2713.907        2114.730  
 -17226022.690   -13398472.009    21269179.613    21269179.499    21269184.394  
     -1462.468       -1139.587  
  -4357421.473    -3380977.218    23308897.731    23308897.570    23308904.240  
     -1768.521       -1378.057  
  -2407322.079    -1860160.681    24981049.677    24981049.808    24981057.224  
     -2768.412       -2157.226  
 99  8  1  0 57 30.0000000  0  9  1 14 15 16 21 22 25 29 30         
 -19383812.833   -15076683.442    21350402.048    21350401.654    21350407.685  
       624.561         486.671  
 -15157162.269   -11799650.248    22485520.367    22485520.259    22485527.471  
      2790.721        2174.583  
  -5776855.806    -4488279.920    22813181.944    22813181.326    22813190.427  
     -2055.515       -1601.700  
   -250674.3423    -184382.5533   25262586.3473   25262588.8533   25262652.1653 
      3465.3533       2699.2383 
  14110362.656    11002491.313    23944796.623    23944795.997    23944806.522  
     -3640.846       -2837.012  
 -14435527.085   -11225615.704    21550207.756    21550206.960    21550214.091  
      2700.731        2104.459  
 -17182009.871   -13364176.299    21277554.997    21277554.845    21277559.849  
     -1471.644       -1146.738  
  -4304304.591    -3339587.459    23319005.391    23319005.276    23319011.945  
     -1772.533       -1381.192  
  -2324092.559    -1795306.478    24996887.686    24996887.898    24996895.277  
     -2780.184       -2166.376  
 99  8  1  0 58  0.0000000  0  9  1 14 15 16 21 22 25 29 30         
 -19402521.436   -15091261.548    21346841.954    21346841.537    21346847.523  
       622.176         484.808  
 -15240734.420   -11864771.319    22469617.085    22469616.958    22469624.098  
      2780.504        2166.624  
  -5715009.608    -4440088.164    22824950.832    22824950.203    22824959.400  
     -2067.726       -1611.217  
   -354608.7903      -3395.7293          0.0003   25242812.6103   25245790.6193 
      3463.3953       2699.7883 
  14219692.272    11087682.990    23965601.666    23965600.851    23965611.437  
     -3648.108       -2842.690  
 -14516347.957   -11288592.921    21534827.929    21534827.188    21534834.366  
      2687.178        2093.899  
 -17137722.475   -13329666.625    21285982.627    21285982.445    21285987.510  
     -1480.887       -1153.941  
  -4251072.708    -3298108.086    23329135.121    23329134.927    23329141.482  
     -1776.400       -1384.207  
  -2240503.138    -1730171.876    25012794.347    25012794.391    25012801.886  
     -2792.526       -2175.992  
 99  8  1  0 58 30.0000000  0  9  1 14 15 16 21 22 25 29 30         
 -19421142.875   -15105771.733    21343298.452    21343297.971    21343303.925  
       619.074         482.390  
 -15323994.434   -11929649.170    22453773.295    22453773.100    22453780.146  
      2770.041        2158.463  
  -5652799.631    -4391612.943    22836788.977    22836788.339    22836797.661  
     -2079.652       -1620.515  
   -458487.2013      -3395.7293          0.0002   25223045.1953   25245790.6193 
      3461.5963       2699.7883 
  14329249.145    11173051.762    23986449.501    23986448.809    23986459.490  
     -3655.557       -2848.472  
 -14596764.862   -11351255.347    21519525.123    21519524.294    21519531.530  
      2673.870        2083.527  
 -17093164.181   -13294945.869    21294461.814    21294461.627    21294466.713  
     -1489.477       -1160.636  
  -4197726.586    -3256539.706    23339286.388    23339286.397    23339292.791  
     -1780.108       -1387.102  
  -2156548.787    -1664752.879    25028769.969    25028770.399    25028777.813  
     -2804.352       -2185.211  
 99  8  1  0 59  0.0000000  0  9  1 14 15 16 21 22 25 29 30         
 -19439649.703   -15120192.616    21339776.722    21339776.267    21339782.191  
       614.694         478.979  
 -15406931.110   -11994275.073    22437991.034    22437990.763    22437997.782  
      2759.368        2150.148  
  -5590228.855    -4342856.585    22848695.839    22848695.149    22848704.573  
     -2091.635       -1629.842  
   -562308.0623      -3395.7293          0.0002   25203288.7283   25245790.6193 
      3459.8533       2699.7883 
  14439024.534    11258590.800    24007339.123    24007338.552    24007349.250  
     -3662.805       -2854.133  
 -14676777.999   -11413603.165    21504299.179    21504298.264    21504305.548  
      2660.469        2073.090  
 -17048354.445   -13260029.185    21302988.775    21302988.585    21302993.730  
     -1497.636       -1166.991  
  -4144269.050    -3214884.505    23349459.177    23349459.071    23349465.344  
     -1783.577       -1389.790  
  -2072238.018    -1599056.159    25044813.913    25044814.228    25044821.474  
     -2816.063       -2194.327  
 99  8  1  0 59 30.0000000  0  8  1 14 15 21 22 25 29 30            
 -19458020.942   -15134507.843    21336280.815    21336280.308    21336286.270  
       610.042         475.358  
 -15489558.753   -12058660.175    22422267.433    22422267.157    22422274.166  
      2749.322        2142.329  
  -5527300.416    -4293821.537    22860670.737    22860670.052    22860679.574  
     -2103.588       -1639.151  
  14549017.383    11344299.308    24028270.481    24028269.852    24028280.431  
     -3669.868       -2859.635  
 -14756382.764   -11475632.770    21489150.620    21489149.840    21489157.138  
      2646.585        2062.275  
 -17003308.684   -13224928.583    21311560.692    21311560.496    21311565.657  
     -1505.182       -1172.869  
  -4090704.185    -3173145.666    23359652.333    23359652.200    23359658.384  
     -1787.510       -1392.864  
  -1987587.513    -1533094.736    25060922.459    25060922.788    25060929.833  
     -2827.213       -2203.019  
 99  8  1  1  0  0.0000000  0  8  1 14 15 21 22 25 29 30            
 -19476231.924   -15148698.191    21332815.320    21332814.862    21332820.803  
       604.059         470.694  
 -15571892.508   -12122816.276    22406599.768    22406599.487    22406606.526  
      2739.807        2134.912  
  -5464017.138    -4244509.986    22872713.263    22872712.496    22872721.981  
     -2115.231       -1648.225  
  14659218.274    11430169.916    24049241.318    24049240.686    24049251.308  
     -3676.704       -2864.949  
 -14835568.321   -11537335.705    21474082.029    21474081.164    21474088.509  
      2632.705        2051.456  
 -16958045.788   -13189658.791    21320173.926    21320173.747    21320178.934  
     -1512.282       -1178.404  
  -4036997.324    -3131296.199    23369872.440    23369872.302    23369878.542  
     -1792.911       -1397.094  
  -1902605.877    -1466875.221    25077094.154    25077094.334    25077101.262  
     -2838.070       -2211.489  
 99  8  1  1  0 30.0000000  0  8  1 14 15 21 22 25 29 30            
 -19494261.860   -15162747.465    21329384.315    21329383.848    21329389.785  
       598.054         466.011  
 -15653939.014   -12186748.545    22390986.593    22390986.408    22390993.531  
      2729.967        2127.246  
  -5400382.545    -4194924.690    22884822.438    22884821.770    22884831.336  
     -2127.074       -1657.460  
  14769615.891    11516193.806    24070249.563    24070248.874    24070259.628  
     -3683.029       -2869.875  
 -14914346.989   -11598721.590    21459090.756    21459089.946    21459097.272  
      2619.193        2040.927  
 -16912572.883   -13154225.350    21328827.120    21328826.947    21328832.117  
     -1519.340       -1183.902  
  -3983119.604    -3089313.587    23380125.033    23380124.896    23380131.188  
     -1798.962       -1401.802  
  -1817307.157    -1400408.651    25093326.035    25093326.139    25093332.969  
     -2848.503       -2219.614  
 99  8  1  1  1  0.0000000  0  8  1 14 15 21 22 25 29 30            
 -19512117.807   -15176661.155    21325986.418    21325985.979    21325991.881  
       592.711         461.854  
 -15735701.854   -12250459.780    22375427.473    22375427.333    22375434.507  
      2721.059        2120.301  
  -5336399.410    -4145067.798    22896997.983    22896997.308    22897006.966  
     -2138.255       -1666.176  
  14880187.721    11602353.472    24091290.874    24091290.196    24091300.997  
     -3688.455       -2874.120  
 -14992725.920   -11659795.995    21444175.670    21444174.895    21444182.156  
      2606.269        2030.859  
 -16866890.141   -13118628.405    21337520.238    21337520.075    21337525.302  
     -1526.136       -1189.196  
  -3929059.086    -3047188.517    23390412.428    23390412.306    23390418.414  
     -1804.732       -1406.289  
  -1731706.547    -1333706.796    25109615.364    25109615.474    25109622.191  
     -2858.043       -2227.050  
 99  8  1  1  1 30.0000000  0  8  1 14 15 21 22 25 29 30            
 -19529815.717   -15190451.707    21322618.596    21322618.131    21322624.050  
       587.387         457.704  
 -15817178.933   -12313948.333    22359922.883    22359922.685    22359929.815  
      2710.731        2112.254  
  -5272071.083    -4094941.927    22909239.219    22909238.598    22909248.255  
     -2150.069       -1675.372  
  14990942.255    11688655.505    24112366.713    24112366.078    24112377.137  
     -3694.943       -2879.191  
 -15070699.556   -11720554.605    21429337.931    21429337.148    21429344.136  
      2592.193        2019.888  
 -16820986.503   -13082859.333    21346255.307    21346255.247    21346260.413  
     -1533.898       -1195.245  
  -3874812.447    -3004918.426    23400735.146    23400735.178    23400741.288  
     -1811.481       -1411.530  
  -1645799.260    -1266766.007    25125963.012    25125963.082    25125969.699  
     -2868.886       -2235.516  
 99  8  1  1  2  0.0000000  0  8  1 14 15 21 22 25 29 30            
 -19547365.170   -15204126.581    21319279.033    21319278.561    21319284.455  
       582.660         454.018  
 -15898345.322   -12377194.813    22344477.423    22344477.260    22344484.213  
      2700.156        2104.019  
  -5207400.453    -4044549.313    22921545.823    22921545.218    22921554.701  
     -2161.452       -1684.241  
  15101877.693    11775098.500    24133476.862    24133476.300    24133487.584  
     -3700.950       -2883.843  
 -15148261.075   -11780992.073    21414578.619    21414577.717    21414584.584  
      2578.368        2009.122  
 -16774861.167   -13046917.513    21355032.704    21355032.664    21355037.733  
     -1541.330       -1201.032  
  -3820380.866    -2962504.208    23411093.262    23411093.221    23411099.310  
     -1817.213       -1416.005  
  -1559583.495    -1199584.801    25142369.208    25142369.342    25142376.034  
     -2879.091       -2243.447  
 99  8  1  1  2 30.0000000  0  8  1 14 15 21 22 25 29 30            
 -19564794.414   -15217707.777    21315962.433    21315961.898    21315967.730  
       579.314         451.411  
 -15979188.757   -12440189.642    22329093.535    22329093.330    22329100.084  
      2689.422        2095.649  
  -5142390.516    -3993892.312    22933917.157    22933916.441    22933925.787  
     -2172.624       -1692.952  
  15212999.420    11861686.637    24154622.567    24154622.082    24154633.548  
     -3707.205       -2888.730  
 -15225400.044   -11841100.280    21399899.526    21399898.621    21399905.436  
      2563.966        1997.889  
 -16728509.252   -13010799.142    21363853.289    21363853.177    21363858.206  
     -1548.853       -1206.897  
  -3765797.544    -2919971.765    23421480.011    23421480.042    23421486.265  
     -1821.501       -1419.360  
  -1473052.472    -1132157.934    25158835.191    25158835.427    25158842.344  
     -2889.709       -2251.744  
 99  8  1  1  3  0.0000000  0  8  1 14 15 21 22 25 29 30            
 -19582125.911   -15231212.810    21312664.382    21312663.839    21312669.620  
       576.181         448.974  
 -16059712.308   -12502935.208    22313770.411    22313770.209    22313776.894  
      2678.736        2087.334  
  -5077044.545    -3942973.458    22946352.271    22946351.481    22946360.810  
     -2183.756       -1701.628  
  15324315.367    11948426.114    24175805.217    24175804.931    24175816.389  
     -3714.127       -2894.119  
 -15302088.762   -11900857.636    21385306.023    21385305.115    21385312.055  
      2548.682        1985.993  
 -16681929.435   -12974503.184    21372717.234    21372717.090    21372722.067  
     -1556.350       -1212.739  
  -3711099.713    -2877350.091    23431888.625    23431888.633    23431895.038  
     -1824.977       -1422.066  
  -1386196.257    -1064477.684    25175363.061    25175363.386    25175370.426  
     -2900.852       -2260.383  
 99  8  1  1  3 30.0000000  0  9  1 14 15 16 21 22 25 29 30         
 -19599361.882   -15244643.403    21309384.432    21309383.900    21309389.663  
       572.692         446.253  
 -16139910.715   -12565427.419    22298509.133    22298508.908    22298515.609  
      2667.826        2078.822  
  -5011365.812    -3891795.308    22958850.512    22958849.799    22958859.150  
     -2194.837       -1710.265  
    -75199.2923     -20717.1553          0.0003   25025921.7863   25030232.1393 
      3439.2013       2680.2783 
  15435845.814    12035332.735    24197028.799    24197028.645    24197040.046  
     -3721.300       -2899.720  
 -15378316.169   -11960255.523    21370800.277    21370799.434    21370806.430  
      2533.345        1974.036  
 -16635129.016   -12938035.325    21381623.118    21381622.975    21381627.952  
     -1563.666       -1218.439  
  -3656304.392    -2834652.447    23442315.884    23442315.882    23442322.274  
     -1828.164       -1424.551  
  -1299003.496     -996535.163    25191955.153    25191955.510    25191962.538  
     -2912.013       -2269.102  
 99  8  1  1  4  0.0000000  0  9  1 14 15 16 21 22 25 29 30         
 -19616487.591   -15257988.067    21306125.412    21306124.935    21306130.682  
       569.035         443.396  
 -16219786.528   -12627668.258    22283309.322    22283308.992    22283315.777  
      2657.438        2070.724  
  -4945357.522    -3840360.363    22971411.602    22971410.816    22971420.134  
     -2205.725       -1718.741  
   -178337.8733     -20717.1553          0.0003   25006295.1553   25030232.1393 
      3436.9793       2680.2783 
  15547591.977    12122407.444    24218293.496    24218293.439    24218304.721  
     -3728.302       -2905.145  
 -15454090.505   -12019300.376    21356380.875    21356380.021    21356387.024  
      2518.314        1962.317  
 -16588111.314   -12901398.156    21390570.241    21390570.126    21390575.115  
     -1570.881       -1224.066  
  -3601415.390    -2791881.819    23452760.947    23452760.887    23452767.438  
     -1831.160       -1426.880  
  -1211480.605     -928335.415    25208610.076    25208610.388    25208617.583  
     -2922.883       -2277.574  
 99  8  1  1  4 30.0000000  0  9  1 14 15 16 21 22 25 29 30         
 -19633501.806   -15271245.855    21302887.710    21302887.305    21302892.926  
       565.189         440.408  
 -16299354.572   -12689669.274    22268167.952    22268167.649    22268174.526  
      2647.191        2062.747  
  -4879022.365    -3788670.721    22984034.831    22984034.087    22984043.436  
     -2216.540       -1727.174  
   -281432.3563    -197498.1553          0.0003   24986676.9153   24987104.6653 
      3436.0743       2676.2983 
  15659543.356    12209642.066    24239597.616    24239597.344    24239608.511  
     -3734.893       -2910.301  
 -15529415.634   -12077995.200    21342046.941    21342046.057    21342053.025  
      2503.496        1950.772  
 -16540879.045   -12864593.789    21399558.251    21399558.114    21399563.037  
     -1577.773       -1229.434  
  -3546437.469    -2749041.895    23463222.672    23463222.727    23463229.537  
     -1834.153       -1429.201  
  -1123628.6451    -859879.2351   25225327.3171   25225327.7501   25225335.2401 
     -2933.6701      -2285.9711 
 99  8  1  1  5  0.0000000  0  8  1 14 15 21 22 25 29 30            
 -19650387.568   -15284403.555    21299674.517    21299674.072    21299679.591  
       560.423         436.691  
 -16378613.447   -12751429.391    22253085.347    22253085.156    22253092.051  
      2636.658        2054.537  
  -4812363.643    -3736728.954    22996719.624    22996718.863    22996728.302  
     -2227.358       -1735.604  
  15771686.946    12297026.454    24260938.083    24260937.842    24260948.880  
     -3741.321       -2915.313  
 -15604301.952   -12136348.098    21327796.439    21327795.592    21327802.562  
      2489.150        1939.595  
 -16493445.496   -12827632.582    21408584.490    21408584.417    21408589.336  
     -1584.533       -1234.704  
  -3491352.130    -2706118.274    23473705.221    23473705.139    23473711.899  
     -1838.467       -1432.581  
  -1035468.461     -791182.813    25242103.453    25242103.949    25242111.525  
     -2943.790       -2293.862  
 99  8  1  1  5 30.0000000  0  8  1 14 15 21 22 25 29 30            
 -19667129.202   -15297448.947    21296488.648    21296488.216    21296493.693  
       555.456         432.821  
 -16457561.814   -12812947.550    22238061.987    22238061.687    22238068.614  
      2626.385        2046.534  
  -4745384.856    -3684537.780    23009465.348    23009464.577    23009474.078  
     -2238.030       -1743.916  
  15884015.168    12384554.725    24282313.798    24282313.373    24282324.393  
     -3747.264       -2919.940  
 -15678778.064   -12194381.351    21313624.044    21313623.146    21313630.116  
      2475.686        1929.098  
 -16445804.292   -12790509.567    21417650.321    21417650.187    21417655.130  
     -1591.724       -1240.304  
  -3436128.680    -2663087.040    23484213.939    23484213.783    23484220.586  
     -1843.359       -1436.394  
   -947014.318     -722257.356    25258935.673    25258936.103    25258943.855  
     -2953.447       -2301.383  
 99  8  1  1  6  0.0000000  0  8  1 14 15 21 22 25 29 30            
 -19683730.552   -15310385.033    21293329.442    21293329.025    21293334.562  
       551.220         429.525  
 -16536200.353   -12874224.292    22223097.404    22223097.141    22223104.168  
      2616.106        2038.516  
  -4678088.649    -3632099.256    23022271.424    23022270.659    23022280.160  
     -2248.496       -1752.073  
  15996502.789    12472207.213    24303719.599    24303719.229    24303730.330  
     -3752.056       -2923.684  
 -15752846.848   -12252097.205    21299529.094    21299528.228    21299535.228  
      2461.841        1918.316  
 -16397946.070   -12753217.453    21426757.356    21426757.256    21426762.290  
     -1598.913       -1245.908  
  -3380752.649    -2619936.898    23494751.623    23494751.534    23494758.294  
     -1848.603       -1440.474  
   -858276.368     -653110.784    25275821.760    25275822.314    25275829.955  
     -2962.596       -2308.511  
 99  8  1  1  6 30.0000000  0  8  1 14 15 21 22 25 29 30            
 -19700201.309   -15323219.354    21290195.187    21290194.705    21290200.280  
       546.769         426.049  
 -16614524.531   -12935256.077    22208192.544    22208192.380    22208199.549  
      2605.312        2030.108  
  -4610478.485    -3579416.094    23035137.477    23035136.642    23035145.913  
     -2258.850       -1760.142  
  16109133.083    12559970.863    24325152.478    24325152.174    24325163.532  
     -3756.884       -2927.443  
 -15826492.223   -12309483.122    21285514.665    21285513.854    21285520.864  
      2447.782        1907.354  
 -16349871.701   -12715756.908    21435905.592    21435905.479    21435910.568  
     -1606.190       -1251.581  
  -3325211.017    -2576657.730    23505320.926    23505320.749    23505327.391  
     -1854.273       -1444.893  
   -769255.318     -583743.599    25292762.013    25292762.569    25292769.937  
     -2971.974       -2315.818  
 99  8  1  1  7  0.0000000  0  8  1 14 15 21 22 25 29 30            
 -19716534.645   -15335946.606    21287086.966    21287086.535    21287092.116  
       542.140         422.443  
 -16692518.737   -12996030.744    22193350.537    22193350.460    22193357.747  
      2594.331        2021.553  
  -4542557.637    -3526490.837    23048062.304    23048061.580    23048070.844  
     -2269.126       -1768.148  
  16221921.128    12647857.411    24346615.581    24346615.166    24346626.701  
     -3762.285       -2931.628  
 -15899708.331   -12366534.545    21271581.994    21271581.176    21271588.189  
      2433.300        1896.078  
 -16301563.073   -12678113.830    21445098.364    21445098.216    21445103.409  
     -1614.460       -1258.018  
  -3269491.444    -2533239.895    23515924.136    23515923.923    23515930.553  
     -1860.254       -1449.553  
   -679956.694     -514160.157    25309755.001    25309755.560    25309762.483  
     -2981.285       -2323.074  
 99  8  1  1  7 30.0000000  0  8  1 14 15 21 22 25 29 30            
 -19732728.156   -15348564.902    21284005.411    21284004.949    21284010.530  
       537.520         418.849  
 -16770175.647   -13056542.588    22178572.805    22178572.737    22178580.100  
      2582.740        2012.522  
  -4474329.178    -3473325.898    23061045.474    23061044.934    23061054.231  
     -2279.350       -1776.106  
  16334867.820    12735867.570    24368108.780    24368108.380    24368119.937  
     -3767.343       -2935.581  
 -15972477.502   -12423237.725    21257734.298    21257733.539    21257740.497  
      2417.747        1883.953  
 -16252996.227   -12640269.537    21454340.195    21454340.088    21454345.385  
     -1622.997       -1264.674  
  -3213597.122    -2489685.910    23526560.563    23526560.429    23526566.998  
     -1865.907       -1453.956  
   -590367.839     -444350.553    25326803.206    25326803.659    25326810.325  
     -2991.116       -2330.752  
 99  8  1  1  8  0.0000000  0  8  1 14 15 21 22 25 29 30            
 -19748786.506   -15361077.877    21280949.495    21280949.076    21280954.715  
       533.007         415.330  
 -16847472.536   -13116773.894    22163863.664    22163863.605    22163870.974  
      2570.346        2002.872  
  -4405796.083    -3419923.577    23074087.178    23074086.518    23074095.733  
     -2289.522       -1784.035  
  16447968.183    12823997.497    24389631.429    24389630.914    24389642.414  
     -3772.744       -2939.786  
 -16044763.126   -12479564.098    21243978.650    21243977.925    21243984.856  
      2401.410        1871.226  
 -16204186.597   -12602236.058    21463628.298    21463628.154    21463633.505  
     -1630.900       -1270.833  
  -3157536.341    -2446002.178    23537228.572    23537228.531    23537235.128  
     -1871.423       -1458.245  
   -500481.664     -374309.210    25343907.965    25343908.392    25343914.899  
     -3001.154       -2338.569  
 99  8  1  1  8 30.0000000  0  8  1 14 15 21 22 25 29 30            
 -19764701.875   -15373479.447    21277920.886    21277920.487    21277926.095  
       527.962         411.397  
 -16924393.339   -13176712.156    22149226.133    22149226.089    22149233.368  
      2557.633        1992.960  
  -4336961.901    -3366286.654    23087185.993    23087185.344    23087194.565  
     -2299.400       -1791.742  
  16561236.220    12912258.094    24411185.921    24411185.309    24411196.942  
     -3778.563       -2944.338  
 -16116560.799   -12535510.250    21230315.907    21230315.139    21230322.099  
      2385.348        1858.707  
 -16155143.636   -12564020.765    21472960.777    21472960.676    21472965.992  
     -1638.574       -1276.813  
  -3101325.343    -2402201.438    23547925.026    23547925.072    23547931.835  
     -1875.860       -1461.717  
   -410295.404     -304034.056    25361070.097    25361070.274    25361077.018  
     -3011.119       -2346.335  
 99  8  1  1  9  0.0000000  0  8  1 14 15 21 22 25 29 30            
 -19780459.937   -15385758.436    21274922.244    21274921.802    21274927.395  
       522.607         407.229  
 -17000933.826   -13236354.052    22134660.968    22134660.909    22134668.117  
      2545.119        1983.210  
  -4267829.945    -3312417.707    23100341.392    23100340.816    23100350.062  
     -2309.360       -1799.496  
  16674687.231    13000661.286    24432774.881    24432774.402    24432786.180  
     -3784.655       -2949.056  
 -16187876.210   -12591080.616    21216744.976    21216744.188    21216751.213  
      2369.177        1846.112  
 -16105873.281   -12525628.282    21482336.489    21482336.486    21482341.773  
     -1645.868       -1282.495  
  -3044978.775    -2358295.034    23558647.432    23558647.492    23558654.325  
     -1880.552       -1465.362  
   -319809.614     -233525.527    25378289.015    25378289.150    25378296.038  
     -3021.315       -2354.273  
 99  8  1  1  9 30.0000000  0  8  1 14 15 21 22 25 29 30            
 -19796061.987   -15397915.866    21271953.219    21271952.774    21271958.460  
       517.498         403.244  
 -17077101.555   -13295705.494    22120166.831    22120166.629    22120173.790  
      2532.638        1973.488  
  -4198403.197    -3258319.039    23113553.099    23113552.447    23113561.674  
     -2319.189       -1807.164  
  16788309.984    13089198.268    24454396.669    24454396.149    24454408.094  
     -3790.382       -2953.547  
 -16258713.497   -12646278.421    21203265.045    21203264.247    21203271.308  
      2353.322        1833.756  
 -16056406.861   -12487083.018    21491749.638    21491749.631    21491754.824  
     -1651.833       -1287.143  
  -2988500.021    -2314285.639    23569395.077    23569395.101    23569401.977  
     -1884.922       -1468.773  
   -229018.462     -162779.083    25395565.808    25395565.914    25395573.062  
     -3031.448       -2362.166  
 99  8  1  1 10  0.0000000  0  8  1 14 15 21 22 25 29 30            
 -19811518.009   -15409959.507    21269011.916    21269011.530    21269017.252  
       512.661         399.475  
 -17152899.756   -13354768.994    22105742.900    22105742.694    22105749.883  
      2520.483        1964.004  
  -4128684.779    -3203993.130    23126820.174    23126819.441    23126828.805  
     -2328.867       -1814.693  
  16902106.743    13177870.842    24476051.882    24476051.173    24476063.186  
     -3796.034       -2957.938  
 -16329089.080   -12701116.449    21189872.877    21189872.122    21189879.312  
      2338.388        1822.114  
 -16006771.346   -12448405.998    21501194.962    21501194.951    21501200.124  
     -1657.537       -1291.589  
  -2931891.906    -2270175.440    23580167.418    23580167.332    23580174.195  
     -1889.126       -1472.051  
   -137932.513      -91802.889    25412898.355    25412898.691    25412906.088  
     -3041.066       -2369.679  
 99  8  1  1 10 30.0000000  0  8  1 14 15 21 22 25 29 30            
 -19826825.125   -15421887.113    21266099.062    21266098.699    21266104.416  
       507.911         395.775  
 -17228346.757   -13413558.837    22091385.849    22091385.591    22091392.739  
      2509.416        1955.393  
  -4058677.978    -3149442.488    23140141.974    23140141.249    23140150.829  
     -2338.212       -1821.982  
  17016065.634    13266669.757    24497737.408    24497736.956    24497749.263  
     -3801.198       -2961.979  
 -16399022.646   -12755610.045    21176564.813    21176564.118    21176571.373  
      2323.833        1810.777  
 -15956962.091   -12409593.582    21510673.443    21510673.401    21510678.441  
     -1663.104       -1295.928  
  -2875155.865    -2225965.555    23590964.099    23590963.929    23590970.847  
     -1893.310       -1475.302  
    -46560.974      -20604.155    25430285.481    25430285.858    25430293.370  
     -3050.049       -2376.654  
 99  8  1  1 11  0.0000000  0  9  1 14 15 16 21 22 25 29 30         
 -19841993.875   -15433706.904    21263212.570    21263212.158    21263217.849  
       503.522         392.355  
 -17303463.442   -13472091.292    22077091.582    22077091.342    22077098.438  
      2498.313        1946.742  
  -3988386.079    -3094669.699    23153518.008    23153517.324    23153527.165  
     -2347.818       -1829.459  
    -95786.4743     -53555.6673   24732850.6773   24732855.4583   24732852.8713 
      3398.0563       2647.8353 
  17130175.522    13355586.321    24519451.512    24519451.363    24519464.013  
     -3805.950       -2965.659  
 -16468510.721   -12809756.502    21163341.643    21163340.934    21163348.184  
      2308.699        1798.983  
 -15906984.196   -12370649.760    21520184.030    21520183.956    21520188.932  
     -1668.712       -1300.291  
  -2818272.775    -2181641.079    23601788.602    23601788.390    23601795.364  
     -1898.797       -1479.583  
     45082.977       50806.848    25447724.801    25447725.039    25447732.455  
     -3059.295       -2383.867  
 99  8  1  1 11 30.0000000  0  9  1 14 15 16 21 22 25 29 30         
 -19857039.990   -15445431.138    21260349.287    21260348.934    21260354.640  
       499.472         389.198  
 -17378241.514   -13530359.879    22062861.650    22062861.501    22062868.620  
      2486.775        1937.747  
  -3917812.251    -3039677.202    23166947.968    23166947.229    23166957.010  
     -2357.122       -1836.721  
   -197666.9113    -132943.2793   24713462.8563   24713468.2443   24713464.3903 
      3394.0113       2644.6603 
  17244416.708    13444605.177    24541191.005    24541190.888    24541203.738  
     -3810.261       -2969.056  
 -16537540.335   -12863545.718    21150205.746    21150205.070    21150212.233  
      2293.133        1786.850  
 -15856838.477   -12331575.157    21529726.627    21529726.485    21529731.323  
     -1674.547       -1304.844  
  -2761237.850    -2137198.287    23612641.811    23612641.699    23612648.667  
     -1903.581       -1483.304  
    136985.429      122419.294    25465212.959    25465213.390    25465220.784  
     -3067.506       -2390.263  
 99  8  1  1 12  0.0000000  0  9  1 14 15 16 21 22 25 29 30         
 -19871962.408   -15457058.984    21257509.602    21257509.260    21257514.943  
       495.270         385.921  
 -17452667.031   -13588353.738    22048698.961    22048698.778    22048705.864  
      2475.033        1928.595  
  -3846959.556    -2984467.413    23180430.961    23180430.143    23180439.998  
     -2366.318       -1843.890  
   -299435.5683    -212243.2683   24694097.9693   24694098.3313   24694106.2673 
      3390.5403       2641.9813 
  17358784.732    13533722.851    24562954.645    24562954.543    24562967.437  
     -3814.139       -2972.050  
 -16606088.517   -12916959.780    21137161.626    21137160.850    21137167.818  
      2276.706        1774.052  
 -15806503.527   -12292353.109    21539305.162    21539304.991    21539309.784  
     -1681.199       -1310.027  
  -2704060.508    -2092644.538    23623522.262    23623522.122    23623529.086  
     -1908.198       -1486.900  
    229135.4941     194224.6541   25482748.4911   25482748.8671   25482756.2571 
     -3075.7241      -2396.6761 
 99  8  1  1 12 30.0000000  0  9  1 14 15 16 21 22 25 29 30         
 -19886750.127   -15468581.867    21254695.621    21254695.195    21254700.913  
       490.642         382.317  
 -17526745.664   -13646077.294    22034602.211    22034602.078    22034609.100  
      2463.487        1919.597  
  -3775831.308    -2929042.913    23193966.193    23193965.461    23193975.373  
     -2375.493       -1851.031  
   -401091.1961    -291455.4161   24674753.0721   24674752.2591   24674760.9961 
      3386.4941       2638.8301 
  17473279.675    13622939.474    24584742.735    24584742.509    24584755.232  
     -3818.980       -2975.813  
 -16674127.285   -12969976.910    21124214.321    21124213.476    21124220.355  
      2259.304        1760.494  
 -15755966.696   -12252973.752    21548922.084    21548921.903    21548926.665  
     -1687.856       -1315.215  
  -2646741.952    -2047980.750    23634429.576    23634429.410    23634436.367  
     -1913.032       -1490.673  
    321539.026      266227.561    25500332.371    25500332.512    25500339.992  
     -3084.391       -2403.429  
 99  8  1  1 13  0.0000000  0  9  1 14 15 16 21 22 25 29 30         
 -19901399.104   -15479996.639    21251907.940    21251907.565    21251913.314  
       485.876         378.606  
 -17600465.433   -13703521.218    22020573.915    22020573.750    22020580.612  
      2451.160        1909.992  
  -3704430.338    -2873405.894    23207553.369    23207552.670    23207562.630  
     -2384.449       -1858.010  
   -502622.693     -370570.812    24655431.856    24655431.199    24655440.116  
      3382.349        2635.594  
  17587920.357    13712269.668    24606557.991    24606558.024    24606570.727  
     -3823.681       -2979.496  
 -16741640.705   -13022584.679    21111366.830    21111366.032    21111372.880  
      2241.722        1746.797  
 -15705229.071   -12213437.928    21558577.109    21558576.949    21558581.710  
     -1694.548       -1320.428  
  -2589281.068    -2003206.087    23645363.875    23645363.827    23645370.844  
     -1917.567       -1494.198  
    414197.743      338429.278    25517964.494    25517964.788    25517972.345  
     -3092.967       -2410.114  
 99  8  1  1 13 30.0000000  0  9  1 14 15 16 21 22 25 29 30         
 -19915887.330   -15491286.152    21249150.963    21249150.532    21249156.284  
       480.179         374.161  
 -17673805.794   -13760669.498    22006617.698    22006617.570    22006624.267  
      2438.374        1900.032  
  -3632760.730    -2817559.554    23221191.529    23221190.888    23221201.027  
     -2393.393       -1864.975  
   -604028.210     -449588.028    24636135.070    24636134.532    24636143.368  
      3378.167        2632.334  
  17702705.856    13801712.693    24628401.237    24628401.199    24628413.762  
     -3828.643       -2983.328  
 -16808624.153   -13074779.473    21098620.197    21098619.445    21098626.330  
      2224.079        1733.043  
 -15654283.505   -12173740.073    21568271.683    21568271.501    21568276.292  
     -1701.709       -1326.009  
  -2531684.987    -1958326.041    23656324.134    23656324.001    23656330.887  
     -1922.193       -1497.810  
    507130.437      410844.484    25535648.926    25535649.249    25535656.960  
     -3102.449       -2417.514  
 99  8  1  1 14  0.0000000  0  9  1 14 15 16 21 22 25 29 30         
 -19930210.055   -15502446.705    21246425.447    21246425.076    21246430.828  
       474.606         369.822  
 -17746772.506   -13817526.612    21992732.643    21992732.466    21992738.988  
      2426.017        1890.395  
  -3560825.029    -2761505.876    23234880.457    23234879.782    23234889.913  
     -2402.339       -1871.950  
   -705314.610     -528512.415    24616860.744    24616860.241    24616869.204  
      3374.079        2629.146  
  17817637.088    13891269.274    24650272.570    24650272.247    24650284.542  
     -3833.420       -2987.073  
 -16875084.403   -13126566.582    21085973.239    21085972.483    21085979.245  
      2206.769        1719.555  
 -15603128.762   -12133879.228    21578005.951    21578005.803    21578010.707  
     -1708.544       -1331.336  
  -2473942.132    -1913331.635    23667312.314    23667312.086    23667318.938  
     -1927.436       -1501.902  
    600350.512      483483.597    25553388.151    25553388.414    25553396.035  
     -3112.287       -2425.170  
 99  8  1  1 14 30.0000000  0  9  1 14 15 16 21 22 25 29 30         
 -19944368.967   -15513479.609    21243731.179    21243730.766    21243736.495  
       469.275         365.668  
 -17819370.947   -13874096.763    21978917.623    21978917.409    21978923.816  
      2413.540        1880.685  
  -3488626.483    -2705247.383    23248619.691    23248618.889    23248628.915  
     -2410.943       -1878.654  
   -806475.568     -607339.099    24597610.612    24597610.025    24597618.903  
      3370.074        2626.041  
  17932708.466    13980935.056    24672170.112    24672169.790    24672181.991  
     -3837.874       -2990.536  
 -16941045.571   -13177964.792    21073421.303    21073420.436    21073427.144  
      2190.680        1707.022  
 -15551780.132   -12093867.301    21587777.155    21587777.064    21587782.017  
     -1714.734       -1336.153  
  -2416045.615    -1868217.483    23678329.590    23678329.383    23678336.187  
     -1932.366       -1505.740  
    693856.205      556345.363    25571181.745    25571181.989    25571189.158  
     -3121.364       -2432.247  
 99  8  1  1 15  0.0000000  0  9  1 14 15 16 21 22 25 29 30         
 -19958363.574   -15524384.489    21241068.096    21241067.713    21241073.409  
       463.752         361.362  
 -17891571.616   -13930356.951    21965178.270    21965178.065    21965184.376  
      2399.935        1870.080  
  -3416168.888    -2648787.015    23262408.130    23262407.366    23262417.200  
     -2419.605       -1885.396  
   -907519.734     -686074.659    24578382.366    24578381.684    24578390.878  
      3366.316        2623.089  
  18047907.717    14070700.491    24694092.104    24694091.680    24694103.776  
     -3841.986       -2993.750  
 -17006528.269   -13228990.179    21060960.228    21060959.403    21060966.026  
      2174.817        1694.660  
 -15500239.896   -12053706.071    21597584.896    21597584.833    21597589.805  
     -1721.217       -1341.209  
  -2357990.429    -1822979.685    23689376.687    23689376.832    23689383.602  
     -1938.094       -1510.206  
    787629.2591     629415.4051   25589026.0411   25589026.3951   25589033.4761 
     -3130.2541      -2439.1591 
 99  8  1  1 15 30.0000000  0  9  1 14 15 16 21 22 25 29 30         
 -19972203.231   -15535168.621    21238434.557    21238434.151    21238439.765  
       458.995         357.661  
 -17963374.093   -13986306.851    21951514.729    21951514.486    21951520.703  
      2386.969        1859.975  
  -3343455.345    -2592127.219    23276245.306    23276244.426    23276254.262  
     -2428.024       -1891.966  
  -1008461.747     -764730.709    24559173.616    24559173.027    24559182.029  
      3363.134        2620.612  
  18163222.274    14160555.785    24716036.496    24716035.711    24716047.592  
     -3845.629       -2996.604  
 -17071549.177   -13279655.733    21048586.934    21048586.159    21048592.790  
      2159.878        1683.024  
 -15448515.717   -12013401.507    21607427.668    21607427.598    21607432.605  
     -1727.159       -1345.839  
  -2299774.481    -1777616.648    23700454.702    23700454.780    23700461.718  
     -1943.211       -1514.184  
    881657.1991     702684.0891   25606918.8361   25606919.3151   25606926.4911 
     -3138.2741      -2445.4121 
 99  8  1  1 16  0.0000000  0  9  1 14 15 16 21 22 25 29 30         
 -19985910.412   -15545849.523    21235826.163    21235825.741    21235831.298  
       454.681         354.293  
 -18034792.052   -14041957.127    21937924.348    21937924.117    21937930.263  
      2374.264        1850.077  
  -3270489.029    -2535270.445    23290130.402    23290129.588    23290139.323  
     -2436.377       -1898.467  
  -1109312.469     -843315.579    24539982.337    24539981.586    24539990.533  
      3360.072        2618.202  
  18278649.361    14250498.753    24738001.801    24738001.049    24738012.960  
     -3849.470       -2999.579  
 -17136117.246   -13329968.425    21036299.848    21036299.063    21036305.668  
      2144.693        1671.189  
 -15396613.050   -11972957.864    21617304.470    21617304.344    21617309.371  
     -1732.949       -1350.346  
  -2241405.798    -1732134.618    23711561.612    23711561.740    23711568.828  
     -1947.913       -1517.849  
    975917.141      776133.551    25624856.264    25624856.447    25624863.747  
     -3145.678       -2451.203  
 99  8  1  1 16 30.0000000  0  9  1 14 15 16 21 22 25 29 30         
 -19999481.120   -15556424.083    21233243.772    21233243.323    21233248.865  
       450.042         350.680  
 -18105825.066   -14097307.431    21924407.212    21924406.967    21924413.072  
      2361.419        1840.062  
  -3197273.227    -2478219.266    23304062.927    23304062.186    23304071.839  
     -2444.661       -1904.926  
  -1210061.105     -921820.936    24520810.449    24520809.867    24520818.420  
      3356.578        2615.510  
  18394199.311    14340537.452    24759990.325    24759989.689    24760001.712  
     -3853.856       -3003.009  
 -17200227.322   -13379924.243    21024099.856    21024099.149    21024105.764  
      2129.140        1659.066  
 -15344534.896   -11932377.478    21627214.538    21627214.433    21627219.468  
     -1738.916       -1355.001  
  -2182903.953    -1686548.785    23722694.381    23722694.451    23722701.378  
     -1952.402       -1521.354  
   1070400.9761     849757.4651   25642835.8081   25642836.0541   25642843.2821 
     -3153.0741      -2456.8981 
 99  8  1  1 17  0.0000000  0  9  1 14 15 16 21 22 25 29 30         
 -20012916.075   -15566892.855    21230687.112    21230686.657    21230692.327  
       445.664         347.272  
 -18176487.693   -14152369.136    21910960.482    21910960.270    21910966.318  
      2349.658        1830.903  
  -3123810.888    -2420975.989    23318042.499    23318041.769    23318051.328  
     -2452.812       -1911.286  
  -1310695.097    -1000236.931    24501660.556    24501659.879    24501668.214  
      3352.337        2612.208  
  18509882.231    14430679.752    24782004.148    24782003.526    24782015.597  
     -3858.310       -3006.478  
 -17263857.935   -13429506.450    21011991.287    21011990.531    21011997.150  
      2112.922        1646.432  
 -15292279.987   -11891659.361    21637158.257    21637158.174    21637163.236  
     -1744.616       -1359.442  
  -2124253.122    -1640846.851    23733855.351    23733855.509    23733862.237  
     -1957.726       -1525.497  
   1165115.2771     923560.9591   25660859.1821   25660859.6461   25660866.5041 
     -3161.1571      -2463.2381 
 99  8  1  1 17 30.0000000  0  9  1 14 15 16 21 22 25 29 30         
 -20026217.118   -15577257.284    21228155.943    21228155.526    21228161.238  
       441.109         343.719  
 -18246808.771   -14207164.692    21897578.698    21897578.516    21897584.602  
      2338.316        1822.061  
  -3050105.636    -2363543.434    23332068.169    23332067.488    23332077.145  
     -2460.799       -1917.500  
  -1411187.615    -1078542.664    24482537.424    24482536.763    24482545.102  
      3347.084        2608.106  
  18625700.483    14520927.502    24804043.761    24804043.089    24804055.353  
     -3862.714       -3009.892  
 -17326994.623   -13478703.778    20999976.607    20999975.877    20999982.568  
      2096.134        1633.343  
 -15239857.326   -11850810.534    21647133.881    21647133.802    21647138.982  
     -1750.201       -1363.795  
  -2065445.689    -1595022.880    23745046.471    23745046.389    23745053.003  
     -1962.848       -1529.500  
   1260081.9411     997561.0041   25678931.0331   25678931.1261   25678937.4801 
     -3169.7321      -2469.9231 
 99  8  1  1 18  0.0000000  0  9  1 14 15 16 21 22 25 29 30         
 -20039370.596   -15587506.718    21225652.973    21225652.511    21225658.249  
       435.709         339.510  
 -18316781.924   -14261689.140    21884263.020    21884262.888    21884269.110  
      2326.452        1812.819  
  -2976160.243    -2305923.760    23346139.740    23346138.978    23346148.750  
     -2468.811       -1923.745  
  -1511513.842    -1156718.835    24463446.055    24463445.347    24463453.562  
      3341.168        2603.493  
  18741649.970    14611277.542    24826108.222    24826107.554    24826120.091  
     -3867.249       -3013.421  
 -17389608.098   -13527493.411    20988061.634    20988060.914    20988067.511  
      2078.201        1619.377  
 -15187262.533   -11809827.570    21657142.271    21657142.221    21657147.389  
     -1755.996       -1368.312  
  -2006484.827    -1549079.358    23756266.474    23756266.346    23756273.003  
     -1967.934       -1533.454  
   1355297.476     1071755.240    25697049.856    25697049.977    25697055.768  
     -3178.105       -2476.471  
 99  8  1  1 18 30.0000000  0  9  1 14 15 16 21 22 25 29 30         
 -20052362.471   -15597630.231    21223180.660    21223180.226    21223186.019  
       430.425         335.395  
 -18386389.674   -14315928.856    21871016.915    21871016.795    21871023.153  
      2314.040        1803.144  
  -2901978.478    -2248119.907    23360256.168    23360255.313    23360265.206  
     -2476.563       -1929.783  
  -1611652.027    -1234748.460    24444390.222    24444389.630    24444397.889  
      3334.894        2598.598  
  18857725.074    14701725.469    24848196.360    24848195.851    24848208.682  
     -3870.984       -3016.359  
 -17451688.741   -13575867.854    20976248.196    20976247.409    20976253.877  
      2060.409        1605.511  
 -15134499.354   -11768713.399    21667182.815    21667182.771    21667187.893  
     -1761.542       -1372.634  
  -1947358.159    -1503006.651    23767517.977    23767517.834    23767524.533  
     -1973.944       -1538.141  
   1450762.3711    1146143.6111   25715215.8251   25715216.1991   25715221.9001 
     -3186.0351      -2482.6411 
 99  8  1  1 19  0.0000000  0  9  1 14 15 16 21 22 25 29 30         
 -20065190.781   -15607626.288    21220739.504    21220739.061    21220744.901  
       424.846         331.046  
 -18455614.438   -14369870.158    21857843.802    21857843.682    21857850.040  
      2300.740        1792.779  
  -2827563.294    -2190134.175    23374416.893    23374415.958    23374426.172  
     -2484.315       -1935.835  
  -1711608.608    -1312636.557    24425369.073    24425368.484    24425376.740  
      3329.062        2594.069  
  18973902.387    14792253.054    24870304.076    24870303.708    24870316.719  
     -3874.043       -3018.723  
 -17513224.495   -13623817.706    20964538.310    20964537.539    20964544.020  
      2042.165        1591.293  
 -15081570.248   -11727469.936    21677254.915    21677254.912    21677259.938  
     -1766.924       -1376.826  
  -1888044.916    -1456788.552    23778804.888    23778804.815    23778811.665  
     -1979.888       -1542.781  
   1546469.8851    1220721.0601   25733428.2041   25733428.8001   25733434.1691 
     -3194.1781      -2488.9931 
 99  8  1  1 19 30.0000000  0  9  1 14 15 16 21 22 25 29 30         
 -20077850.462   -15617490.948    21218330.423    21218330.018    21218335.839  
       419.193         326.641  
 -18524414.298   -14423480.364    21844751.549    21844751.494    21844757.797  
      2285.785        1781.126  
  -2752918.332    -2131969.362    23388621.129    23388620.292    23388630.639  
     -2492.059       -1941.860  
  -1811396.991    -1390393.608    24406380.029    24406379.288    24406387.479  
      3323.654        2589.855  
  19090164.553    14882846.761    24892428.230    24892427.825    24892440.896  
     -3876.875       -3020.948  
 -17574210.765   -13671339.395    20952932.925    20952932.161    20952938.688  
      2023.617        1576.843  
 -15028476.763   -11686098.374    21687358.396    21687358.359    21687363.331  
     -1772.766       -1381.377  
  -1828575.022    -1410448.408    23790121.579    23790121.607    23790128.604  
     -1984.770       -1546.568  
   1642407.3821    1295477.7671   25751684.5791   25751684.8411   25751690.3211 
     -3201.3991      -2494.6171 
 99  8  1  1 20  0.0000000  0  9  1 14 15 16 21 22 25 29 30         
 -20090349.277   -15627230.255    21215951.943    21215951.560    21215957.336  
       414.001         322.598  
 -18592762.660   -14476738.760    21831745.368    21831745.201    21831751.459  
      2270.738        1769.406  
  -2678046.752    -2073627.999    23402868.608    23402867.837    23402878.294  
     -2499.449       -1947.619  
  -1911036.057    -1468034.284    24387419.545    24387418.639    24387426.810  
      3318.927        2586.179  
  19206506.043    14973502.302    24914567.534    24914567.094    24914580.121  
     -3879.461       -3022.946  
 -17634652.273   -13718436.598    20941431.230    20941430.513    20941437.030  
      2005.864        1563.011  
 -14975213.080   -11644594.196    21697494.288    21697494.123    21697499.102  
     -1778.214       -1385.623  
  -1768970.937    -1364003.699    23801463.930    23801463.950    23801471.055  
     -1988.892       -1549.792  
   1738558.6781    1370401.1131   25769981.4941   25769981.5281   25769987.5271 
     -3208.9371      -2500.5051 
 99  8  1  1 20 30.0000000  0  9  1 14 15 16 21 22 25 29 30         
 -20102699.961   -15636854.131    21213601.708    21213601.259    21213607.018  
       409.280         318.915  
 -18660656.756   -14529643.182    21818825.486    21818825.279    21818831.541  
      2255.707        1757.684  
  -2602951.682    -2015112.470    23417158.765    23417157.965    23417168.455  
     -2506.832       -1953.379  
  -2010536.093    -1545566.620    24368485.279    24368484.276    24368492.498  
      3314.636        2582.826  
  19322934.585    15064225.685    24936723.212    24936722.844    24936736.006  
     -3882.538       -3025.357  
 -17694564.638   -13765121.484    20930030.329    20930029.521    20930036.001  
      1988.251        1549.281  
 -14921785.639   -11602962.416    21707661.173    21707661.010    21707666.050  
     -1783.648       -1389.865  
  -1709233.243    -1317454.893    23812831.739    23812831.754    23812838.926  
     -1993.437       -1553.334  
   1834934.4291    1445499.4551   25788320.7271   25788321.0201   25788327.1511 
     -3216.1771      -2506.1181 
 99  8  1  1 21  0.0000000  0  9  1 14 15 16 21 22 25 29 30         
 -20114902.135   -15646362.284    21211279.733    21211279.254    21211284.994  
       404.249         314.998  
 -18728110.455   -14582204.447    21805989.326    21805989.212    21805995.483  
      2241.280        1746.449  
  -2527636.408    -1956425.355    23431490.738    23431490.001    23431500.423  
     -2514.134       -1959.070  
  -2109911.702    -1623002.036    24349574.571    24349573.651    24349581.919  
      3310.355        2579.492  
  19439459.609    15155024.312    24958896.956    24958896.947    24958910.225  
     -3886.019       -3028.061  
 -17753952.795   -13811397.897    20918729.130    20918728.302    20918734.707  
      1971.175        1535.973  
 -14868193.760   -11561202.497    21717859.331    21717859.203    21717864.269  
     -1789.129       -1394.130  
  -1649370.783    -1270808.872    23824223.476    23824223.356    23824230.455  
     -1997.278       -1556.304  
   1931533.6811    1520771.8591   25806703.1521   25806703.0911   25806708.9961 
     -3223.6131      -2511.9331 
 99  8  1  1 21 30.0000000  0  9  1 14 15 16 21 22 25 29 30         
 -20126957.777   -15655756.262    21208985.635    21208985.147    21208990.837  
       399.504         311.303  
 -18795144.505   -14634438.725    21793233.137    21793233.062    21793239.238  
      2227.833        1735.975  
  -2452104.313    -1897569.299    23445864.247    23445863.560    23445873.870  
     -2521.356       -1964.679  
  -2209164.085    -1700341.397    24330687.060    24330686.324    24330694.758  
      3306.277        2576.320  
  19556100.098    15245912.858    24981093.012    24981093.075    24981106.277  
     -3890.017       -3031.178  
 -17812842.839   -13857286.167    20907522.688    20907521.840    20907528.209  
      1954.946        1523.334  
 -14814431.049   -11519309.465    21728089.975    21728089.871    21728095.015  
     -1795.025       -1398.717  
  -1589393.734    -1224073.544    23835636.872    23835636.764    23835643.710  
     -2001.454       -1559.569  
   2028353.6551    1596216.1451   25825127.5221   25825127.2861   25825133.1651 
     -3230.9441      -2517.6571 
 99  8  1  1 22  0.0000000  0  9  1 14 15 16 21 22 25 29 30         
 -20138862.120   -15665032.340    21206720.332    21206719.850    21206725.443  
       394.084         307.081  
 -18861788.520   -14686369.077    21780551.333    21780551.154    21780557.202  
      2215.201        1726.131  
  -2376358.673    -1838546.859    23460278.313    23460277.572    23460287.867  
     -2528.327       -1970.124  
  -2308290.057    -1777582.295    24311823.772    24311823.167    24311831.663  
      3301.940        2572.935  
  19672867.047    15336900.048    25003313.507    25003313.282    25003326.503  
     -3894.370       -3034.573  
 -17871251.792   -13902799.567    20896407.788    20896406.936    20896413.257  
      1938.911        1510.842  
 -14760498.358   -11477283.970    21738352.920    21738352.889    21738358.067  
     -1800.456       -1402.948  
  -1529276.337    -1177228.842    23847076.882    23847076.798    23847083.550  
     -2006.448       -1563.462  
   2125386.425     1671826.362    25843592.313    25843591.966    25843597.625  
     -3237.666       -2522.843  
 99  8  1  1 22 30.0000000  0  9  1 14 15 16 21 22 25 29 30         
 -20150598.782   -15674177.766    21204486.936    21204486.472    21204491.991  
       388.278         302.556  
 -18928056.746   -14738006.613    21767941.054    21767940.810    21767946.637  
      2202.662        1716.354  
  -2300402.959    -1779360.717    23474732.295    23474731.507    23474742.031  
     -2535.303       -1975.562  
  -2407277.941    -1854715.599    24292987.023    24292986.295    24292994.693  
      3297.250        2569.299  
  19789759.901    15427985.357    25025557.721    25025557.418    25025570.611  
     -3898.296       -3037.632  
 -17929171.254   -13947931.547    20885385.973    20885385.156    20885391.462  
      1922.324        1497.914  
 -14706398.603   -11435128.307    21748647.697    21748647.677    21748652.886  
     -1806.209       -1407.436  
  -1468991.651    -1130253.789    23858548.554    23858548.587    23858555.284  
     -2012.610       -1568.270  
   2222627.6331    1747598.9001   25862096.3031   25862096.1761   25862101.6451 
     -3244.7121      -2528.4011 
 99  8  1  1 23  0.0000000  0  9  1 14 15 16 21 22 25 29 30         
 -20162153.521   -15683181.425    21202288.113    21202287.657    21202293.195  
       382.176         297.793  
 -18993947.283   -14789349.845    21755402.469    21755402.261    21755407.983  
      2189.728        1706.270  
  -2224240.428    -1720013.414    23489225.563    23489224.758    23489235.461  
     -2542.296       -1981.007  
  -2506115.438    -1931731.705    24274178.807    24274178.119    24274186.481  
      3291.737        2564.989  
  19906757.675    15519152.462    25047821.966    25047821.470    25047834.684  
     -3901.559       -3040.179  
 -17986585.418   -13992669.792    20874460.344    20874459.565    20874465.815  
      1905.130        1484.510  
 -14652123.972   -11392836.374    21758975.847    21758975.816    21758980.968  
     -1812.177       -1412.096  
  -1408519.687    -1083132.805    23870055.960    23870055.994    23870062.711  
     -2018.963       -1573.219  
   2320066.4411    1823525.4301   25880638.4291   25880638.0791   25880643.2671 
     -3251.0921      -2533.3371 
 99  8  1  1 23 30.0000000  0  9  1 14 15 16 21 22 25 29 30         
 -20173530.797   -15692046.804    21200122.977    21200122.588    21200128.177  
       376.294         293.212  
 -19059434.982   -14840379.173    21742940.535    21742940.250    21742946.018  
      2175.870        1695.484  
  -2147874.113    -1660507.303    23503757.625    23503756.953    23503767.521  
     -2548.925       -1986.173  
  -2604779.724    -2008612.829    24255403.686    24255402.853    24255411.193  
      3285.637        2560.240  
  20023851.281    15610394.240    25070104.060    25070103.758    25070116.992  
     -3904.502       -3042.446  
 -18043474.151   -14036998.603    20863634.779    20863633.962    20863640.128  
      1887.257        1470.587  
 -14597674.151   -11350407.927    21769337.429    21769337.368    21769342.369  
     -1817.817       -1416.481  
  -1347851.973    -1035859.285    23881600.708    23881600.646    23881607.481  
     -2025.654       -1578.430  
   2417705.4271    1899608.3741   25899217.9441   25899218.1281   25899223.4321 
     -3258.2311      -2538.8571 
 99  8  1  1 24  0.0000000  0  9  1 14 15 16 21 22 25 29 30         
 -20184725.771   -15700770.127    21197992.652    21197992.200    21197997.779  
       370.213         288.478  
 -19124489.621   -14891071.063    21730560.928    21730560.677    21730566.502  
      2161.227        1684.079  
  -2071307.539    -1600845.151    23518327.965    23518327.344    23518337.773  
     -2555.412       -1991.224  
  -2703242.735    -2085337.135    24236666.665    24236665.879    24236674.220  
      3278.680        2554.820  
  20141028.066    15701700.751    25092402.114    25092401.753    25092415.167  
     -3906.967       -3044.376  
 -18099811.863   -14080898.053    20852914.057    20852913.205    20852919.290  
      1868.508        1455.983  
 -14543059.185   -11307850.799    21779730.466    21779730.335    21779735.249  
     -1823.221       -1420.690  
  -1286983.794     -988429.560    23893183.597    23893183.556    23893190.393  
     -2031.908       -1583.311  
   2515564.9791    1975863.0581   25917840.1631   25917839.7601   25917845.7081 
     -3265.6551      -2544.7151 
 99  8  1  1 24 30.0000000  0  8  1 14 15 16 21 22 25 29            
 -20195748.104   -15709358.932    21195895.043    21195894.601    21195900.302  
       364.739         284.210  
 -19189099.817   -14941416.630    21718265.944    21718265.727    21718271.648  
      2146.214        1672.373  
  -1994543.687    -1541029.253    23532935.885    23532935.227    23532945.568  
     -2562.002       -1996.362  
  -2801497.034    -2161898.831    24217969.467    24217968.680    24217976.914  
      3271.845        2549.497  
  20258272.703    15793060.115    25114713.080    25114712.596    25114726.314  
     -3909.119       -3046.075  
 -18155570.955   -14124346.629    20842303.407    20842302.573    20842308.614  
      1848.942        1440.730  
 -14488275.940   -11265162.535    21790155.461    21790155.296    21790160.118  
     -1828.885       -1425.107  
  -1225927.463     -940853.247    23904802.242    23904802.203    23904809.179  
     -2038.119       -1588.147  
 99  8  1  1 25  0.0000000  0  8  1 14 15 16 21 22 25 29            
 -20206613.363   -15717825.335    21193827.421    21193826.999    21193832.693  
       359.714         280.294  
 -19253258.775   -14991410.593    21706056.977    21706056.721    21706062.651  
      2131.108        1660.602  
  -1917585.908    -1481062.262    23547580.589    23547579.842    23547590.380  
     -2568.466       -2001.407  
  -2899552.018    -2238305.174    24199310.164    24199309.388    24199317.637  
      3265.316        2544.395  
  20375583.002    15884470.601    25137035.958    25137035.841    25137049.846  
     -3911.588       -3047.995  
 -18210744.359   -14167338.826    20831804.271    20831803.397    20831809.332  
      1829.573        1425.639  
 -14433330.620   -11222347.986    21800611.130    21800611.011    21800615.812  
     -1833.999       -1429.087  
  -1164707.964     -893149.799    23916452.055    23916451.841    23916458.907  
     -2042.896       -1591.862  
 99  8  1  1 25 30.0000000  0  8  1 14 15 16 21 22 25 29            
 -20217325.395   -15726172.346    21191789.071    21191788.588    21191794.233  
       354.483         276.222  
 -19316962.754   -15041050.031    21693934.521    21693934.291    21693940.238  
      2116.117        1648.923  
  -1840437.647    -1420946.816    23562261.379    23562260.676    23562271.360  
     -2574.656       -2006.219  
  -2997416.095    -2314562.822    24180687.270    24180686.439    24180694.499  
      3259.285        2539.710  
  20492968.813    15975939.927    25159373.659    25159373.562    25159387.526  
     -3913.904       -3049.775  
 -18265346.727   -14209886.064    20821413.684    20821412.849    20821418.801  
      1810.858        1411.060  
 -14378239.743   -11179420.018    21811094.498    21811094.411    21811099.187  
     -1838.591       -1432.667  
  -1103355.793     -845342.964    23928127.080    23928126.821    23928133.880  
     -2047.214       -1595.229  
 99  8  1  1 26  0.0000000  0  8  1 14 15 16 21 22 25 29            
 -20227881.239   -15734397.641    21189780.362    21189779.881    21189785.489  
       349.291         272.170  
 -19380227.469   -15090347.181    21681895.602    21681895.371    21681901.411  
      2101.657        1637.652  
  -1763101.996    -1360685.374    23576977.764    23576977.234    23576988.051  
     -2580.933       -2011.114  
  -3095113.472    -2390690.474    24162095.827    24162095.070    24162103.285  
      3253.974        2535.548  
  20610417.200    16067458.010    25181723.740    25181723.441    25181737.226  
     -3916.028       -3051.432  
 -18319388.455   -14251996.436    20811129.711    20811128.946    20811134.999  
      1791.974        1396.340  
 -14323010.219   -11136384.011    21821604.337    21821604.257    21821608.913  
     -1843.410       -1436.425  
  -1041878.469     -797438.609    23939825.595    23939825.516    23939832.598  
     -2051.252       -1598.364  
 99  8  1  1 26 30.0000000  0  8  1 14 15 16 21 22 25 29            
 -20238287.214   -15742506.152    21187800.144    21187799.660    21187805.201  
       344.244         268.240  
 -19443063.506   -15139310.305    21669938.217    21669938.052    21669944.076  
      2087.147        1626.350  
  -1685582.181    -1300280.431    23591729.566    23591729.018    23591739.717  
     -2587.043       -2015.876  
  -3192660.917    -2466701.348    24143532.946    24143532.251    24143540.480  
      3249.031        2531.708  
  20727931.008    16159027.071    25204085.818    25204085.756    25204099.481  
     -3918.447       -3053.352  
 -18372869.947   -14293670.250    20800952.564    20800951.737    20800957.802  
      1773.564        1381.999  
 -14267646.987   -11093243.825    21832139.662    21832139.525    21832144.237  
     -1847.565       -1439.660  
   -980276.736     -749437.284    23951547.842    23951547.828    23951554.930  
     -2055.639       -1601.798  
 99  8  1  1 27  0.0000000  0  8  1 14 15 16 21 22 25 29            
 -20248537.538   -15750493.377    21185849.531    21185849.009    21185854.550  
       338.996         264.149  
 -19505454.670   -15187926.767    21658065.527    21658065.330    21658071.376  
      2072.155        1614.660  
  -1607881.721    -1239734.707    23606515.783    23606515.175    23606525.747  
     -2593.020       -2020.534  
  -3290051.384    -2542589.883    24124999.995    24124999.319    24125007.578  
      3243.445        2527.358  
  20845521.996    16250656.263    25226463.052    25226462.736    25226476.413  
     -3920.941       -3055.301  
 -18425809.252   -14334921.584    20790878.485    20790877.640    20790883.765  
      1755.827        1368.177  
 -14212161.388   -11050008.280    21842698.204    21842698.052    21842702.752  
     -1851.633       -1442.834  
   -918540.580     -701331.221    23963295.746    23963295.843    23963302.978  
     -2060.343       -1605.458  
 99  8  1  1 27 30.0000000  0  8  1 14 15 16 21 22 25 29            
 -20258627.236   -15758355.440    21183929.406    21183928.917    21183934.550  
       333.668         259.999  
 -19567390.355   -15236188.318    21646279.443    21646279.259    21646285.288  
      2056.909        1602.783  
  -1530004.114    -1179050.928    23621335.528    23621334.939    23621345.397  
     -2598.768       -2025.015  
  -3387262.820    -2618338.917    24106501.069    24106500.433    24106508.766  
      3237.357        2522.619  
  20963187.360    16342343.392    25248854.634    25248853.933    25248867.521  
     -3923.261       -3057.082  
 -18478215.608   -14375757.637    20780905.796    20780905.000    20780911.072  
      1737.802        1354.127  
 -14156544.654   -11006670.560    21853281.655    21853281.485    21853286.258  
     -1856.091       -1446.309  
   -856648.589     -653103.711    23975073.383    23975073.535    23975080.769  
     -2065.734       -1609.670  
 99  8  1  1 28  0.0000000  0  8  1 14 15 16 21 22 25 29            
 -20268559.511   -15766094.840    21182039.267    21182038.834    21182044.472  
       328.386         255.881  
 -19628864.448   -15284090.190    21634581.276    21634581.075    21634587.069  
      2041.302        1590.622  
  -1451952.391    -1118231.501    23636188.126    23636187.521    23636198.111  
     -2604.660       -2029.600  
  -3484285.037    -2693940.521    24088038.160    24088037.585    24088045.952  
      3230.589        2517.331  
  21080924.902    16434086.780    25271259.441    25271258.832    25271272.361  
     -3925.969       -3059.180  
 -18530068.993   -14416162.802    20771038.410    20771037.607    20771043.677  
      1719.084        1339.546  
 -14100787.092   -10963223.102    21863891.875    21863891.708    21863896.516  
     -1861.125       -1450.225  
   -794589.704     -604746.158    23986882.934    23986883.084    23986890.392  
     -2071.433       -1614.103  
 99  8  1  1 28 30.0000000  0  8  1 14 15 16 21 22 25 29            
 -20278327.409   -15773706.155    21180180.455    21180180.046    21180185.682  
       322.616         251.387  
 -19689868.930   -15331626.137    21622972.557    21622972.348    21622978.303  
      2025.593        1578.384  
  -1373729.712    -1057278.869    23651073.441    23651072.768    23651083.474  
     -2610.374       -2034.051  
  -3581094.626    -2769376.438    24069615.483    24069615.147    24069623.618  
      3223.347        2511.695  
  21198738.620    16525889.496    25293678.639    25293678.115    25293691.632  
     -3928.335       -3061.023  
 -18581365.835   -14456134.301    20761276.893    20761276.118    20761282.190  
      1700.692        1325.208  
 -14044887.899   -10919665.287    21874529.041    21874528.876    21874533.725  
     -1865.797       -1453.870  
   -732364.807     -556259.249    23998723.988    23998724.141    23998731.405  
     -2076.941       -1618.403  
 99  8  1  1 29  0.0000000  0  8  1 14 15 16 21 22 25 29            
 -20287923.311   -15781183.451    21178354.435    21178354.008    21178359.605  
       316.984         247.000  
 -19750410.531   -15378801.392    21611451.907    21611451.695    21611457.653  
      2010.664        1566.747  
  -1295339.645     -996195.809    23665990.699    23665989.962    23666000.643  
     -2615.649       -2038.157  
  -3677686.649    -2844642.828    24051234.230    24051234.096    24051242.680  
      3216.160        2506.097  
  21316615.054    16617741.131    25316110.150    25316109.355    25316122.793  
     -3930.052       -3062.387  
 -18632113.866   -14495678.148    20751619.914    20751619.111    20751625.118  
      1682.486        1311.026  
 -13988839.325   -10875991.068    21885194.697    21885194.546    21885199.418  
     -1870.804       -1457.771  
   -669982.717     -507649.876    24010595.031    24010595.181    24010602.465  
     -2081.834       -1622.215  
 99  8  1  1 29 30.0000000  0  8  1 14 15 16 21 22 25 29            
 -20297334.033   -15788516.452    21176563.591    21176563.146    21176568.773  
       310.579         242.008  
 -19810507.284   -15425630.014    21600016.001    21600015.756    21600021.646  
      1996.091        1555.393  
  -1216784.915     -934984.444    23680939.281    23680938.388    23680949.260  
     -2620.993       -2042.318  
  -3774066.524    -2919743.915    24032893.684    24032893.396    24032902.090  
      3209.554        2500.947  
  21434543.5361   16709633.3301   25338551.0921   25338550.5451   25338564.0261 
     -3931.4501      -3063.4591 
 -18682302.286   -14534785.940    20742069.372    20742068.583    20742074.467  
      1663.583        1296.295  
 -13932635.492   -10832195.860    21895889.962    21895889.811    21895894.691  
     -1875.763       -1461.634  
   -607454.205     -458926.396    24022493.870    24022494.020    24022501.298  
     -2086.374       -1625.755  
 99  8  1  1 30  0.0000000  0  8  1 14 15 16 21 22 25 29            
 -20306542.806   -15795692.095    21174811.175    21174810.718    21174816.367  
       303.651         236.617  
 -19870169.535   -15472120.064    21588662.622    21588662.358    21588668.256  
      1981.753        1544.228  
  -1138069.218     -873647.660    23695918.295    23695917.497    23695928.482  
     -2626.353       -2046.506  
  -3870246.397    -2994689.189    24014591.238    24014590.983    24014599.612  
      3202.809        2495.692  
  21552518.881    16801561.990    25361000.627    25361000.805    25361014.227  
     -3933.364       -3064.945  
 -18731921.381   -14573450.097    20732627.117    20732626.317    20732632.146  
      1644.785        1281.652  
 -13876281.660   -10788283.770    21906613.719    21906613.611    21906618.445  
     -1880.909       -1465.651  
   -544783.876     -410092.423    24034419.878    24034419.732    24034427.132  
     -2091.280       -1629.556  
 99  8  1  1 30 30.0000000  0  8  1 14 15 16 21 22 25 29            
 -20315541.612   -15802704.123    21173098.719    21173098.269    21173103.884  
       296.588         231.103  
 -19929405.326   -15518277.801    21577390.318    21577390.079    21577396.040  
      1967.406        1533.041  
  -1059195.641     -812187.844    23710927.731    23710926.767    23710937.749  
     -2631.731       -2050.698  
  -3966232.063    -3069483.140    23996325.564    23996325.433    23996334.014  
      3196.424        2490.711  
  21670541.043    16893527.157    25383459.495    25383459.884    25383473.313  
     -3934.714       -3066.034  
 -18780979.622   -14611677.229    20723291.461    20723290.692    20723296.579  
      1625.860        1266.897  
 -13819777.585   -10744254.606    21917366.094    21917366.004    21917370.782  
     -1886.036       -1469.642  
   -481961.014     -361139.566    24046374.757    24046374.559    24046381.819  
     -2096.813       -1633.885  
 99  8  1  1 31  0.0000000  0  8  1 14 15 16 21 22 25 29            
 -20324344.943   -15809563.837    21171423.483    21171423.055    21171428.641  
       290.010         225.982  
 -19988208.951   -15564098.786    21566200.352    21566200.080    21566206.111  
      1952.565        1521.478  
   -980167.626     -750607.669    23725966.465    23725965.503    23725976.321  
     -2636.942       -2054.759  
  -4062038.437    -3144137.378    23978094.312    23978094.044    23978102.586  
      3190.423        2486.043  
  21788608.963    16985527.935    25405926.981    25405927.539    25405941.041  
     -3936.636       -3067.546  
 -18829474.281   -14649465.200    20714063.057    20714062.309    20714068.327  
      1606.870        1252.104  
 -13763121.700   -10700107.151    21928147.321    21928147.232    21928152.014  
     -1891.097       -1473.579  
   -418969.991     -312055.689    24058361.528    24058361.330    24058368.601  
     -2102.904       -1638.630  
 99  8  1  1 31 30.0000000  0  8  1 14 15 16 21 22 25 29            
 -20332949.610   -15816268.745    21169786.158    21169785.687    21169791.193  
       283.721         221.080  
 -20046565.420   -15609571.342    21555095.520    21555095.216    21555101.272  
      1937.706        1509.902  
   -900988.503     -688909.765    23741033.733    23741032.804    23741043.772  
     -2641.752       -2058.503  
  -4157665.322    -3218651.767    23959897.051    23959896.786    23959905.238  
      3184.597        2481.501  
  21906731.5951   17077571.4131   25428404.8381   25428405.4701   25428419.1741 
     -3938.1021      -3068.6481 
 -18877400.744   -14686810.425    20704942.906    20704942.140    20704948.163  
      1588.142        1237.515  
 -13706321.422   -10655847.189    21938956.003    21938955.949    21938960.743  
     -1895.515       -1477.024  
   -355797.046     -262830.037    24070383.022    24070382.796    24070389.908  
     -2108.712       -1643.169  
 99  8  1  1 32  0.0000000  0  8  1 14 15 16 21 22 25 29            
 -20341371.307   -15822831.083    21168183.554    21168183.062    21168188.537  
       277.982         216.606  
 -20104462.642   -15654686.033    21544078.011    21544077.733    21544083.822  
      1922.271        1497.870  
   -821661.371     -627096.523    23756128.922    23756128.215    23756139.333  
     -2646.659       -2062.332  
  -4253106.878    -3293021.757    23941735.018    23941734.728    23941743.108  
      3178.167        2476.499  
  22024902.7161   17169652.7071   25450892.2791   25450892.7461   25450906.4181 
     -3939.7451      -3069.9161 
 -18924764.905   -14723717.491    20695929.691    20695928.931    20695935.023  
      1569.658        1223.107  
 -13649387.789   -10611483.308    21949790.189    21949790.130    21949794.906  
     -1899.974       -1480.499  
   -292437.822     -213459.237    24082439.722    24082439.668    24082446.637  
     -2115.038       -1648.079  
 99  8  1  1 32 30.0000000  0  8  1 14 15 16 21 22 25 29            
 -20349631.846   -15829267.843    21166611.562    21166611.106    21166616.561  
       272.789         212.564  
 -20161895.211   -15699438.658    21533148.943    21533148.635    21533154.754  
      1906.664        1485.715  
   -742189.569     -565170.560    23771252.000    23771251.260    23771262.369  
     -2651.397       -2066.013  
  -4348347.521    -3367235.162    23923611.276    23923610.896    23923619.346  
      3171.195        2471.053  
  22143114.7321   17261765.8151   25473387.2641   25473387.9781   25473401.4891 
     -3941.1681      -3071.0321 
 -18971572.104   -14760190.561    20687022.471    20687021.675    20687027.853  
      1550.757        1208.380  
 -13592324.001   -10567018.008    21960649.027    21960648.993    21960653.739  
     -1904.167       -1483.767  
   -228895.009     -163945.394    24094531.496    24094531.515    24094538.419  
     -2121.233       -1652.906  
 99  8  1  1 33  0.0000000  0  8  1 14 15 16 21 22 25 29            
 -20357729.951   -15835578.035    21165070.594    21165070.127    21165075.462  
       266.938         208.000  
 -20218858.227   -15743825.393    21522309.166    21522308.920    21522314.986  
      1890.900        1473.428  
   -662576.587     -503134.600    23786402.012    23786401.287    23786412.202  
     -2656.102       -2069.686  
  -4443371.124    -3441279.508    23905529.031    23905528.488    23905536.729  
      3163.561        2465.102  
  22261361.3421   17353905.8651   25495888.4611   25495889.8081   25495903.1701 
     -3942.3171      -3071.9371 
 -19017809.921   -14796219.947    20678223.575    20678222.790    20678228.938  
      1531.764        1193.577  
 -13535133.054   -10522453.627    21971532.076    21971532.043    21971536.780  
     -1908.457       -1487.112  
   -165165.910     -114286.369    24106658.787    24106658.877    24106665.689  
     -2127.260       -1657.597  
 99  8  1  1 33 30.0000000  0  8  1 14 15 16 21 22 25 29            
 -20365650.021   -15841749.497    21163563.391    21163562.930    21163568.252  
       261.247         203.569  
 -20275353.083   -15787847.318    21511558.520    21511558.274    21511564.342  
      1875.479        1461.410  
   -582825.320     -440990.858    23801578.405    23801577.686    23801588.323  
     -2660.630       -2073.207  
  -4538149.675    -3515132.865    23887493.395    23887492.668    23887500.810  
      3155.061        2458.487  
  22379654.1491   17446081.9031   25518399.4541   25518400.1991   25518413.8381 
     -3943.5701      -3072.9001 
 -19063477.655   -14831805.120    20669533.327    20669532.476    20669538.566  
      1512.635        1178.672  
 -13477816.516   -10477791.388    21982439.087    21982439.016    21982443.741  
     -1912.607       -1490.347  
   -101265.686      -64494.004    24118818.537    24118818.652    24118825.541  
     -2132.799       -1661.917  
 99  8  1  1 34  0.0000000  0  8  1 14 15 16 21 22 25 29            
 -20373407.306   -15847794.110    21162087.075    21162086.673    21162092.060  
       255.845         199.357  
 -20331388.059   -15831510.890    21500895.395    21500895.123    21500901.225  
      1860.158        1449.471  
   -502939.306     -378742.132    23816780.413    23816779.710    23816790.310  
     -2665.126       -2076.732  
  -4632673.449    -3588787.697    23869506.101    23869505.371    23869513.414  
      3146.403        2451.738  
  22497990.0371   17538291.6791   25540918.2721   25540918.7751   25540932.4941 
     -3945.4441      -3074.3781 
 -19108562.211   -14866935.871    20660953.963    20660953.129    20660959.193  
      1493.059        1163.421  
 -13420372.365   -10433029.702    21993370.429    21993370.308    21993375.039  
     -1917.115       -1493.856  
    -37195.153      -14568.954    24131010.951    24131010.916    24131017.673  
     -2138.595       -1666.430  
 99  8  1  1 34 30.0000000  0  8  1 14 15 16 21 22 25 29            
 -20380997.470   -15853708.501    21160642.713    21160642.330    21160647.761  
       250.030         194.832  
 -20386963.238   -15874816.178    21490319.779    21490319.505    21490325.635  
      1844.823        1437.526  
   -422921.283     -316390.536    23832007.710    23832006.887    23832017.371  
     -2669.364       -2080.021  
  -4726936.367    -3662239.245    23851568.223    23851567.659    23851575.759  
      3137.896        2445.099  
  22616389.5811   17630551.0281   25563450.3261   25563449.6161   25563463.4571 
     -3947.7881      -3076.2431 
 -19153053.035   -14901603.972    20652487.536    20652486.761    20652492.852  
      1473.101        1147.872  
 -13362795.592   -10388164.687    22004326.773    22004326.739    22004331.652  
     -1921.154       -1497.002  
     27048.661       35491.122    24143236.092    24143236.125    24143242.852  
     -2144.367       -1670.928  
 99  8  1  1 35  0.0000000  0  8  1 14 15 16 21 22 25 29            
 -20388404.082   -15859479.859    21159233.314    21159232.899    21159238.281  
       243.838         190.006  
 -20442072.533   -15917758.426    21479832.751    21479832.487    21479838.692  
      1829.001        1425.191  
   -342775.268     -253939.226    23847259.292    23847258.392    23847268.851  
     -2673.685       -2083.388  
  -4820946.953    -3735494.164    23833678.600    23833678.082    23833686.087  
      3129.469        2438.540  
  22734865.0761   17722869.4161   25585996.9541   25585995.0331   25586008.5401 
     -3950.3001      -3078.1791 
 -19196956.177   -14935814.135    20644132.992    20644132.190    20644138.354  
      1453.900        1132.906  
 -13305103.484   -10343209.810    22015305.306    22015305.209    22015310.277  
     -1924.931       -1499.952  
     91465.810       85686.273    24155494.416    24155494.434    24155501.083  
     -2149.849       -1675.211  
 99  8  1  1 35 30.0000000  0  7  1 14 15 16 22 25 29               
 -20395638.346   -15865116.922    21157856.657    21157856.218    21157861.607  
       238.467         185.816  
 -20496709.151   -15960332.358    21469435.707    21469435.477    21469441.669  
      1813.528        1413.134  
   -262503.998     -191390.315    23862534.128    23862533.349    23862543.974  
     -2677.647       -2086.477  
  -4914718.971    -3808563.163    23815834.385    23815833.835    23815841.806  
      3122.183        2432.856  
 -19240282.441   -14969574.793    20635888.230    20635887.500    20635893.588  
      1434.568        1117.840  
 -13247304.168   -10298171.379    22026304.222    22026304.072    22026309.130  
     -1928.378       -1502.633  
    156034.624      135999.615    24167781.595    24167781.471    24167788.186  
     -2154.681       -1678.979  
 99  8  1  1 36  0.0000000  0  7  1 14 15 16 22 25 29               
 -20402701.805   -15870620.893    21156512.546    21156512.057    21156517.483  
       232.327         181.036  
 -20550873.536   -16002538.310    21459128.532    21459128.301    21459134.478  
      1797.316        1400.502  
   -182110.797     -128746.385    23877832.293    23877831.624    23877842.356  
     -2681.780       -2089.697  
  -5008276.066    -3881464.674    23798030.979    23798030.379    23798038.449  
      3115.071        2427.326  
 -19283026.400   -15002881.703    20627754.382    20627753.577    20627759.673  
      1415.356        1102.876  
 -13189393.912   -10253046.515    22037324.185    22037324.011    22037329.175  
     -1932.214       -1505.619  
    220748.149      186425.666    24180096.087    24180095.888    24180102.846  
     -2159.485       -1682.704  
 99  8  1  1 36 30.0000000  0  7  1 14 15 16 22 25 29               
 -20409573.608   -15875975.521    21155204.815    21155204.359    21155209.764  
       225.816         175.962  
 -20604546.153   -16044361.069    21448914.883    21448914.657    21448920.874  
      1780.836        1387.664  
   -101598.853      -66009.940    23893153.295    23893152.609    23893163.474  
     -2685.641       -2092.696  
  -5101633.099    -3954210.310    23780265.696    23780265.037    23780273.137  
      3108.668        2422.337  
 -19325203.110   -15035746.607    20619728.301    20619727.577    20619733.675  
      1396.484        1088.170  
 -13131377.736   -10207839.102    22048364.269    22048364.116    22048369.318  
     -1935.552       -1508.224  
    285596.193      236956.547    24192436.224    24192435.950    24192443.132  
     -2163.786       -1686.041  
 99  8  1  1 37  0.0000000  0  7  1 14 15 16 22 25 29               
 -20416248.961   -15881177.073    21153934.442    21153933.999    21153939.430  
       219.202         170.804  
 -20657718.347   -16085793.882    21438796.489    21438796.257    21438802.518  
      1763.959        1374.507  
    -20971.672       -3183.672    23908496.191    23908495.546    23908506.452  
     -2689.538       -2095.749  
  -5194795.620    -4026804.368    23762537.353    23762536.756    23762544.800  
      3102.047        2417.173  
 -19366813.742   -15068170.405    20611810.137    20611809.347    20611815.401  
      1377.431        1073.318  
 -13073250.981   -10162545.528    22059425.336    22059425.190    22059430.467  
     -1939.666       -1511.431  
    350572.359      287587.308    24204800.643    24204800.382    24204807.711  
     -2168.071       -1689.415  
 99  8  1  1 37 30.0000000  0  7  1 14 15 16 22 25 29               
 -20422723.082   -15886221.824    21152702.399    21152701.953    21152707.383  
       212.193         165.347  
 -20710393.636   -16126839.502    21428772.640    21428772.439    21428778.662  
      1747.715        1361.855  
     59767.601       59729.902    23923860.258    23923859.611    23923870.817  
     -2693.186       -2098.581  
  -5287759.291    -4099243.472    23744847.121    23744846.386    23744854.344  
      3095.263        2411.895  
 -19407838.884   -15100137.984    20604003.225    20604002.454    20604008.515  
      1357.446        1057.744  
 -13014996.415   -10117152.369    22070510.701    22070510.539    22070515.895  
     -1944.155       -1514.929  
    415678.562      338319.386    24217189.518    24217189.571    24217196.899  
     -2172.763       -1693.060  
 99  8  1  1 38  0.0000000  0  7  1 14 15 16 22 25 29               
 -20428984.532   -15891100.856    21151510.894    21151510.420    21151515.828  
       205.223         159.910  
 -20762576.330   -16167501.280    21418842.498    21418842.310    21418848.558  
      1730.936        1348.776  
    140615.883      122728.389    23939245.164    23939244.631    23939255.817  
     -2696.719       -2101.334  
  -5380506.508    -4171513.892    23727197.694    23727197.050    23727205.073  
      3087.741        2406.031  
 -19448263.396   -15131637.532    20596310.678    20596309.915    20596315.887  
      1337.489        1042.194  
 -12956610.014   -10071656.473    22081621.120    22081621.020    22081626.416  
     -1948.298       -1518.153  
    480941.214      389173.356    24229608.390    24229608.627    24229616.035  
     -2178.344       -1697.394  
 99  8  1  1 38 30.0000000  0  7  1 14 15 16 22 25 29               
 -20435039.796   -15895819.230    21150358.571    21150358.131    21150363.554  
       198.537         154.705  
 -20814254.662   -16207770.056    21409008.371    21409008.222    21409014.443  
      1714.412        1335.901  
    221569.747      185809.173    23954650.468    23954649.889    23954660.977  
     -2700.151       -2104.010  
  -5473017.506    -4243600.243    23709593.320    23709592.669    23709600.744  
      3079.431        2399.547  
 -19488082.020   -15162664.967    20588733.435    20588732.658    20588738.572  
      1316.996        1026.230  
 -12898104.641   -10026067.878    22092754.261    22092754.138    22092759.501  
     -1952.109       -1521.122  
    546385.942      440169.185    24242062.225    24242062.372    24242069.832  
     -2184.616       -1702.306  
 99  8  1  1 39  0.0000000  0  7  1 14 15 16 22 25 29               
 -20440895.318   -15900381.953    21149244.333    21149243.854    21149249.218  
       191.893         149.529  
 -20865442.207   -16247656.396    21399267.777    21399267.566    21399273.748  
      1698.162        1323.239  
    302625.950      248969.705    23970075.091    23970074.388    23970085.673  
     -2703.507       -2106.614  
  -5565264.740    -4315481.081    23692039.149    23692038.526    23692046.545  
      3070.502        2392.591  
 -19527280.093   -15193208.857    20581274.223    20581273.457    20581279.276  
      1296.330        1010.128  
 -12839481.902    -9980387.822    22103909.776    22103909.682    22103914.900  
     -1955.910       -1524.087  
    612028.025      491318.835    24254553.327    24254553.721    24254561.202  
     -2191.243       -1707.462  
 99  8  1  1 39 30.0000000  0  7  1 14 15 16 22 25 29               
 -20446551.804   -15904789.581    21148167.901    21148167.411    21148172.760  
       185.228         144.333  
 -20916139.300   -16287160.568    21389620.391    21389620.163    21389626.315  
      1681.538        1310.286  
    383781.279      312207.455    23985518.350    23985517.705    23985529.272  
     -2706.932       -2109.304  
  -5657239.848    -4387149.894    23674536.722    23674536.140    23674544.134  
      3061.167        2385.324  
 -19565854.155   -15223266.509    20573933.728    20573932.997    20573938.760  
      1275.231         993.685  
 -12780747.442    -9934620.703    22115086.544    22115086.430    22115091.517  
     -1959.713       -1527.053  
    677860.624      542616.925    24267081.020    24267081.310    24267088.913  
     -2197.691       -1712.500  
 99  8  1  1 40  0.0000000  0  7  1 14 15 16 22 25 29               
 -20452019.369   -15909050.002    21147127.416    21147126.918    21147132.332  
       179.067         139.529  
 -20966328.477   -16326268.964    21380069.638    21380069.457    21380075.527  
      1664.122        1296.713  
    465032.641      375520.065    24000980.174    24000979.552    24000991.061  
     -2709.990       -2111.680  
  -5748933.948    -4458599.699    23657087.644    23657087.191    23657095.371  
      3051.774        2378.003  
 -19603807.445   -15252840.447    20566711.503    20566710.767    20566716.401  
      1254.978         977.901  
 -12721907.618    -9888771.489    22126283.434    22126283.361    22126288.252  
     -1963.146       -1529.727  
    743876.386      594057.712    24279643.353    24279643.653    24279651.359  
     -2203.538       -1717.056  
 99  8  1  1 40 30.0000000  0  7  1 14 15 16 22 25 29               
 -20457295.185   -15913161.012    21146123.431    21146122.941    21146128.380  
       172.480         134.398  
 -21015996.589   -16364971.326    21370618.103    21370617.906    21370623.911  
      1647.134        1283.474  
    546376.779      438904.963    24016459.687    24016459.100    24016470.540  
     -2713.025       -2114.045  
  -5840349.067    -4529832.135    23639691.486    23639691.253    23639699.478  
      3042.439        2370.735  
 -19641161.334   -15281947.314    20559603.308    20559602.515    20559608.077  
      1235.234         962.515  
 -12662963.979    -9842841.370    22137500.178    22137500.036    22137504.777  
     -1966.638       -1532.450  
    810060.697      645629.857    24292237.809    24292238.210    24292245.776  
     -2208.781       -1721.123  
 99  8  1  1 41  0.0000000  0  7  1 14 15 16 22 25 29               
 -20462367.805   -15917113.686    21145158.145    21145157.668    21145163.085  
       165.570         129.012  
 -21065158.804   -16403279.483    21361262.896    21361262.631    21361268.603  
      1630.099        1270.205  
    627810.323      502359.535    24031956.207    24031955.633    24031966.880  
     -2715.986       -2116.346  
  -5931490.961    -4600851.645    23622347.598    23622347.369    23622355.731  
      3033.724        2363.925  
 -19677925.266   -15310594.481    20552607.279    20552606.480    20552612.021  
      1215.637         947.248  
 -12603910.464    -9796825.645    22148737.719    22148737.550    22148742.258  
     -1970.405       -1535.376  
    876389.139      697314.304    24304859.742    24304860.185    24304867.713  
     -2213.253       -1724.610  
 99  8  1  1 41 30.0000000  0  7  1 14 15 16 22 25 29               
 -20467231.187   -15920903.320    21144232.712    21144232.233    21144237.676  
       158.617         123.595  
 -21113803.987   -16441184.762    21352006.020    21352005.733    21352011.667  
      1612.914        1256.809  
    709330.128      565881.313    24047468.994    24047468.388    24047479.665  
     -2718.825       -2118.564  
  -6022368.823    -4671665.445    23605054.199    23605053.812    23605062.137  
      3024.697        2356.893  
 -19714101.759   -15338783.902    20545723.016    20545722.254    20545727.793  
      1196.041         931.975  
 -12544737.410    -9750716.753    22159998.105    22159997.889    22160002.419  
     -1974.530       -1538.597  
    942849.325      749101.427    24317506.748    24317507.090    24317514.841  
     -2217.871       -1728.222  
 99  8  1  1 42  0.0000000  0  7  1 14 15 16 22 25 29               
 -20471882.566   -15924527.759    21143347.655    21143347.152    21143352.606  
       151.357         117.940  
 -21161944.102   -16478696.490    21342845.109    21342844.851    21342850.819  
      1596.458        1243.990  
    790932.838      629467.687    24062997.492    24062996.878    24063008.413  
     -2721.421       -2120.590  
  -6112984.923    -4742275.289    23587810.597    23587810.053    23587818.282  
      3016.330        2350.383  
 -19749701.589   -15366523.973    20538948.571    20538947.774    20538953.337  
      1177.352         917.415  
 -12485446.009    -9704515.660    22171280.847    22171280.639    22171285.203  
     -1978.257       -1541.497  
   1009455.403      801002.219    24330181.773    24330181.879    24330189.660  
     -2222.575       -1731.876  
 99  8  1  1 42 30.0000000  0  7  1 14 15 16 22 25 29               
 -20476311.267   -15927978.676    21142504.806    21142504.336    21142509.791  
       143.895         112.121  
 -21209597.811   -16515829.207    21333776.757    21333776.563    21333782.536  
      1580.344        1231.430  
    872615.259      693116.197    24078541.311    24078540.620    24078552.227  
     -2724.184       -2122.733  
  -6203350.914    -4812690.283    23570614.431    23570613.902    23570621.910  
      3007.822        2343.752  
 -19784730.822   -15393819.433    20532282.644    20532281.898    20532287.428  
      1157.712         902.110  
 -12426043.101    -9658227.680    22182584.879    22182584.668    22182589.274  
     -1982.027       -1544.442  
   1076205.243      853015.035    24342884.024    24342884.013    24342891.819  
     -2227.428       -1735.656  
 99  8  1  1 43  0.0000000  0  7  1 14 15 16 22 25 29               
 -20480525.400   -15931262.400    21141702.863    21141702.389    21141707.795  
       137.120         106.850  
 -21256762.655   -16552580.990    21324801.552    21324801.361    21324807.295  
      1563.883        1218.610  
    954374.494      756824.549    24094099.777    24094099.038    24094110.575  
     -2726.407       -2124.469  
  -6293475.414    -4882917.073    23553464.359    23553463.752    23553471.738  
      3000.346        2337.933  
 -19819159.290   -15420646.768    20525731.122    20525730.386    20525735.858  
      1137.579         886.422  
 -12366523.660    -9611848.884    22193911.056    22193910.892    22193915.465  
     -1985.819       -1547.398  
   1143100.816      905141.414    24355613.627    24355613.698    24355621.597  
     -2232.314       -1739.454  
 99  8  1  1 43 30.0000000  0  7  1 14 15 16 22 25 29               
 -20484540.552   -15934391.078    21140938.745    21140938.301    21140943.676  
       130.676         101.822  
 -21303425.979   -16588941.986    21315921.889    21315921.661    21315927.510  
      1547.013        1205.459  
   1036207.213      820590.155    24109672.401    24109671.495    24109683.049  
     -2729.084       -2126.560  
  -6383356.665    -4952954.340    23536360.510    23536359.867    23536367.639  
      2991.617        2331.127  
 -19852976.896   -15446998.099    20519295.801    20519295.045    20519300.584  
      1116.974         870.364  
 -12306899.873    -9565388.789    22205257.097    22205256.941    22205261.576  
     -1989.118       -1549.966  
   1210156.819      957392.823    24368373.829    24368374.039    24368381.980  
     -2238.272       -1744.114  
 99  8  1  1 44  0.0000000  0  7  1 14 15 16 22 25 29               
 -20488373.735   -15937377.954    21140209.338    21140208.897    21140214.230  
       124.738          97.199  
 -21349584.839   -16624909.894    21307138.145    21307137.888    21307143.762  
      1529.805        1192.056  
   1118110.461      884410.736    24125258.092    24125257.267    24125268.848  
     -2731.265       -2128.253  
  -6472985.468    -5022794.875    23519304.739    23519304.023    23519311.802  
      2983.429        2324.754  
 -19886179.282   -15472870.041    20512977.512    20512976.796    20512982.371  
      1096.378         854.319  
 -12247186.504    -9518858.880    22216620.243    22216620.028    22216624.627  
     -1991.946       -1552.168  
   1277393.272     1009784.821    24381168.551    24381168.776    24381176.849  
     -2244.275       -1748.782  
 99  8  1  1 44 30.0000000  0  7  1 14 15 16 22 25 29               
 -20492034.884   -15940230.775    21139512.675    21139512.239    21139517.544  
       119.145          92.841  
 -21395206.389   -16660459.124    21298456.489    21298456.305    21298462.227  
      1511.432        1177.738  
   1200080.942      948283.692    24140856.549    24140855.722    24140867.482  
     -2733.571       -2130.040  
  -6562353.365    -5092432.130    23502298.589    23502297.831    23502305.636  
      2974.139        2317.508  
 -19918754.171   -15498253.028    20506778.767    20506777.968    20506783.501  
      1075.076         837.723  
 -12187379.021    -9472255.647    22228001.196    22228001.039    22228005.633  
     -1995.393       -1554.856  
   1344817.707     1062323.295    24393999.344    24393999.434    24394007.400  
     -2251.026       -1754.039  
 99  8  1  1 45  0.0000000  0  7  1 14 15 16 22 25 29               
 -20495528.226   -15942952.843    21138847.891    21138847.463    21138852.815  
       113.402          88.368  
 -21440282.367   -16695583.244    21289878.736    21289878.564    21289884.478  
      1493.506        1163.769  
   1282115.405     1012206.514    24156467.103    24156466.320    24156478.261  
     -2735.630       -2131.653  
  -6651437.201    -5161848.051    23485346.476    23485345.684    23485353.532  
      2964.348        2309.883  
 -19950700.184   -15523145.992    20500699.564    20500698.780    20500704.306  
      1054.575         821.749  
 -12127472.722    -9425575.415    22239401.008    22239400.868    22239405.445  
     -1998.443       -1557.227  
   1412451.376     1115024.834    24406869.792    24406869.718    24406877.598  
     -2258.173       -1759.630  
 99  8  1  1 45 30.0000000  0  7  1 14 15 16 22 25 29               
 -20498846.659   -15945538.613    21138216.414    21138215.965    21138221.385  
       107.601          83.843  
 -21484822.710   -16730289.982    21281403.006    21281402.798    21281408.681  
      1475.817        1149.988  
   1364210.450     1076176.530    24172089.149    24172088.357    24172100.435  
     -2737.429       -2133.058  
  -6740207.133    -5231019.389    23468454.110    23468453.268    23468461.158  
      2953.717        2301.600  
 -19982036.678   -15547564.003    20494736.296    20494735.537    20494741.141  
      1034.541         806.138  
 -12067476.888    -9378825.421    22250817.761    22250817.689    22250822.318  
     -2001.463       -1559.580  
   1480299.213     1167893.253    24419780.959    24419780.750    24419788.418  
     -2265.094       -1765.010  
 99  8  1  1 46  0.0000000  0  7  1 14 15 16 22 25 29               
 -20501964.411   -15947968.005    21137623.069    21137622.615    21137628.096  
       100.150          78.039  
 -21528826.013   -16764578.257    21273029.468    21273029.276    21273035.040  
      1457.811        1135.959  
   1446363.189     1140191.466    24187722.296    24187721.588    24187733.718  
     -2739.436       -2134.603  
  -6828656.160    -5299940.669    23451622.827    23451622.004    23451629.922  
      2943.002        2293.241  
 -20012763.807   -15571507.182    20488889.116    20488888.365    20488893.913  
      1013.937         790.082  
 -12007370.861    -9331989.562    22262255.455    22262255.463    22262260.202  
     -2005.428       -1562.668  
   1548348.455     1220918.592    24432730.313    24432730.126    24432737.658  
     -2271.314       -1769.858  
 99  8  1  1 46 30.0000000  0  7  1 14 15 16 22 25 29               
 -20504856.716   -15950221.735    21137072.564    21137072.163    21137077.678  
        92.617          72.167  
 -21572306.114   -16798458.841    21264755.444    21264755.291    21264761.003  
      1440.908        1122.779  
   1528569.954     1204248.518    24203365.778    24203365.096    24203377.291  
     -2741.150       -2135.956  
  -6916781.654    -5368609.843    23434852.988    23434852.235    23434860.263  
      2932.032        2284.697  
 -20042872.710   -15594968.630    20483159.667    20483158.858    20483164.358  
       993.285         773.987  
 -11947157.088    -9285069.751    22273713.732    22273713.682    22273718.575  
     -2008.709       -1565.230  
   1616573.707     1274081.057    24445713.114    24445712.933    24445720.648  
     -2277.002       -1774.292  
 99  8  1  1 47  0.0000000  0  7  1 14 15 16 22 25 29               
 -20507513.967   -15952292.293    21136566.915    21136566.507    21136572.012  
        84.511          65.852  
 -21615284.129   -16831948.191    21256577.040    21256576.837    21256582.549  
      1424.167        1109.738  
   1610828.062     1268345.554    24219019.123    24219018.426    24219030.732  
     -2742.814       -2137.250  
  -7004578.571    -5437022.985    23418145.645    23418144.975    23418153.069  
      2921.116        2276.193  
 -20072357.943   -15617944.089    20477548.804    20477547.958    20477553.494  
       972.356         757.674  
 -11886852.926    -9238079.506    22285189.173    22285189.145    22285194.139  
     -2011.551       -1567.448  
   1684958.180     1327367.616    24458726.204    24458726.233    24458733.919  
     -2281.850       -1778.081  
 99  8  1  1 47 30.0000000  0  7  1 14 15 16 22 25 29               
 -20509930.341   -15954175.158    21136107.180    21136106.753    21136112.160  
        76.440          59.566  
 -21657752.726   -16865040.593    21248495.464    21248495.278    21248501.006  
      1406.932        1096.312  
   1693134.382     1332480.166    24234681.591    24234680.930    24234693.235  
     -2744.302       -2138.401  
  -7092057.165    -5505188.074    23401498.864    23401498.307    23401506.413  
      2910.871        2268.218  
 -20101209.405   -15640425.710    20472058.527    20472057.680    20472063.280  
       951.075         741.099  
 -11826467.463    -9191025.908    22296680.092    22296680.076    22296685.108  
     -2014.330       -1569.604  
   1753478.978     1380760.368    24471765.424    24471765.436    24471773.121  
     -2286.181       -1781.430  
 99  8  1  1 48  0.0000000  0  7  1 14 15 16 22 25 29               
 -20512093.661   -15955860.837    21135695.524    21135695.081    21135700.480  
        68.105          53.068  
 -21699702.728   -16897728.892    21240512.559    21240512.360    21240518.164  
      1389.675        1082.862  
   1775485.749     1396649.858    24250352.659    24250352.040    24250364.321  
     -2745.765       -2139.537  
  -7179230.839    -5573115.579    23384910.167    23384909.645    23384917.689  
      2900.768        2260.337  
 -20129418.550   -15662406.823    20466690.441    20466689.637    20466695.253  
       929.689         724.429  
 -11766001.400    -9143909.499    22308186.493    22308186.477    22308191.363  
     -2016.509       -1571.300  
   1822131.541     1434255.791    24484829.646    24484829.642    24484837.272  
     -2290.728       -1784.976  
 99  8  1  1 48 30.0000000  0  7  1 14 15 16 22 25 29               
 -20514027.046   -15957367.347    21135327.624    21135327.156    21135332.580  
        60.865          47.429  
 -21741129.464   -16930009.451    21232629.304    21232629.125    21232634.944  
      1371.995        1069.090  
   1857878.876     1460852.117    24266031.885    24266031.281    24266043.382  
     -2747.173       -2140.648  
  -7266105.547    -5640810.106    23368378.257    23368377.812    23368385.907  
      2890.907        2252.651  
 -20156994.819   -15683894.781    20461442.919    20461442.111    20461447.602  
       908.969         708.291  
 -11705479.324    -9096749.450    22319703.640    22319703.462    22319708.347  
     -2018.400       -1572.779  
   1890939.386     1487872.210    24497923.324    24497923.333    24497931.030  
     -2296.388       -1789.389  
 99  8  1  1 49  0.0000000  0  7  1 14 15 16 22 25 29               
 -20515741.381   -15958703.170    21135001.308    21135000.866    21135006.355  
        53.297          41.524  
 -21782015.228   -16961868.470    21224848.969    21224848.817    21224854.612  
      1353.708        1054.836  
   1940310.835     1525084.630    24281718.332    24281717.845    24281729.860  
     -2748.470       -2141.661  
  -7352693.274    -5708281.020    23351901.095    23351900.602    23351908.660  
      2881.493        2245.315  
 -20183964.043   -15704909.712    20456310.929    20456310.077    20456315.455  
       888.886         692.633  
 -11644894.123    -9049540.211    22331232.470    22331232.413    22331237.210  
     -2020.895       -1574.725  
   1959916.640     1541620.685    24511049.053    24511049.290    24511057.070  
     -2302.208       -1793.923  
 99  8  1  1 49 30.0000000  0  7  1 14 15 16 22 25 29               
 -20517233.675   -15959865.972    21134717.280    21134716.839    21134722.371  
        46.044          35.877  
 -21822354.901   -16993301.963    21217172.616    21217172.410    21217178.161  
      1335.401        1040.574  
   2022778.365     1589344.863    24297411.506    24297411.041    24297423.052  
     -2749.513       -2142.459  
  -7439003.493    -5775535.673    23335476.754    23335476.167    23335484.229  
      2872.372        2238.201  
 -20210332.558   -15725456.566    20451293.097    20451292.239    20451297.601  
       868.933         677.089  
 -11584224.134    -9002264.903    22342777.637    22342777.524    22342782.251  
     -2024.079       -1577.204  
   2029068.176     1595504.926    24524208.223    24524208.476    24524216.221  
     -2308.160       -1798.571  
 99  8  1  1 50  0.0000000  0  7  1 14 15 16 22 25 29               
 -20518517.144   -15960866.055    21134473.056    21134472.589    21134478.093  
        39.596          30.851  
 -21862146.326   -17024308.247    21209600.488    21209600.266    21209606.037  
      1317.344        1026.501  
   2105278.327     1653630.390    24313110.822    24313110.320    24313122.371  
     -2750.475       -2143.214  
  -7525051.627    -5842586.126    23319102.153    23319101.662    23319109.598  
      2864.096        2231.757  
 -20236108.286   -15745541.504    20446388.058    20446387.265    20446392.560  
       849.443         661.904  
 -11523452.235    -8954910.188    22354342.066    22354341.927    22354346.704  
     -2027.288       -1579.700  
   2098398.278     1649528.320    24537401.542    24537401.761    24537409.337  
     -2313.964       -1803.092  
 99  8  1  1 50 30.0000000  0  7  1 14 15 16 22 25 29               
 -20519607.055   -15961715.318    21134265.632    21134265.173    21134270.638  
        32.869          25.607  
 -21901391.935   -17054889.220    21202132.297    21202132.059    21202137.842  
      1299.106        1012.287  
   2187807.629     1717938.778    24328815.821    24328815.168    24328827.346  
     -2751.439       -2143.960  
  -7610843.566    -5909436.925    23302776.324    23302775.922    23302783.739  
      2855.193        2224.821  
 -20261294.859   -15765167.359    20441595.256    20441594.442    20441599.691  
       829.550         646.400  
 -11462581.283    -8907478.290    22365925.387    22365925.272    22365930.051  
     -2030.954       -1582.559  
   2167902.742     1703687.575    24550627.943    24550628.154    24550635.543  
     -2319.409       -1807.340  
 99  8  1  1 51  0.0000000  0  7  1 14 15 16 22 25 29               
 -20520482.199   -15962397.234    21134099.115    21134098.678    21134104.074  
        25.444          19.822  
 -21940091.832   -17085044.964    21194767.922    21194767.726    21194773.545  
      1280.925         998.122  
   2270363.046     1782267.490    24344525.707    24344525.079    24344537.384  
     -2752.238       -2144.596  
  -7696359.942    -5976073.001    23286502.911    23286502.635    23286510.372  
      2845.796        2217.501  
 -20285868.756   -15784315.801    20436919.045    20436918.169    20436923.432  
       808.520         630.012  
 -11401597.862    -8859958.747    22377530.253    22377530.114    22377534.824  
     -2034.554       -1585.368  
   2237550.661     1757958.638    24563881.538    24563881.807    24563889.115  
     -2323.995       -1810.909  
 99  8  1  1 51 30.0000000  0  7  1 14 15 16 22 25 29               
 -20521139.420   -15962909.334    21133974.120    21133973.643    21133978.941  
        18.402          14.337  
 -21978248.464   -17114777.376    21187507.025    21187506.774    21187512.648  
      1262.832         984.025  
   2352941.579     1846614.252    24360240.236    24360239.549    24360251.798  
     -2752.940       -2145.150  
  -7781582.897    -6042480.431    23270285.471    23270285.147    23270292.837  
      2835.651        2209.589  
 -20309797.485   -15802961.520    20432365.498    20432364.664    20432369.871  
       786.901         613.166  
 -11340513.129    -8812360.257    22389154.362    22389154.278    22389158.893  
     -2037.572       -1587.719  
   2307342.258     1812341.655    24577162.536    24577162.685    24577170.089  
     -2328.856       -1814.699  
 99  8  1  1 52  0.0000000  0  7  1 14 15 16 22 25 29               
 -20521584.824   -15963256.386    21133889.301    21133888.835    21133894.196  
        11.346           8.839  
 -22015861.325   -17144086.081    21180349.570    21180349.320    21180355.189  
      1244.792         969.969  
   2435540.367     1910976.769    24375958.412    24375957.759    24375970.117  
     -2753.624       -2145.693  
  -7866486.105    -6108638.699    23254128.821    23254128.455    23254136.266  
      2824.413        2200.849  
 -20333083.874   -15821106.715    20427934.115    20427933.336    20427938.543  
       765.599         596.569  
 -11279357.362    -8764706.423    22400791.938    22400791.863    22400796.436  
     -2039.459       -1589.190  
   2377289.156     1866845.687    24590473.030    24590473.177    24590480.625  
     -2334.287       -1818.922  
 99  8  1  1 52 30.0000000  0  7  1 14 15 16 22 25 29               
 -20521810.156   -15963431.955    21133846.383    21133845.896    21133851.353  
         3.614           2.819  
 -22052934.433   -17172974.190    21173294.801    21173294.552    21173300.370  
      1226.657         955.835  
   2518156.071     1975352.476    24391679.942    24391679.164    24391691.414  
     -2754.223       -2146.140  
  -7951036.511    -6174522.068    23238039.390    23238038.983    23238046.753  
      2812.265        2191.368  
 -20355723.332   -15838747.805    20423625.938    20423625.109    20423630.349  
       743.679         579.489  
 -11218144.439    -8717008.044    22412440.397    22412440.334    22412444.809  
     -2041.564       -1590.830  
   2447399.470     1921477.030    24603814.788    24603814.891    24603822.242  
     -2339.880       -1823.284  
 99  8  1  1 53  0.0000000  0  7  1 14 15 16 22 25 29               
 -20521807.606   -15963429.954    21133846.721    21133846.301    21133851.795  
        -3.594          -2.801  
 -22089459.117   -17201434.960    21166344.335    21166344.119    21166349.868  
      1208.408         941.617  
   2600785.592     2039738.989    24407403.989    24407403.219    24407415.374  
     -2754.423       -2146.296  
  -8035231.474    -6240128.459    23222017.733    23222017.256    23222024.924  
      2800.904        2182.519  
 -20377704.083   -15855875.617    20419443.122    20419442.335    20419447.517  
       721.967         562.569  
 -11156871.485    -8669262.895    22424100.388    22424100.241    22424104.726  
     -2043.186       -1592.099  
   2517687.213     1976246.636    24617190.342    24617190.360    24617197.560  
     -2346.042       -1828.083  
 99  8  1  1 53 30.0000000  0  7  1 14 15 16 22 25 29               
 -20521594.591   -15963263.961    21133887.167    21133886.808    21133892.289  
       -10.512          -8.190  
 -22125440.543   -17229472.411    21159497.278    21159497.080    21159502.729  
      1190.459         927.629  
   2683425.708     2104133.746    24423129.837    24423129.038    24423141.241  
     -2754.746       -2146.544  
  -8119082.195    -6305466.606    23206061.526    23206061.093    23206068.563  
      2789.401        2173.561  
 -20399046.158   -15872505.766    20415381.797    20415381.002    20415386.185  
       701.120         546.327  
 -11095542.347    -8621473.966    22435770.918    22435770.817    22435775.299  
     -2045.457       -1593.863  
   2588169.868     2031168.110    24630602.746    24630602.763    24630609.945  
     -2352.378       -1833.031  
 99  8  1  1 54  0.0000000  0  7  1 14 15 16 22 25 29               
 -20521168.923   -15962932.262    21133968.239    21133967.849    21133973.294  
       -17.870         -13.925  
 -22160879.555   -17257087.201    21152753.414    21152753.263    21152758.830  
      1172.270         913.457  
   2766073.513     2168534.488    24438857.131    24438856.441    24438868.617  
     -2755.018       -2146.772  
  -8202596.279    -6370542.450    23190169.531    23190169.028    23190176.088  
      2778.436        2165.010  
 -20419770.348   -15888654.445    20411437.959    20411437.183    20411442.425  
       680.474         530.240  
 -11034135.244    -8573624.279    22447456.337    22447456.205    22447460.602  
     -2048.414       -1596.162  
   2658834.963     2086231.736    24644049.686    24644049.843    24644057.001  
     -2358.444       -1837.744  
 99  8  1  1 54 30.0000000  0  7  1 14 15 16 22 25 29               
 -20520511.693   -15962420.125    21134093.431    21134092.989    21134098.391  
       -25.975         -20.239  
 -22195779.988   -17284282.319    21146112.125    21146111.939    21146117.447  
      1154.339         899.488  
   2848725.766     2232938.663    24454585.513    24454584.902    24454596.996  
     -2755.199       -2146.906  
  -8285790.263    -6435368.835    23174338.424    23174337.801    23174344.714  
      2767.826        2156.751  
 -20439869.218   -15904315.855    20407613.153    20407612.391    20407617.735  
       659.594         513.968  
 -10972634.524    -8525701.645    22459159.569    22459159.427    22459163.763  
     -2051.612       -1598.655  
   2729673.933     2141430.860    24657529.985    24657530.133    24657537.163  
     -2364.218       -1842.255  
 99  8  1  1 55  0.0000000  0  7  1 14 15 16 22 25 29               
 -20519616.136   -15961722.283    21134263.919    21134263.468    21134268.791  
       -33.825         -26.362  
 -22230141.031   -17311057.131    21139573.447    21139573.290    21139578.777  
      1136.432         885.531  
   2931379.439     2297343.980    24470314.248    24470313.660    24470325.523  
     -2755.118       -2146.852  
  -8368664.839    -6499946.335    23158567.766    23158567.227    23158574.014  
      2756.835        2148.171  
 -20459356.556   -15919500.746    20403904.827    20403904.041    20403909.401  
       639.589         498.378  
 -10911041.363    -8477706.975    22470880.509    22470880.305    22470884.609  
     -2054.642       -1601.020  
   2800686.092     2196764.945    24671043.007    24671043.310    24671050.424  
     -2369.728       -1846.552  
 99  8  1  1 55 30.0000000  0  7  1 14 15 16 22 25 29               
 -20518483.860   -15960839.980    21134479.338    21134478.890    21134484.227  
       -41.678         -32.476  
 -22263967.447   -17337415.352    21133136.534    21133136.343    21133141.881  
      1118.583         871.625  
   3014031.662     2361748.169    24486042.460    24486041.952    24486053.963  
     -2754.826       -2146.614  
  -8451201.769    -6564260.723    23142861.173    23142860.814    23142867.630  
      2745.644        2139.465  
 -20478253.597   -15934225.672    20400308.771    20400307.992    20400313.355  
       620.235         483.298  
 -10849349.128    -8429635.112    22482620.185    22482619.971    22482624.363  
     -2057.905       -1603.561  
   2871858.9471    2252224.2311   24684586.4201   24684586.8641   24684594.0381 
     -2375.0431      -1850.6671 
 99  8  1  1 56  0.0000000  0  7  1 14 15 16 22 25 29               
 -20517098.486   -15959760.457    21134742.849    21134742.450    21134747.843  
       -50.555         -39.394  
 -22297238.132   -17363340.533    21126805.267    21126805.054    21126810.696  
      1099.501         856.750  
   3096679.184     2426148.689    24501769.481    24501769.131    24501781.571  
     -2754.895       -2146.679  
  -8533393.103    -6628305.804    23127220.530    23127220.221    23127227.162  
      2733.893        2130.298  
 -20496556.187   -15948487.397    20396825.856    20396825.082    20396830.406  
       599.909         467.460  
 -10787568.687    -8381494.508    22494376.594    22494376.405    22494380.851  
     -2060.518       -1605.597  
   2943197.849     2307812.841    24698161.596    24698162.163    24698169.357  
     -2380.964       -1855.317  
 99  8  1  1 56 30.0000000  0  7  1 14 15 16 22 25 29               
 -20515456.137   -15958480.694    21135055.421    21135055.027    21135060.421  
       -58.882         -45.883  
 -22329936.624   -17388819.853    21120582.874    21120582.630    21120588.343  
      1080.206         841.720  
   3179319.083     2490543.322    24517495.399    24517494.990    24517507.600  
     -2754.510       -2146.372  
  -8615233.692    -6692077.599    23111646.567    23111646.364    23111653.339  
      2722.063        2121.079  
 -20514249.343   -15962274.227    20393459.028    20393458.218    20393463.455  
       579.603         451.633  
 -10725721.397    -8333301.819    22506145.715    22506145.504    22506150.054  
     -2062.738       -1607.328  
   3014715.6111    2363540.9021   24711771.1311   24711771.4691   24711778.6301 
     -2386.8331      -1859.8471 
 99  8  1  1 57  0.0000000  0  7  1 14 15 16 22 25 29               
 -20513576.095   -15957015.713    21135413.329    21135412.879    21135418.175  
       -66.581         -51.879  
 -22362039.899   -17413835.369    21114473.722    21114473.510    21114479.214  
      1059.941         825.927  
   3261948.572     2554929.788    24533219.355    24533218.738    24533231.700  
     -2754.233       -2146.154  
  -8696719.098    -6755572.624    23096140.380    23096140.136    23096147.198  
      2710.148        2111.808  
 -20531327.641   -15975581.949    20390209.026    20390208.258    20390213.532  
       558.693         435.344  
 -10663803.376    -8285054.003    22517928.211    22517928.030    22517932.693  
     -2065.153       -1609.219  
   3086402.891     2419401.079    24725412.811    24725413.164    24725420.314  
     -2392.227       -1864.093  
 99  8  1  1 57 30.0000000  0  7  1 14 15 16 22 25 29               
 -20511466.185   -15955371.614    21135814.811    21135814.346    21135819.726  
       -74.288         -57.890  
 -22393534.832   -17438376.850    21108480.362    21108480.170    21108485.889  
      1039.550         810.039  
   3344564.645     2619305.828    24548940.817    24548940.272    24548953.193  
     -2753.669       -2145.697  
  -8777856.846    -6818796.739    23080700.424    23080700.089    23080707.264  
      2698.957        2103.089  
 -20547771.552   -15988395.342    20387079.761    20387078.995    20387084.341  
       537.294         418.674  
 -10601821.785    -8236756.653    22529722.706    22529722.663    22529727.404  
     -2066.989       -1610.640  
   3158249.526     2475385.455    24739085.068    24739085.297    24739092.237  
     -2397.828       -1868.418  
 99  8  1  1 58  0.0000000  0  7  1 14 15 16 22 25 29               
 -20509124.788   -15953547.140    21136260.279    21136259.869    21136265.319  
       -81.784         -63.728  
 -22424425.118   -17462447.174    21102602.133    21102601.935    21102607.639  
      1019.811         794.655  
   3427164.060     2683668.891    24564659.316    24564658.711    24564671.445  
     -2753.058       -2145.223  
  -8858658.367    -6881758.857    23065324.499    23065323.960    23065331.224  
      2687.729        2094.326  
 -20563562.610   -16000700.023    20384074.720    20384073.960    20384079.325  
       515.411         401.619  
 -10539793.118    -8188422.627    22541526.427    22541526.339    22541531.064  
     -2068.566       -1611.864  
   3230262.970     2531499.805    24752788.863    24752788.980    24752796.192  
     -2403.057       -1872.503  
 99  8  1  1 58 30.0000000  0  7  1 14 15 16 22 25 29               
 -20506570.781   -15951557.003    21136746.351    21136745.922    21136751.324  
       -88.547         -68.999  
 -22454735.294   -17486065.469    21096834.392    21096834.164    21096839.828  
      1000.841         779.877  
   3509743.670     2748016.548    24580373.967    24580373.363    24580386.138  
     -2752.335       -2144.678  
  -8939123.184    -6944458.594    23050012.396    23050011.877    23050019.371  
      2676.336        2085.460  
 -20578699.394   -16012494.880    20381194.214    20381193.492    20381198.844  
       493.738         384.729  
 -10477704.985    -8140042.247    22553341.451    22553341.314    22553346.081  
     -2070.882       -1613.673  
   3302426.325     2587730.937    24766521.192    24766521.358    24766528.699  
     -2407.818       -1876.227  
 99  8  1  1 59  0.0000000  0  7  1 14 15 16 22 25 29               
 -20503815.403   -15949409.947    21137270.717    21137270.277    21137275.631  
       -95.422         -74.356  
 -22484489.476   -17509250.520    21091172.361    21091172.174    21091177.836  
       982.747         765.773  
   3592300.728     2812346.647    24596084.274    24596083.538    24596096.479  
     -2751.490       -2144.024  
  -9019236.974    -7006884.818    23034767.247    23034766.716    23034774.219  
      2664.515        2076.246  
 -20593190.577   -16023786.671    20378436.734    20378435.917    20378441.298  
       472.456         368.144  
 -10415551.320    -8091610.801    22565168.713    22565168.628    22565173.476  
     -2072.682       -1615.083  
   3374734.499     2644074.854    24780280.991    24780281.226    24780288.744  
     -2412.871       -1880.185  
 99  8  1  1 59 30.0000000  0  7  1 14 15 16 22 25 29               
 -20500840.801   -15947092.062    21137836.849    21137836.395    21137841.639  
      -102.855         -80.145  
 -22513709.228   -17532019.133    21085612.002    21085611.821    21085617.559  
       965.195         752.103  
   3674831.992     2876656.644    24611789.283    24611788.620    24611801.877  
     -2750.553       -2143.296  
  -9098997.512    -7069035.798    23019589.244    23019588.756    23019596.238  
      2652.919        2067.209  
 -20607046.194   -16034583.223    20375800.032    20375799.246    20375804.687  
       451.417         351.756  
 -10353338.746    -8043133.456    22577007.197    22577007.180    22577012.135  
     -2074.818       -1616.743  
   3447210.877     2700549.888    24794072.987    24794073.139    24794080.738  
     -2418.972       -1884.920  
 99  8  1  2  0  0.0000000  0  7  1 14 15 16 22 25 29               
 -20497644.052   -15944601.068    21138445.179    21138444.695    21138449.895  
      -110.192         -85.864  
 -22542397.959   -17554373.967    21080152.712    21080152.532    21080158.316  
       947.440         738.267  
   3757334.559     2940944.251    24627488.780    24627488.113    24627501.800  
     -2749.537       -2142.490  
  -9178401.751    -7130909.143    23004479.160    23004478.606    23004486.076  
      2640.724        2057.707  
 -20620268.100   -16044885.968    20373283.985    20373283.219    20373288.629  
       430.191         335.216  
 -10291055.062    -7994600.698    22588859.411    22588859.312    22588864.363  
     -2077.383       -1618.738  
   3519865.952     2757164.167    24807899.258    24807899.131    24807906.848  
     -2424.429       -1889.150  
 99  8  1  2  0 30.0000000  0  7  1 14 15 16 22 25 29               
 -20494217.713   -15941931.175    21139097.021    21139096.614    21139101.869  
      -118.391         -92.250  
 -22570547.300   -17576308.500    21074796.082    21074795.839    21074801.639  
       929.158         724.017  
   3839805.488     3005207.236    24643182.359    24643181.880    24643195.449  
     -2748.526       -2141.703  
  -9257435.198    -7192493.582    22989439.624    22989439.032    22989446.366  
      2628.118        2047.876  
 -20632848.731   -16054689.024    20370889.969    20370889.182    20370894.614  
       408.630         318.411  
 -10228690.130    -7946004.629    22600727.097    22600726.998    22600732.082  
     -2080.081       -1620.843  
   3592692.015     2813911.679    24821757.765    24821757.582    24821765.362  
     -2430.688       -1894.040  
 99  8  1  2  1  0.0000000  0  7  1 14 15 16 22 25 29               
 -20490531.694   -15939058.930    21139798.432    21139797.992    21139803.304  
      -127.472         -99.330  
 -22598142.250   -17597811.033    21069544.814    21069544.616    21069550.464  
       910.306         709.325  
   3922241.741     3069443.194    24658869.424    24658869.066    24658882.415  
     -2747.326       -2140.766  
  -9336093.639    -7253785.816    22974471.318    22974470.766    22974477.903  
      2615.929        2038.377  
 -20644784.701   -16063989.745    20368618.526    20368617.808    20368623.247  
       387.087         301.625  
 -10166251.785    -7897351.345    22612608.827    22612608.676    22612613.781  
     -2082.452       -1622.691  
   3665707.005     2870806.427    24835652.015    24835651.829    24835659.798  
     -2437.106       -1899.053  
 99  8  1  2  1 30.0000000  0  7  1 14 15 16 22 25 29               
 -20486573.472   -15935974.580    21140551.617    21140551.168    21140556.538  
      -136.234        -106.157  
 -22625161.181   -17618864.728    21064403.216    21064403.044    21064408.895  
       890.975         694.266  
   4004640.576     3133650.002    24674549.971    24674549.450    24674562.384  
     -2745.902       -2139.661  
  -9414395.718    -7314800.366    22959570.860    22959570.298    22959577.358  
      2604.145        2029.195  
 -20656064.124   -16072778.876    20366472.146    20366471.377    20366476.791  
       364.937         284.365  
 -10103739.283    -7848640.287    22624504.531    22624504.423    22624509.596  
     -2084.879       -1624.582  
   3738907.020     2927845.299    24849581.297    24849581.276    24849589.409  
     -2442.816       -1903.488  
 99  8  1  2  2  0.0000000  0  7  1 14 15 16 22 25 29               
 -20482351.034   -15932684.353    21141355.087    21141354.651    21141360.099  
      -145.416        -113.314  
 -22651594.947   -17639462.449    21059373.072    21059372.820    21059378.645  
       871.439         679.041  
   4086999.047     3197825.343    24690222.551    24690221.909    24690234.803  
     -2744.641       -2138.686  
  -9492333.115    -7375530.747    22944739.697    22944739.206    22944746.203  
      2591.697        2019.501  
 -20666676.062   -16081047.890    20364452.777    20364451.993    20364457.336  
       342.609         266.967  
 -10041154.363    -7799872.791    22636414.196    22636414.029    22636419.152  
     -2087.393       -1626.540  
   3812265.703     2985007.830    24863540.911    24863541.011    24863549.256  
     -2447.910       -1907.463  
 99  8  1  2  2 30.0000000  0  7  1 14 15 16 22 25 29               
 -20477847.823   -15929175.341    21142212.031    21142211.592    21142217.006  
      -154.813        -120.634  
 -22677449.626   -17659608.937    21054453.016    21054452.783    21054458.602  
       852.131         664.000  
   4169313.974     3261966.773    24705886.604    24705885.956    24705898.807  
     -2743.052       -2137.438  
  -9569902.377    -7435974.287    22929978.610    22929978.204    22929985.054  
      2579.598        2010.071  
 -20676628.871   -16088803.297    20362558.828    20362558.031    20362563.337  
       321.120         250.220  
  -9978496.879    -7751048.754    22648337.617    22648337.413    22648342.563  
     -2089.711       -1628.345  
   3885785.140     3042295.615    24877531.273    24877531.258    24877539.600  
     -2453.385       -1911.732  
 99  8  1  2  3  0.0000000  0  7  1 14 15 16 22 25 29               
 -20473072.783   -15925454.509    21143120.686    21143120.188    21143125.549  
      -163.327        -127.270  
 -22702714.832   -17679296.093    21049645.118    21049644.890    21049650.713  
       832.370         648.599  
   4251582.316     3326071.842    24721541.814    24721541.024    24721554.163  
     -2741.416       -2136.167  
  -9647115.377    -7496140.219    22915285.572    22915285.114    22915291.793  
      2568.006        2001.044  
 -20685948.749   -16096065.512    20360785.333    20360784.497    20360789.780  
       300.248         233.961  
  -9915778.089    -7702176.939    22660272.582    22660272.412    22660277.482  
     -2091.445       -1629.700  
   3959462.724     3099706.613    24891551.618    24891551.732    24891560.076  
     -2458.354       -1915.605  
 99  8  1  2  3 30.0000000  0  7  1 14 15 16 22 25 29               
 -20468048.945   -15921539.815    21144076.551    21144076.095    21144081.434  
      -171.497        -133.639  
 -22727393.183   -17698525.957    21044948.959    21044948.745    21044954.497  
       813.064         633.555  
   4333801.360     3390138.517    24737187.736    24737186.778    24737200.028  
     -2739.657       -2134.793  
  -9723970.007    -7556026.898    22900660.617    22900660.199    22900666.769  
      2555.654        1991.414  
 -20694637.671   -16102836.067    20359131.874    20359131.034    20359136.319  
       279.338         217.661  
  -9853011.983    -7653268.255    22672216.463    22672216.296    22672221.341  
     -2092.757       -1630.724  
   4033288.016     3157232.772    24905600.311    24905600.273    24905608.686  
     -2463.291       -1919.444  
 99  8  1  2  4  0.0000000  0  7  1 14 15 16 22 25 29               
 -20462772.134   -15917427.996    21145080.627    21145080.185    21145085.592  
      -180.244        -140.455  
 -22751493.723   -17717305.583    21040362.879    21040362.645    21040368.269  
       793.772         618.523  
   4415968.204     3454164.504    24752823.683    24752822.773    24752835.878  
     -2738.000       -2133.488  
  -9800450.257    -7615621.866    22886106.877    22886106.488    22886112.925  
      2543.075        1981.619  
 -20702714.849   -16109129.944    20357594.763    20357593.967    20357599.317  
       259.184         201.957  
  -9790206.507    -7604328.906    22684167.783    22684167.674    22684172.676  
     -2094.399       -1632.003  
   4107270.949     3214881.732    24919678.622    24919678.560    24919687.270  
     -2468.944       -1923.869  
 99  8  1  2  4 30.0000000  0  7  1 14 15 16 22 25 29               
 -20457248.191   -15913123.610    21146131.849    21146131.428    21146136.763  
      -188.029        -146.512  
 -22775019.876   -17735637.633    21035886.108    21035885.841    21035891.427  
       774.477         603.484  
   4498079.685     3518147.354    24768449.006    24768448.206    24768461.253  
     -2736.119       -2132.026  
  -9876557.749    -7674926.387    22871624.221    22871623.689    22871630.020  
      2530.738        1972.004  
 -20710190.859   -16114955.379    20356172.149    20356171.339    20356176.645  
       239.151         186.353  
  -9727358.155    -7555356.132    22696127.415    22696127.240    22696132.094  
     -2095.464       -1632.830  
   4181420.625     3272660.621    24933788.610    24933788.813    24933797.605  
     -2474.372       -1928.078  
 99  8  1  2  5  0.0000000  0  7  1 14 15 16 22 25 29               
 -20451496.076   -15908641.427    21147226.532    21147226.087    21147231.339  
      -195.617        -152.431  
 -22797963.918   -17753516.090    21031519.948    21031519.722    21031525.343  
       755.057         588.355  
   4580132.962     3582084.862    24784063.312    24784062.537    24784075.657  
     -2734.163       -2130.512  
  -9952294.016    -7733941.623    22857212.063    22857211.531    22857217.920  
      2518.074        1962.134  
 -20717058.772   -16120306.967    20354865.232    20354864.422    20354869.666  
       218.439         170.213  
  -9664488.053    -7506366.426    22708091.010    22708090.935    22708095.754  
     -2096.203       -1633.407  
   4255733.521     3330566.679    24947930.038    24947930.139    24947939.037  
     -2480.060       -1932.504  
 99  8  1  2  5 30.0000000  0  7  1 14 15 16 22 25 29               
 -20445513.650   -15903979.779    21148364.828    21148364.417    21148369.780  
      -203.346        -158.454  
 -22820336.147   -17770948.981    21027262.679    21027262.460    21027268.064  
       736.199         573.662  
   4662125.071     3645974.698    24799665.813    24799665.164    24799678.398  
     -2731.957       -2128.796  
 -10027644.836    -7792656.501    22842873.357    22842872.715    22842879.180  
      2505.144        1952.066  
 -20723297.623   -16125168.377    20353678.004    20353677.176    20353682.382  
       197.483         153.881  
  -9601586.606    -7457352.285    22720060.727    22720060.648    22720065.514  
     -2097.417       -1634.352  
   4330216.245     3388605.067    24962103.777    24962103.683    24962112.709  
     -2485.406       -1936.657  
 99  8  1  2  6  0.0000000  0  7  1 14 15 16 22 25 29               
 -20439291.905   -15899131.650    21149548.755    21149548.343    21149553.764  
      -211.338        -164.679  
 -22842125.773   -17787927.898    21023116.272    21023116.055    21023121.646  
       716.420         558.247  
   4744053.250     3709814.716    24815256.265    24815255.554    24815268.934  
     -2729.935       -2127.209  
 -10102606.832    -7851068.432    22828608.472    22828607.899    22828614.309  
      2492.301        1942.057  
 -20728900.174   -16129533.968    20352611.815    20352610.982    20352616.232  
       175.891         137.056  
  -9538635.061    -7408299.117    22732040.021    22732039.953    22732044.762  
     -2099.406       -1635.907  
   4404871.1541    3446777.6071   24976309.8641   24976309.8191   24976318.9971 
     -2491.3121      -1941.2721 
 99  8  1  2  6 30.0000000  0  7  1 14 15 16 22 25 29               
 -20432833.903   -15894099.423    21150777.660    21150777.246    21150782.642  
      -219.405        -170.964  
 -22863314.306   -17804438.420    21019084.200    21019083.991    21019089.607  
       696.070         542.388  
   4825914.533     3773602.570    24830833.794    24830833.164    24830846.718  
     -2727.639       -2125.435  
 -10177179.652    -7909177.090    22814417.644    22814417.131    22814423.574  
      2479.156        1931.807  
 -20733843.299   -16133385.726    20351671.041    20351670.236    20351675.566  
       153.829         119.866  
  -9475634.891    -7359208.055    22744028.780    22744028.615    22744033.215  
     -2100.564       -1636.810  
   4479687.8331    3505076.1321   24990547.3061   24990547.1851   24990556.2191 
     -2496.6381      -1945.4321 
 99  8  1  2  7  0.0000000  0  7  1 14 15 16 22 25 29               
 -20426126.182   -15888872.605    21152054.000    21152053.609    21152059.007  
      -228.048        -177.700  
 -22883891.696   -17820472.731    21015168.375    21015168.172    21015173.851  
       675.545         526.395  
   4907706.317     3837336.297    24846398.295    24846397.715    24846411.150  
     -2725.408       -2123.694  
 -10251355.212    -7966976.188    22800302.490    22800301.910    22800308.438  
      2465.497        1921.164  
 -20738127.643   -16136724.144    20350855.725    20350854.962    20350860.207  
       131.666         102.593  
  -9412595.289    -7310086.276    22756025.034    22756024.716    22756029.318  
     -2102.528       -1638.338  
   4554665.693     3563500.361    25004815.263    25004815.180    25004824.057  
     -2502.175       -1949.739  
 99  8  1  2  7 30.0000000  0  7  1 14 15 16 22 25 29               
 -20419153.536   -15883439.351    21153380.799    21153380.412    21153385.830  
      -236.979        -184.661  
 -22903858.316   -17836031.127    21011368.812    21011368.587    21011374.297  
       655.428         510.727  
   4989425.425     3901013.368    24861949.058    24861948.553    24861961.732  
     -2722.631       -2121.523  
 -10325117.933    -8024453.615    22786265.746    22786265.277    22786271.792  
      2451.881        1910.552  
 -20741756.426   -16139551.735    20350165.197    20350164.416    20350169.599  
       110.303          85.953  
  -9349487.910    -7260911.702    22768033.956    22768033.690    22768038.353  
     -2104.672       -1640.009  
   4629804.5721    3622050.0271   25019114.0001   25019113.7311   25019122.5581 
     -2507.1691      -1953.6331 
 99  8  1  2  8  0.0000000  0  7  1 14 15 16 22 25 29               
 -20411905.229   -15877791.298    21154760.071    21154759.706    21154765.196  
      -246.080        -191.753  
 -22923218.368   -17851116.867    21007684.683    21007684.452    21007690.138  
       635.396         495.117  
   5071069.072     3964631.619    24877485.719    24877485.183    24877498.251  
     -2720.085       -2119.532  
 -10398470.032    -8081611.098    22772307.490    22772306.870    22772313.287  
      2438.213        1899.899  
 -20744751.386   -16141885.439    20349595.191    20349594.416    20349599.654  
        89.490          69.730  
  -9286312.649    -7211684.225    22780055.830    22780055.551    22780060.226  
     -2106.985       -1641.802  
   4705108.626     3680728.372    25033443.929    25033443.931    25033452.583  
     -2512.947       -1958.143  
 99  8  1  2  8 30.0000000  0  7  1 14 15 16 22 25 29               
 -20404391.487   -15871936.414    21156189.898    21156189.547    21156195.054  
      -254.818        -198.559  
 -22941992.181   -17865745.802    21004112.181    21004111.989    21004117.517  
       616.279         480.218  
   5152634.795     4028189.235    24893007.552    24893006.900    24893019.818  
     -2717.521       -2117.536  
 -10471404.098    -8138442.822    22758428.568    22758427.949    22758434.463  
      2424.074        1888.883  
 -20747134.608   -16143742.471    20349141.676    20349140.893    20349146.180  
        69.509          54.162  
  -9223069.969    -7162404.229    22792090.503    22792090.208    22792094.942  
     -2109.226       -1643.555  
   4780587.671     3739543.110    25047807.495    25047807.456    25047815.853  
     -2519.018       -1962.888  
 99  8  1  2  9  0.0000000  0  7  1 14 15 16 22 25 29               
 -20396625.063   -15865884.637    21157667.839    21157667.455    21157672.887  
      -263.009        -204.943  
 -22960204.087   -17879936.887    21000646.655    21000646.444    21000651.817  
       597.770         465.794  
   5234119.355     4091683.527    24908513.591    24908512.862    24908526.010  
     -2714.751       -2115.375  
 -10543913.913    -8194943.955    22744630.324    22744629.691    22744636.360  
      2409.937        1877.874  
 -20748919.730   -16145133.449    20348801.960    20348801.172    20348806.433  
        49.364          38.464  
  -9159752.552    -7113066.006    22804139.223    22804139.018    22804143.867  
     -2112.003       -1645.716  
   4856253.011     3798503.055    25062206.476    25062206.392    25062214.523  
     -2525.382       -1967.802  
 99  8  1  2  9 30.0000000  0  7  1 14 15 16 22 25 29               
 -20388609.628   -15859638.823    21159193.085    21159192.666    21159198.048  
      -271.407        -211.486  
 -22977868.078   -17893701.026    20997285.339    20997285.075    20997290.449  
       579.636         451.662  
   5315520.179     4155112.644    24924003.403    24924002.738    24924016.143  
     -2712.018       -2113.254  
 -10616005.903    -8251119.500    22730911.649    22730910.975    22730917.824  
      2396.310        1867.253  
 -20750096.627   -16146050.482    20348577.979    20348577.193    20348582.399  
        28.908          22.521  
  -9096361.404    -7063670.327    22816202.079    22816201.847    22816206.818  
     -2113.964       -1647.246  
   4932114.024     3857615.526    25076642.415    25076642.491    25076650.081  
     -2531.940       -1972.922  
 99  8  1  2 10  0.0000000  0  7  1 14 15 16 22 25 29               
 -20380351.869   -15853204.195    21160764.472    21160764.062    21160769.313  
      -279.306        -217.641  
 -22994982.467   -17907036.907    20994028.508    20994028.267    20994033.710  
       561.151         437.260  
   5396834.391     4218474.264    24939476.777    24939476.113    24939489.565  
     -2709.070       -2110.978  
 -10687695.517    -8306981.509    22717269.371    22717268.848    22717275.815  
      2382.909        1856.811  
 -20750653.518   -16146484.396    20348472.131    20348471.265    20348476.438  
         7.978           6.216  
  -9032920.921    -7014236.205    22828274.370    22828274.167    22828279.112  
     -2115.418       -1648.377  
   5008159.457     3916871.682    25091113.406    25091113.471    25091120.825  
     -2537.680       -1977.420  
 99  8  1  2 10 30.0000000  0  7  1 14 15 16 22 25 29               
 -20371845.977   -15846576.216    21162383.163    21162382.726    21162387.808  
      -287.933        -224.368  
 -23011529.165   -17919930.429    20990879.742    20990879.479    20990884.962  
       541.852         422.222  
   5478059.022     4281766.091    24954933.855    24954932.931    24954946.182  
     -2705.807       -2108.425  
 -10758984.301    -8362531.177    22703703.544    22703703.004    22703710.029  
      2369.790        1846.592  
 -20750564.811   -16146415.246    20348488.930    20348488.145    20348493.332  
       -13.905         -10.837  
  -8969438.418    -6964769.342    22840354.753    22840354.597    22840359.425  
     -2116.650       -1649.343  
   5084374.301     3976259.859    25105616.613    25105616.765    25105624.095  
     -2543.026       -1981.563  
 99  8  1  2 11  0.0000000  0  7  1 14 15 16 22 25 29               
 -20363063.469   -15839732.697    21164054.514    21164054.054    21164059.037  
      -297.668        -231.949  
 -23027485.547   -17932363.964    20987843.268    20987843.052    20987848.560  
       521.871         406.657  
   5559191.240     4344985.921    24970372.957    24970372.118    24970385.242  
     -2702.818       -2106.090  
 -10829884.194    -8417777.815    22690211.790    22690211.247    22690218.209  
      2356.866        1836.518  
 -20749807.949   -16145825.456    20348632.900    20348632.129    20348637.312  
       -36.396         -28.360  
  -8905918.117    -6915273.030    22852442.355    22852442.184    22852446.876  
     -2118.020       -1650.403  
   5160738.976     4035764.766    25120148.503    25120148.502    25120156.001  
     -2547.951       -1985.422  
 99  8  1  2 11 30.0000000  0  8  1 14 15 16 18 22 25 29            
 -20353978.081   -15832653.168    21165783.364    21165782.946    21165788.048  
      -307.838        -239.874  
 -23042837.722   -17944326.688    20984921.897    20984921.662    20984927.191  
       501.572         390.837  
   5640228.288     4408131.605    24985794.018    24985793.246    24985806.221  
     -2699.523       -2103.511  
 -10900394.510    -8472720.875    22676794.136    22676793.606    22676800.515  
      2343.830        1826.363  
   -226887.6143    -151561.2823          0.0003   25492227.9843   25494850.4623 
      3055.5653       2380.9103 
 -20748384.343   -16144716.129    20348903.742    20348902.969    20348908.159  
       -58.375         -45.490  
  -8842358.772    -6865746.291    22864537.482    22864537.275    22864541.734  
     -2119.187       -1651.310  
   5237243.823     4095378.862    25134706.698    25134706.854    25134714.547  
     -2552.208       -1988.721  
 99  8  1  2 12  0.0000000  0  7  1 14 15 16 22 25 29               
 -20344588.308   -15825336.457    21167570.166    21167569.740    21167574.943  
      -318.017        -247.807  
 -23057567.323   -17955804.284    20982118.918    20982118.698    20982124.307  
       480.621         374.506  
   5721167.736     4471201.215    25001196.097    25001195.589    25001208.761  
     -2696.293       -2101.007  
 -10970502.267    -8527350.260    22663453.115    22663452.527    22663459.384  
      2330.060        1815.628  
 -20746296.710   -16143089.385    20349301.051    20349300.264    20349305.395  
       -80.464         -62.700  
  -8778751.328    -6816182.088    22876641.710    22876641.508    22876645.946  
     -2121.159       -1652.857  
   5313872.444     4155089.408    25149288.608    25149288.761    25149296.586  
     -2556.403       -1991.999  
 99  8  1  2 12 30.0000000  0  8  1 14 15 16 18 22 25 29            
 -20334898.032   -15817785.597    21169414.164    21169413.728    21169418.957  
      -327.839        -255.457  
 -23071675.155   -17966797.386    20979434.141    20979433.979    20979439.649  
       460.012         358.453  
   5802006.379     4534192.342    25016579.315    25016578.715    25016591.899  
     -2692.942       -2098.370  
 -11040196.661    -8581657.544    22650190.657    22650190.076    22650196.899  
      2316.212        1804.849  
   -105956.0273          0.0003          0.0003   25457293.1323          0.0003 
      3064.0293          0.0003 
 -20743556.459   -16140954.105    20349822.489    20349821.694    20349826.799  
      -102.005         -79.477  
  -8715090.999    -6766576.672    22888755.972    22888755.750    22888760.162  
     -2122.915       -1654.215  
   5390635.051     4214904.344    25163896.023    25163896.069    25163904.172  
     -2561.256       -1995.779  
 99  8  1  2 13  0.0000000  0  8  1 14 15 16 18 22 25 29            
 -20324922.738   -15810012.648    21171312.378    21171311.973    21171317.209  
      -337.078        -262.656  
 -23085175.327   -17977316.983    20976865.133    20976864.959    20976870.659  
       439.875         342.758  
   5882741.791     4597103.014    25031942.747    25031942.088    25031955.504  
     -2689.391       -2095.631  
 -11109464.958    -8635632.805    22637009.386    22637008.726    22637015.399  
      2301.575        1793.435  
   -197942.0883          0.0003          0.0003   25439788.7503          0.0003 
      3068.0563          0.0003 
 -20740187.908   -16138329.239    20350463.512    20350462.711    20350467.753  
      -122.637         -95.563  
  -8651378.580    -6716930.674    22900880.157    22900879.865    22900884.283  
     -2124.608       -1655.537  
   5467541.556     4274831.391    25178530.620    25178530.766    25178539.191  
     -2565.983       -1999.457  
 99  8  1  2 13 30.0000000  0  8  1 14 15 16 18 22 25 29            
 -20314681.414   -15802032.400    21173261.233    21173260.850    21173266.104  
      -345.475        -269.202  
 -23098066.997   -17987362.422    20974411.928    20974411.690    20974417.415  
       419.514         326.894  
   5963371.041     4659930.989    25047286.027    25047285.315    25047298.895  
     -2685.949       -2092.939  
 -11178291.793    -8689264.064    22623911.855    22623911.340    22623917.895  
      2286.933        1782.026  
   -290038.6373          0.0003          0.0003   25422263.3523          0.0003 
      3071.5663          0.0003 
 -20736199.702   -16135221.531    20351222.462    20351221.662    20351226.618  
      -143.355        -111.702  
  -8587622.458    -6667250.617    22913012.487    22913012.173    22913016.713  
     -2125.772       -1656.446  
   5544597.979     4334875.242    25193194.381    25193194.281    25193202.616  
     -2571.244       -2003.563  
 99  8  1  2 14  0.0000000  0  8  1  3 14 15 16 22 25 29            
 -20304198.901   -15793864.223    21175256.016    21175255.610    21175260.850  
      -353.455        -275.419  
    -67466.5653          0.0003          0.0003   25154383.2803          0.0003 
      2533.0333          0.0003 
 -23110346.970   -17996931.211    20972075.002    20972074.753    20972080.581  
       399.234         311.090  
   6043891.012     4722673.784    25062608.385    25062607.803    25062621.453  
     -2682.203       -2090.026  
 -11246686.082    -8742558.268    22610896.724    22610896.275    22610902.755  
      2272.646        1770.896  
 -20731592.489   -16131631.486    20352099.292    20352098.465    20352103.304  
      -163.644        -127.514  
  -8523835.693    -6617546.687    22925150.557    22925150.280    22925155.039  
     -2126.591       -1657.091  
   5621813.8251    4395043.2911   25207887.7741   25207887.7671   25207896.4351 
     -2576.6221      -2007.7201 
 99  8  1  2 14 30.0000000  0  8  1  3 14 15 16 22 25 29            
 -20293470.621   -15785504.534    21177297.543    21177297.136    21177302.383  
      -361.767        -281.893  
   -143502.3483          0.0003          0.0003   25139914.1413          0.0003 
      2535.9953          0.0003 
 -23122025.052   -18006030.999    20969852.582    20969852.392    20969858.294  
       379.297         295.560  
   6124299.089     4785329.376    25077909.800    25077909.082    25077922.726  
     -2678.338       -2087.006  
 -11314646.235    -8795514.178    22597964.325    22597963.895    22597970.277  
      2258.072        1759.540  
 -20726381.473   -16127570.937    20353090.896    20353090.081    20353094.923  
      -183.665        -143.115  
  -8460029.235    -6567827.417    22937292.407    22937292.159    22937297.076  
     -2127.169       -1657.534  
   5699203.3531    4455346.6701   25222613.7601   25222613.9931   25222623.3991 
     -2582.6041      -2012.4001 
 99  8  1  2 15  0.0000000  0  8  1  3 14 15 16 22 25 29            
 -20282487.446   -15776946.226    21179387.565    21179387.128    21179392.378  
      -370.441        -288.657  
   -219614.9373          0.0003          0.0003   25125430.3873          0.0003 
      2538.3843          0.0003 
 -23133099.448   -18014660.378    20967745.186    20967744.993    20967750.849  
       358.921         279.679  
   6204592.820     4847895.877    25093189.334    25093188.435    25093202.172  
     -2674.516       -2084.041  
 -11382164.347    -8848125.641    22585116.191    22585115.638    22585121.984  
      2243.236        1747.975  
 -20720563.506   -16123037.446    20354197.957    20354197.167    20354202.017  
      -204.333        -159.225  
  -8396201.799    -6518091.792    22949438.344    22949438.165    22949442.988  
     -2127.926       -1658.124  
   5776770.6851    4515788.6231   25237374.1211   25237374.7031   25237384.0801 
     -2588.4321      -2016.9511 
 99  8  1  2 15 30.0000000  0  7  1 14 15 16 22 25 29               
 -20271248.074   -15768188.294    21181526.394    21181525.931    21181531.151  
      -378.830        -295.191  
 -23143562.028   -18022813.008    20965754.147    20965754.002    20965759.825  
       338.782         263.986  
   6284769.831     4910371.419    25108446.597    25108445.590    25108459.440  
     -2670.595       -2080.977  
 -11449245.536    -8900396.653    22572351.076    22572350.537    22572356.878  
      2228.935        1736.832  
 -20714111.668   -16118010.037    20355425.751    20355424.932    20355429.778  
      -225.644        -175.821  
  -8332356.739    -6468342.443    22961587.729    22961587.479    22961592.254  
     -2128.449       -1658.530  
   5854516.8661    4576369.9701   25252168.6021   25252169.2571   25252178.8361 
     -2594.4351      -2021.6291 
 99  8  1  2 16  0.0000000  0  7  1 14 15 16 22 25 29               
 -20259749.660   -15759228.516    21183714.536    21183714.048    21183719.275  
      -387.716        -302.116  
 -23153431.173   -18030503.222    20963876.109    20963875.986    20963881.812  
       319.389         248.872  
   6364826.898     4972753.480    25123680.856    25123680.052    25123694.012  
     -2666.371       -2077.681  
 -11515893.007    -8952329.712    22559668.510    22559667.900    22559674.315  
      2214.258        1725.399  
 -20707025.554   -16112488.386    20356774.151    20356773.348    20356778.256  
      -246.649        -192.191  
  -8268485.495    -6418572.693    22973741.936    22973741.742    22973746.601  
     -2129.469       -1659.323  
   5932434.613     4637084.997    25266996.006    25266996.601    25267006.184  
     -2599.801       -2025.845  
 99  8  1  2 16 30.0000000  0  7  1 14 15 16 22 25 29               
 -20247979.377   -15750056.885    21185954.332    21185953.882    21185959.101  
      -396.685        -309.106  
 -23162715.777   -18037737.951    20962109.376    20962109.177    20962115.037  
       299.726         233.551  
   6444761.544     5035040.170    25138892.214    25138891.363    25138905.155  
     -2662.336       -2074.545  
 -11582087.429    -9003909.723    22547072.006    22547071.432    22547078.031  
      2199.090        1713.573  
 -20699288.444   -16106459.464    20358246.383    20358245.565    20358250.552  
      -268.991        -209.604  
  -8204579.372    -6368775.757    22985902.871    22985902.595    22985907.595  
     -2130.716       -1660.305  
   6010508.108     4697921.348    25281853.647    25281854.058    25281863.085  
     -2604.966       -2029.833  
 99  8  1  2 17  0.0000000  0  7  1 14 15 16 22 25 29               
 -20235942.284   -15740677.356    21188244.922    21188244.450    21188249.648  
      -405.759        -316.176  
 -23171403.282   -18044507.407    20960456.162    20960455.993    20960461.847  
       279.615         217.880  
   6524570.825     5097229.149    25154079.571    25154078.705    25154092.395  
     -2658.257       -2071.354  
 -11647830.950    -9055138.398    22534561.328    22534560.733    22534567.519  
      2184.019        1701.833  
 -20690876.615   -16099904.791    20359847.057    20359846.229    20359851.291  
      -291.595        -227.219  
  -8140635.810    -6318949.647    22998070.861    22998070.652    22998075.682  
     -2132.032       -1661.324  
   6088730.705     4758873.951    25296739.607    25296739.576    25296748.438  
     -2609.847       -2033.644  
 99  8  1  2 17 30.0000000  0  7  1 14 15 16 22 25 29               
 -20223630.506   -15731083.785    21190587.733    21190587.245    21190592.502  
      -415.229        -323.552  
 -23179498.222   -18050815.128    20958915.822    20958915.605    20958921.410  
       259.950         202.561  
   6604252.152     5159318.471    25169242.288    25169241.550    25169255.239  
     -2654.027       -2068.061  
 -11713133.103    -9106023.128    22522134.562    22522134.042    22522140.979  
      2169.267        1690.339  
 -20681800.091   -16092832.184    20361574.187    20361573.395    20361578.444  
      -313.349        -244.167  
  -8076655.669    -6269095.020    23010245.831    23010245.635    23010250.745  
     -2133.429       -1662.410  
   6167100.727     4819941.382    25311653.335    25311653.198    25311661.968  
     -2614.854       -2037.540  
 99  8  1  2 18  0.0000000  0  7  1 14 15 16 22 25 29               
 -20211026.099   -15721262.196    21192986.222    21192985.784    21192991.092  
      -425.106        -331.245  
 -23186999.029   -18056659.891    20957488.517    20957488.272    20957493.973  
       239.909         186.944  
   6683802.828     5221305.955    25184379.977    25184379.178    25184393.156  
     -2649.402       -2064.472  
 -11777988.314    -9156559.613    22509792.942    22509792.435    22509799.421  
      2154.273        1678.653  
 -20672089.072   -16085265.166    20363422.180    20363421.363    20363426.363  
      -334.086        -260.325  
  -8012642.822    -6219214.906    23022427.002    23022426.874    23022432.118  
     -2134.158       -1662.978  
   6245620.451     4881125.511    25326595.791    25326594.948    25326603.814  
     -2620.053       -2041.616  
 99  8  1  2 18 30.0000000  0  8  1 14 15 16 18 22 25 29            
 -20198125.441   -15711209.758    21195441.210    21195440.749    21195446.038  
      -434.939        -338.912  
 -23193886.589   -18062026.797    20956177.825    20956177.618    20956183.276  
       219.254         170.845  
   6763220.413     5283189.740    25199492.702    25199491.751    25199505.845  
     -2645.028       -2061.050  
 -11842394.551    -9206746.250    22497536.953    22497536.334    22497543.262  
      2139.584        1667.208  
    -29991.7813      -5420.6923   25246259.5963   25246263.9413   25246246.9333 
      3094.6023       2411.4073 
 -20661754.854   -16077212.534    20365388.730    20365387.916    20365392.892  
      -354.562        -276.283  
  -7948608.557    -6169318.121    23034612.325    23034612.190    23034617.658  
     -2134.728       -1663.424  
   6324304.592     4942437.713    25341568.487    25341568.133    25341576.903  
     -2625.644       -2045.933  
 99  8  1  2 19  0.0000000  0  8  1 14 15 16 18 22 25 29            
 -20184919.582   -15700919.501    21197954.218    21197953.789    21197958.995  
      -445.367        -347.038  
 -23200156.484   -18066912.414    20954984.657    20954984.427    20954990.121  
       198.858         154.951  
   6842502.129     5344967.636    25214579.881    25214578.671    25214592.730  
     -2640.510       -2057.543  
 -11906359.968    -9256589.383    22485364.605    22485364.029    22485370.901  
      2124.748        1655.646  
   -122864.1383     -77787.7643   25228586.7473   25228590.9083   25228592.5333 
      3096.9773       2413.0843 
 -20650826.672   -16068697.084    20367468.314    20367467.530    20367472.445  
      -373.961        -291.403  
  -7884554.711    -6119406.081    23046801.476    23046801.292    23046806.819  
     -2135.613       -1664.114  
   6403162.204     5003885.069    25356574.907    25356574.590    25356583.072  
     -2631.466       -2050.486  
 99  8  1  2 19 30.0000000  0  8  1 14 15 16 18 22 25 29            
 -20171413.150   -15690395.025    21200524.467    21200524.025    21200529.169  
      -455.020        -354.562  
 -23205817.815   -18071323.826    20953907.269    20953907.078    20953912.700  
       178.580         139.154  
   6921645.808     5406637.985    25229640.437    25229639.427    25229653.287  
     -2635.782       -2053.860  
 -11969878.972    -9306084.667    22473277.252    22473276.762    22473283.585  
      2109.701        1643.918  
   -215820.9853    -150217.2483   25210896.7373   25210901.7963   25210880.0953 
      3100.0793       2415.5183 
 -20639321.862   -16059732.314    20369657.714    20369656.866    20369661.723  
      -393.183        -306.377  
  -7820474.267    -6069473.308    23058995.471    23058995.350    23059000.973  
     -2136.514       -1664.818  
   6482191.853     5065466.507    25371613.936    25371613.429    25371621.935  
     -2637.037       -2054.832  
 99  8  1  2 20  0.0000000  0  7  1 14 15 16 22 25 29               
 -20157622.843   -15679649.347    21203148.712    21203148.256    21203153.386  
      -464.177        -361.696  
 -23210866.709   -18075258.015    20952946.383    20952946.188    20952951.873  
       158.049         123.154  
   7000648.044     5468198.162    25244673.817    25244673.063    25244686.942  
     -2630.988       -2050.113  
 -12032935.827    -9355219.840    22461277.951    22461277.557    22461284.230  
      2094.216        1631.852  
 -20627228.058   -16050308.587    20371959.118    20371958.307    20371963.019  
      -413.082        -321.881  
  -7756363.516    -6019516.910    23071195.406    23071195.274    23071200.854  
     -2137.661       -1665.711  
   6561389.856     5127179.126    25386684.743    25386684.269    25386692.823  
     -2642.808       -2059.333  
 99  8  1  2 20 30.0000000  0  8  1 14 15 16 18 22 25 29            
 -20143563.485   -15668694.018    21205824.048    21205823.660    21205828.878  
      -473.366        -368.857  
 -23215302.779   -18078714.686    20952102.087    20952101.915    20952107.674  
       137.604         107.220  
   7079506.590     5529646.324    25259680.020    25259679.375    25259693.167  
     -2626.298       -2046.465  
 -12095535.209    -9403998.533    22449365.886    22449365.447    22449371.944  
      2079.027        1620.016  
    -36009.8213       -600.0173          0.0003   25175475.0163   25176654.5093 
      3105.3453       2419.1203 
 -20614528.644   -16040412.962    20374375.759    20374374.927    20374379.651  
      -433.540        -337.826  
  -7692206.595    -5969524.530    23083404.149    23083403.995    23083409.486  
     -2139.533       -1667.174  
   6640754.226     5189021.343    25401787.258    25401786.938    25401795.444  
     -2648.128       -2063.474  
 99  8  1  2 21  0.0000000  0  8  1 14 15 16 18 22 25 29            
 -20129225.514   -15657521.582    21208552.468    21208552.116    21208557.439  
      -482.426        -375.920  
 -23219127.930   -18081695.323    20951374.183    20951374.015    20951379.739  
       117.382          91.464  
   7158218.454     5590980.204    25274658.347    25274657.767    25274671.497  
     -2621.220       -2042.491  
 -12157680.653    -9452423.518    22437540.179    22437539.682    22437546.013  
      2063.900        1608.229  
   -129213.0013       -600.0173          0.0003   25157739.0293   25176654.5093 
      3107.9143       2419.1203 
 -20601218.496   -16030041.446    20376908.604    20376907.786    20376912.525  
      -453.909        -353.697  
  -7627990.380    -5919485.930    23095624.347    23095624.144    23095629.345  
     -2141.511       -1668.714  
   6720281.385     5250990.471    25416920.711    25416920.488    25416929.015  
     -2653.750       -2067.855  
 99  8  1  2 21 30.0000000  0  8  1 14 15 16 18 22 25 29            
 -20114615.423   -15646137.105    21211332.763    21211332.329    21211337.728  
      -491.754        -383.185  
 -23222339.772   -18084198.060    20950763.113    20950762.913    20950768.527  
        96.805          75.432  
   7236781.583     5652198.205    25289608.547    25289608.008    25289621.565  
     -2616.317       -2038.669  
 -12219370.838    -9500493.757    22425800.977    22425800.465    22425806.746  
      2048.761        1596.438  
   -222484.4503       -600.0173          0.0003   25139990.0503   25176654.5093 
      3110.0173       2419.1203 
 -20587278.317   -16019178.997    20379561.327    20379560.492    20379565.245  
      -475.383        -370.424  
  -7563720.447    -5869405.489    23107854.623    23107854.435    23107859.602  
     -2143.094       -1669.944  
   6799975.820     5313089.868    25432085.950    25432085.872    25432094.441  
     -2659.092       -2072.023  
 99  8  1  2 22  0.0000000  0  7  1 14 15 16 22 25 29               
 -20099709.330   -15634521.981    21214169.212    21214168.817    21214174.290  
      -502.098        -391.240  
 -23224936.159   -18086221.227    20950269.152    20950268.953    20950274.454  
        76.203          59.380  
   7315193.032     5713298.011    25304529.435    25304529.172    25304542.713  
     -2611.169       -2034.668  
 -12280610.770    -9548213.135    22414147.387    22414146.834    22414153.149  
      2033.790        1584.771  
 -20572695.337   -16007815.666    20382336.421    20382335.566    20382340.331  
      -496.795        -387.110  
  -7499403.727    -5819288.603    23120093.694    23120093.558    23120098.789  
     -2144.725       -1671.214  
   6879830.535     5375314.139    25447281.949    25447281.729    25447290.551  
     -2664.460       -2076.183  
 99  8  1  2 22 30.0000000  0  7  1 14 15 16 22 25 29               
 -20084487.276   -15622660.655    21217065.793    21217065.438    21217070.971  
      -512.830        -399.606  
 -23226916.673   -18087764.495    20949892.296    20949892.115    20949897.610  
        55.803          43.482  
   7393450.466     5774277.761    25319421.290    25319420.874    25319434.920  
     -2606.084       -2030.718  
 -12341399.113    -9595580.644    22402579.611    22402579.136    22402585.406  
      2018.536        1572.885  
 -20557466.243   -15995948.868    20385234.413    20385233.557    20385238.346  
      -518.483        -404.011  
  -7435046.206    -5769139.893    23132340.616    23132340.465    23132345.670  
     -2145.674       -1671.951  
   6959840.156     5437659.125    25462507.328    25462507.112    25462516.023  
     -2669.377       -2080.018  
 99  8  1  2 23  0.0000000  0  7  1 14 15 16 22 25 29               
 -20068947.913   -15610552.079    21220022.872    21220022.521    21220028.012  
      -523.069        -407.589  
 -23228291.018   -18088835.420    20949630.716    20949630.559    20949636.094  
        35.818          27.911  
   7471551.101     5835135.346    25334283.116    25334282.770    25334297.080  
     -2600.833       -2026.624  
 -12401721.632    -9642585.180    22391100.565    22391100.044    22391106.224  
      2002.724        1560.568  
 -20541587.582   -15983575.920    20388255.892    20388255.111    20388259.978  
      -540.324        -421.032  
  -7370668.855    -5718975.746    23144591.209    23144591.086    23144596.401  
     -2146.185       -1672.352  
   7040000.907     5500121.8791   25477761.436    25477761.164    25477770.2111 
     -2674.706       -2084.2021 
 99  8  1  2 23 30.0000000  0  7  1 14 15 16 22 25 29               
 -20053107.206   -15598208.686    21223037.389    21223037.010    21223042.406  
      -533.090        -415.394  
 -23229071.281   -18089443.420    20949482.188    20949482.048    20949487.611  
        16.049          12.504  
   7549492.382     5895868.791    25349115.255    25349114.672    25349128.645  
     -2595.340       -2022.358  
 -12461567.599    -9689218.377    22379712.097    22379711.618    22379717.835  
      1986.974        1548.287  
 -20525052.887   -15970691.774    20391402.371    20391401.542    20391406.499  
      -561.939        -437.876  
  -7306283.463    -5668805.330    23156843.306    23156843.215    23156848.712  
     -2146.352       -1672.483  
   7120302.982     5562694.7411   25493042.762    25493042.493    25493051.5061 
     -2678.797       -2087.3461 
 99  8  1  2 24  0.0000000  0  7  1 14 15 16 22 25 29               
 -20036968.271   -15585632.898    21226108.632    21226108.185    21226113.529  
      -542.572        -422.781  
 -23229251.618   -18089583.957    20949447.970    20949447.746    20949453.297  
        -4.036          -3.144  
   7627271.819     5956476.098    25363916.323    25363915.799    25363929.630  
     -2589.875       -2018.089  
 -12520931.928    -9735476.280    22368415.303    22368414.837    22368421.181  
      1970.646        1535.565  
 -20507883.445   -15957313.031    20394669.607    20394668.806    20394673.838  
      -582.502        -453.895  
  -7241880.028    -5618620.843    23169098.867    23169098.798    23169104.420  
     -2147.066       -1673.043  
   7200740.851     5625373.4241   25508349.950    25508349.557    25508358.4791 
     -2683.487       -2091.0261 
 99  8  1  2 24 30.0000000  0  7  1 14 15 16 22 25 29               
 -20020560.433   -15572847.574    21229230.909    21229230.511    21229235.816  
      -551.199        -429.503  
 -23228827.970   -18089253.850    20949528.551    20949528.357    20949533.969  
       -23.962         -18.672  
   7704886.992     6016955.369    25378686.486    25378685.617    25378699.334  
     -2584.223       -2013.655  
 -12579805.870    -9781352.064    22357211.903    22357211.397    22357217.881  
      1954.517        1522.997  
 -20490101.087   -15943456.694    20398053.465    20398052.699    20398057.740  
      -602.638        -469.584  
  -7177459.534    -5568423.067    23181357.710    23181357.578    23181363.348  
     -2147.561       -1673.420  
   7281321.2391    5688163.1391   25523683.8741   25523683.4741   25523692.2991 
     -2688.2361      -2094.7661 
 99  8  1  2 25  0.0000000  0  8  1 14 15 16 19 22 25 29            
 -20003891.070   -15559858.449    21232402.899    21232402.502    21232407.887  
      -560.176        -436.504  
 -23227809.973   -18088460.618    20949722.367    20949722.192    20949727.770  
       -43.984         -34.277  
   7782335.134     6077304.498    25393424.381    25393423.546    25393437.123  
     -2578.867       -2009.487  
 -12638201.127    -9826854.841    22346099.542    22346099.022    22346105.590  
      1938.537        1510.549  
   -169477.4783      -5150.4723          0.0003   25731937.0363   25759072.8933 
      2395.1673       1870.6283 
 -20471729.256   -15929141.032    20401549.565    20401548.816    20401553.837  
      -622.200        -484.832  
  -7113012.696    -5518204.773    23193621.464    23193621.288    23193627.175  
     -2148.906       -1674.471  
   7362044.8271    5751064.4151   25539045.6541   25539044.9351   25539053.5101 
     -2693.0481      -2098.4691 
 99  8  1  2 25 30.0000000  0  7  1 14 15 16 22 25 29               
 -19986942.282   -15546651.588    21235628.049    21235627.639    21235633.159  
      -569.834        -444.027  
 -23226182.805   -18087192.720    20950032.259    20950031.996    20950037.463  
       -64.504         -50.257  
   7859614.098     6137521.799    25408129.741    25408129.148    25408142.899  
     -2573.057       -2004.966  
 -12696124.567    -9871989.978    22335076.930    22335076.477    22335083.079  
      1923.005        1498.443  
 -20452773.308   -15914370.209    20405156.809    20405156.066    20405161.134  
      -641.444        -499.823  
  -7048526.208    -5467955.573    23205892.553    23205892.447    23205898.484  
     -2150.165       -1675.454  
   7442907.7351    5814074.1571   25554433.6161   25554432.8751   25554441.5231 
     -2697.9141      -2102.2611 
 99  8  1  2 26  0.0000000  0  7  1 14 15 16 22 25 29               
 -19969701.250   -15533217.008    21238908.897    21238908.469    21238914.039  
      -579.613        -451.646  
 -23223944.720   -18085448.778    20950458.092    20950457.871    20950463.350  
       -84.552         -65.883  
   7936721.113     6197605.058    25422802.782    25422802.103    25422815.978  
     -2567.332       -2000.513  
 -12753575.168    -9916756.659    22324144.399    22324143.959    22324150.624  
      1907.107        1486.059  
 -20433234.710   -15899145.367    20408874.985    20408874.177    20408879.260  
      -661.206        -515.222  
  -6983998.538    -5417674.314    23218171.589    23218171.563    23218177.709  
     -2151.440       -1676.441  
   7523922.6901    5877202.4641   25569850.5731   25569849.8801   25569858.5581 
     -2702.9851      -2106.2031 
 99  8  1  2 26 30.0000000  0  7  1 14 15 16 22 25 29               
 -19952151.133   -15519541.577    21242248.613    21242248.236    21242253.709  
      -590.421        -460.071  
 -23221114.841   -18083243.693    20950996.511    20950996.350    20951001.870  
      -103.926         -80.981  
   8013653.925     6257552.583    25437442.418    25437442.097    25437455.992  
     -2561.457       -1995.950  
 -12810555.912    -9961157.217    22313301.533    22313300.897    22313307.613  
      1891.637        1474.004  
 -20413089.971   -15883448.205    20412708.375    20412707.606    20412712.703  
      -681.668        -531.169  
  -6919442.785    -5367371.211    23230456.276    23230456.180    23230462.258  
     -2152.391       -1677.186  
   7605084.9551    5940445.4721   25585295.5661   25585294.8391   25585303.2911 
     -2707.9221      -2110.0591 
 99  8  1  2 27  0.0000000  0  7  1 14 15 16 22 25 29               
 -19934273.180   -15505610.693    21245650.763    21245650.324    21245655.720  
      -601.364        -468.597  
 -23217701.338   -18080583.836    20951646.075    20951645.906    20951651.493  
      -123.800         -96.470  
   8090409.708     6317362.175    25452048.905    25452048.616    25452062.242  
     -2555.604       -1991.397  
 -12867072.536   -10005196.127    22302546.726    22302546.089    22302552.860  
      1875.957        1461.776  
 -20392323.683   -15867266.720    20416660.039    20416659.299    20416664.405  
      -702.811        -547.648  
  -6854856.514    -5317044.247    23242746.787    23242746.640    23242752.478  
     -2153.206       -1677.824  
   7686394.2261    6003803.1361   25600768.5451   25600767.6771   25600776.2061 
     -2712.5471      -2113.6791 
 99  8  1  2 27 30.0000000  0  8  1  3 14 15 16 22 25 29            
 -19916071.899   -15491427.857    21249114.280    21249113.838    21249119.314  
      -611.769        -476.704  
    -89231.0583     -53677.7813   24756310.2483   24756313.9253   24756327.0723 
      2626.3143       2046.4093 
 -23213685.459   -18077454.599    20952410.284    20952410.131    20952415.735  
      -143.669        -111.947  
   8166985.975     6377031.943    25466621.027    25466620.600    25466634.365  
     -2549.504       -1986.612  
 -12923113.171   -10048864.130    22291882.412    22291881.884    22291888.693  
      1860.157        1449.479  
 -20370919.804   -15850588.403    20420733.095    20420732.334    20420737.401  
      -723.761        -563.966  
  -6790260.082    -5266709.371    23255039.080    23255038.992    23255044.687  
     -2153.069       -1677.716  
   7767857.807     6067281.0741   25616270.631    25616270.071    25616278.5141 
     -2718.107       -2118.0261 
 99  8  1  2 28  0.0000000  0  9  1  3 14 15 16 18 22 25 29         
 -19897561.343   -15477004.033    21252636.613    21252636.226    21252641.785  
      -622.146        -484.789  
   -168052.4743    -115096.0263   24741310.7133   24741314.6963   24741391.4613 
      2628.5463       2048.6663 
 -23209076.620   -18073863.316    20953287.274    20953287.125    20953292.800  
      -163.595        -127.471  
   8243380.516     6436560.061    25481158.264    25481157.893    25481171.779  
     -2543.403       -1981.849  
 -12978669.464   -10092154.722    22281310.520    22281309.945    22281316.657  
      1843.785        1436.719  
    -92689.9713     -49454.5633   24908185.9753   24908190.9833   24908191.5793 
      3136.4603       2443.9943 
 -20348886.832   -15833419.873    20424925.809    20424925.084    20424930.152  
      -744.939        -580.471  
  -6725657.658    -5216369.838    23267332.465    23267332.431    23267338.145  
     -2153.606       -1678.131  
   7849485.5241    6130886.8241   25631803.9271   25631803.3921   25631811.9371 
     -2723.1581      -2121.9141 
 99  8  1  2 28 30.0000000  0  9  1  3 14 15 16 18 22 25 29         
 -19878745.526   -15462342.333    21256217.197    21256216.777    21256222.330  
      -632.164        -492.599  
   -246941.0313    -174516.6033          0.0003   24726302.6923   24726942.3743 
      2630.5923       2049.2363 
 -23203860.975   -18069799.197    20954279.783    20954279.634    20954285.318  
      -184.242        -143.565  
   8319590.743     6495944.512    25495660.751    25495660.295    25495674.174  
     -2537.405       -1977.195  
 -13033741.207   -10135067.738    22270830.753    22270830.172    22270836.810  
      1827.524        1424.044  
   -186809.6533    -122793.9243   24890276.6493   24890280.5903   24890299.7893 
      3138.2283       2445.4003 
 -20326232.734   -15815767.352    20429236.850    20429236.082    20429241.109  
      -765.265        -596.308  
  -6661046.673    -5166023.609    23279627.709    23279627.644    23279633.193  
     -2154.008       -1678.440  
   7931271.9031    6194616.2401   25647367.0601   25647366.7981   25647375.4761 
     -2729.3561      -2126.7461 
 99  8  1  2 29  0.0000000  0  9  1  3 14 15 16 18 22 25 29         
 -19859644.483   -15447458.373    21259851.976    21259851.548    21259857.071  
      -641.468        -499.848  
    -67621.8493     -39467.0973          0.0003   24711279.2343   24711780.7363 
      2632.6973       2051.6063 
 -23198015.109   -18065243.993    20955392.308    20955392.100    20955397.802  
      -205.646        -160.248  
   8395613.945     6555183.205    25510128.002    25510127.419    25510141.145  
     -2531.028       -1972.202  
 -13088311.811   -10177590.243    22260446.223    22260445.679    22260452.328  
      1810.349        1410.657  
   -280986.2773    -194954.4773          0.0003   24872359.3643   24872748.2783 
      3140.0213       2446.8453 
 -20302972.541   -15797642.534    20433663.196    20433662.386    20433667.380  
      -785.507        -612.086  
  -6596422.669    -5115667.247    23291925.456    23291925.287    23291930.783  
     -2154.199       -1678.596  
   8013227.9331    6258477.7551   25662962.8761   25662962.6321   25662971.4461 
     -2734.7451      -2130.9501 
 99  8  1  2 29 30.0000000  0  9  1  3 14 15 16 18 22 25 29         
 -19840258.456   -15432352.351    21263540.963    21263540.570    21263545.986  
      -651.091        -507.347  
   -146629.5773     -92820.6773          0.0003   24696244.5513   24698755.9073 
      2634.2363       2053.5363 
 -23191532.946   -18060192.976    20956625.822    20956625.615    20956631.371  
      -226.527        -176.518  
   8471448.041     6614274.586    25524558.948    25524558.383    25524572.053  
     -2524.631       -1967.270  
 -13142368.242   -10219712.098    22250159.585    22250159.058    22250165.703  
      1793.351        1397.414  
   -375210.0393     -10445.6813          0.0003   24854428.2573   24862466.0553 
      3141.3763       2447.3203 
 -20279111.165   -15779049.257    20438203.804    20438203.026    20438208.097  
      -805.346        -627.544  
  -6531790.343    -5065304.408    23304224.483    23304224.392    23304229.953  
     -2154.889       -1679.132  
   8095353.8471    6322471.8291   25678590.2081   25678590.4131   25678599.4471 
     -2740.5091      -2135.4931 
 99  8  1  2 30  0.0000000  0  9  1  3 14 15 16 18 22 25 29         
 -19820583.667   -15417021.310    21267284.907    21267284.485    21267289.928  
      -660.697        -514.832  
   -225678.5023    -164679.8533   24681198.2483   24681201.2023   24681204.6163 
      2635.6523       2052.9763 
 -23184429.072   -18054657.505    20957977.660    20957977.454    20957983.178  
      -247.217        -192.634  
   8547090.5981    6673216.6211   25538953.1901   25538952.5181   25538966.5441 
     -2518.3041      -1962.3121 
 -13195919.598   -10261440.386    22239969.117    22239968.613    22239975.150  
      1776.755        1384.486  
   -469473.7263     -10445.6813          0.0002   24836490.4633   24862466.0553 
      3142.9453       2447.3203 
 -20254650.020   -15759988.617    20442858.555    20442857.751    20442862.956  
      -825.505        -643.249  
  -6467124.527    -5014915.477    23316529.933    23316529.895    23316535.382  
     -2156.157       -1680.120  
   8177639.9161    6386590.6751   25694249.0441   25694249.1431   25694258.1011 
     -2745.2251      -2139.1311 
 99  8  1  2 30 30.0000000  0  9  1  3 14 15 16 18 22 25 29         
 -19800619.284   -15401464.616    21271083.866    21271083.444    21271089.082  
      -670.311        -522.324  
   -304765.8321    -226306.2371   24666146.7361   24666146.7451   24666155.0531 
      2636.8501       2054.6781 
 -23176700.977   -18048635.628    20959448.279    20959448.099    20959453.766  
      -267.811        -208.683  
   8622539.180     6732007.602    25553310.467    25553309.764    25553323.951  
     -2511.793       -1957.233  
 -13248972.281   -10302780.098    22229873.580    22229873.076    22229879.515  
      1760.087        1371.492  
   -563785.5773     -10445.6813          0.0002   24818543.5033   24862466.0553 
      3144.3893       2447.3203 
 -20229585.746   -15740457.998    20447628.103    20447627.356    20447632.561  
      -845.330        -658.699  
  -6402424.835    -4964500.132    23328841.986    23328841.909    23328847.167  
     -2156.998       -1680.777  
   8260071.7351    6450823.0031   25709935.2161   25709935.5171   25709944.7751 
     -2750.2131      -2143.0001 
 99  8  1  2 31  0.0000000  0  7  1  3 14 15 16 22 25               
 -19780361.124   -15385678.996    21274938.767    21274938.377    21274944.069  
      -680.393        -530.179  
   -383887.9321    -287959.7301   24651090.509    24651090.6141   24651098.6081 
      2637.6301       2055.2851 
 -23168361.432   -18042137.301    20961035.262    20961035.072    20961040.688  
      -288.227        -224.593  
   8697791.498     6790645.583    25567630.646    25567630.005    25567644.114  
     -2505.231       -1952.108  
 -13301525.555   -10343730.654    22219873.018    22219872.503    22219878.931  
      1743.472        1358.548  
 -20203926.899   -15720464.064    20452510.917    20452510.122    20452515.302  
      -865.241        -674.214  
  -6337703.882    -4914068.223    23341158.115    23341157.972    23341162.928  
     -2157.800       -1681.411  
 99  8  1  2 31 30.0000000  0  7  1  3 14 15 16 22 25               
 -19759796.599   -15369654.655    21278852.215    21278851.753    21278857.253  
      -690.497        -538.051  
   -463028.628     -349627.705    24636030.423    24636030.458    24636038.581  
      2638.637        2056.080  
 -23159416.873   -18035167.527    20962737.419    20962737.210    20962742.749  
      -308.010        -240.006  
   8772845.060     6849128.722    25581912.850    25581912.377    25581926.546  
     -2498.503       -1946.892  
 -13353591.709   -10384301.640    22209965.085    22209964.597    22209971.037  
      1727.587        1346.170  
 -20177679.623   -15700011.610    20457505.547    20457504.756    20457510.005  
      -884.470        -689.197  
  -6272957.116    -4863616.174    23353478.934    23353478.865    23353483.674  
     -2158.650       -1682.065  
 99  8  1  2 32  0.0000000  0  7  1  3 14 15 16 22 25               
 -19738923.454   -15353389.834    21282824.273    21282823.805    21282829.162  
      -701.052        -546.274  
   -542196.942     -411317.198    24620965.197    24620965.088    24620973.345  
      2639.349        2056.646  
 -23149871.274   -18027729.405    20964553.939    20964553.721    20964559.173  
      -328.371        -255.873  
   8847697.229     6907454.857    25596157.193    25596156.433    25596170.544  
     -2491.807       -1941.662  
 -13405169.203   -10424491.853    22200150.178    22200149.677    22200156.113  
      1710.820        1333.104  
 -20150850.305   -15679105.599    20462610.974    20462610.207    20462615.442  
      -903.997        -704.415  
  -6208187.684    -4813146.494    23365804.119    23365804.032    23365808.903  
     -2159.156       -1682.462  
 99  8  1  2 32 30.0000000  0  7  1  3 14 15 16 22 25               
 -19717737.665   -15336881.394    21286855.778    21286855.334    21286860.614  
      -711.474        -554.399  
   -621403.198     -473036.263    24605892.959    24605892.679    24605901.019  
      2640.939        2057.873  
 -23139725.098   -18019823.304    20966484.660    20966484.453    20966489.895  
      -348.149        -271.287  
   8922345.861     6965622.462    25610362.559    25610361.678    25610375.955  
     -2484.729       -1936.144  
 -13456240.964   -10464287.991    22190431.524    22190430.942    22190437.446  
      1693.784        1319.832  
 -20123449.259   -15657754.088    20467825.252    20467824.478    20467829.657  
      -922.848        -719.108  
  -6143424.439    -4762681.660    23378128.078    23378127.919    23378132.920  
     -2158.562       -1682.001  
 99  8  1  2 33  0.0000000  0  7  1  3 14 15 16 22 25               
 -19696233.109   -15320124.574    21290947.898    21290947.473    21290952.809  
      -722.072        -562.659  
   -700657.073     -534792.445    24590811.562    24590811.361    24590819.486  
      2642.572        2059.139  
 -23128977.003   -18011448.172    20968529.924    20968529.701    20968535.191  
      -368.383        -287.053  
   8996788.716     7023629.672    25624528.873    25624527.933    25624542.201  
     -2477.921       -1930.808  
 -13506793.010   -10503679.164    22180811.667    22180811.056    22180817.705  
      1676.330        1306.227  
 -20095475.500   -15635956.291    20473148.589    20473147.763    20473152.853  
      -942.217        -734.201  
  -6078666.659    -4712221.095    23390450.981    23390450.900    23390455.839  
     -2158.777       -1682.160  
 99  8  1  2 33 30.0000000  0  8  1  3 14 15 16 18 22 25            
 -19674413.756   -15303122.451    21295100.009    21295099.607    21295104.872  
      -732.617        -570.873  
   -779962.113     -596588.516    24575720.415    24575720.214    24575728.087  
      2644.520        2060.667  
 -23117624.438   -18002602.028    20970690.104    20970689.934    20970695.549  
      -388.360        -302.621  
   9071023.385     7081474.703    25638655.328    25638654.382    25638668.520  
     -2471.018       -1925.495  
 -13556821.203   -10542662.135    22171291.432    22171290.961    22171297.650  
      1658.791        1292.562  
    -79635.7253     -49715.8493   24710702.1623   24710706.0883   24710706.6873 
      3152.0753       2456.1613 
 -20066905.622   -15613693.976    20478585.200    20478584.382    20478589.552  
      -962.453        -749.967  
  -6013901.335    -4661754.601    23402775.543    23402775.393    23402780.234  
     -2158.892       -1682.249  
 99  8  1  2 34  0.0000000  0  8  1  3 14 15 16 18 22 25            
 -19652283.347   -15285877.945    21299311.334    21299310.888    21299316.116  
      -742.703        -578.731  
   -859331.028     -658434.334    24560616.769    24560616.656    24560624.783  
      2646.797        2062.433  
 -23105679.417   -17993294.223    20972963.146    20972962.952    20972968.610  
      -408.077        -317.982  
   9145047.652     7139155.713    25652742.188    25652741.084    25652755.047  
     -2463.921       -1919.931  
 -13606320.787   -10581233.214    22161871.965    22161871.496    22161878.118  
      1641.272        1278.915  
   -174217.6453    -123415.7363   24692704.3713   24692707.7353   24692714.8843 
      3153.3983       2457.1923 
 -20037728.422   -15590958.420    20484137.384    20484136.568    20484141.751  
      -982.561        -765.634  
  -5949135.433    -4611287.661    23415099.999    23415099.929    23415104.821  
     -2158.843       -1682.212  
 99  8  1  2 34 30.0000000  0  8  1  3 14 15 16 18 22 25            
 -19629851.691   -15268398.702    21303579.833    21303579.410    21303584.745  
      -752.773        -586.575  
   -938766.009     -720331.655    24545500.330    24545500.333    24545508.771  
      2648.646        2063.865  
 -23093137.654   -17983521.418    20975349.822    20975349.563    20975355.268  
      -428.212        -333.668  
   9218859.1761    7196670.9861   25666787.9501   25666787.0911   25666801.1541 
     -2456.9021      -1914.4771 
 -13655294.488   -10619394.515    22152552.564    22152552.057    22152558.630  
      1623.643        1265.178  
   -268838.6543    -197146.4073   24674699.0863   24674699.6463   24674705.1243 
      3154.5943       2458.1243 
 -20007946.822   -15567751.892    20489804.575    20489803.813    20489808.945  
     -1002.951        -781.523  
  -5884361.547    -4560814.512    23427426.231    23427426.097    23427430.934  
     -2159.541       -1682.757  
