     2.10           Observation         GPS                 RINEX VERSION / TYPE
RinexObsWriter      NIMA                11-14-01  9:22:20   PGM / RUN BY / DATE
The AS bit flag is set if receiver is in Z mode             COMMENT
Signal to Noise ratio information is omitted                COMMENT
This file contains SMOOTHED obs data                        COMMENT
85408                                                       MARKER NAME
Monitor Station     NIMA                                    OBSERVER / AGENCY
1                   ZY12                                    REC # / TYPE / VERS
85408               AshTech Geodetic 3                      ANT # / TYPE
  -740289.7851 -5457071.6555  3207245.8294                  APPROX POSITION XYZ
        0.0000        0.0000        0.0000                  ANTENNA: DELTA H/E/N
     1     1     0                                          WAVELENGTH FACT L1/2
     7    L1    L2    C1    P1    P2    D1    D2            # / TYPES OF OBSERV
  1999     8     3     0     0    0.0000000                 TIME OF FIRST OBS
                                                            END OF HEADER
 99  8  3  0  0  0.0000000  0  8  1 14 15 21 22 25 29 30            
 -14373470.569   -11178822.647    21827616.679    21827616.242    21827623.650  
       993.063         773.811  
  -1755869.500    -1356612.023    24234199.252    24234198.947    24234207.963  
      3311.117        2580.077  
  -4164108.777    -3218344.510    22070415.829    22070415.153    22070423.683  
      -453.127        -353.089  
 -15833850.143   -12310729.181    22157536.846    22157536.391    22157545.309  
     -2599.713       -2025.755  
  -8027948.915    -6236964.449    23344312.683    23344311.837    23344325.032  
      3490.647        2719.975  
 -20193976.350   -15712704.993    20726515.909    20726515.739    20726521.205  
      -386.726        -301.345  
 -10289098.617    -7756143.978    22433717.074    22433717.057    22433724.110  
     -1418.772       -1105.539  
  -5441562.158    -3923032.341    23818684.231    23818684.445    23818692.899  
     -1330.658       -1036.875  
 99  8  3  0  0 30.0000000  0  8  1 14 15 21 22 25 29 30            
 -14403222.326   -11202005.819    21821955.194    21821954.689    21821962.133  
       990.367         771.717  
  -1855177.667    -1433994.939    24215301.445    24215301.220    24215310.093  
      3309.361        2578.717  
  -4150221.452    -3207523.229    22073058.516    22073057.837    22073066.370  
      -472.736        -368.364  
 -15755656.942   -12249799.506    22172416.595    22172416.149    22172425.025  
     -2613.033       -2036.128  
  -8132622.813    -6318528.184    23324393.656    23324392.724    23324405.908  
      3487.571        2717.581  
 -20182171.528   -15703506.405    20728762.282    20728762.119    20728767.570  
      -400.238        -311.876  
 -10246490.676    -7722943.012    22441825.257    22441825.180    22441832.058  
     -1421.717       -1107.830  
  -5401393.079    -3891731.810    23826328.289    23826328.513    23826336.773  
     -1347.171       -1049.737  
 99  8  3  0  1  0.0000000  0  8  1 14 15 21 22 25 29 30            
 -14432903.312   -11225133.844    21816307.082    21816306.611    21816314.070  
       988.269         770.078  
  -1954431.278    -1511335.361    24196414.048    24196413.917    24196422.627  
      3307.461        2577.248  
  -4135748.896    -3196245.937    22075812.651    22075811.940    22075820.404  
      -492.189        -383.524  
 -15677073.055   -12188565.421    22187370.827    22187370.310    22187379.201  
     -2625.873       -2046.131  
  -8237204.475    -6400020.034    23304492.021    23304491.105    23304504.424  
      3484.513        2715.192  
 -20169968.266   -15693997.344    20731084.463    20731084.282    20731089.766  
      -413.316        -322.064  
 -10203794.336    -7689673.157    22449950.176    22449950.073    22449956.967  
     -1424.819       -1110.245  
  -5360731.896    -3860047.818    23834065.970    23834066.204    23834074.239  
     -1363.705       -1062.618  
 99  8  3  0  1 30.0000000  0  8  1 14 15 21 22 25 29 30            
 -14462517.607   -11248209.898    21810671.666    21810671.154    21810678.598  
       986.137         768.422  
  -2053628.749    -1588632.025    24177537.313    24177537.217    24177545.891  
      3305.859        2575.993  
  -4120692.382    -3184513.622    22078677.854    22078677.098    22078685.580  
      -511.527        -398.590  
 -15598105.969   -12127032.731    22202397.856    22202397.297    22202406.375  
     -2638.593       -2056.033  
  -8341698.781    -6481443.824    23284606.963    23284606.104    23284619.477  
      3481.750        2713.030  
 -20157378.144   -15684186.842    20733480.235    20733480.076    20733485.597  
      -426.101        -332.022  
 -10161000.469    -7656327.310    22458093.631    22458093.493    22458100.328  
     -1428.041       -1112.768  
  -5319568.550    -3827972.517    23841899.045    23841899.279    23841907.273  
     -1380.556       -1075.765  
 99  8  3  0  2  0.0000000  0  8  1 14 15 21 22 25 29 30            
 -14492066.237   -11271234.775    21805048.613    21805048.152    21805055.569  
       983.697         766.515  
  -2152782.985    -1665894.977    24158668.736    24158668.658    24158677.431  
      3304.576        2575.008  
  -4105052.830    -3172326.986    22081653.709    22081653.099    22081661.664  
      -531.026        -413.788  
 -15518754.425   -12065200.480    22217497.963    22217497.505    22217506.809  
     -2651.512       -2066.111  
  -8446116.592    -6562808.027    23264736.462    23264735.704    23264749.051  
      3479.474        2711.264  
 -20144395.434   -15674070.430    20735950.692    20735950.535    20735956.144  
      -439.298        -342.308  
 -10118113.842    -7622909.183    22466254.719    22466254.564    22466261.275  
     -1430.983       -1115.057  
  -5277888.014    -3795494.213    23849830.608    23849830.829    23849838.792  
     -1398.294       -1089.581  
 99  8  3  0  2 30.0000000  0  8  1 14 15 21 22 25 29 30            
 -14521532.135   -11294195.186    21799441.401    21799440.955    21799448.354  
       980.598         764.099  
  -2251900.930    -1743129.649    24139807.190    24139807.077    24139815.955  
      3303.284        2573.985  
  -4088831.539    -3159687.057    22084740.441    22084739.938    22084748.486  
      -550.365        -428.861  
 -15439017.183   -12003067.692    22232671.739    22232671.174    22232680.603  
     -2664.252       -2076.037  
  -8550466.250    -6644119.111    23244879.145    23244878.259    23244891.640  
      3477.177        2709.466  
 -20131022.330   -15663649.820    20738495.480    20738495.329    20738500.938  
      -452.204        -352.367  
 -10075141.626    -7589424.380    22474431.991    22474431.835    22474438.659  
     -1433.865       -1117.294  
  -5235667.877    -3762595.434    23857864.792    23857864.946    23857873.042  
     -1416.243       -1103.561  
 99  8  3  0  3  0.0000000  0  8  1 14 15 21 22 25 29 30            
 -14550891.131   -11317072.291    21793854.660    21793854.168    21793861.529  
       976.730         761.090  
  -2350979.695    -1820333.816    24120953.332    24120952.963    24120961.880  
      3302.100        2573.064  
  -4072029.811    -3146594.835    22087937.819    22087937.341    22087945.775  
      -569.699        -443.918  
 -15358894.176   -11940634.298    22247918.784    22247918.211    22247927.680  
     -2677.268       -2086.179  
  -8654740.208    -6725371.235    23225036.118    23225035.258    23225048.552  
      3474.549        2707.426  
 -20117261.097   -15652926.778    20741114.096    20741113.961    20741119.586  
      -465.251        -362.536  
 -10032073.949    -7555865.201    22482627.433    22482627.388    22482634.222  
     -1437.249       -1119.929  
  -5192917.285    -3729283.333    23865999.899    23866000.069    23866008.375  
     -1433.656       -1117.131  
 99  8  3  0  3 30.0000000  0  8  1 14 15 21 22 25 29 30            
 -14580128.881   -11339854.925    21788290.937    21788290.466    21788297.753  
       972.652         757.912  
  -2450029.946    -1897515.776    24102104.861    24102104.316    24102113.190  
      3301.342        2572.477  
  -4054649.322    -3133051.638    22091245.456    22091244.920    22091253.176  
      -588.925        -458.902  
 -15278379.628   -11877895.808    22263240.256    22263239.737    22263249.143  
     -2690.243       -2096.290  
  -8758936.730    -6806563.037    23205207.835    23205207.066    23205220.145  
      3471.862        2705.329  
 -20103100.759   -15641892.745    20743808.596    20743808.513    20743814.236  
      -478.854        -373.131  
  -9988905.515    -7522227.507    22490842.064    22490842.082    22490848.916  
     -1440.544       -1122.500  
  -5149654.017    -3695571.762    23874232.614    23874232.903    23874241.248  
     -1450.442       -1130.219  
 99  8  3  0  4  0.0000000  0  8  1 14 15 21 22 25 29 30            
 -14609246.300   -11362543.787    21782750.068    21782749.603    21782756.862  
       968.385         754.581  
  -2549049.879    -1974674.108    24083261.904    24083261.419    24083270.373  
      3299.591        2571.109  
  -4036690.908    -3119058.103    22094662.952    22094662.418    22094670.555  
      -608.376        -474.063  
 -15197477.269   -11814855.118    22278635.587    22278635.064    22278644.386  
     -2703.374       -2106.522  
  -8863048.746    -6887688.980    23185395.760    23185394.952    23185407.818  
      3468.736        2702.899  
 -20088523.412   -15630533.768    20746582.485    20746582.430    20746588.234  
      -492.995        -384.153  
  -9945639.351    -7488513.650    22499075.426    22499075.394    22499082.182  
     -1443.989       -1125.191  
  -5105887.782    -3661468.253    23882561.255    23882561.494    23882569.735  
     -1467.271       -1143.340  
 99  8  3  0  4 30.0000000  0  8  1 14 15 21 22 25 29 30            
 -14638247.181   -11385141.838    21777231.403    21777230.871    21777238.128  
       965.017         751.962  
  -2648009.501    -2051785.474    24064430.435    24064429.994    24064438.897  
      3297.396        2569.393  
  -4018156.064    -3104615.406    22098190.212    22098189.577    22098197.687  
      -627.361        -488.852  
 -15116191.025   -11751515.319    22294103.926    22294103.402    22294112.613  
     -2715.752       -2116.169  
  -8967062.592    -6968738.450    23165602.501    23165601.687    23165614.212  
      3465.444        2700.342  
 -20073530.205   -15618850.746    20749435.593    20749435.524    20749441.362  
      -506.503        -394.678  
  -9902275.550    -7454723.695    22507327.357    22507327.275    22507334.087  
     -1446.966       -1127.504  
  -5061635.137    -3626985.727    23890982.422    23890982.553    23890990.993  
     -1482.816       -1155.440  
 99  8  3  0  5  0.0000000  0  8  1 14 15 21 22 25 29 30            
 -14667148.011   -11407661.927    21771731.745    21771731.170    21771738.414  
       961.773         749.431  
  -2746886.697    -2128832.599    24045614.720    24045614.257    24045623.227  
      3294.576        2567.200  
  -3999046.194    -3089724.640    22101826.657    22101826.117    22101834.298  
      -646.598        -503.839  
 -15034525.182   -11687879.731    22309644.531    22309643.963    22309653.181  
     -2728.550       -2126.136  
  -9070964.443    -7049700.638    23145830.503    23145829.661    23145841.992  
      3461.387        2697.169  
 -20058129.350   -15606850.085    20752366.279    20752366.177    20752372.036  
      -520.092        -405.265  
  -9858814.422    -7420857.911    22515597.648    22515597.548    22515604.562  
     -1450.242       -1130.054  
  -5016915.273    -3592139.127    23899492.214    23899492.382    23899501.133  
     -1498.589       -1167.736  
 99  8  3  0  5 30.0000000  0  8  1 14 15 21 22 25 29 30            
 -14695959.705   -11430112.569    21766248.924    21766248.477    21766255.653  
       959.085         747.344  
  -2845681.363    -2205815.434    24026814.565    24026814.258    24026823.202  
      3291.722        2564.974  
  -3979362.604    -3074386.817    22105572.390    22105571.797    22105580.128  
      -665.701        -518.731  
 -14952478.157   -11623947.105    22325257.591    22325257.100    22325266.261  
     -2741.230       -2136.020  
  -9174745.255    -7130568.507    23126081.450    23126080.653    23126092.837  
      3457.079        2693.818  
 -20042332.811   -15594541.098    20755372.301    20755372.208    20755378.019  
      -532.973        -415.299  
  -9815272.039    -7386928.803    22523883.330    22523883.301    22523890.528  
     -1452.538       -1131.850  
  -4971707.374    -3556912.231    23908095.108    23908095.242    23908104.124  
     -1515.501       -1180.904  
 99  8  3  0  6  0.0000000  0  8  1 14 15 21 22 25 29 30            
 -14724694.818   -11452503.523    21760780.891    21760780.355    21760787.511  
       956.609         745.405  
  -2944387.182    -2282728.997    24008031.254    24008031.011    24008040.159  
      3288.729        2562.645  
  -3959107.138    -3058603.370    22109427.077    22109426.357    22109434.727  
      -684.623        -533.477  
 -14870051.410   -11559718.597    22340942.991    22340942.515    22340951.731  
     -2753.878       -2145.873  
  -9278389.833    -7211330.198    23106358.386    23106357.455    23106369.575  
      3452.630        2690.356  
 -20026155.495   -15581935.394    20758450.758    20758450.650    20758456.436  
      -545.292        -424.903  
  -9771663.208    -7352947.941    22532181.879    22532181.824    22532189.217  
     -1454.685       -1133.523  
  -4925979.137    -3521279.880    23916797.057    23916797.197    23916805.990  
     -1532.962       -1194.514  
 99  8  3  0  6 30.0000000  0  8  1 14 15 21 22 25 29 30            
 -14753350.272   -11474832.419    21755327.872    21755327.388    21755334.490  
       953.828         743.240  
  -3043009.443    -2359577.480    23989263.991    23989263.710    23989272.929  
      3286.270        2560.728  
  -3938280.956    -3042375.223    22113390.246    22113389.492    22113397.904  
      -703.653        -548.298  
 -14787239.735   -11495190.145    22356701.622    22356701.131    22356710.382  
     -2766.875       -2156.006  
  -9381887.791    -7291977.658    23086663.260    23086662.214    23086674.284  
      3447.554        2686.400  
 -20009614.332   -15569046.172    20761598.406    20761598.310    20761604.099  
      -557.395        -434.334  
  -9727986.486    -7318914.175    22540493.454    22540493.350    22540500.735  
     -1457.023       -1135.346  
  -4879725.949    -3485238.495    23925599.007    23925599.090    23925607.675  
     -1550.672       -1208.299  
 99  8  3  0  7  0.0000000  0  8  1 14 15 21 22 25 29 30            
 -14781919.641   -11497094.244    21749891.186    21749890.734    21749897.853  
       950.831         740.913  
  -3141572.091    -2436379.492    23970507.920    23970507.707    23970517.070  
      3284.657        2559.476  
  -3916886.039    -3025703.897    22117461.582    22117460.837    22117469.351  
      -722.539        -563.012  
 -14704033.040   -11430353.891    22372535.382    22372534.841    22372544.125  
     -2780.062       -2166.271  
  -9485238.429    -7372510.332    23066995.967    23066995.078    23067007.030  
      3442.792        2682.694  
 -19992709.242   -15555873.361    20764815.331    20764815.223    20764821.003  
      -569.641        -443.874  
  -9684230.951    -7284818.977    22548819.981    22548819.738    22548827.161  
     -1459.797       -1137.501  
  -4832927.611    -3448772.326    23934504.635    23934504.735    23934513.109  
     -1568.983       -1222.569  
 99  8  3  0  7 30.0000000  0  8  1 14 15 21 22 25 29 30            
 -14810390.496   -11519279.301    21744473.304    21744472.864    21744480.032  
       947.271         738.130  
  -3240082.116    -2513140.479    23951761.961    23951761.699    23951771.183  
      3282.562        2557.840  
  -3894923.109    -3008589.972    22121640.971    22121640.189    22121648.862  
      -741.648        -577.905  
 -14620428.324   -11365207.479    22388445.040    22388444.443    22388453.568  
     -2793.419       -2176.681  
  -9588451.858    -7452936.100    23047354.791    23047354.053    23047365.907  
      3438.269        2679.164  
 -19975431.045   -15542409.824    20768103.211    20768103.090    20768108.923  
      -582.312        -453.753  
  -9640392.376    -7250659.085    22557161.933    22557161.794    22557169.429  
     -1462.890       -1139.918  
  -4785579.551    -3411877.810    23943514.773    23943514.904    23943523.276  
     -1587.272       -1236.839  
 99  8  3  0  8  0.0000000  0  8  1 14 15 21 22 25 29 30            
 -14838754.865   -11541381.395    21739075.857    21739075.388    21739082.518  
       943.536         735.222  
  -3338525.523    -2589849.582    23933028.581    23933028.415    23933037.839  
      3280.241        2556.032  
  -3872393.895    -2991034.781    22125927.932    22125927.300    22125936.072  
      -760.420        -592.538  
 -14536428.127   -11299752.898    22404429.856    22404429.271    22404438.287  
     -2806.673       -2187.019  
  -9691549.568    -7533271.673    23027735.736    23027734.976    23027746.774  
      3434.852        2676.493  
 -19957772.244   -15528649.708    20771463.539    20771463.386    20771469.226  
      -595.053        -463.678  
  -9596453.838    -7216421.303    22565523.030    22565523.021    22565530.727  
     -1466.479       -1142.712  
  -4737708.019    -3374575.361    23952624.521    23952624.682    23952633.122  
     -1604.180       -1250.006  
 99  8  3  0  8 30.0000000  0  8  1 14 15 21 22 25 29 30            
 -14867000.260   -11563390.782    21733700.991    21733700.539    21733707.579  
       939.597         732.148  
  -3436895.038    -2666501.086    23914309.242    23914309.274    23914318.562  
      3277.679        2554.029  
  -3849300.572    -2973040.013    22130322.464    22130321.840    22130330.517  
      -779.100        -607.093  
 -14452029.134   -11233987.584    22420490.400    22420489.854    22420498.988  
     -2819.874       -2197.307  
  -9794542.166    -7613525.379    23008136.546    23008135.930    23008147.649  
      3431.389        2673.795  
 -19939727.917   -15514589.187    20774897.222    20774897.102    20774902.922  
      -607.948        -473.726  
  -9552402.462    -7182095.591    22573905.951    22573905.851    22573913.432  
     -1470.189       -1145.603  
  -4689338.866    -3336885.157    23961828.731    23961828.915    23961837.678  
     -1620.645       -1262.842  
 99  8  3  0  9  0.0000000  0  8  1 14 15 21 22 25 29 30            
 -14895127.234   -11585307.889    21728348.678    21728348.241    21728355.189  
       935.555         729.005  
  -3535172.916    -2743081.135    23895607.693    23895607.520    23895616.885  
      3274.161        2551.290  
  -3825644.452    -2954606.712    22134824.127    22134823.470    22134832.017  
      -797.938        -621.761  
 -14367235.671   -11167914.879    22436626.161    22436625.656    22436634.729  
     -2832.951       -2207.486  
  -9897427.943    -7693695.842    22988558.047    22988557.180    22988568.866  
      3427.545        2670.810  
 -19921290.342   -15500222.239    20778405.807    20778405.689    20778411.485  
      -621.138        -484.006  
  -9508238.953    -7147682.506    22582310.087    22582309.984    22582317.559  
     -1473.890       -1148.494  
  -4640469.397    -3298805.115    23971127.899    23971128.175    23971137.282  
     -1637.076       -1275.635  
 99  8  3  0  9 30.0000000  0  8  1 14 15 21 22 25 29 30            
 -14923135.832   -11607132.755    21723018.897    21723018.441    21723025.351  
       931.786         726.068  
  -3633342.092    -2819576.493    23876926.887    23876926.393    23876935.744  
      3270.572        2548.490  
  -3801426.625    -2935735.728    22139432.689    22139431.930    22139440.492  
      -816.637        -636.337  
 -14282056.341   -11101541.516    22452835.532    22452834.976    22452844.007  
     -2845.662       -2217.400  
 -10000188.892    -7773769.040    22969002.805    22969001.979    22969013.859  
      3423.166        2667.389  
 -19902463.236   -15485551.761    20781988.532    20781988.409    20781994.132  
      -633.952        -493.989  
  -9463975.055    -7113191.212    22590733.306    22590733.217    22590740.762  
     -1477.105       -1150.989  
  -4591122.570    -3260353.106    23980518.021    23980518.353    23980527.570  
     -1652.874       -1287.960  
 99  8  3  0 10  0.0000000  0  8  1 14 15 21 22 25 29 30            
 -14951039.875   -11628876.148    21717708.909    21717708.460    21717715.405  
       928.410         723.435  
  -3731404.785    -2895988.882    23858265.903    23858265.595    23858275.086  
      3266.927        2545.657  
  -3776649.154    -2916428.671    22144147.434    22144146.825    22144155.503  
      -835.311        -650.894  
 -14196496.006   -11034871.244    22469117.294    22469116.726    22469125.562  
     -2858.488       -2227.392  
 -10102810.700    -7853733.834    22949474.287    22949473.500    22949485.380  
      3418.014        2663.373  
 -19883249.940   -15470580.355    20785644.757    20785644.637    20785650.308  
      -647.080        -504.221  
  -9419613.691    -7078623.959    22599175.178    22599175.087    22599182.483  
     -1480.433       -1153.579  
  -4541299.851    -3221530.287    23989998.667    23989999.184    23990008.408  
     -1668.921       -1300.447  
 99  8  3  0 10 30.0000000  0  8  1 14 15 21 22 25 29 30            
 -14978846.244   -11650543.427    21712417.647    21712417.135    21712424.023  
       925.304         721.012  
  -3829370.292    -2972325.535    23839623.498    23839623.274    23839632.730  
      3263.929        2543.311  
  -3751313.759    -2896686.853    22148968.628    22148967.994    22148976.645  
      -853.863        -665.351  
 -14110555.061   -10967904.404    22485471.306    22485470.734    22485479.744  
     -2871.066       -2237.187  
 -10205262.239    -7933565.951    22929978.349    22929977.526    22929989.272  
      3412.080        2658.758  
 -19863643.882   -15455302.898    20789375.721    20789375.565    20789381.256  
      -660.074        -514.346  
  -9375153.568    -7043979.751    22607635.833    22607635.773    22607642.934  
     -1483.720       -1156.148  
  -4490989.974    -3182327.881    23999572.482    23999572.880    23999581.970  
     -1685.249       -1313.179  
 99  8  3  0 11  0.0000000  0  8  1 14 15 21 22 25 29 30            
 -15006563.209   -11672141.042    21707143.351    21707142.812    21707149.650  
       922.206         718.598  
  -3927247.566    -3048593.427    23820998.106    23820997.799    23821007.341  
      3261.061        2541.079  
  -3725422.147    -2876511.627    22153895.666    22153894.989    22153903.672  
      -872.439        -679.819  
 -14024240.913   -10900646.753    22501896.377    22501895.839    22501904.963  
     -2883.394       -2246.803  
 -10307540.778    -8013263.280    22910515.354    22910514.493    22910525.961  
      3406.319        2654.265  
 -19843648.775   -15439722.289    20793180.645    20793180.492    20793186.236  
      -673.042        -524.456  
  -9330599.280    -7009262.177    22616114.267    22616114.163    22616121.338  
     -1486.720       -1158.487  
  -4440195.120    -3142747.569    24009238.445    24009238.891    24009248.002  
     -1701.211       -1325.626  
 99  8  3  0 11 30.0000000  0  8  1 14 15 21 22 25 29 30            
 -15034187.708   -11693666.595    21701886.527    21701885.999    21701892.858  
       919.200         716.255  
  -4025043.451    -3124797.936    23802388.302    23802387.927    23802397.344  
      3258.503        2539.081  
  -3698975.871    -2855904.202    22158928.098    22158927.479    22158936.279  
      -890.843        -694.162  
 -13937558.685   -10833102.295    22518391.483    22518390.951    22518400.240  
     -2895.489       -2256.217  
 -10409652.995    -8092831.013    22891084.057    22891083.058    22891094.305  
      3401.140        2650.231  
 -19823270.804   -15423843.345    20797058.346    20797058.238    20797064.010  
      -685.621        -534.255  
  -9285958.760    -6974477.421    22624608.919    22624608.871    22624616.167  
     -1489.550       -1160.683  
  -4388919.053    -3102792.246    24018996.126    24018996.608    24019005.688  
     -1717.517       -1338.321  
 99  8  3  0 12  0.0000000  0  8  1 14 15 21 22 25 29 30            
 -15061719.607   -11715119.998    21696647.365    21696646.830    21696653.645  
       916.195         713.921  
  -4122754.021    -3200935.978    23783794.623    23783794.287    23783803.643  
      3255.637        2536.869  
  -3671976.674    -2834865.938    22164065.799    22164065.243    22164074.228  
      -909.008        -708.306  
 -13850513.515   -10765275.003    22534955.591    22534955.163    22534964.541  
     -2907.338       -2265.457  
 -10511614.810    -8172281.548    22871681.032    22871680.160    22871691.269  
      3396.249        2646.421  
 -19802517.772   -15407672.148    20801007.525    20801007.433    20801013.133  
      -697.756        -543.706  
  -9241229.273    -6939623.333    22633120.613    22633120.532    22633127.904  
     -1492.378       -1162.882  
  -4337147.112    -3062450.564    24028848.195    24028848.622    24028857.692  
     -1733.862       -1351.065  
 99  8  3  0 12 30.0000000  0  8  1 14 15 21 22 25 29 30            
 -15089150.622   -11736494.775    21691427.304    21691426.815    21691433.657  
       912.842         711.304  
  -4220373.017    -3277002.638    23765218.138    23765217.853    23765227.358  
      3252.466        2534.392  
  -3644426.678    -2813398.467    22169308.467    22169307.965    22169316.996  
      -927.431        -722.676  
 -13763109.865   -10697168.388    22551587.963    22551587.573    22551597.018  
     -2919.296       -2274.773  
 -10613418.265    -8251608.683    22852308.425    22852307.439    22852318.456  
      3391.026        2642.344  
 -19781395.718   -15391213.400    20805026.964    20805026.862    20805032.498  
      -709.911        -553.179  
  -9196411.994    -6904700.837    22641649.146    22641649.061    22641656.442  
     -1495.165       -1165.061  
  -4284881.595    -3021724.255    24038794.264    24038794.606    24038803.606  
     -1750.192       -1363.779  
 99  8  3  0 13  0.0000000  0  8  1 14 15 21 22 25 29 30            
 -15116483.166   -11757792.814    21686226.016    21686225.551    21686232.461  
       909.393         708.619  
  -4317894.289    -3352993.167    23746660.443    23746660.060    23746669.684  
      3249.040        2531.721  
  -3616327.185    -2791502.831    22174655.785    22174655.237    22174664.247  
      -945.765        -736.955  
 -13675357.222   -10628789.826    22568286.936    22568286.499    22568295.940  
     -2930.800       -2283.734  
 -10715069.951    -8330817.555    22832964.498    22832963.583    22832974.608  
      3385.761        2638.249  
 -19759915.639   -15374475.673    20809114.586    20809114.417    20809119.970  
      -721.947        -562.554  
  -9151522.690    -6869722.229    22650191.434    22650191.331    22650198.813  
     -1497.357       -1166.768  
  -4232127.525    -2980617.252    24048833.275    24048833.444    24048842.472  
     -1766.577       -1376.543  
 99  8  3  0 13 30.0000000  0  8  1 14 15 21 22 25 29 30            
 -15143714.475   -11779011.986    21681044.090    21681043.631    21681050.497  
       906.049         706.014  
  -4415311.480    -3428902.613    23728122.573    23728122.161    23728131.828  
      3245.520        2528.982  
  -3587680.010    -2769180.434    22180107.251    22180106.596    22180115.536  
      -964.070        -751.216  
 -13587255.226   -10560139.068    22585052.237    22585051.732    22585061.258  
     -2942.711       -2293.017  
 -10816553.688    -8409895.562    22813652.590    22813651.707    22813662.611  
      3379.777        2633.587  
 -19738073.761   -15357456.038    20813270.850    20813270.719    20813276.286  
      -734.214        -572.112  
  -9106561.513    -6834687.619    22658747.482    22658747.319    22658754.763  
     -1500.169       -1168.953  
  -4178878.110    -2939124.263    24058966.019    24058966.333    24058975.602  
     -1783.272       -1389.560  
 99  8  3  0 14  0.0000000  0  8  1 14 15 21 22 25 29 30            
 -15170848.995   -11800155.702    21675880.593    21675880.079    21675886.967  
       902.920         703.565  
  -4512631.407    -3504736.253    23709603.264    23709602.744    23709612.397  
      3242.514        2526.628  
  -3558487.334    -2746432.964    22185662.344    22185661.794    22185670.551  
      -982.175        -765.326  
 -13498795.471   -10491209.525    22601885.779    22601885.247    22601894.768  
     -2954.740       -2302.393  
 -10917853.834    -8488830.520    22794375.704    22794374.806    22794385.539  
      3373.494        2628.686  
 -19715865.756   -15340151.100    20817496.833    20817496.717    20817502.332  
      -746.468        -581.666  
  -9061515.786    -6799587.121    22667319.515    22667319.364    22667326.707  
     -1503.023       -1171.183  
  -4125143.361    -2897253.081    24069191.382    24069191.752    24069200.998  
     -1799.219       -1401.986  
 99  8  3  0 14 30.0000000  0  8  1 14 15 21 22 25 29 30            
 -15197893.369   -11821229.177    21670734.127    21670733.655    21670740.638  
       900.051         701.336  
  -4609866.239    -3580503.582    23691100.085    23691099.536    23691109.154  
      3239.830        2524.542  
  -3528750.742    -2723261.646    22191321.344    22191320.677    22191329.257  
     -1000.263        -779.415  
 -13409966.626   -10421992.397    22618789.514    22618788.964    22618798.512  
     -2967.160       -2312.067  
 -11018965.329    -8567618.464    22775134.561    22775133.654    22775144.511  
      3367.449        2623.972  
 -19693285.228   -15322555.884    20821793.706    20821793.620    20821799.259  
      -758.794        -591.266  
  -9016385.813    -6764420.970    22675907.569    22675907.393    22675914.688  
     -1505.744       -1173.308  
  -4070933.246    -2855011.483    24079507.470    24079507.865    24079516.791  
     -1814.848       -1414.176  
 99  8  3  0 15  0.0000000  0  8  1 14 15 21 22 25 29 30            
 -15224845.906   -11842231.090    21665605.213    21665604.684    21665611.711  
       896.928         698.901  
  -4707020.359    -3656208.019    23672612.104    23672611.590    23672621.186  
      3237.088        2522.405  
  -3498472.458    -2699668.233    22197083.321    22197082.607    22197091.197  
     -1018.243        -793.436  
 -13320766.469   -10352485.939    22635763.957    22635763.361    22635772.914  
     -2979.504       -2321.686  
 -11119903.286    -8646271.198    22755926.358    22755925.550    22755936.396  
      3361.786        2619.555  
 -19670338.088   -15304674.995    20826160.398    20826160.325    20826165.955  
      -771.030        -600.803  
  -8971165.175    -6729184.170    22684512.637    22684512.508    22684519.939  
     -1509.064       -1175.894  
  -4016247.032    -2812398.919    24089914.306    24089914.552    24089923.131  
     -1830.803       -1426.593  
 99  8  3  0 15 30.0000000  0  8  1 14 15 21 22 25 29 30            
 -15251711.718   -11863165.427    21660492.622    21660492.202    21660499.251  
       894.127         696.723  
  -4804088.863    -3731845.768    23654140.706    23654140.155    23654149.547  
      3234.171        2520.129  
  -3467654.203    -2675654.071    22202947.844    22202947.131    22202955.882  
     -1036.209        -807.440  
 -13231192.084   -10282687.887    22652809.499    22652808.891    22652818.466  
     -2991.874       -2331.324  
 -11220671.334    -8724791.514    22736750.645    22736749.763    22736760.748  
      3356.251        2615.252  
 -19647026.555   -15286510.162    20830596.555    20830596.418    20830602.063  
      -782.864        -610.024  
  -8925832.928    -6693860.405    22693139.009    22693138.927    22693146.375  
     -1512.998       -1178.958  
  -3961082.436    -2769413.582    24100411.923    24100412.130    24100420.559  
     -1846.631       -1438.931  
 99  8  3  0 16  0.0000000  0  8  1 14 15 21 22 25 29 30            
 -15278490.071   -11884031.624    21655396.772    21655396.395    21655403.458  
       891.108         694.370  
  -4901060.651    -3807408.172    23635687.469    23635687.071    23635696.235  
      3230.357        2517.166  
  -3436297.812    -2651220.556    22208914.690    22208914.040    22208922.927  
     -1054.267        -821.504  
 -13141255.248   -10212607.381    22669924.052    22669923.476    22669932.907  
     -3003.855       -2340.664  
 -11321276.828    -8803185.183    22717605.878    22717604.944    22717615.940  
      3350.717        2610.940  
 -19623365.581   -15268073.042    20835099.165    20835099.013    20835104.635  
      -794.527        -619.108  
  -8880381.358    -6658443.664    22701788.332    22701788.318    22701795.575  
     -1517.169       -1182.202  
  -3905447.361    -2726061.622    24110999.069    24110999.183    24111007.576  
     -1862.464       -1451.267  
 99  8  3  0 16 30.0000000  0  8  1 14 15 21 22 25 29 30            
 -15305186.473   -11904833.956    21650316.609    21650316.204    21650323.304  
       888.336         692.209  
  -4997912.681    -3882877.210    23617256.937    23617256.690    23617265.790  
      3226.133        2513.863  
  -3404405.405    -2626369.364    22214983.561    22214982.975    22214991.897  
     -1072.111        -835.412  
 -13050968.068   -10142253.897    22687105.351    22687104.692    22687114.126  
     -3015.280       -2349.573  
 -11421718.815    -8881451.430    22698492.126    22698491.292    22698502.227  
      3345.124        2606.583  
 -19599362.314   -15249369.199    20839666.819    20839666.677    20839672.331  
      -805.930        -627.998  
  -8834806.632    -6622930.967    22710461.177    22710461.040    22710468.135  
     -1521.443       -1185.542  
  -3849342.547    -2682343.649    24121675.480    24121675.568    24121684.084  
     -1878.169       -1463.515  
 99  8  3  0 17  0.0000000  0  8  1 14 15 21 22 25 29 30            
 -15331789.918   -11925563.864    21645254.025    21645253.666    21645260.815  
       885.148         689.725  
  -5094631.060    -3958242.101    23598851.879    23598851.666    23598860.729  
      3221.371        2510.158  
  -3371978.738    -2601101.870    22221154.205    22221153.499    22221162.528  
     -1089.881        -849.259  
 -12960349.104   -10071641.869    22704349.663    22704349.027    22704358.315  
     -3026.257       -2358.115  
 -11521981.563    -8959578.013    22679412.559    22679411.724    22679422.637  
      3338.769        2601.633  
 -19575020.034   -15230401.192    20844298.890    20844298.837    20844304.540  
      -817.188        -636.767  
  -8789098.469    -6587314.287    22719158.903    22719158.860    22719166.044  
     -1525.824       -1188.955  
  -3792762.806    -2638255.608    24132442.318    24132442.392    24132451.159  
     -1893.985       -1475.824  
 99  8  3  0 17 30.0000000  0  8  1 14 15 21 22 25 29 30            
 -15358294.920   -11946217.065    21640210.277    21640209.854    21640216.996  
       881.670         687.012  
  -5191191.471    -4033483.910    23580476.830    23580476.612    23580485.626  
      3216.054        2506.016  
  -3339019.792    -2575419.618    22227425.910    22227425.222    22227434.469  
     -1107.431        -862.933  
 -12869398.042   -10000771.073    22721657.128    22721656.533    22721665.842  
     -3037.152       -2366.606  
 -11622040.747    -9037545.988    22660371.663    22660370.974    22660381.774  
      3331.914        2596.286  
 -19550341.377   -15211171.071    20848995.184    20848995.051    20849000.734  
      -828.132        -645.297  
  -8743265.518    -6551600.368    22727880.595    22727880.520    22727887.753  
     -1529.624       -1191.913  
  -3735716.554    -2593804.026    24143297.858    24143297.915    24143306.845  
     -1909.267       -1487.735  
 99  8  3  0 18  0.0000000  0  8  1 14 15 21 22 25 29 30            
 -15384691.225   -11966785.569    21635187.111    21635186.695    21635193.837  
       878.031         684.180  
  -5287594.274    -4108602.904    23562132.066    23562131.757    23562140.657  
      3210.798        2501.916  
  -3305530.529    -2549324.128    22233798.565    22233798.044    22233807.303  
     -1125.234        -876.807  
 -12778110.656    -9929638.198    22739028.693    22739028.094    22739037.538  
     -3048.700       -2375.610  
 -11721889.850    -9115350.263    22641370.966    22641370.247    22641380.886  
      3324.699        2590.673  
 -19525324.326   -15191677.276    20853755.721    20853755.632    20853761.299  
      -839.827        -654.411  
  -8697319.326    -6515798.205    22736623.838    22736623.731    22736631.037  
     -1533.422       -1194.869  
  -3678199.677    -2548985.715    24154242.928    24154243.055    24154252.069  
     -1925.256       -1500.193  
 99  8  3  0 18 30.0000000  0  8  1 14 15 21 22 25 29 30            
 -15410974.362   -11987265.902    21630185.559    21630185.170    21630192.190  
       873.940         680.990  
  -5383847.555    -4183605.382    23543815.585    23543815.397    23543824.124  
      3206.125        2498.271  
  -3271513.454    -2522817.349    22240272.167    22240271.506    22240280.484  
     -1142.736        -890.446  
 -12686476.866    -9858235.405    22756466.141    22756465.557    22756475.106  
     -3060.288       -2384.644  
 -11821522.269    -9192985.700    22622411.576    22622410.746    22622421.260  
      3317.391        2584.971  
 -19499951.393   -15171906.166    20858584.055    20858583.974    20858589.608  
      -851.874        -663.800  
  -8651269.933    -6479915.598    22745386.688    22745386.675    22745393.996  
     -1536.520       -1197.286  
  -3620199.291    -2503790.673    24165280.282    24165280.284    24165289.356  
     -1941.683       -1513.005  
 99  8  3  0 19  0.0000000  0  8  1 14 15 21 22 25 29 30            
 -15437125.056   -12007643.033    21625209.268    21625208.807    21625215.741  
       869.655         677.653  
  -5479962.384    -4258499.939    23525525.599    23525525.256    23525533.946  
      3201.554        2494.728  
  -3236970.064    -2495900.452    22246845.583    22246844.934    22246853.820  
     -1160.086        -903.961  
 -12594496.234    -9786562.348    22773969.544    22773969.053    22773978.641  
     -3071.888       -2393.674  
 -11920934.229    -9270449.374    22603493.952    22603493.163    22603503.479  
      3310.305        2579.463  
 -19474218.824   -15151854.815    20863480.876    20863480.748    20863486.357  
      -863.582        -672.924  
  -8605133.402    -6443965.097    22754166.194    22754166.221    22754173.490  
     -1539.130       -1199.318  
  -3561699.674    -2458206.599    24176412.279    24176412.423    24176421.397  
     -1958.133       -1525.817  
 99  8  3  0 19 30.0000000  0  8  1 14 15 21 22 25 29 30            
 -15463150.971   -12027922.939    21620256.678    21620256.210    21620263.091  
       865.394         674.331  
  -5575942.547    -4333289.550    23507261.296    23507260.759    23507269.490  
      3197.414        2491.490  
  -3201902.645    -2468575.224    22253518.652    22253518.069    22253526.899  
     -1177.646        -917.648  
 -12502155.376    -9714608.608    22791541.389    22791541.004    22791550.718  
     -3083.987       -2403.107  
 -12020138.817    -9347751.465    22584615.713    22584614.927    22584625.116  
      3303.620        2574.241  
 -19448121.346   -15131519.114    20868447.043    20868446.907    20868452.564  
      -876.258        -682.804  
  -8558919.385    -6407954.212    22762960.736    22762960.638    22762967.719  
     -1541.955       -1201.527  
  -3502703.018    -2412235.237    24187639.102    24187639.190    24187648.105  
     -1975.010       -1538.962  
 99  8  3  0 20  0.0000000  0  8  1 14 15 21 22 25 29 30            
 -15489054.688   -12048107.635    21615327.289    21615326.790    21615333.711  
       861.434         671.246  
  -5671815.014    -4407995.241    23489017.319    23489016.799    23489025.529  
      3193.784        2488.666  
  -3166313.471    -2440843.419    22260291.425    22260290.702    22260299.364  
     -1195.106        -931.253  
 -12409459.791    -9642378.443    22809180.983    22809180.590    22809190.236  
     -3095.884       -2412.376  
 -12119157.335    -9424908.557    22565772.989    22565772.152    22565782.254  
      3297.445        2569.430  
 -19421641.144   -15110885.201    20873485.985    20873485.875    20873491.620  
      -889.066        -692.779  
  -8512612.520    -6371870.996    22771772.658    22771772.506    22771779.682  
     -1545.296       -1204.130  
  -3443203.029    -2365871.686    24198961.418    24198961.632    24198970.495  
     -1991.591       -1551.885  
 99  8  3  0 20 30.0000000  0  8  1 14 15 21 22 25 29 30            
 -15514838.313   -12068198.757    21610420.699    21610420.227    21610427.220  
       857.397         668.105  
  -5767574.685    -4482613.050    23470794.738    23470794.360    23470803.061  
      3189.970        2485.687  
  -3130204.909    -2412706.909    22267162.733    22267161.957    22267170.654  
     -1212.347        -944.689  
 -12316414.993    -9569876.188    22826887.004    22826886.502    22826896.322  
     -3107.408       -2421.348  
 -12217991.481    -9501921.985    22546965.167    22546964.452    22546974.426  
      3291.319        2564.649  
 -19394788.380   -15089960.979    20878595.860    20878595.776    20878601.542  
      -901.202        -702.239  
  -8466210.755    -6335713.831    22780602.336    22780602.289    22780609.729  
     -1548.496       -1206.625  
  -3383220.577    -2319132.173    24210375.671    24210375.865    24210384.763  
     -2007.454       -1564.246  
 99  8  3  0 21  0.0000000  0  8  1 14 15 21 22 25 29 30            
 -15540509.482   -12088202.263    21605535.548    21605535.082    21605542.135  
       854.098         665.531  
  -5863214.411    -4557137.402    23452594.997    23452594.743    23452603.429  
      3185.950        2482.544  
  -3093578.591    -2384166.972    22274132.288    22274131.732    22274140.505  
     -1229.448        -958.010  
 -12223023.836    -9497104.018    22844658.740    22844658.279    22844668.272  
     -3118.837       -2430.248  
 -12316646.685    -9578795.989    22528191.614    22528190.831    22528200.700  
      3285.642        2560.234  
 -19367580.740   -15068760.232    20883773.325    20883773.240    20883779.003  
      -912.570        -711.091  
  -8419699.870    -6299471.642    22789452.980    22789452.927    22789460.499  
     -1552.319       -1209.596  
  -3322776.361    -2272032.889    24221877.651    24221877.817    24221887.057  
     -2022.225       -1575.759  
 99  8  3  0 21 30.0000000  0  8  1 14 15 21 22 25 29 30            
 -15566088.693   -12108134.118    21600667.922    21600667.489    21600674.549  
       851.103         663.197  
  -5958734.151    -4631568.264    23434418.306    23434417.996    23434426.549  
      3181.992        2479.470  
  -3056436.905    -2355225.435    22281200.408    22281199.792    22281208.391  
     -1246.620        -971.386  
 -12129288.604    -9424063.748    22862495.951    22862495.427    22862505.796  
     -3129.843       -2438.834  
 -12415127.004    -9655533.708    22509451.486    22509450.576    22509460.377  
      3279.552        2555.483  
 -19340030.874   -15047292.815    20889015.946    20889015.865    20889021.581  
      -923.914        -719.935  
  -8373071.512    -6263137.902    22798326.242    22798326.135    22798333.675  
     -1556.343       -1212.741  
  -3261889.983    -2224589.007    24233463.688    24233463.969    24233473.467  
     -2036.945       -1587.230  
 99  8  3  0 22  0.0000000  0  8  1 14 15 21 22 25 29 30            
 -15591576.730   -12127994.925    21595817.718    21595817.298    21595824.290  
       848.193         660.928  
  -6054121.724    -4705896.116    23416266.766    23416266.380    23416274.899  
      3177.051        2475.616  
  -3018782.080    -2325884.061    22288366.165    22288365.389    22288373.961  
     -1263.734        -984.728  
 -12035228.817    -9350770.591    22880395.054    22880394.437    22880405.073  
     -3140.931       -2447.486  
 -12513407.566    -9732115.780    22490749.069    22490748.188    22490758.052  
      3272.278        2549.818  
 -19312154.080   -15025570.652    20894320.695    20894320.640    20894326.344  
      -934.433        -728.131  
  -8326325.780    -6226712.694    22807221.694    22807221.623    22807229.230  
     -1559.825       -1215.453  
  -3200562.377    -2176801.329    24245133.866    24245134.081    24245143.871  
     -2051.468       -1598.547  
 99  8  3  0 22 30.0000000  0  8  1 14 15 21 22 25 29 30            
 -15616983.558   -12147792.456    21590983.042    21590982.568    21590989.507  
       845.440         658.783  
  -6149357.687    -4780105.830    23398143.862    23398143.497    23398152.043  
      3171.971        2471.666  
  -2980616.103    -2296144.399    22295628.800    22295628.109    22295636.809  
     -1280.744        -997.975  
 -11940847.211    -9277226.678    22898355.188    22898354.698    22898365.383  
     -3151.420       -2455.646  
 -12611460.262    -9808520.312    22472089.971    22472089.214    22472099.060  
      3264.369        2543.658  
 -19283968.056   -15003607.532    20899684.392    20899684.281    20899689.985  
      -944.899        -736.283  
  -8279490.342    -6190217.585    22816134.176    22816134.138    22816141.875  
     -1562.767       -1217.739  
  -3138800.916    -2128675.583    24256886.790    24256886.939    24256896.785  
     -2066.260       -1610.056  
 99  8  3  0 23  0.0000000  0  8  1 14 15 21 22 25 29 30            
 -15642312.380   -12167529.201    21586163.092    21586162.640    21586169.556  
       842.971         656.856  
  -6244443.268    -4854198.348    23380049.348    23380049.090    23380057.794  
      3167.119        2467.875  
  -2941941.497    -2266008.378    22302988.614    22302987.800    22302996.418  
     -1297.579       -1011.104  
 -11846153.965    -9203439.923    22916374.799    22916374.342    22916385.024  
     -3161.580       -2463.572  
 -12709268.061    -9884733.981    22453477.610    22453476.814    22453486.802  
      3256.067        2537.187  
 -19255463.857   -14981396.477    20905108.571    20905108.467    20905114.156  
      -955.417        -744.484  
  -8232566.393    -6153653.507    22825063.547    22825063.418    22825071.216  
     -1565.476       -1219.854  
  -3076590.546    -2080200.056    24268724.987    24268725.194    24268734.995  
     -2081.245       -1621.746  
 99  8  3  0 23 30.0000000  0  8  1 14 15 21 22 25 29 30            
 -15667560.316   -12187202.928    21581358.632    21581358.130    21581365.000  
       840.257         654.751  
  -6339376.188    -4928171.929    23361983.949    23361983.763    23361992.503  
      3161.702        2463.666  
  -2902760.169    -2235477.518    22310444.240    22310443.514    22310452.336  
     -1314.417       -1024.216  
 -11751150.837    -9129411.694    22934453.572    22934453.083    22934463.685  
     -3171.796       -2471.518  
 -12806814.352    -9960743.917    22434915.041    22434914.271    22434924.295  
      3247.113        2530.216  
 -19226631.948   -14958930.069    20910595.126    20910594.990    20910600.665  
      -966.673        -753.252  
  -8185563.476    -6117027.896    22834007.704    22834007.796    22834015.531  
     -1568.045       -1221.855  
  -3013913.763    -2031361.088    24280652.170    24280652.334    24280661.909  
     -2096.830       -1633.889  
 99  8  3  0 24  0.0000000  0  8  1 14 15 21 22 25 29 30            
 -15692727.702   -12206813.886    21576569.458    21576568.972    21576575.828  
       837.526         652.618  
  -6434139.935    -5002013.678    23343950.812    23343950.574    23343959.491  
      3155.899        2459.131  
  -2863074.757    -2204553.854    22317995.925    22317995.345    22318004.192  
     -1331.356       -1037.428  
 -11655836.133    -9055140.678    22952591.597    22952591.077    22952601.641  
     -3182.696       -2480.019  
 -12904091.536   -10036544.141    22416403.778    22416402.966    22416412.973  
      3238.112        2523.201  
 -19197458.453   -14936197.487    20916146.734    20916146.569    20916152.252  
      -978.296        -762.313  
  -8138484.353    -6080342.912    22842966.757    22842966.831    22842974.458  
     -1570.759       -1223.968  
  -2950779.013    -1982165.289    24292666.327    24292666.600    24292676.176  
     -2112.071       -1645.763  
 99  8  3  0 24 30.0000000  0  8  1 14 15 21 22 25 29 30            
 -15717819.205   -12226365.703    21571794.747    21571794.262    21571801.121  
       835.064         650.703  
  -6528740.480    -5075728.284    23325948.695    23325948.450    23325957.388  
      3150.812        2455.177  
  -2822887.220    -2173238.928    22325643.550    22325642.823    22325651.719  
     -1347.799       -1050.238  
 -11560202.279    -8980620.972    22970790.197    22970789.746    22970800.216  
     -3192.964       -2488.016  
 -13001109.474   -10112142.363    22397941.728    22397940.900    22397950.959  
      3229.879        2516.784  
 -19167939.874   -14913196.009    20921763.959    20921763.811    20921769.453  
      -989.777        -771.255  
  -8091314.377    -6043587.152    22851943.256    22851943.205    22851950.709  
     -1574.126       -1226.583  
  -2887192.393    -1932617.350    24304766.553    24304766.825    24304776.503  
     -2127.073       -1657.456  
 99  8  3  0 25  0.0000000  0  8  1 14 15 21 22 25 29 30            
 -15742824.591   -12245850.414    21567036.419    21567035.960    21567042.815  
       832.029         648.332  
  -6623178.661    -5149316.379    23307977.613    23307977.313    23307986.190  
      3145.219        2450.819  
  -2782200.323    -2141534.906    22333385.765    22333385.183    22333394.265  
     -1364.558       -1063.297  
 -11464247.147    -8905850.928    22989049.985    22989049.475    22989059.982  
     -3203.958       -2496.591  
 -13097875.509   -10187544.303    22379527.390    22379526.808    22379536.807  
      3221.392        2510.164  
 -19138067.629   -14889918.951    20927448.422    20927448.320    20927453.959  
     -1001.416        -780.326  
  -8044027.515    -6006740.302    22860941.946    22860941.737    22860949.214  
     -1578.191       -1229.758  
  -2823149.134    -1882713.611    24316953.334    24316953.735    24316963.760  
     -2142.323       -1669.346  
 99  8  3  0 25 30.0000000  0  8  1 14 15 21 22 25 29 30            
 -15767743.339   -12265267.607    21562294.537    21562294.053    21562301.000  
       829.274         646.184  
  -6717445.642    -5222771.089    23290038.944    23290038.827    23290047.589  
      3139.348        2446.240  
  -2741015.912    -2109443.199    22341222.903    22341222.401    22341231.395  
     -1380.919       -1076.038  
 -11367961.137    -8830823.067    23007372.658    23007372.227    23007382.693  
     -3214.904       -2505.106  
 -13194396.060   -10262754.955    22361160.276    22361159.522    22361169.438  
      3213.461        2503.984  
 -19107855.415   -14866376.981    20933197.646    20933197.541    20933203.119  
     -1012.506        -788.971  
  -7996618.548    -5969798.307    22869963.604    22869963.450    22869970.904  
     -1582.189       -1232.878  
  -2758660.094    -1832462.500    24329225.165    24329225.592    24329235.760  
     -2156.706       -1680.541  
 99  8  3  0 26  0.0000000  0  8  1 14 15 21 22 25 29 30            
 -15792566.129   -12284610.020    21557570.831    21557570.368    21557577.360  
       825.662         643.371  
  -6811531.481    -5296084.616    23272134.896    23272134.857    23272143.627  
      3133.333        2441.556  
  -2699336.515    -2076965.792    22349154.420    22349153.776    22349162.855  
     -1397.535       -1088.981  
 -11271346.442    -8755539.085    23025757.979    23025757.564    23025768.070  
     -3225.928       -2513.705  
 -13290675.577   -10337777.796    22342838.779    22342838.040    22342847.816  
      3205.326        2497.653  
 -19077314.805   -14842579.119    20939009.414    20939009.275    20939014.797  
     -1023.215        -797.308  
  -7949083.301    -5932757.892    22879009.213    22879009.125    22879016.513  
     -1586.649       -1236.350  
  -2693736.084    -1781872.431    24341580.019    24341580.382    24341590.497  
     -2171.445       -1692.036  
 99  8  3  0 26 30.0000000  0  8  1 14 15 21 22 25 29 30            
 -15817273.350   -12303862.368    21552869.183    21552868.676    21552875.717  
       821.512         640.133  
  -6905446.688    -5369265.209    23254263.309    23254263.293    23254272.103  
      3127.645        2437.122  
  -2657164.769    -2044104.737    22357179.190    22357178.627    22357187.918  
     -1413.866       -1101.719  
 -11174407.466    -8680002.413    23044205.031    23044204.582    23044215.162  
     -3236.650       -2522.051  
 -13386716.714   -10412614.874    22324562.623    22324561.903    22324571.618  
      3197.485        2491.534  
 -19046462.918   -14818538.701    20944880.453    20944880.276    20944885.734  
     -1033.629        -805.425  
  -7901417.372    -5895615.657    22888079.782    22888079.577    22888087.084  
     -1590.893       -1239.656  
  -2628367.642    -1730936.054    24354019.500    24354019.770    24354029.713  
     -2186.333       -1703.627  
 99  8  3  0 27  0.0000000  0  8  1 14 15 21 22 25 29 30            
 -15841849.446   -12323012.532    21548192.503    21548191.993    21548198.988  
       817.319         636.869  
  -6999188.055    -5442310.347    23236424.936    23236424.905    23236433.711  
      3122.036        2432.754  
  -2614502.577    -2010861.511    22365297.662    22365297.005    22365306.266  
     -1430.039       -1114.318  
 -11077142.054    -8604211.390    23062714.406    23062713.873    23062724.385  
     -3247.365       -2530.412  
 -13482517.546   -10487264.706    22306332.137    22306331.454    22306341.054  
      3189.542        2485.351  
 -19015298.261   -14794254.561    20950810.935    20950810.782    20950816.208  
     -1043.693        -813.267  
  -7853632.464    -5858380.743    22897172.921    22897172.752    22897180.467  
     -1594.553       -1242.508  
  -2562556.738    -1679654.892    24366543.047    24366543.264    24366553.212  
     -2200.765       -1714.876  
 99  8  3  0 27 30.0000000  0  8  1 14 15 21 22 25 29 30            
 -15866300.059   -12342064.910    21543539.638    21543539.167    21543546.157  
       812.881         633.409  
  -7092759.873    -5515223.374    23218618.814    23218618.735    23218627.591  
      3116.351        2428.317  
  -2571352.746    -1977238.307    22373508.780    22373508.070    22373517.370  
     -1446.393       -1127.064  
 -10979557.694    -8528171.827    23081284.320    23081283.772    23081294.310  
     -3257.980       -2538.677  
 -13578081.951   -10561730.289    22288146.631    22288145.996    22288155.584  
      3181.632        2479.191  
 -18983824.945   -14769729.901    20956800.141    20956799.959    20956805.409  
     -1054.415        -821.621  
  -7805736.033    -5821058.914    22906287.447    22906287.290    22906295.057  
     -1598.342       -1245.453  
  -2496316.906    -1628039.488    24379148.079    24379148.381    24379158.257  
     -2214.940       -1725.923  
 99  8  3  0 28  0.0000000  0  8  1 14 15 21 22 25 29 30            
 -15890622.769   -12361017.617    21538911.179    21538910.730    21538917.686  
       808.888         630.295  
  -7186178.469    -5588017.038    23200841.718    23200841.762    23200850.567  
      3111.703        2424.699  
  -2527717.414    -1943236.811    22381812.207    22381811.611    22381820.903  
     -1462.527       -1139.626  
 -10881666.781    -8451893.397    23099912.455    23099911.946    23099922.480  
     -3268.005       -2546.486  
 -13673407.444   -10636009.732    22270006.684    22270006.092    22270015.548  
      3173.446        2472.814  
 -18952033.514   -14744957.371    20962849.843    20962849.650    20962855.134  
     -1064.974        -829.849  
  -7757726.035    -5783648.594    22915423.728    22915423.497    22915431.143  
     -1602.310       -1248.550  
  -2429655.780    -1576095.807    24391833.642    24391833.775    24391843.347  
     -2229.033       -1736.918  
 99  8  3  0 28 30.0000000  0  8  1 14 15 21 22 25 29 30            
 -15914833.377   -12379882.959    21534304.021    21534303.582    21534310.492  
       805.313         627.514  
  -7279460.978    -5660704.654    23183090.788    23183090.739    23183099.506  
      3107.046        2421.073  
  -2483599.092    -1908858.941    22390207.949    22390207.187    22390216.336  
     -1478.650       -1152.185  
 -10783472.885    -8375378.896    23118598.348    23118597.826    23118608.337  
     -3278.235       -2554.469  
 -13768484.992   -10710095.966    22251914.096    22251913.352    22251922.707  
      3165.021        2466.246  
 -18919922.440   -14719935.768    20968960.317    20968960.136    20968965.681  
     -1075.842        -838.319  
  -7709597.328    -5746145.770    22924582.456    22924582.232    22924589.767  
     -1606.306       -1251.669  
  -2362574.031    -1523824.377    24404599.071    24404599.191    24404608.553  
     -2243.004       -1747.798  
 99  8  3  0 29  0.0000000  0  8  1 14 15 21 22 25 29 30            
 -15938947.612   -12398673.197    21529715.235    21529714.790    21529721.616  
       802.260         625.136  
  -7372601.195    -5733281.396    23165366.912    23165366.733    23165375.513  
      3102.116        2417.229  
  -2439000.378    -1874106.754    22398694.707    22398694.058    22398703.267  
     -1494.648       -1164.656  
 -10684978.929    -8298630.551    23137341.325    23137340.788    23137351.084  
     -3288.150       -2562.182  
 -13863296.859   -10783975.172    22233871.910    22233871.118    22233880.500  
      3155.665        2458.956  
 -18887485.441   -14694660.198    20975132.794    20975132.613    20975138.284  
     -1086.607        -846.706  
  -7661342.402    -5708544.609    22933765.073    22933764.951    22933772.417  
     -1610.626       -1255.031  
  -2295080.414    -1471232.006    24417442.833    24417442.975    24417452.271  
     -2256.676       -1758.440  
 99  8  3  0 29 30.0000000  0  8  1 14 15 21 22 25 29 30            
 -15962972.448   -12417393.777    21525143.423    21525142.979    21525149.693  
       799.210         622.760  
  -7465593.131    -5805742.596    23147671.164    23147670.921    23147679.755  
      3097.049        2413.285  
  -2393923.661    -1838982.075    22407272.613    22407272.031    22407281.158  
     -1510.568       -1177.064  
 -10586189.050    -8221651.624    23156140.624    23156140.116    23156150.275  
     -3297.977       -2569.839  
 -13957823.354   -10857632.019    22215883.916    22215883.173    22215892.481  
      3145.947        2451.386  
 -18854733.950   -14669139.566    20981365.054    20981364.923    20981370.696  
     -1096.872        -854.706  
  -7612961.860    -5670845.554    22942971.698    22942971.507    22942979.009  
     -1614.812       -1258.291  
  -2227172.709    -1418316.940    24430365.195    24430365.374    24430374.764  
     -2270.650       -1769.343  
 99  8  3  0 30  0.0000000  0  8  1 14 15 21 22 25 29 30            
 -15986910.903   -12436047.046    21520588.023    21520587.570    21520594.180  
       796.612         620.731  
  -7558422.278    -5878076.958    23130006.294    23130006.032    23130014.951  
      3091.309        2408.803  
  -2348371.507    -1803486.944    22415940.963    22415940.266    22415949.597  
     -1526.350       -1189.366  
 -10487104.743    -8144443.265    23174995.905    23174995.389    23175005.552  
     -3307.712       -2577.439  
 -14052049.968   -10931055.191    22197953.085    22197952.290    22197961.566  
      3135.781        2443.451  
 -18821679.975   -14643383.220    20987655.011    20987654.914    20987660.679  
     -1106.836        -862.474  
  -7564462.059    -5633053.583    22952200.861    22952200.722    22952208.284  
     -1618.590       -1261.238  
  -2158832.684    -1365065.027    24443369.890    24443369.954    24443379.494  
     -2285.534       -1780.947  
 99  8  3  0 30 30.0000000  0  8  1 14 15 21 22 25 29 30            
 -16010764.531   -12454634.220    21516048.702    21516048.298    21516054.878  
       793.596         618.384  
  -7651061.069    -5950262.980    23112377.604    23112377.298    23112386.337  
      3084.616        2403.591  
  -2302346.166    -1767623.094    22424699.426    22424698.753    22424707.947  
     -1541.971       -1201.539  
 -10387722.903    -8067003.044    23193907.630    23193907.198    23193917.362  
     -3317.640       -2585.176  
 -14145976.955   -11004244.898    22180079.157    22180078.379    22180087.653  
      3126.198        2435.990  
 -18788324.059   -14617391.595    20994002.475    20994002.348    20994008.057  
     -1116.927        -870.339  
  -7515851.637    -5595175.393    22961451.213    22961451.095    22961458.701  
     -1621.937       -1263.849  
  -2090041.654    -1311461.664    24456460.418    24456460.478    24456470.006  
     -2300.447       -1792.547  
 99  8  3  0 31  0.0000000  0  8  1 14 15 21 22 25 29 30            
 -16034519.848   -12473144.786    21511528.172    21511527.746    21511534.404  
       790.077         615.642  
  -7743486.975    -6022283.104    23094789.238    23094788.963    23094798.275  
      3077.253        2397.855  
  -2255850.089    -1731392.437    22433547.381    22433546.639    22433555.859  
     -1557.732       -1213.817  
 -10288047.327    -7989333.971    23212875.410    23212874.940    23212885.381  
     -3327.474       -2592.837  
 -14239614.949   -11077209.427    22162260.353    22162259.526    22162268.728  
      3116.538        2428.468  
 -18754659.644   -14591159.577    21000408.608    21000408.477    21000414.161  
     -1127.283        -878.405  
  -7467144.603    -5557221.936    22970719.921    22970719.806    22970727.550  
     -1625.033       -1266.255  
  -2020801.978    -1257508.737    24469636.249    24469636.331    24469645.950  
     -2315.527       -1804.318  
 99  8  3  0 31 30.0000000  0  8  1 14 15 21 22 25 29 30            
 -16058168.946   -12491572.581    21507027.885    21507027.400    21507034.125  
       786.464         612.829  
  -7835699.608    -6094137.057    23077241.548    23077241.279    23077250.691  
      3070.174        2392.345  
  -2208886.282    -1694797.324    22442484.236    22442483.610    22442492.790  
     -1573.221       -1225.883  
 -10188073.997    -7911432.889    23231899.731    23231899.231    23231910.056  
     -3337.482       -2600.629  
 -14332983.572   -11149964.032    22144492.547    22144491.856    22144501.191  
      3108.117        2421.908  
 -18720685.816   -14564686.459    21006873.494    21006873.410    21006879.170  
     -1137.748        -886.553  
  -7418353.015    -5519202.599    22980004.626    22980004.468    22980012.357  
     -1627.983       -1268.549  
  -1951106.074    -1203200.309    24482898.983    24482899.118    24482908.691  
     -2330.862       -1816.252  
 99  8  3  0 32  0.0000000  0  8  1 14 15 21 22 25 29 30            
 -16081707.561   -12509914.296    21502548.513    21502548.087    21502554.837  
       782.574         609.797  
  -7927689.294    -6165817.275    23059736.622    23059736.196    23059745.621  
      3062.611        2386.457  
  -2161457.080    -1657839.555    22451510.035    22451509.186    22451518.409  
     -1588.746       -1237.979  
 -10087802.417    -7833299.385    23250980.831    23250980.413    23250991.390  
     -3347.363       -2608.336  
 -14426102.957   -11222524.429    22126772.366    22126771.656    22126781.061  
      3099.785        2415.408  
 -18686389.757   -14537962.248    21013399.889    21013399.716    21013405.445  
     -1148.693        -895.084  
  -7369461.313    -5481105.255    22989308.395    22989308.266    22989316.189  
     -1631.697       -1271.449  
  -1880954.942    -1148537.161    24496248.264    24496248.408    24496258.113  
     -2345.728       -1827.823  
 99  8  3  0 32 30.0000000  0  8  1 14 15 21 22 25 29 30            
 -16105113.740   -12528152.816    21498094.445    21498094.023    21498100.808  
       777.889         606.148  
  -8019460.391    -6237327.183    23042273.113    23042272.781    23042282.051  
      3055.627        2381.006  
  -2113565.037    -1620521.155    22460623.394    22460622.715    22460632.086  
     -1604.051       -1249.903  
  -9987231.204    -7754932.416    23270119.088    23270118.665    23270129.710  
     -3357.304       -2616.081  
 -14518975.267   -11294892.290    22109099.212    22109098.468    22109108.002  
      3091.677        2409.090  
 -18651763.251   -14510980.538    21019988.962    21019988.877    21019994.643  
     -1159.524        -903.525  
  -7320451.146    -5442915.585    22998634.746    22998634.580    22998642.499  
     -1635.584       -1274.484  
  -1810380.071    -1093543.797    24509678.146    24509678.452    24509688.142  
     -2359.071       -1838.226  
 99  8  3  0 33  0.0000000  0  8  1 14 15 21 22 25 29 30            
 -16128378.435   -12546281.095    21493667.334    21493666.898    21493673.647  
       773.255         602.534  
  -8111029.426    -6308679.643    23024848.021    23024847.814    23024856.865  
      3049.119        2375.943  
  -2065213.069    -1582844.351    22469824.702    22469824.015    22469833.068  
     -1619.401       -1261.870  
  -9886355.613    -7676328.251    23289315.584    23289315.036    23289325.906  
     -3367.703       -2624.175  
 -14611589.653   -11367059.181    22091475.218    22091474.409    22091484.048  
      3082.639        2402.057  
 -18616815.609   -14483748.592    21026639.254    21026639.145    21026644.901  
     -1170.184        -911.834  
  -7271313.776    -5404626.797    23007985.190    23007985.087    23007993.000  
     -1640.176       -1278.055  
  -1739401.772    -1038236.111    24523184.875    24523185.220    24523194.900  
     -2372.824       -1848.959  
 99  8  3  0 33 30.0000000  0  8  1 14 15 21 22 25 29 30            
 -16151506.879   -12564303.214    21489266.146    21489265.729    21489272.428  
       768.726         599.004  
  -8202414.315    -6379888.595    23007457.980    23007457.855    23007466.785  
      3043.036        2371.195  
  -2016403.371    -1544810.899    22479112.701    22479112.061    22479121.228  
     -1634.546       -1273.671  
  -9785166.074    -7597479.447    23308571.592    23308570.949    23308581.796  
     -3377.959       -2632.165  
 -14703930.582   -11439013.007    22073903.160    22073902.411    22073912.085  
      3073.285        2394.765  
 -18581557.811   -14456274.962    21033348.550    21033348.481    21033354.258  
     -1180.256        -919.685  
  -7222042.059    -5366233.321    23017361.343    23017361.162    23017369.097  
     -1644.683       -1281.567  
  -1668015.994     -982610.906    24536769.540    24536769.750    24536779.130  
     -2386.168       -1859.343  
 99  8  3  0 34  0.0000000  0  8  1 14 15 21 22 25 29 30            
 -16174503.422   -12582222.557    21484890.107    21484889.644    21484896.386  
       764.495         595.710  
  -8293611.475    -6450951.253    22990103.654    22990103.571    22990112.421  
      3036.967        2366.459  
  -1967139.124    -1506423.243    22488487.360    22488486.860    22488495.958  
     -1649.629       -1285.419  
  -9683676.668    -7518396.984    23327884.531    23327883.881    23327894.739  
     -3387.759       -2639.802  
 -14795973.417   -11510734.540    22056387.902    22056387.074    22056396.805  
      3062.873        2386.652  
 -18546003.014   -14428569.903    21040114.452    21040114.372    21040120.109  
     -1189.925        -927.213  
  -7172635.313    -5327734.630    23026763.119    23026763.055    23026771.022  
     -1648.902       -1284.854  
  -1596230.799     -926674.469    24550430.089    24550430.205    24550439.413  
     -2399.301       -1869.595  
 99  8  3  0 34 30.0000000  0  8  1 14 15 21 22 25 29 30            
 -16197377.639   -12600046.590    21480537.209    21480536.778    21480543.596  
       760.776         592.812  
  -8384633.844    -6521877.696    22972782.805    22972782.533    22972791.370  
      3031.192        2361.965  
  -1917422.278    -1467682.913    22497948.335    22497947.757    22497956.833  
     -1664.691       -1297.161  
  -9581893.581    -7439085.678    23347253.142    23347252.567    23347263.648  
     -3397.552       -2647.436  
 -14887693.719   -11582204.758    22038934.003    22038933.150    22038942.818  
      3052.013        2378.189  
 -18510161.569   -14400641.483    21046934.883    21046934.795    21046940.514  
     -1199.208        -934.449  
  -7123114.537    -5289147.073    23036186.792    23036186.698    23036194.641  
     -1652.262       -1287.473  
  -1524050.339     -870430.054    24564165.284    24564165.440    24564174.946  
     -2412.695       -1880.020  
 99  8  3  0 35  0.0000000  0  8  1 14 15 21 22 25 29 30            
 -16220156.041   -12617795.976    21476202.650    21476202.182    21476208.971  
       758.042         590.684  
  -8475477.516    -6592664.878    22955495.620    22955495.445    22955504.348  
      3025.097        2357.220  
  -1867255.670    -1428592.124    22507494.708    22507494.239    22507503.294  
     -1679.555       -1308.743  
  -9479823.758    -7359550.949    23366676.366    23366675.853    23366687.139  
     -3406.765       -2654.617  
 -14979084.039   -11653417.857    22021542.800    22021542.049    22021551.556  
      3040.881        2369.515  
 -18474045.011   -14372498.698    21053807.681    21053807.563    21053813.307  
     -1208.465        -941.658  
  -7073497.457    -5250484.459    23045628.585    23045628.497    23045636.506  
     -1655.324       -1289.858  
  -1451454.874     -813862.221    24577979.202    24577979.531    24577989.359  
     -2426.660       -1890.890  
 99  8  3  0 35 30.0000000  0  8  1 14 15 21 22 25 29 30            
 -16242851.319   -12635480.587    21471883.791    21471883.329    21471890.128  
       755.043         588.344  
  -8566122.075    -6663296.914    22938246.271    22938246.219    22938255.072  
      3017.773        2351.508  
  -1816642.451    -1389153.326    22517126.229    22517125.559    22517134.681  
     -1694.637       -1320.496  
  -9377489.695    -7279810.336    23386149.863    23386149.361    23386160.839  
     -3415.337       -2661.293  
 -15070134.436   -11724366.081    22004216.516    22004215.796    22004225.021  
      3029.184        2360.392  
 -18437649.180   -14344138.301    21060733.543    21060733.442    21060739.215  
     -1217.973        -949.076  
  -7023789.528    -5211751.046    23055087.638    23055087.587    23055095.585  
     -1658.657       -1292.457  
  -1378445.491     -756971.864    24591872.210    24591872.601    24591882.519  
     -2440.529       -1901.712  
 99  8  3  0 36  0.0000000  0  8  1 14 15 21 22 25 29 30            
 -16265469.725   -12653105.311    21467579.697    21467579.193    21467585.972  
       752.640         586.472  
  -8656548.703    -6733759.126    22921038.529    22921038.519    22921047.340  
      3010.647        2345.955  
  -1765584.719    -1349368.153    22526842.146    22526841.539    22526850.663  
     -1709.307       -1331.923  
  -9274906.547    -7199875.601    23405670.885    23405670.505    23405682.067  
     -3423.762       -2667.855  
 -15160837.021   -11795043.276    21986956.562    21986955.653    21986964.726  
      3017.715        2351.460  
 -18400971.135   -14315557.998    21067713.117    21067713.062    21067718.849  
     -1227.410        -956.422  
  -6973978.498    -5172937.301    23064566.285    23064566.257    23064574.372  
     -1662.157       -1295.178  
  -1305031.320     -699766.093    24605842.714    24605842.966    24605852.812  
     -2453.857       -1912.099  
 99  8  3  0 36 30.0000000  0  8  1 14 15 21 22 25 29 30            
 -16288006.160   -12670666.166    21463291.166    21463290.695    21463297.415  
       749.716         584.196  
  -8746756.897    -6804051.115    22903872.320    22903872.347    22903881.176  
      3003.054        2340.031  
  -1714085.369    -1309238.863    22536642.390    22536641.629    22536650.808  
     -1724.083       -1343.436  
  -9172066.243    -7119740.519    23425240.836    23425240.397    23425252.174  
     -3432.429       -2674.613  
 -15251202.960   -11865458.161    21969760.442    21969759.525    21969768.505  
      3006.743        2342.908  
 -18364004.187   -14286752.574    21074747.658    21074747.604    21074753.424  
     -1237.090        -963.969  
  -6924060.329    -5134040.064    23074065.387    23074065.378    23074073.537  
     -1665.869       -1298.078  
  -1231217.094     -642248.605    24619889.178    24619889.506    24619899.179  
     -2467.240       -1922.515  
 99  8  3  0 37  0.0000000  0  8  1 14 15 21 22 25 29 30            
 -16310458.497   -12688161.485    21459018.630    21459018.137    21459024.818  
       746.680         581.823  
  -8836729.510    -6874159.542    22886751.109    22886751.047    22886759.788  
      2994.750        2333.559  
  -1662147.187    -1268767.628    22546525.844    22546525.148    22546534.518  
     -1738.839       -1354.949  
  -9068973.910    -7039409.037    23444858.889    23444858.489    23444870.243  
     -3440.864       -2681.193  
 -15341236.947   -11935614.370    21952627.239    21952626.412    21952635.452  
      2995.230        2333.941  
 -18326746.950   -14257720.944    21081837.468    21081837.393    21081843.248  
     -1247.114        -971.779  
  -6874024.997    -5095051.540    23083586.742    23083586.737    23083595.022  
     -1670.187       -1301.446  
  -1157002.859     -584419.414    24634011.715    24634012.086    24634021.774  
     -2480.652       -1932.966  
 99  8  3  0 37 30.0000000  0  8  1 14 15 21 22 25 29 30            
 -16332815.252   -12705582.338    21454764.187    21454763.721    21454770.476  
       743.440         579.312  
  -8926459.535    -6944078.942    22869676.010    22869675.950    22869684.653  
      2987.105        2327.610  
  -1609773.110    -1227956.734    22556492.402    22556491.703    22556501.121  
     -1753.117       -1366.061  
  -8965625.012    -6958877.642    23464525.956    23464525.388    23464537.158  
     -3449.685       -2688.064  
 -15430931.752   -12005506.286    21935558.559    21935557.834    21935566.938  
      2984.213        2325.353  
 -18289201.742   -14228464.926    21088981.910    21088981.940    21088987.885  
     -1256.275        -978.921  
  -6823859.705    -5055961.755    23093132.760    23093132.866    23093141.172  
     -1674.469       -1304.777  
  -1082391.663     -526280.878    24648210.043    24648210.344    24648220.019  
     -2493.761       -1943.194  
 99  8  3  0 38  0.0000000  0  8  1 14 15 21 22 25 29 30            
 -16355067.586   -12722921.820    21450529.546    21450529.094    21450535.930  
       739.862         576.521  
  -9015956.684    -7013816.886    22852645.285    22852645.214    22852653.833  
      2979.324        2321.552  
  -1556965.561    -1186808.079    22566541.202    22566540.600    22566550.150  
     -1767.504       -1377.274  
  -8861989.750    -6878123.094    23484247.272    23484246.794    23484258.469  
     -3459.390       -2695.626  
 -15520299.634   -12075143.452    21918552.294    21918551.470    21918560.737  
      2973.633        2317.111  
 -18251373.066   -14198988.033    21096180.521    21096180.495    21096186.458  
     -1265.685        -986.246  
  -6773564.179    -5016770.468    23102703.824    23102703.886    23102712.058  
     -1678.601       -1308.003  
  -1007380.775     -467830.887    24662484.384    24662484.570    24662494.348  
     -2507.016       -1953.525  
 99  8  3  0 38 30.0000000  0  8  1 14 15 21 22 25 29 30            
 -16377211.517   -12740176.842    21446315.483    21446315.119    21446322.030  
       736.552         573.942  
  -9105214.539    -7083368.371    22835660.239    22835660.046    22835668.615  
      2971.153        2315.183  
  -1503727.318    -1145323.786    22576672.316    22576671.639    22576681.161  
     -1781.678       -1388.315  
  -8758066.352    -6797144.014    23504023.390    23504022.894    23504034.595  
     -3468.672       -2702.844  
 -15609351.238   -12144534.175    21901606.040    21901605.274    21901614.663  
      2963.043        2308.860  
 -18213265.825   -14169294.078    21103432.124    21103432.067    21103438.014  
     -1274.758        -993.317  
  -6723145.740    -4977483.430    23112298.116    23112298.201    23112306.293  
     -1682.696       -1311.187  
   -931971.850     -409070.714    24676834.242    24676834.508    24676844.489  
     -2520.157       -1963.742  
 99  8  3  0 39  0.0000000  0  8  1 14 15 21 22 25 29 30            
 -16399254.669   -12757353.340    21442120.825    21442120.452    21442127.290  
       732.968         571.142  
  -9194223.972    -7152726.279    22818722.276    22818722.133    22818730.714  
      2963.014        2308.835  
  -1450061.254    -1103506.154    22586884.405    22586883.871    22586893.628  
     -1795.930       -1399.425  
  -8653861.583    -6715945.717    23523852.750    23523852.384    23523864.221  
     -3478.281       -2710.342  
 -15698075.274   -12213669.662    21884722.151    21884721.517    21884730.899  
      2952.136        2300.363  
 -18174881.899   -14139384.525    21110736.404    21110736.343    21110742.228  
     -1284.057       -1000.565  
  -6672595.566    -4938093.734    23121917.669    23121917.686    23121925.577  
     -1687.229       -1314.722  
   -856166.171     -350001.400    24691259.626    24691259.925    24691269.983  
     -2533.378       -1974.058  
 99  8  3  0 39 30.0000000  0  8  1 14 15 21 22 25 29 30            
 -16421184.699   -12774441.691    21437947.711    21437947.308    21437954.146  
       729.126         568.147  
  -9283002.585    -7221904.331    22801828.220    22801828.065    22801836.725  
      2955.580        2303.047  
  -1395970.445    -1061357.542    22597177.761    22597177.203    22597186.919  
     -1810.036       -1410.416  
  -8549369.430    -6634523.461    23543737.112    23543736.762    23543748.533  
     -3487.804       -2717.749  
 -15786482.535   -12282558.299    21867898.934    21867898.157    21867907.441  
      2941.857        2292.352  
 -18136219.178   -14109257.730    21118093.739    21118093.641    21118099.482  
     -1293.525       -1007.945  
  -6621910.759    -4898599.130    23131562.717    23131562.704    23131570.600  
     -1691.635       -1318.152  
   -779968.748     -290626.869    24705759.608    24705759.839    24705769.987  
     -2546.295       -1984.129  
 99  8  3  0 40  0.0000000  0  8  1 14 15 21 22 25 29 30            
 -16443001.171   -12791441.552    21433796.249    21433795.833    21433802.685  
       725.271         565.143  
  -9371551.825    -7290903.672    22784977.865    22784977.634    22784986.331  
      2947.664        2296.876  
  -1341457.236    -1018879.813    22607551.272    22607550.686    22607560.460  
     -1824.151       -1421.412  
  -8444603.377    -6552887.797    23563673.723    23563673.271    23563685.281  
     -3496.323       -2724.415  
 -15874583.028   -12351207.908    21851133.942    21851133.125    21851142.274  
      2931.477        2284.267  
 -18097262.998   -14078902.259    21125506.879    21125506.828    21125512.615  
     -1303.493       -1015.712  
  -6571099.057    -4859005.659    23141231.836    23141231.847    23141239.885  
     -1695.979       -1321.536  
   -703393.364     -230957.810    24720331.566    24720331.698    24720341.840  
     -2558.740       -1993.816  
 99  8  3  0 40 30.0000000  0  8  1 14 15 21 22 25 29 30            
 -16464699.010   -12808348.974    21429667.374    21429666.927    21429673.717  
       721.225         561.990  
  -9459871.391    -7359724.046    22768171.229    22768170.875    22768179.636  
      2940.225        2291.075  
  -1286524.744     -976075.353    22618004.637    22618004.141    22618013.862  
     -1838.113       -1432.294  
  -8339597.156    -6471064.997    23583655.944    23583655.448    23583667.794  
     -3504.178       -2730.516  
 -15962368.015   -12419611.664    21834428.937    21834428.145    21834437.160  
      2920.718        2275.877  
 -18058014.299   -14048318.856    21132975.754    21132975.674    21132981.382  
     -1313.241       -1023.308  
  -6520150.707    -4819305.700    23150927.061    23150927.086    23150935.220  
     -1700.548       -1325.096  
   -626444.327     -170997.593    24734974.345    24734974.598    24734984.845  
     -2571.238       -2003.559  
 99  8  3  0 41  0.0000000  0  8  1 14 15 21 22 25 29 30            
 -16486270.506   -12825157.940    21425562.524    21425562.048    21425568.814  
       716.789         558.536  
  -9547972.654    -7428374.321    22751406.065    22751405.686    22751414.480  
      2933.122        2285.541  
  -1231176.070     -932946.624    22628537.318    22628536.755    22628546.404  
     -1851.923       -1443.050  
  -8234349.294    -6389053.887    23603683.970    23603683.528    23603696.076  
     -3512.507       -2737.016  
 -16049835.130   -12487767.735    21817784.419    21817783.606    21817792.553  
      2910.348        2267.798  
 -18018468.337   -14017503.820    21140501.074    21140501.032    21140506.685  
     -1323.098       -1030.989  
  -6469077.731    -4779508.645    23160645.964    23160645.906    23160654.261  
     -1704.450       -1328.134  
   -549119.948     -110744.867    24749688.792    24749688.892    24749699.270  
     -2583.815       -2013.358  
 99  8  3  0 41 30.0000000  0  8  1 14 15 21 22 25 29 30            
 -16507712.110   -12841865.690    21421482.310    21421481.880    21421488.602  
       712.832         555.451  
  -9635856.882    -7496855.490    22734682.116    22734681.841    22734690.598  
      2925.707        2279.771  
  -1175413.580     -889495.418    22639148.807    22639148.177    22639157.761  
     -1865.460       -1453.606  
  -8128855.749    -6306851.368    23623758.672    23623758.284    23623771.019  
     -3520.351       -2743.123  
 -16136984.555   -12555676.254    21801200.295    21801199.543    21801208.437  
      2899.524        2259.369  
 -17978635.538   -13986465.273    21148081.005    21148080.955    21148086.516  
     -1332.302       -1038.159  
  -6417887.615    -4739620.306    23170386.990    23170386.994    23170395.556  
     -1708.065       -1330.958  
   -471423.201      -50202.028    24764473.755    24764474.073    24764484.545  
     -2595.996       -2022.847  
 99  8  3  0 42  0.0000000  0  8  1 14 15 21 22 25 29 30            
 -16529031.761   -12858478.394    21417425.283    21417424.891    21417431.614  
       708.571         552.135  
  -9723502.944    -7565151.078    22718003.657    22718003.278    22718012.022  
      2917.561        2273.425  
  -1119240.036     -845723.932    22649838.080    22649837.528    22649847.348  
     -1879.286       -1464.373  
  -8023125.065    -6224464.068    23643878.676    23643878.270    23643891.143  
     -3528.206       -2749.238  
 -16223793.165   -12623319.187    21784681.093    21784680.307    21784689.199  
      2887.758        2250.198  
 -17938530.037   -13955214.233    21155712.842    21155712.759    21155718.301  
     -1341.161       -1045.064  
  -6366582.769    -4699642.588    23180149.984    23180150.012    23180158.578  
     -1712.190       -1334.176  
   -393354.608       10630.576    24779329.819    24779330.159    24779340.617  
     -2608.554       -2032.647  
 99  8  3  0 42 30.0000000  0  8  1 14 15 21 22 25 29 30            
 -16550230.727   -12874997.051    21413391.361    21413390.918    21413397.594  
       704.607         549.048  
  -9810909.578    -7633260.099    22701370.759    22701370.319    22701379.024  
      2909.323        2267.002  
  -1062658.625     -801634.609    22660605.305    22660604.748    22660614.583  
     -1892.924       -1475.004  
  -7917154.658    -6141889.983    23664044.457    23664043.990    23664056.918  
     -3536.708       -2755.866  
 -16310243.550   -12690683.005    21768230.166    21768229.350    21768238.085  
      2875.462        2240.615  
 -17898173.777   -13923767.800    21163392.367    21163392.234    21163397.823  
     -1349.314       -1051.408  
  -6315162.307    -4659574.778    23189935.282    23189935.135    23189943.571  
     -1715.855       -1337.028  
   -314904.617       71760.389    24794258.856    24794258.964    24794269.306  
     -2621.543       -2042.749  
 99  8  3  0 43  0.0000000  0  9  1 14 15 16 21 22 25 29 30         
 -16571315.791   -12891426.944    21409379.023    21409378.599    21409385.267  
       700.994         546.231  
  -9898062.514    -7701171.453    22684785.977    22684785.633    22684794.268  
      2900.777        2260.350  
  -1005672.112     -757229.634    22671449.678    22671449.030    22671458.795  
     -1906.246       -1485.386  
   -314712.8123    -233612.9343   25520934.9283   25520911.9803   25520988.7353 
      3478.6193       2708.0023 
  -7810928.973    -6059116.983    23684258.712    23684258.260    23684271.176  
     -3545.123       -2762.431  
 -16396322.292   -12757757.209    21751849.944    21751849.101    21751857.637  
      2862.910        2230.834  
 -17857579.684   -13892136.057    21171117.048    21171116.923    21171122.632  
     -1356.958       -1057.366  
  -6263639.744    -4619427.407    23199739.808    23199739.723    23199748.077  
     -1719.313       -1339.712  
   -236066.421      133192.704    24809261.375    24809261.407    24809271.650  
     -2634.465       -2052.831  
 99  8  3  0 43 30.0000000  0  9  1 14 15 16 21 22 25 29 30         
 -16592282.297   -12907764.464    21405389.319    21405388.846    21405395.525  
       696.807         542.966  
  -9984952.491    -7768877.903    22668251.397    22668251.047    22668259.497  
      2891.822        2253.367  
   -948283.639     -712511.445    22682370.486    22682369.842    22682379.477  
     -1919.593       -1495.784  
   -419057.7723     -14238.3893          0.0003   25501082.5483   25513367.9503 
      3477.8633       2709.1183 
  -7704451.509    -5976147.777    23704520.857    23704520.438    23704533.334  
     -3553.238       -2768.744  
 -16482005.111   -12824522.906    21735545.005    21735544.132    21735552.574  
      2849.311        2220.232  
 -17816753.138   -13860323.177    21178886.084    21178885.925    21178891.675  
     -1364.913       -1063.572  
  -6211998.144    -4579187.273    23209566.864    23209566.826    23209575.170  
     -1723.377       -1342.892  
   -156845.120      194923.494    24824336.676    24824336.717    24824346.981  
     -2647.040       -2062.622  
 99  8  3  0 44  0.0000000  0  9  1 14 15 16 21 22 25 29 30         
 -16613117.539   -12923999.687    21401424.468    21401424.000    21401430.745  
       692.442         539.556  
 -10071569.949    -7836371.998    22651768.615    22651768.283    22651776.661  
      2882.935        2246.438  
   -890495.724     -667482.013    22693367.130    22693366.501    22693376.158  
     -1932.701       -1505.999  
   -523367.6913     -14238.3893          0.0002   25481233.0193   25513367.9503 
      3476.3663       2709.1183 
  -7597731.458    -5892989.553    23724829.212    23724828.832    23724841.770  
     -3561.128       -2774.904  
 -16567281.813   -12890972.145    21719317.269    21719316.438    21719324.805  
      2836.050        2209.902  
 -17775682.767   -13828320.301    21186701.452    21186701.333    21186707.067  
     -1373.001       -1069.874  
  -6160229.372    -4538848.047    23219418.147    23219418.081    23219426.389  
     -1727.685       -1346.246  
    -77242.101      256951.803    24839484.280    24839484.619    24839495.113  
     -2659.631       -2072.454  
 99  8  3  0 44 30.0000000  0  9  1 14 15 16 21 22 25 29 30         
 -16633816.739   -12940128.899    21397485.514    21397485.072    21397491.811  
       687.625         535.807  
 -10157914.881    -7903653.722    22635337.592    22635337.272    22635345.712  
      2873.540        2239.119  
   -832311.560     -622143.811    22704439.313    22704438.689    22704448.264  
     -1946.056       -1516.398  
   -627631.4803     -14238.3893          0.0002   25461390.9863   25513367.9503 
      3474.9373       2709.1183 
  -7490764.075    -5809638.599    23745184.791    23745184.286    23745197.123  
     -3569.831       -2781.685  
 -16652157.964   -12957109.281    21703165.749    21703164.936    21703173.213  
      2822.597        2199.416  
 -17734359.197   -13796120.129    21194565.056    21194564.962    21194570.644  
     -1381.840       -1076.759  
  -6108327.003    -4498404.706    23229294.927    23229294.842    23229303.029  
     -1732.314       -1349.850  
      2743.828      319278.439    24854705.013    24854705.417    24854716.106  
     -2672.357       -2082.358  
 99  8  3  0 45  0.0000000  0  8  1 14 15 21 22 25 29 30            
 -16654374.600   -12956147.964    21393573.585    21393573.096    21393579.730  
       682.965         532.180  
 -10243984.921    -7970721.242    22618958.962    22618958.593    22618967.076  
      2864.585        2232.145  
   -773734.252     -576499.261    22715586.448    22715585.731    22715595.124  
     -1959.035       -1526.516  
  -7383544.790    -5726091.354    23765588.065    23765587.590    23765600.439  
     -3578.030       -2788.071  
 -16736637.699   -13022937.519    21687089.668    21687088.843    21687097.093  
      2809.527        2189.237  
 -17692762.333   -13763707.006    21202480.691    21202480.588    21202486.230  
     -1391.247       -1084.086  
  -6056282.625    -4457850.717    23239198.781    23239198.574    23239206.815  
     -1737.316       -1353.746  
     83087.867      381884.143    24869993.993    24869994.424    24870005.009  
     -2683.779       -2091.245  
 99  8  3  0 45 30.0000000  0  8  1 14 15 21 22 25 29 30            
 -16674790.578   -12972056.465    21389688.551    21389688.090    21389694.626  
       678.296         528.538  
 -10329784.836    -8037578.265    22602631.651    22602631.324    22602639.889  
      2855.483        2225.053  
   -714766.387     -530550.393    22726807.734    22726807.091    22726816.401  
     -1971.995       -1536.613  
  -7276081.222    -5642353.734    23786037.713    23786037.397    23786050.269  
     -3585.935       -2794.232  
 -16820729.323   -13088463.350    21671087.415    21671086.658    21671094.788  
      2796.921        2179.409  
 -17650875.646   -13731068.047    21210451.581    21210451.422    21210456.981  
     -1401.065       -1091.739  
  -6004080.676    -4417173.957    23249132.443    23249132.329    23249140.605  
     -1742.535       -1357.818  
    163774.165      444756.507    24885348.210    24885348.602    24885359.149  
     -2695.240       -2100.182  
 99  8  3  0 46  0.0000000  0  8  1 14 15 21 22 25 29 30            
 -16695075.427   -12987862.786    21385828.413    21385827.959    21385834.470  
       674.233         525.381  
 -10415312.670    -8104223.273    22586356.097    22586355.846    22586364.378  
      2846.610        2218.136  
   -655411.252     -484299.756    22738102.770    22738102.103    22738111.441  
     -1984.852       -1546.637  
  -7168385.696    -5558435.366    23806531.891    23806531.465    23806544.284  
     -3593.598       -2800.192  
 -16904459.623   -13153707.623    21655153.984    21655153.218    21655161.303  
      2785.221        2170.297  
 -17608701.371   -13698204.997    21218477.095    21218476.936    21218482.472  
     -1410.429       -1099.031  
  -5951729.415    -4376380.843    23259094.588    23259094.484    23259102.924  
     -1747.269       -1361.508  
    244800.562      507893.894    24900766.945    24900767.540    24900777.963  
     -2706.494       -2108.946  
 99  8  3  0 46 30.0000000  0  8  1 14 15 21 22 25 29 30            
 -16715245.646   -13003579.794    21381990.060    21381989.648    21381996.092  
       670.576         522.522  
 -10500578.407    -8170664.034    22570130.544    22570130.309    22570138.740  
      2837.861        2211.321  
   -595671.275     -437749.240    22749471.161    22749470.389    22749479.800  
     -1997.678       -1556.639  
  -7060466.533    -5474342.743    23827068.311    23827067.970    23827080.690  
     -3600.860       -2805.854  
 -16987837.142   -13218677.012    21639287.735    21639286.913    21639294.928  
      2773.394        2161.076  
 -17566248.986   -13665125.234    21226555.556    21226555.371    21226560.916  
     -1419.564       -1106.159  
  -5899245.297    -4335484.202    23269082.002    23269081.955    23269090.511  
     -1751.412       -1364.737  
    326167.119      571296.338    24916250.694    24916251.127    24916261.419  
     -2717.772       -2117.747  
 99  8  3  0 47  0.0000000  0  8  1 14 15 21 22 25 29 30            
 -16735310.751   -13019214.882    21378171.766    21378171.350    21378177.825  
       667.254         519.941  
 -10585583.352    -8236901.564    22553954.605    22553954.361    22553962.768  
      2829.178        2204.557  
   -535549.860     -390901.504    22760911.992    22760911.302    22760920.732  
     -2010.315       -1566.467  
  -6952335.369    -5390084.932    23847644.830    23847644.699    23847657.385  
     -3607.687       -2811.164  
 -17070860.436   -13283370.378    21623488.743    21623487.962    21623495.959  
      2761.609        2151.900  
 -17523520.360   -13631830.214    21234686.556    21234686.417    21234691.926  
     -1428.730       -1113.292  
  -5846638.294    -4294491.799    23279092.826    23279092.836    23279101.480  
     -1755.531       -1367.938  
    407871.428      634961.996    24931798.657    24931799.073    24931809.179  
     -2729.338       -2126.745  
 99  8  3  0 47 30.0000000  0  8  1 14 15 21 22 25 29 30            
 -16755276.316   -13034772.406    21374372.423    21374371.981    21374378.492  
       663.741         517.198  
 -10670327.276    -8302935.680    22537828.370    22537828.125    22537836.456  
      2820.300        2197.629  
   -475050.054     -343758.915    22772424.859    22772424.195    22772433.652  
     -2023.025       -1576.383  
  -6844005.241    -5305672.076    23868259.778    23868259.523    23868272.148  
     -3614.294       -2816.326  
 -17153529.576   -13347787.781    21607757.222    21607756.424    21607764.486  
      2749.623        2142.563  
 -17480527.476   -13598329.287    21242867.934    21242867.745    21242873.246  
     -1437.511       -1120.141  
  -5793920.454    -4253413.034    23289124.900    23289124.887    23289133.469  
     -1759.042       -1370.677  
    489938.821      698910.560    24947415.715    24947416.032    24947426.073  
     -2741.830       -2136.494  
 99  8  3  0 48  0.0000000  0  8  1 14 15 21 22 25 29 30            
 -16775140.195   -13050250.699    21370592.383    21370591.927    21370598.472  
       660.469         514.649  
 -10754808.303    -8368764.937    22521752.235    22521751.904    22521760.127  
      2811.739        2190.964  
   -414174.492     -296323.518    22784009.220    22784008.507    22784018.029  
     -2035.347       -1585.987  
  -6735477.611    -5221105.351    23888912.172    23888911.905    23888924.480  
     -3620.875       -2821.440  
 -17235836.371   -13411922.844    21592094.678    21592093.909    21592101.959  
      2737.329        2132.982  
 -17437279.566   -13564629.635    21251097.703    21251097.597    21251103.039  
     -1445.652       -1126.486  
  -5741100.857    -4212254.951    23299176.372    23299176.281    23299184.756  
     -1762.311       -1373.226  
    572374.416      763146.035    24963102.815    24963103.082    24963113.045  
     -2753.800       -2145.830  
 99  8  3  0 48 30.0000000  0  9  1 14 15 16 21 22 25 29 30         
 -16794906.714   -13065653.133    21366830.875    21366830.438    21366836.964  
       657.350         512.215  
 -10839022.856    -8434386.525    22505726.662    22505726.331    22505734.594  
      2802.620        2183.847  
   -352926.325     -248597.782    22795664.327    22795663.637    22795673.296  
     -2047.743       -1595.639  
    -32205.2003          0.0003   25302788.9263   25302793.2103          0.0003 
      3469.4373          0.0003 
  -6626741.608    -5136376.270    23909604.524    23909603.985    23909616.490  
     -3628.169       -2827.142  
 -17317758.829   -13475758.422    21576505.369    21576504.615    21576512.540  
      2724.307        2122.832  
 -17393783.428   -13530736.560    21259374.832    21259374.673    21259380.106  
     -1453.992       -1132.984  
  -5688175.123    -4171014.141    23309248.010    23309247.851    23309256.136  
     -1766.151       -1376.226  
    655174.733      827665.718    24978859.470    24978859.545    24978869.499  
     -2765.940       -2155.288  
 99  8  3  0 49  0.0000000  0  9  1 14 15 16 21 22 25 29 30         
 -16814577.952   -13080981.316    21363087.491    21363087.091    21363093.613  
       654.097         509.687  
 -10922963.715    -8499794.853    22489753.025    22489752.839    22489761.113  
      2793.524        2176.773  
   -291308.686     -200584.139    22807389.798    22807389.078    22807398.890  
     -2059.998       -1605.186  
   -136305.8833     -87167.1933   25282978.3033   25282983.4953   25282957.4863 
      3469.3533       2702.8713 
  -6517785.419    -5051475.621    23930338.291    23930337.770    23930350.464  
     -3635.523       -2832.866  
 -17399288.556   -13539287.968    21560990.703    21560989.946    21560997.831  
      2711.123        2112.560  
 -17350034.051   -13496646.149    21267700.078    21267699.925    21267705.341  
     -1462.349       -1139.491  
  -5635120.874    -4129673.212    23319343.928    23319343.711    23319352.029  
     -1770.776       -1379.822  
    738328.510      892460.832    24994682.867    24994683.226    24994693.207  
     -2777.561       -2164.335  
 99  8  3  0 49 30.0000000  0  9  1 14 15 16 21 22 25 29 30         
 -16834145.858   -13096228.982    21359363.796    21359363.415    21359369.948  
       650.297         506.721  
 -11006623.336    -8564984.040    22473833.020    22473832.916    22473841.096  
      2783.642        2169.067  
   -229324.804     -152285.107    22819184.885    22819184.186    22819194.153  
     -2072.407       -1614.864  
   -240355.9233    -165527.7913          0.0003   25263183.4193   25263799.6333 
      3467.2453       2701.3063 
  -6408608.694    -4966403.128    23951114.420    23951113.672    23951126.487  
     -3642.964       -2838.666  
 -17480420.619   -13602507.649    21545551.697    21545550.963    21545558.828  
      2697.618        2102.037  
 -17306046.424   -13462370.091    21276070.693    21276070.500    21276076.017  
     -1470.181       -1145.593  
  -5581923.262    -4088220.567    23329467.108    23329466.847    23329475.084  
     -1775.889       -1383.810  
    821820.560      957519.517    25010571.115    25010571.318    25010581.346  
     -2788.645       -2172.980  
 99  8  3  0 50  0.0000000  0  9  1 14 15 16 21 22 25 29 30         
 -16853602.961   -13111390.314    21355661.191    21355660.764    21355667.366  
       646.915         504.088  
 -11089988.501    -8629943.781    22457969.162    22457969.070    22457977.097  
      2774.033        2161.584  
   -166977.405     -103702.821    22831049.080    22831048.446    22831058.560  
     -2084.133       -1623.998  
   -344351.7381    -249251.0101   25243387.1521   25243386.0271   25243400.6151 
      3465.8511       2700.7051 
  -6299213.907    -4881160.723    23971932.034    23971931.076    23971943.824  
     -3650.046       -2844.177  
 -17561154.630   -13665417.170    21530188.444    21530187.732    21530195.591  
      2684.662        2091.942  
 -17261835.700   -13427920.192    21284483.745    21284483.534    21284489.147  
     -1477.173       -1151.046  
  -5528569.672    -4046646.390    23339619.864    23339619.717    23339627.857  
     -1780.942       -1387.742  
    905633.940     1022828.585    25026520.019    25026520.522    25026530.494  
     -2798.949       -2181.007  
 99  8  3  0 50 30.0000000  0  9  1 14 15 16 21 22 25 29 30         
 -16872950.743   -13126466.461    21351979.310    21351978.891    21351985.587  
       642.938         500.993  
 -11173051.891    -8694668.357    22442162.757    22442162.593    22442170.601  
      2763.761        2153.576  
   -104269.497      -54839.605    22842981.970    22842981.343    22842991.526  
     -2096.235       -1633.428  
   -448289.2811    -330241.2771   25223608.186    25223608.3901   25223619.6191 
      3463.4011       2698.7831 
  -6189608.315    -4795754.067    23992789.085    23992788.335    23992801.232  
     -3656.938       -2849.545  
 -17641488.951   -13728015.230    21514901.333    21514900.532    21514908.489  
      2671.186        2081.444  
 -17217405.125   -13393298.984    21292938.654    21292938.418    21292944.046  
     -1484.752       -1156.946  
  -5475057.353    -4004948.510    23349802.841    23349802.820    23349810.775  
     -1786.390       -1391.987  
    989769.476     1088388.725    25042530.713    25042531.086    25042540.855  
     -2809.977       -2189.594  
 99  8  3  0 51  0.0000000  0  9  1 14 15 16 21 22 25 29 30         
 -16892164.752   -13141438.375    21348322.882    21348322.502    21348329.196  
       638.070         497.201  
 -11255809.775    -8759154.878    22426414.492    22426414.200    22426422.211  
      2753.647        2145.696  
    -41204.283       -5697.989    22854983.057    22854982.282    22854992.540  
     -2107.928       -1642.537  
   -552156.5721    -411176.8691   25203842.808    25203843.0311   25203853.4301 
      3461.3551       2697.1551 
  -6079803.242    -4710191.961    24013684.475    24013683.778    24013696.692  
     -3663.158       -2854.391  
 -17721422.460   -13790300.981    21499690.464    21499689.607    21499697.597  
      2657.955        2071.137  
 -17172754.952   -13358506.667    21301435.256    21301435.055    21301440.743  
     -1491.652       -1162.325  
  -5421383.598    -3963124.845    23360016.820    23360016.675    23360024.514  
     -1791.506       -1395.976  
   1074228.313     1154200.724    25058602.875    25058603.168    25058612.776  
     -2820.588       -2197.867  
 99  8  3  0 51 30.0000000  0  9  1 14 15 16 21 22 25 29 30         
 -16911221.102   -13156287.440    21344696.567    21344696.177    21344702.813  
       632.742         493.041  
 -11338255.267    -8823397.994    22410725.475    22410725.226    22410733.247  
      2743.079        2137.465  
     22215.125       43719.632    22867051.465    22867050.676    22867061.002  
     -2119.825       -1651.810  
   -655954.893     -492058.652    25184090.628    25184090.844    25184101.100  
      3458.721        2695.100  
  -5969808.121    -4624481.757    24034616.209    24034615.487    24034628.396  
     -3669.635       -2859.454  
 -17800956.275   -13852275.286    21484555.401    21484554.679    21484562.698  
      2644.592        2060.711  
 -17127897.363   -13323552.729    21309971.276    21309971.158    21309976.866  
     -1498.775       -1167.880  
  -5367564.973    -3921188.304    23370258.118    23370258.021    23370265.942  
     -1796.062       -1399.529  
   1159020.477     1220272.512    25074738.605    25074738.801    25074748.229  
     -2831.913       -2206.694  
 99  8  3  0 52  0.0000000  0  9  1 14 15 16 21 22 25 29 30         
 -16930129.939   -13171021.563    21341098.402    21341097.923    21341104.487  
       628.118         489.439  
 -11420398.352    -8887405.477    22395093.899    22395093.743    22395101.796  
      2733.315        2129.847  
     85985.714       93410.910    22879186.358    22879185.742    22879196.155  
     -2131.381       -1660.817  
   -759685.4241    -572887.5161   25164350.9731   25164351.2461   25164361.9121 
      3456.6381       2693.4721 
  -5859613.475    -4538616.081    24055585.840    24055585.122    24055598.139  
     -3676.568       -2864.855  
 -17880090.416   -13913938.148    21469496.545    21469495.764    21469503.818  
      2631.112        2050.211  
 -17082818.155   -13288426.109    21318549.591    21318549.464    21318555.217  
     -1506.391       -1173.813  
  -5313616.023    -3879150.196    23380524.278    23380524.125    23380532.122  
     -1800.348       -1402.864  
   1244149.730     1286606.930    25090938.357    25090938.324    25090947.774  
     -2842.997       -2215.318  
 99  8  3  0 52 30.0000000  0  9  1 14 15 16 21 22 25 29 30         
 -16948902.838   -13185649.775    21337526.005    21337525.566    21337532.117  
       623.616         485.935  
 -11502246.844    -8951183.405    22379518.433    22379518.320    22379526.439  
      2723.448        2122.161  
    150104.390      143373.434    22891387.656    22891387.146    22891397.564  
     -2142.988       -1669.853  
   -863350.442     -653665.414    25144624.379    25144624.501    25144635.176  
      3454.489        2691.802  
  -5749204.631    -4452583.508    24076596.169    24076595.464    24076608.626  
     -3683.865       -2870.535  
 -17958805.747   -13975274.684    21454517.373    21454516.640    21454524.632  
      2616.897        2039.139  
 -17037504.619   -13253116.888    21327172.511    21327172.361    21327178.131  
     -1514.325       -1179.990  
  -5259537.139    -3837010.835    23390815.126    23390815.041    23390822.970  
     -1804.821       -1406.353  
   1329613.299     1353201.880    25107201.552    25107201.641    25107210.960  
     -2854.243       -2224.096  
 99  8  3  0 53  0.0000000  0  9  1 14 15 16 21 22 25 29 30         
 -16967542.578   -13200174.234    21333979.012    21333978.494    21333985.080  
       619.303         482.575  
 -11583800.320    -9014731.468    22363999.214    22363999.048    22364007.142  
      2713.542        2114.444  
    214568.207      193604.897    22903654.735    22903654.326    22903664.659  
     -2154.542       -1678.865  
   -966963.873     -734403.148    25124907.542    25124907.610    25124918.314  
      3453.110        2690.725  
  -5638568.624    -4366373.910    24097649.704    24097648.980    24097662.270  
     -3691.742       -2876.661  
 -18037096.158   -14036280.107    21439619.192    21439618.471    21439626.380  
      2602.596        2027.990  
 -16991955.474   -13217624.073    21335840.232    21335840.089    21335845.865  
     -1522.161       -1186.093  
  -5205325.220    -3794767.828    23401131.319    23401131.296    23401139.263  
     -1809.153       -1409.727  
   1415404.301     1420051.967    25123527.197    25123527.214    25123536.433  
     -2865.135       -2232.574  
 99  8  3  0 53 30.0000000  0  9  1 14 15 16 21 22 25 29 30         
 -16986073.802   -13214614.129    21330452.571    21330452.096    21330458.656  
       616.135         480.105  
 -11665062.877    -9078052.854    22348535.477    22348535.237    22348543.213  
      2703.914        2106.947  
    279373.884      244102.739    22915987.127    22915986.616    22915996.845  
     -2165.806       -1687.643  
  -1070533.603     -815106.779    25105198.447    25105198.875    25105209.622  
      3451.492        2689.479  
  -5527701.434    -4279984.186    24118746.966    24118746.301    24118759.843  
     -3699.202       -2882.488  
 -18114959.561   -14096952.815    21424802.485    21424801.673    21424809.289  
      2588.304        2016.857  
 -16946173.053   -13181949.487    21344552.341    21344552.223    21344557.979  
     -1530.015       -1192.219  
  -5150989.156    -3752428.067    23411471.366    23411471.226    23411479.140  
     -1813.304       -1412.963  
   1501516.869     1487152.667    25139913.861    25139913.922    25139923.185  
     -2875.613       -2240.742  
 99  8  3  0 54  0.0000000  0  9  1 14 15 16 21 22 25 29 30         
 -17004508.121   -13228978.524    21326944.619    21326944.126    21326950.694  
       612.596         477.344  
 -11746031.619    -9141145.301    22333127.653    22333127.443    22333135.178  
      2693.859        2099.106  
    344518.496      294864.686    22928383.868    22928383.358    22928393.572  
     -2177.119       -1696.450  
  -1174054.225     -895772.168    25085499.751    25085499.801    25085510.321  
      3449.752        2688.125  
  -5416610.236    -4193419.896    24139887.060    24139886.383    24139899.986  
     -3706.721       -2888.339  
 -18192379.351   -14157279.838    21410070.114    21410069.228    21410076.721  
      2573.093        2004.999  
 -16900153.188   -13146089.877    21353309.758    21353309.574    21353315.252  
     -1537.965       -1198.415  
  -5096524.170    -3709987.876    23421835.586    23421835.570    23421843.515  
     -1817.779       -1416.449  
   1587948.1641    1554501.6421   25156361.0141   25156361.0951   25156370.6431 
     -2886.5401      -2249.2641 
 99  8  3  0 54 30.0000000  0  9  1 14 15 16 21 22 25 29 30         
 -17022823.659   -13243250.349    21323459.246    21323458.799    21323465.351  
       608.417         474.089  
 -11826688.617    -9203994.830    22317779.054    22317778.883    22317786.551  
      2683.249        2090.843  
    409998.799      345888.209    22940844.375    22940843.913    22940854.178  
     -2188.219       -1705.104  
  -1277517.758     -976393.072    25065811.684    25065811.483    25065821.867  
      3447.851        2686.637  
  -5305313.374    -4106695.371    24161065.925    24161065.513    24161079.371  
     -3713.001       -2893.244  
 -18269345.492   -14217253.373    21395423.798    21395422.920    21395430.442  
      2558.207        1993.401  
 -16853899.852   -13110048.346    21362111.498    21362111.347    21362116.989  
     -1545.593       -1204.359  
  -5041929.026    -3667446.265    23432224.746    23432224.643    23432232.715  
     -1821.805       -1419.585  
   1674710.180     1622108.359    25172871.057    25172871.385    25172880.845  
     -2897.611       -2257.891  
 99  8  3  0 55  0.0000000  0  9  1 14 15 16 21 22 25 29 30         
 -17041010.885   -13257422.211    21319998.307    21319997.881    21320004.417  
       604.339         470.916  
 -11907022.915    -9266592.925    22302491.872    22302491.735    22302499.381  
      2672.510        2082.480  
    475811.319      397170.634    22953368.319    22953367.733    22953377.891  
     -2199.083       -1713.564  
  -1380917.425    -1056964.166    25046135.266    25046135.206    25046145.643  
      3445.456        2684.775  
  -5193830.897    -4019826.195    24182280.339    24182280.030    24182294.012  
     -3718.850       -2897.789  
 -18345870.995   -14276883.543    21380861.409    21380860.507    21380868.123  
      2543.755        1982.147  
 -16807419.224   -13073829.702    21370956.535    21370956.395    21370962.031  
     -1552.964       -1210.095  
  -4987218.098    -3624814.434    23442635.993    23442635.851    23442643.923  
     -1825.407       -1422.398  
   1761808.687     1689977.261    25189445.438    25189445.682    25189455.057  
     -2908.630       -2266.451  
 99  8  3  0 55 30.0000000  0  9  1 14 15 16 21 22 25 29 30         
 -17059072.306   -13271496.046    21316561.374    21316560.903    21316567.398  
       599.957         467.496  
 -11987025.953    -9328932.896    22287267.846    22287267.639    22287275.291  
      2661.127        2073.602  
    541953.444      448709.855    22965954.921    22965954.228    22965964.439  
     -2210.126       -1722.172  
  -1484229.108    -1137466.684    25026475.825    25026475.701    25026486.181  
      3442.222        2682.238  
  -5082177.359    -3932823.730    24203527.422    24203527.324    24203541.180  
     -3724.426       -2902.138  
 -18421958.421   -14336172.357    21366382.344    21366381.492    21366389.142  
      2528.974        1970.626  
 -16760705.797   -13037429.648    21379845.869    21379845.736    21379851.357  
     -1561.067       -1216.414  
  -4932393.712    -3582094.200    23453068.844    23453068.666    23453076.879  
     -1829.509       -1425.588  
   1849243.533     1758108.253    25206083.516    25206083.858    25206093.473  
     -2919.896       -2275.247  
 99  8  3  0 56  0.0000000  0  9  1 14 15 16 21 22 25 29 30         
 -17077002.939   -13285467.965    21313149.358    21313148.858    21313155.264  
       595.421         463.964  
 -12066683.063    -9391003.337    22272109.603    22272109.319    22272117.046  
      2649.312        2064.405  
    608421.814      500503.305    22978603.520    22978602.829    22978613.019  
     -2221.094       -1730.724  
  -1587455.034    -1217902.372    25006832.479    25006832.320    25006842.784  
      3439.434        2680.062  
  -4970359.287    -3845693.055    24224806.024    24224805.857    24224819.636  
     -3730.121       -2906.576  
 -18497610.026   -14395121.563    21351986.239    21351985.382    21351993.092  
      2514.594        1959.421  
 -16713745.768   -13000837.444    21388782.078    21388781.977    21388787.634  
     -1569.576       -1223.048  
  -4877437.139    -3539270.974    23463526.619    23463526.503    23463534.937  
     -1834.391       -1429.392  
   1937007.246     1826495.459    25222784.005    25222784.443    25222794.520  
     -2930.956       -2283.866  
 99  8  3  0 56 30.0000000  0  9  1 14 15 16 21 22 25 29 30         
 -17094809.627   -13299343.312    21309760.850    21309760.351    21309766.723  
       591.835         461.175  
 -12145988.180    -9452799.504    22257018.181    22257018.013    22257025.773  
      2637.854        2055.471  
    675213.031      552548.303    22991313.299    22991312.751    22991323.147  
     -2231.619       -1738.919  
  -1690596.066    -1298271.918    24987205.270    24987205.145    24987215.501  
      3436.625        2677.869  
  -4858378.427    -3758435.534    24246115.488    24246115.319    24246129.211  
     -3735.332       -2910.632  
 -18572845.188   -14453746.281    21337669.363    21337668.520    21337676.214  
      2501.078        1948.890  
 -16666540.449   -12964054.094    21397764.964    21397764.868    21397770.453  
     -1577.391       -1229.132  
  -4822330.824    -3496331.054    23474013.010    23474012.898    23474021.421  
     -1839.312       -1433.219  
   2025083.445     1895126.241    25239544.221    25239544.792    25239555.047  
     -2940.585       -2291.360  
 99  8  3  0 57  0.0000000  0  9  1 14 15 16 21 22 25 29 30         
 -17112511.818   -13313137.230    21306392.215    21306391.715    21306398.101  
       588.347         458.454  
 -12224953.958    -9514331.244    22241991.459    22241991.270    22241999.024  
      2626.705        2046.782  
    742324.558      604842.909    23004084.284    23004083.703    23004094.096  
     -2242.317       -1747.254  
  -1793650.537    -1378573.972    24967594.485    24967594.367    24967604.937  
      3433.690        2675.583  
  -4746233.096    -3671049.839    24267456.317    24267456.118    24267469.911  
     -3741.129       -2915.159  
 -18647665.565   -14512047.783    21323431.518    21323430.656    21323438.290  
      2486.983        1937.906  
 -16619096.267   -12927084.610    21406793.265    21406793.180    21406798.781  
     -1585.390       -1235.367  
  -4767065.655    -3453267.353    23484529.599    23484529.545    23484538.071  
     -1844.981       -1437.639  
   2113451.563     1963984.505    25256360.180    25256360.674    25256371.143  
     -2950.329       -2298.933  
 99  8  3  0 57 30.0000000  0  9  1 14 15 16 21 22 25 29 30         
 -17130103.066   -13326844.702    21303044.649    21303044.219    21303050.542  
       584.334         455.326  
 -12303594.634    -9575609.666    22227026.539    22227026.303    22227034.156  
      2616.203        2038.603  
    809752.746      657384.248    23016915.754    23016915.078    23016925.350  
     -2252.785       -1755.413  
  -1896622.835    -1458812.024    24947999.307    24947999.303    24948009.900  
      3431.270        2673.715  
  -4633918.708    -3583532.409    24288829.311    24288829.057    24288842.856  
     -3746.412       -2919.260  
 -18722057.058   -14570015.094    21309275.127    21309274.287    21309281.942  
      2472.523        1926.641  
 -16571417.143   -12889932.044    21415866.331    21415866.211    21415871.822  
     -1593.015       -1241.308  
  -4711624.242    -3410066.323    23495079.807    23495079.727    23495088.268  
     -1850.951       -1442.303  
   2202101.155     2033062.058    25273229.543    25273230.218    25273240.652  
     -2959.450       -2306.059  
 99  8  3  0 58  0.0000000  0  9  1 14 15 16 21 22 25 29 30         
 -17147562.516   -13340449.480    21299722.287    21299721.882    21299728.089  
       579.532         451.585  
 -12381926.599    -9636647.528    22212120.310    22212120.111    22212128.085  
      2605.996        2030.642  
    877494.766      710170.133    23029806.870    23029806.039    23029816.252  
     -2263.321       -1763.630  
  -1999527.157    -1538997.110    24928416.898    24928416.988    24928427.604  
      3428.765        2671.756  
  -4521442.363    -3495888.754    24310233.123    24310232.842    24310246.772  
     -3752.127       -2923.718  
 -18796010.627   -14627641.157    21295202.119    21295201.269    21295208.961  
      2457.635        1915.036  
 -16523515.485   -12852606.074    21424981.646    21424981.558    21424987.218  
     -1600.255       -1246.957  
  -4656008.961    -3366729.819    23505663.031    23505662.972    23505671.420  
     -1856.547       -1446.652  
   2291031.853     2102358.653    25290152.807    25290153.423    25290163.545  
     -2969.207       -2313.670  
 99  8  3  0 58 30.0000000  0  9  1 14 15 16 21 22 25 29 30         
 -17164878.995   -13353942.847    21296427.140    21296426.702    21296432.814  
       574.814         447.909  
 -12459964.228    -9697456.050    22197270.001    22197269.930    22197278.033  
      2596.418        2023.183  
    945547.326      763197.994    23042756.815    23042756.036    23042766.271  
     -2273.582       -1771.625  
  -2102356.163    -1619123.504    24908849.100    24908849.215    24908859.712  
      3426.545        2670.035  
  -4408802.803    -3408117.926    24331667.986    24331667.665    24331681.794  
     -3757.402       -2927.843  
 -18869509.640   -14684913.027    21281215.516    21281214.747    21281222.461  
      2442.178        1902.993  
 -16475416.287   -12815126.181    21434134.618    21434134.505    21434140.251  
     -1606.375       -1251.726  
  -4600243.488    -3323276.294    23516275.074    23516274.926    23516283.280  
     -1861.139       -1450.230  
   2380248.510     2171878.059    25307130.465    25307130.920    25307140.713  
     -2978.516       -2320.900  
 99  8  3  0 59  0.0000000  0  9  1 14 15 16 21 22 25 29 30         
 -17182042.196   -13367316.778    21293161.037    21293160.657    21293166.765  
       569.379         443.668  
 -12537711.039    -9758037.961    22182475.131    22182475.118    22182483.314  
      2586.589        2015.513  
   1013907.158      816465.283    23055765.293    23055764.528    23055774.686  
     -2283.734       -1779.525  
  -2205125.637    -1699203.485    24889292.680    24889292.755    24889303.260  
      3424.734        2668.620  
  -4295996.991    -3320217.560    24353134.400    24353134.019    24353148.430  
     -3762.997       -2932.193  
 -18942537.150   -14741817.485    21267318.737    21267317.919    21267325.634  
      2426.565        1890.823  
 -16427131.504   -12777501.679    21443322.889    21443322.737    21443328.591  
     -1612.533       -1256.525  
  -4544345.824    -3279719.743    23526912.151    23526912.118    23526920.402  
     -1865.501       -1453.642  
   2469754.172     2241622.712    25324162.880    25324163.308    25324172.911  
     -2988.416       -2328.645  
 99  8  3  0 59 30.0000000  0  9  1 14 15 16 21 22 25 29 30         
 -17199033.731   -13380556.931    21289927.656    21289927.257    21289933.428  
       563.495         439.086  
 -12615151.128    -9818380.861    22167738.739    22167738.689    22167746.936  
      2575.719        2007.055  
   1082570.782      869969.291    23068831.734    23068830.943    23068841.080  
     -2293.902       -1787.458  
  -2307839.964    -1779240.530    24869746.865    24869746.772    24869757.221  
      3422.693        2667.033  
  -4183022.032    -3232185.388    24374632.998    24374632.634    24374647.095  
     -3768.603       -2936.566  
 -19015100.973   -14798360.642    21253510.088    21253509.385    21253516.992  
      2411.088        1878.771  
 -16378662.016   -12739733.243    21452546.181    21452546.103    21452552.061  
     -1618.907       -1261.489  
  -4488310.605    -3236055.999    23537575.526    23537575.467    23537583.686  
     -1870.152       -1457.258  
   2559546.371     2311590.653    25341249.749    25341250.201    25341259.778  
     -2997.761       -2335.948  
 99  8  3  1  0  0.0000000  0  9  1 14 15 16 21 22 25 29 30         
 -17215858.365   -13393667.025    21286726.076    21286725.628    21286731.854  
       558.054         434.853  
 -12692251.614    -9878459.142    22153067.058    22153067.002    22153075.183  
      2564.048        1997.961  
   1151535.503      923707.916    23081955.299    23081954.609    23081964.672  
     -2303.913       -1795.253  
  -2410489.700    -1859227.228    24850213.396    24850213.150    24850223.474  
      3420.448        2665.280  
  -4069876.660    -3144020.412    24396164.290    24396163.815    24396178.170  
     -3774.568       -2941.213  
 -19087202.236   -14854543.346    21239789.574    21239788.819    21239796.436  
      2395.490        1866.619  
 -16330003.327   -12701817.380    21461805.532    21461805.455    21461811.507  
     -1625.142       -1266.345  
  -4432144.230    -3192290.062    23548263.444    23548263.545    23548272.022  
     -1874.532       -1460.670  
   2649613.877     2381773.122    25358389.459    25358389.647    25358399.324  
     -3006.992       -2343.099  
 99  8  3  1  0 30.0000000  0  9  1 14 15 16 21 22 25 29 30         
 -17232528.978   -13406657.108    21283553.741    21283553.284    21283559.540  
       553.366         431.197  
 -12768995.531    -9938259.568    22138463.194    22138463.156    22138471.226  
      2552.211        1988.735  
   1220798.038      977678.613    23095135.669    23095134.999    23095145.029  
     -2313.552       -1802.761  
  -2513071.383    -1939160.871    24830692.824    24830692.459    24830702.941  
      3418.221        2663.557  
  -3956550.921    -3055714.884    24417729.769    24417729.269    24417743.669  
     -3780.320       -2945.687  
 -19158835.974   -14910361.747    21226157.950    21226157.213    21226164.917  
      2380.208        1854.702  
 -16281159.371   -12663757.144    21471100.120    21471100.093    21471106.090  
     -1631.130       -1271.011  
  -4375841.028    -3148417.495    23558977.592    23558977.714    23558986.345  
     -1879.027       -1464.179  
   2739946.728     2452162.332    25375579.436    25375579.563    25375589.420  
     -3015.191       -2349.500  
 99  8  3  1  1  0.0000000  0  9  1 14 15 16 21 22 25 29 30         
 -17249043.252   -13419525.354    21280411.105    21280410.646    21280416.940  
       547.773         426.836  
 -12845372.932    -9997774.390    22123929.065    22123929.002    22123937.026  
      2539.706        1978.991  
   1290355.105     1031878.811    23108372.077    23108371.357    23108381.467  
     -2323.526       -1810.531  
  -2615576.314    -2019034.703    24811186.660    24811186.331    24811196.841  
      3415.159        2661.153  
  -3843046.694    -2967270.245    24439328.911    24439328.407    24439343.067  
     -3786.696       -2950.682  
 -19230004.504   -14965817.652    21212614.995    21212614.245    21212621.951  
      2364.460        1842.435  
 -16232118.654   -12625543.584    21480432.206    21480432.175    21480438.153  
     -1638.256       -1276.567  
  -4319392.211    -3104431.456    23569719.530    23569719.579    23569728.362  
     -1884.218       -1468.221  
   2830542.216     2522756.226    25392819.133    25392819.196    25392829.379  
     -3024.487       -2356.737  
 99  8  3  1  1 30.0000000  0  9  1 14 15 16 21 22 25 29 30         
 -17265403.783   -13432273.788    21277297.734    21277297.339    21277303.648  
       542.824         422.978  
 -12921388.055   -10057006.895    22109463.862    22109463.743    22109471.823  
      2527.704        1969.642  
   1360203.351     1086305.890    23121663.670    23121662.975    23121673.318  
     -2333.119       -1818.005  
  -2717973.402    -2098824.533    24791700.908    24791700.769    24791711.187  
      3411.170        2658.061  
  -3729357.830    -2878681.768    24460963.306    24460962.818    24460977.629  
     -3792.576       -2955.263  
 -19300698.577   -15020903.853    21199162.300    21199161.552    21199169.358  
      2348.226        1829.788  
 -16182861.720   -12587161.542    21489805.496    21489805.452    21489811.366  
     -1645.644       -1282.319  
  -4262798.749    -3060332.700    23580489.019    23580489.044    23580497.829  
     -1888.815       -1471.796  
   2921409.564     2593561.953    25410110.120    25410110.532    25410121.061  
     -3033.534       -2363.804  
 99  8  3  1  2  0.0000000  0  9  1 14 15 16 21 22 25 29 30         
 -17281617.269   -13444907.638    21274212.457    21274212.019    21274218.290  
       538.131         419.323  
 -12997048.896   -10115963.351    22095066.096    22095065.979    22095074.016  
      2516.499        1960.904  
   1430339.525     1140957.332    23135010.076    23135009.421    23135020.038  
     -2342.534       -1825.354  
  -2820240.807    -2178513.298    24772240.152    24772239.863    24772250.297  
      3406.793        2654.644  
  -3615498.156    -2789960.199    24482630.613    24482629.822    24482644.754  
     -3797.951       -2959.424  
 -19370896.340   -15075603.327    21185803.974    21185803.259    21185811.133  
      2331.845        1817.023  
 -16133389.452   -12548611.718    21499219.773    21499219.719    21499225.572  
     -1652.273       -1287.485  
  -4206072.234    -3016130.288    23591283.927    23591283.790    23591292.660  
     -1893.061       -1475.110  
   3012559.912     2664588.165    25427455.464    25427455.746    25427466.447  
     -3043.039       -2371.184  
 99  8  3  1  2 30.0000000  0  9  1 14 15 16 21 22 25 29 30         
 -17297692.364   -13457433.643    21271153.383    21271152.963    21271159.260  
       533.735         415.899  
 -13072370.769   -10174655.670    22080732.867    22080732.660    22080740.692  
      2505.061        1951.995  
   1500760.477     1195830.682    23148410.808    23148410.139    23148420.907  
     -2351.998       -1832.721  
  -2922369.443    -2258093.933    24752805.871    24752805.423    24752815.818  
      3401.882        2650.815  
  -3501474.128    -2701110.541    24504328.430    24504327.973    24504343.204  
     -3803.252       -2963.564  
 -19440610.458   -15129925.931    21172537.642    21172537.003    21172544.959  
      2316.089        1804.743  
 -16083714.788   -12509904.183    21508672.623    21508672.539    21508678.284  
     -1659.145       -1292.838  
  -4149213.051    -2971824.487    23602103.988    23602103.794    23602112.660  
     -1897.387       -1478.473  
   3104012.428     2735849.866    25444858.448    25444858.638    25444869.205  
     -3053.278       -2379.175  
 99  8  3  1  3  0.0000000  0  9  1 14 15 16 21 22 25 29 30         
 -17313634.222   -13469855.831    21268119.737    21268119.287    21268125.642  
       529.330         412.467  
 -13147342.042   -10233074.798    22066466.112    22066466.011    22066474.083  
      2493.124        1942.692  
   1571463.369     1250923.743    23161865.404    23161864.600    23161875.268  
     -2361.444       -1840.084  
  -3024341.980    -2337552.971    24733401.190    24733400.708    24733410.975  
      3396.558        2646.674  
  -3387291.115    -2612137.018    24526056.339    24526056.307    24526071.960  
     -3808.701       -2967.805  
 -19509851.861   -15183880.187    21159361.495    21159360.763    21159368.681  
      2300.345        1792.478  
 -16033827.713   -12471031.134    21518165.836    21518165.766    21518171.421  
     -1666.540       -1298.600  
  -4092217.254    -2927412.220    23612949.895    23612949.711    23612958.607  
     -1902.200       -1482.233  
   3195775.527     2807353.592    25462320.239    25462320.559    25462331.100  
     -3063.886       -2387.446  
 99  8  3  1  3 30.0000000  0  9  1 14 15 16 21 22 25 29 30         
 -17329455.682   -13482184.196    21265108.912    21265108.494    21265114.910  
       525.387         409.392  
 -13221955.654   -10291215.209    22052267.591    22052267.462    22052275.540  
      2480.883        1933.149  
   1642444.862     1306233.891    23175372.774    23175372.018    23175382.742  
     -2370.714       -1847.304  
  -3126162.827    -2416893.801    24714025.322    24714024.850    24714035.057  
      3391.721        2642.902  
  -3272961.197    -2523048.999    24547812.888    24547812.782    24547828.508  
     -3813.097       -2971.243  
 -19578631.321   -15237474.487    21146273.233    21146272.536    21146280.328  
      2285.008        1780.525  
 -15983726.713   -12431991.387    21527699.844    21527699.778    21527705.331  
     -1673.455       -1303.990  
  -4035078.619    -2882888.635    23623823.012    23623822.816    23623831.721  
     -1907.024       -1485.998  
   3287841.763     2879093.501    25479839.816    25479840.216    25479850.736  
     -3073.931       -2395.244  
 99  8  3  1  4  0.0000000  0  9  1 14 15 16 21 22 25 29 30         
 -17345165.463   -13494425.535    21262119.374    21262119.028    21262125.379  
       521.998         406.755  
 -13296191.767   -10349061.470    22038140.854    22038140.799    22038148.828  
      2468.204        1923.274  
   1713701.329     1361758.310    23188932.536    23188931.783    23188942.564  
     -2379.731       -1854.326  
  -3227851.520    -2496131.659    24694674.707    24694674.199    24694684.349  
      3387.739        2639.795  
  -3158507.966    -2433864.917    24569593.083    24569592.841    24569608.334  
     -3817.280       -2974.496  
 -19646958.941   -15290716.701    21133271.117    21133270.270    21133277.849  
      2270.173        1768.967  
 -15933425.901   -12392795.945    21537271.896    21537271.782    21537277.250  
     -1680.020       -1309.100  
  -3977796.018    -2838252.897    23634723.425    23634723.268    23634732.222  
     -1911.895       -1489.787  
   3380200.696     2951061.516    25497415.405    25497415.523    25497426.104  
     -3083.522       -2402.740  
 99  8  3  1  4 30.0000000  0  9  1 14 15 16 21 22 25 29 30         
 -17360775.702   -13506589.303    21259148.910    21259148.473    21259154.814  
       518.619         404.118  
 -13370039.436   -10406605.034    22024088.242    22024088.132    22024096.006  
      2455.159        1913.104  
   1785229.777     1417494.667    23202543.862    23202543.121    23202554.059  
     -2388.628       -1861.256  
  -3329429.460    -2575283.239    24675345.218    24675344.541    24675354.602  
      3384.429        2637.227  
  -3043922.243    -2344577.556    24591398.204    24591397.942    24591413.360  
     -3821.530       -2977.811  
 -19714842.149   -15343612.625    21120353.320    21120352.493    21120360.031  
      2255.334        1757.400  
 -15882912.502   -12353434.849    21546884.357    21546884.216    21546889.643  
     -1687.378       -1314.838  
  -3920366.106    -2793502.371    23645652.039    23645651.806    23645660.846  
     -1916.721       -1493.542  
   3472847.231     3023253.622    25515045.303    25515045.472    25515056.295  
     -3092.722       -2409.919  
 99  8  3  1  5  0.0000000  0  9  1 14 15 16 21 22 25 29 30         
 -17376271.060   -13518663.554    21256200.104    21256199.733    21256206.115  
       514.503         400.908  
 -13443494.287   -10463842.517    22010110.229    22010110.181    22010117.908  
      2442.092        1902.923  
   1857027.094     1473440.524    23216206.297    23216205.675    23216216.654  
     -2397.605       -1868.259  
  -3430918.662    -2654365.673    24656032.305    24656031.697    24656041.709  
      3381.767        2635.125  
  -2929209.613    -2255191.319    24613226.982    24613227.086    24613242.522  
     -3825.899       -2981.204  
 -19782258.906   -15396145.078    21107524.242    21107523.442    21107530.973  
      2239.318        1744.920  
 -15832177.357   -12313900.969    21556538.973    21556538.814    21556544.234  
     -1694.725       -1320.567  
  -3862783.761    -2748633.051    23656609.697    23656609.407    23656618.298  
     -1921.852       -1497.548  
   3565765.074     3095657.087    25532726.807    25532727.195    25532738.227  
     -3101.507       -2416.773  
 99  8  3  1  5 30.0000000  0  9  1 14 15 16 21 22 25 29 30         
 -17391641.342   -13530640.348    21253275.140    21253274.768    21253281.178  
       510.315         397.648  
 -13516565.534   -10520781.078    21996205.272    21996205.151    21996212.712  
      2429.459        1893.087  
   1929089.808     1529593.179    23229919.545    23229918.896    23229929.824  
     -2406.326       -1875.052  
  -3532335.387    -2733391.615    24636733.345    24636732.752    24636742.709  
      3379.481        2633.357  
  -2814373.943    -2165709.199    24635079.914    24635079.867    24635095.227  
     -3829.664       -2984.138  
 -19849190.312   -15448299.336    21094787.544    21094786.765    21094794.327  
      2222.819        1732.064  
 -15781230.408   -12274202.058    21566233.812    21566233.669    21566239.121  
     -1701.526       -1325.858  
  -3805058.428    -2703652.326    23667594.562    23667594.223    23667603.049  
     -1926.411       -1501.097  
   3658934.907     3168256.897    25550456.634    25550456.974    25550467.885  
     -3109.728       -2423.152  
 99  8  3  1  6  0.0000000  0  9  1 14 15 16 21 22 25 29 30         
 -17406881.816   -13542515.988    21250374.900    21250374.540    21250380.977  
       505.759         394.096  
 -13589252.560   -10577420.247    21982373.370    21982373.222    21982380.647  
      2416.665        1883.112  
   2001414.613     1585950.062    23243682.649    23243682.010    23243692.890  
     -2415.135       -1881.915  
  -3633678.085    -2812359.855    24617448.391    24617447.733    24617457.745  
      3376.653        2631.160  
  -2699407.929    -2076125.483    24656957.755    24656957.537    24656972.701  
     -3834.575       -2987.978  
 -19915615.983   -15500059.521    21082147.225    21082146.395    21082153.830  
      2205.760        1718.773  
 -15730078.549   -12234343.472    21575967.612    21575967.450    21575972.988  
     -1708.307       -1331.148  
  -3747183.141    -2658554.724    23678607.818    23678607.446    23678616.203  
     -1931.734       -1505.232  
   3752357.378     3241053.587    25568234.360    25568234.723    25568245.365  
     -3118.123       -2429.705  
 99  8  3  1  6 30.0000000  0  9  1 14 15 16 21 22 25 29 30         
 -17421972.614   -13554275.000    21247503.241    21247502.848    21247509.265  
       500.361         389.890  
 -13661565.718   -10633768.098    21968612.699    21968612.484    21968619.782  
      2404.414        1873.565  
   2073998.360     1642508.731    23257495.239    23257494.476    23257505.309  
     -2423.647       -1888.555  
  -3734934.274    -2891260.712    24598180.096    24598179.345    24598189.203  
      3373.671        2628.834  
  -2584304.126    -1986434.405    24678861.381    24678861.156    24678876.288  
     -3838.970       -2991.396  
 -19981532.682   -15551423.100    21069603.703    21069602.840    21069610.157  
      2188.835        1705.585  
 -15678736.871   -12194336.974    21585737.465    21585737.390    21585742.988  
     -1714.146       -1335.702  
  -3689142.535    -2613328.297    23689652.159    23689652.200    23689660.933  
     -1937.393       -1509.665  
   3846017.9411    3314035.7521   25586057.0711   25586057.6701   25586068.3461 
     -3125.6261      -2435.5351 
 99  8  3  1  7  0.0000000  0  9  1 14 15 16 21 22 25 29 30         
 -17436895.149   -13565902.903    21244663.549    21244663.181    21244669.551  
       494.601         385.405  
 -13733511.708   -10689829.847    21954921.860    21954921.617    21954928.799  
      2392.135        1863.999  
   2146837.617     1699266.495    23271356.193    23271355.470    23271366.228  
     -2432.124       -1895.164  
  -3836082.607    -2970077.438    24578932.172    24578931.163    24578941.293  
      3369.390        2625.493  
  -2469063.893    -1896637.019    24700791.370    24700790.856    24700805.883  
     -3843.512       -2994.931  
 -20046932.169   -15602383.662    21057158.420    21057157.602    21057164.885  
      2171.435        1692.025  
 -15627231.734   -12154203.113    21595538.542    21595538.458    21595544.102  
     -1719.462       -1339.836  
  -3630936.696    -2567973.169    23700728.220    23700728.228    23700737.068  
     -1942.636       -1513.741  
   3939903.0381    3387192.9791   25603923.0521   25603923.5851   25603934.4591 
     -3133.3291      -2441.5391 
 99  8  3  1  7 30.0000000  0  9  1 14 15 16 21 22 25 29 30         
 -17451646.336   -13577397.288    21241856.470    21241856.152    21241862.538  
       488.865         380.929  
 -13805093.729   -10745607.988    21941300.243    21941300.012    21941307.093  
      2379.976        1854.522  
   2219929.461     1756221.081    23285265.232    23285264.555    23285275.173  
     -2440.542       -1901.722  
  -3937090.624    -3048784.916    24559710.775    24559709.880    24559719.897  
      3364.387        2621.603  
  -2353690.626    -1806735.986    24722746.792    24722746.050    24722760.890  
     -3847.981       -2998.429  
 -20111817.615   -15652943.662    21044810.890    21044810.116    21044817.438  
      2154.423        1678.765  
 -15575567.170   -12113945.024    21605369.965    21605369.898    21605375.575  
     -1724.810       -1344.006  
  -3572584.441    -2522503.943    23711831.938    23711832.039    23711841.063  
     -1947.638       -1517.634  
   4034020.131     3460530.931    25621833.566    25621833.693    25621844.742  
     -3141.206       -2447.684  
 99  8  3  1  8  0.0000000  0  9  1 14 15 16 21 22 25 29 30         
 -17466223.423   -13588756.011    21239082.645    21239082.258    21239088.610  
       482.744         376.164  
 -13876309.907   -10801101.050    21927748.254    21927748.000    21927755.011  
      2367.764        1845.010  
   2293270.529     1813369.869    23299221.679    23299221.024    23299231.527  
     -2448.890       -1908.221  
  -4037942.469    -3127370.663    24540519.216    24540518.246    24540528.185  
      3358.979        2617.398  
  -2238186.121    -1716732.673    24744726.857    24744726.079    24744740.977  
     -3852.271       -3001.769  
 -20176200.556   -15703112.105    21032559.044    21032558.272    21032565.605  
      2137.857        1665.862  
 -15523751.908   -12073569.518    21615230.095    21615230.006    21615235.719  
     -1729.488       -1347.651  
  -3514084.616    -2476919.724    23722964.234    23722964.328    23722973.203  
     -1952.251       -1521.239  
   4128377.1731    3534055.8551   25639789.0611   25639789.3101   25639800.2691 
     -3149.2041      -2453.8941 
 99  8  3  1  8 30.0000000  0  9  1 14 15 16 21 22 25 29 30         
 -17480608.764   -13599965.332    21236345.162    21236344.812    21236351.143  
       476.413         371.229  
 -13947162.508   -10856310.807    21914265.398    21914265.165    21914272.130  
      2355.568        1835.506  
   2366857.795     1870710.490    23313224.907    23313224.247    23313234.818  
     -2456.934       -1914.483  
  -4138628.815    -3205827.489    24521359.127    24521358.326    24521367.924  
      3353.534        2613.140  
  -2122563.687    -1626637.475    24766728.993    24766728.471    24766743.576  
     -3855.980       -3004.649  
 -20240089.396   -15752895.542    21020401.224    21020400.524    21020407.849  
      2121.419        1653.052  
 -15471799.438   -12033087.097    21625116.289    21625116.223    21625121.952  
     -1734.235       -1351.352  
  -3455459.928    -2431238.187    23734120.409    23734120.468    23734129.115  
     -1956.026       -1524.163  
   4222973.7261    3607767.3831   25657790.0261   25657790.6451   25657801.3111 
     -3157.3251      -2460.2741 
 99  8  3  1  9  0.0000000  0  9  1 14 15 16 21 22 25 29 30         
 -17494811.098   -13611032.055    21233642.581    21233642.178    21233648.414  
       470.557         366.667  
 -14017638.947   -10911227.465    21900854.056    21900853.896    21900860.853  
      2342.848        1825.598  
   2440687.395     1928239.948    23327274.390    23327273.687    23327284.367  
     -2465.034       -1920.800  
  -4239152.006    -3284157.163    24502230.211    24502229.428    24502238.856  
      3348.137        2608.932  
  -2006828.286    -1536454.224    24788752.823    24788752.273    24788767.450  
     -3859.618       -3007.489  
 -20303483.657   -15802293.579    21008337.640    21008336.864    21008344.205  
      2105.009        1640.262  
 -15419685.443   -11992478.814    21635033.254    21635033.161    21635038.909  
     -1740.074       -1355.901  
  -3396728.698    -2385473.635    23745296.914    23745296.898    23745305.378  
     -1959.591       -1526.953  
   4317821.5111    3681674.6401   25675839.8301   25675839.8191   25675849.8091 
     -3165.9551      -2467.0001 
 99  8  3  1  9 30.0000000  0  9  1 14 15 16 21 22 25 29 30         
 -17508846.783   -13621968.927    21230971.613    21230971.203    21230977.406  
       465.334         362.596  
 -14087732.121   -10965845.466    21887515.643    21887515.438    21887522.493  
      2329.973        1815.560  
   2514756.580     1985956.074    23341369.421    23341368.613    23341379.422  
     -2472.889       -1926.921  
  -4339522.262    -3362367.637    24483130.338    24483129.574    24483138.962  
      3343.353        2605.210  
  -1890988.148    -1446189.383    24810796.656    24810796.007    24810811.289  
     -3863.017       -3010.164  
 -20366393.858   -15851314.434    20996366.030    20996365.335    20996372.720  
      2089.053        1627.832  
 -15367396.973   -11951734.575    21644983.367    21644983.274    21644989.115  
     -1745.768       -1360.338  
  -3337873.719    -2339612.655    23756496.825    23756496.784    23756505.336  
     -1964.232       -1530.559  
   4412925.5831    3755781.7031   25693937.6711   25693937.6051   25693947.0731 
     -3174.2301      -2473.4441 
 99  8  3  1 10  0.0000000  0  9  1 14 15 16 21 22 25 29 30         
 -17522726.332   -13632784.136    21228330.385    21228329.984    21228336.192  
       460.035         358.465  
 -14157433.063   -11020157.839    21874251.744    21874251.625    21874258.845  
      2316.746        1805.255  
   2589061.597     2043855.950    23355509.216    23355508.365    23355519.446  
     -2480.679       -1932.997  
  -4439758.424    -3440473.646    24464056.081    24464055.316    24464064.551  
      3339.045        2601.852  
  -1775046.879    -1355845.720    24832859.571    24832858.906    24832874.362  
     -3866.381       -3012.757  
 -20428820.193   -15899958.245    20984486.804    20984486.026    20984493.301  
      2072.711        1615.095  
 -15314935.890   -11910855.818    21654966.389    21654966.283    21654972.141  
     -1751.629       -1364.909  
  -3278865.924    -2293632.594    23767725.817    23767725.694    23767734.387  
     -1969.547       -1534.711  
   4508277.7501    3830081.9751   25712082.3771   25712082.4701   25712091.9391 
     -3182.3171      -2479.7191 
 99  8  3  1 10 30.0000000  0  9  1 14 15 16 21 22 25 29 30         
 -17536456.393   -13643482.861    21225717.570    21225717.181    21225723.497  
       455.636         355.041  
 -14226729.879   -11074155.322    21861064.962    21861064.821    21861072.055  
      2303.075        1794.606  
   2663599.872     2101937.610    23369693.344    23369692.453    23369703.663  
     -2488.391       -1938.998  
  -4539866.533    -3518479.858    24445005.951    24445005.331    24445014.601  
      3334.889        2598.605  
  -1658994.963    -1265415.831    24854943.408    24854942.851    24854958.502  
     -3870.384       -3015.879  
 -20490750.152   -15948215.278    20972701.952    20972701.167    20972708.358  
      2056.041        1602.106  
 -15262284.524   -11869828.804    21664985.655    21664985.578    21664991.405  
     -1758.491       -1370.248  
  -3219687.598    -2247519.664    23778987.153    23778987.040    23778995.880  
     -1975.594       -1539.427  
   4603869.6331    3904569.1181   25730272.9981   25730273.2171   25730282.4661 
     -3190.3181      -2485.9511 
 99  8  3  1 11  0.0000000  0  9  1 14 15 16 21 22 25 29 30         
 -17550065.121   -13654087.045    21223127.927    21223127.521    21223133.818  
       451.743         352.006  
 -14295614.252   -11127831.420    21847956.686    21847956.571    21847963.723  
      2289.463        1783.997  
   2738367.531     2160197.989    23383920.922    23383920.248    23383931.477  
     -2495.970       -1944.920  
  -4639849.671    -3596388.663    24425979.682    24425979.148    24425988.415  
      3330.701        2595.362  
  -1542813.491    -1174885.001    24877051.821    24877051.461    24877067.333  
     -3874.842       -3019.369  
 -20552175.359   -15996078.992    20961013.130    20961012.328    20961019.524  
      2039.031        1588.852  
 -15209423.092   -11828638.088    21675044.933    21675044.846    21675050.591  
     -1765.218       -1375.496  
  -3160319.060    -2201258.537    23790284.556    23790284.506    23790293.546  
     -1982.236       -1544.601  
   4699700.4191    3979242.4441   25748509.1001   25748509.2631   25748518.5271 
     -3198.1371      -2492.0601 
 99  8  3  1 11 30.0000000  0  9  1 14 15 16 21 22 25 29 30         
 -17563552.325   -13664596.538    21220561.404    21220561.001    21220567.328  
       447.448         348.660  
 -14364091.684   -11181190.420    21834925.925    21834925.743    21834932.832  
      2275.786        1773.338  
   2813361.383     2218634.601    23398191.711    23398191.127    23398202.414  
     -2503.379       -1950.677  
  -4739703.620    -3674196.828    24406978.268    24406977.530    24406986.702  
      3326.543        2592.096  
  -1426494.579    -1084247.036    24899186.626    24899186.384    24899202.270  
     -3879.438       -3022.940  
 -20613077.799   -16043535.359    20949423.705    20949422.934    20949430.148  
      2021.394        1575.111  
 -15156370.040   -11787298.055    21685140.661    21685140.593    21685146.286  
     -1771.375       -1380.292  
  -3100748.722    -2154840.160    23801620.383    23801620.376    23801629.580  
     -1988.802       -1549.719  
   4795757.617     4054092.294    25766788.133    25766788.189    25766798.029  
     -3205.482       -2497.768  
 99  8  3  1 12  0.0000000  0  9  1 14 15 16 21 22 25 29 30         
 -17576897.369   -13674995.265    21218021.981    21218021.524    21218027.883  
       442.266         344.621  
 -14432152.664   -11234224.912    21821974.354    21821974.114    21821981.204  
      2261.684        1762.352  
   2888578.242     2277245.014    23412505.089    23412504.493    23412515.645  
     -2510.932       -1956.569  
  -4839435.460    -3751909.827    24388000.233    24387999.228    24388008.411  
      3322.168        2588.700  
  -1310033.989     -993498.660    24921348.518    24921348.275    24921364.156  
     -3884.344       -3026.751  
 -20673444.909   -16090574.590    20937936.179    20937935.430    20937942.642  
      2003.180        1560.916  
 -15103131.714   -11745813.651    21695271.652    21695271.557    21695277.261  
     -1777.726       -1385.240  
  -3040992.478    -2108276.928    23812991.753    23812991.678    23813000.929  
     -1994.795       -1554.390  
   4892035.248     4129113.948    25785108.707    25785109.099    25785119.120  
     -3213.074       -2503.722  
 99  8  3  1 12 30.0000000  0  9  1 14 15 16 21 22 25 29 30         
 -17590098.831   -13685282.114    21215509.780    21215509.320    21215515.744  
       437.739         341.098  
 -14499796.394   -11286934.268    21809101.990    21809101.869    21809109.022  
      2247.764        1751.506  
   2964015.027     2336026.767    23426860.369    23426859.829    23426870.884  
     -2518.304       -1962.312  
  -4939036.372    -3829520.809    24369046.701    24369045.677    24369054.942  
      3317.624        2585.167  
  -1193434.696     -902642.215    24943536.803    24943536.555    24943552.510  
     -3888.698       -3030.150  
 -20733272.531   -16137193.442    20926551.384    20926550.566    20926557.721  
      1985.127        1546.850  
 -15049715.230   -11704190.417    21705436.523    21705436.377    21705442.135  
     -1783.403       -1389.666  
  -2981068.532    -2061583.019    23824395.036    23824395.010    23824404.226  
     -2000.146       -1558.555  
   4988533.2461    4204307.2911   25803472.0321   25803472.0981   25803482.0591 
     -3220.4251      -2509.4451 
 99  8  3  1 13  0.0000000  0  9  1 14 15 16 21 22 25 29 30         
 -17603155.384   -13695456.046    21213025.211    21213024.750    21213031.161  
       432.479         337.002  
 -14567025.189   -11339320.296    21796308.718    21796308.666    21796315.747  
      2234.052        1740.821  
   3039668.209     2394977.126    23441256.962    23441256.326    23441267.374  
     -2525.381       -1967.822  
  -5038497.593    -3907022.964    24350119.620    24350118.773    24350128.094  
      3313.056        2581.608  
  -1076721.600     -811697.090    24965746.360    24965746.466    24965762.421  
     -3892.060       -3032.775  
 -20792549.133   -16183382.916    20915271.340    20915270.534    20915277.652  
      1966.608        1532.419  
 -14996140.246   -11662443.674    21715631.504    21715631.372    21715637.156  
     -1788.246       -1393.437  
  -2920992.790    -2014770.797    23835827.299    23835827.256    23835836.322  
     -2004.920       -1562.274  
   5085260.0561    4279678.9681   25821878.9331   25821878.7781   25821888.6271 
     -3228.0971      -2515.4151 
 99  8  3  1 13 30.0000000  0  9  1 14 15 16 21 22 25 29 30         
 -17616041.873   -13705497.461    21210573.002    21210572.524    21210578.892  
       426.617         332.430  
 -14633835.960   -11391380.577    21783595.098    21783595.029    21783602.015  
      2219.953        1729.830  
   3115534.425     2454093.485    23455693.965    23455693.221    23455704.382  
     -2532.371       -1973.266  
  -5137821.087    -3984417.773    24331218.616    24331217.899    24331227.401  
      3308.528        2578.058  
   -959924.645     -720686.637    24987972.193    24987972.319    24987988.309  
     -3894.299       -3034.528  
 -20851273.953   -16229142.432    20904096.314    20904095.506    20904102.621  
      1948.441        1518.266  
 -14942424.179   -11620586.997    21725853.292    21725853.191    21725859.012  
     -1792.918       -1397.076  
  -2860773.944    -1967847.072    23847286.737    23847286.658    23847295.570  
     -2009.534       -1565.869  
   5182213.0641    4355226.7551   25840328.5531   25840328.4211   25840338.0091 
     -3236.2731      -2521.6581 
 99  8  3  1 14  0.0000000  0  9  1 14 15 16 21 22 25 29 30         
 -17628749.830   -13715399.751    21208154.767    21208154.254    21208160.594  
       420.719         327.823  
 -14700219.061   -11443107.611    21770962.938    21770962.805    21770969.620  
      2205.706        1718.726  
   3191610.763     2513373.558    23470170.912    23470170.099    23470181.429  
     -2539.285       -1978.658  
  -5237000.516    -4061700.353    24312345.183    24312344.597    24312354.145  
      3303.242        2573.945  
   -843064.468     -629626.914    25010210.446    25010210.235    25010226.233  
     -3896.295       -3036.076  
 -20909453.586   -16274477.134    20893025.092    20893024.263    20893031.300  
      1930.231        1504.071  
 -14888563.379   -11578617.544    21736102.540    21736102.508    21736108.399  
     -1797.800       -1400.886  
  -2800411.346    -1920811.315    23858773.383    23858773.287    23858782.129  
     -2014.576       -1569.795  
   5279401.2561    4430957.9461   25858822.8171   25858822.7941   25858832.0781 
     -3243.5761      -2527.4521 
 99  8  3  1 14 30.0000000  0  9  1 14 15 16 21 22 25 29 30         
 -17641286.807   -13725168.816    21205769.036    21205768.564    21205774.854  
       415.036         323.403  
 -14766173.720   -11494500.781    21758412.310    21758412.100    21758418.772  
      2191.206        1707.433  
   3267893.769     2572814.685    23484687.100    23484686.356    23484697.661  
     -2546.222       -1984.067  
  -5336007.414    -4138848.505    24293504.874    24293504.118    24293513.623  
      3297.340        2569.353  
   -726143.660     -538519.955    25032460.008    25032459.758    25032475.703  
     -3898.515       -3037.791  
 -20967086.023   -16319385.448    20882057.871    20882057.083    20882064.128  
      1911.888        1489.780  
 -14834555.863   -11536533.761    21746379.819    21746379.757    21746385.678  
     -1802.680       -1404.687  
  -2739901.073    -1873660.472    23870288.012    23870288.007    23870296.828  
     -2019.532       -1573.656  
   5376822.1211    4506870.4421   25877361.4251   25877361.2961   25877370.5711 
     -3251.1551      -2533.3801 
 99  8  3  1 15  0.0000000  0  9  1 14 15 16 21 22 25 29 30         
 -17653649.234   -13734801.869    21203416.558    21203416.076    21203422.356  
       408.953         318.667  
 -14831695.487   -11545556.632    21745943.872    21745943.644    21745950.305  
      2176.832        1696.227  
   3344379.997     2632414.150    23499242.216    23499241.491    23499252.734  
     -2552.974       -1989.317  
  -5434839.629    -4215860.536    24274697.743    24274696.970    24274706.426  
      3291.318        2564.651  
   -609155.737     -447360.647    25054722.359    25054721.993    25054737.993  
     -3900.862       -3039.633  
 -21024172.141   -16363868.064    20871194.678    20871193.914    20871200.877  
      1894.026        1475.864  
 -14780396.215   -11494331.436    21756686.092    21756686.018    21756691.908  
     -1808.168       -1408.963  
  -2679238.676    -1826391.134    23881831.712    23881831.713    23881840.611  
     -2024.708       -1577.691  
   5474472.6461    4582961.9271   25895943.3731   25895943.3391   25895952.7411 
     -3258.4551      -2539.1171 
 99  8  3  1 15 30.0000000  0  9  1 14 15 16 21 22 25 29 30         
 -17665832.441   -13744295.262    21201098.161    21201097.691    21201103.940  
       403.301         314.263  
 -14896787.564   -11596277.663    21733557.208    21733556.936    21733563.617  
      2162.627        1685.162  
   3421066.218     2692169.477    23513835.338    23513834.618    23513845.708  
     -2559.493       -1994.404  
  -5533482.120    -4292724.735    24255926.795    24255925.879    24255935.291  
      3284.691        2559.497  
   -492095.976     -356145.382    25076997.984    25076997.826    25077014.002  
     -3903.203       -3041.445  
 -21080735.867   -16407943.618    20860430.946    20860430.167    20860437.042  
      1876.710        1462.370  
 -14726067.488   -11451997.355    21767024.588    21767024.498    21767030.275  
     -1813.937       -1413.456  
  -2618415.328    -1778996.354    23893406.111    23893406.119    23893414.957  
     -2030.152       -1581.940  
   5572339.6021    4659221.7721   25914566.3061   25914566.1201   25914576.1581 
     -3265.5441      -2544.5761 
 99  8  3  1 16  0.0000000  0  8  1 14 15 16 21 22 25 29            
 -17677854.722   -13753663.264    21198810.392    21198809.948    21198816.152  
       398.131         310.232  
 -14961452.384   -11646665.748    21721251.772    21721251.552    21721258.347  
      2148.354        1674.040  
   3497949.296     2752078.182    23528465.959    23528465.205    23528476.399  
     -2566.125       -1999.578  
  -5631918.691    -4369428.463    24237194.807    24237193.975    24237203.381  
      3277.635        2554.002  
   -374951.109     -264863.772    25099290.052    25099289.850    25099306.192  
     -3906.662       -3044.175  
 -21136769.088   -16451605.789    20849768.183    20849767.350    20849774.158  
      1858.793        1448.403  
 -14671563.816   -11409526.954    21777396.465    21777396.330    21777401.986  
     -1819.681       -1417.936  
  -2557427.343    -1731473.334    23905011.743    23905011.671    23905020.739  
     -2035.665       -1586.246  
 99  8  3  1 16 30.0000000  0  8  1 14 15 16 21 22 25 29            
 -17689733.676   -13762919.574    21196549.932    21196549.495    21196555.686  
       393.580         306.687  
 -15025698.064   -11696727.238    21709026.234    21709025.990    21709032.833  
      2134.552        1663.288  
   3575026.078     2812137.819    23543133.261    23543132.518    23543143.951  
     -2572.399       -2004.458  
  -5730149.658    -4445972.020    24218501.986    24218501.231    24218510.538  
      3271.134        2548.930  
   -257712.442     -173509.061    25121599.744    25121599.518    25121616.176  
     -3909.433       -3046.323  
 -21192275.110   -16494857.162    20839205.694    20839204.849    20839211.595  
      1841.444        1434.890  
 -14616896.297   -11366928.887    21787799.435    21787799.288    21787804.862  
     -1824.846       -1421.959  
  -2496290.637    -1683834.399    23916645.834    23916645.553    23916654.796  
     -2040.268       -1589.817  
 99  8  3  1 17  0.0000000  0  8  1 14 15 16 21 22 25 29            
 -17701469.467   -13772064.331    21194316.622    21194316.212    21194322.485  
       388.724         302.904  
 -15089529.726   -11746466.109    21696879.499    21696879.235    21696886.090  
      2120.940        1652.678  
   3652292.969     2872345.582    23557836.675    23557836.023    23557847.573  
     -2578.631       -2009.315  
  -5828182.236    -4522360.925    24199846.872    24199846.233    24199855.550  
      3264.518        2543.776  
   -140397.566      -82094.934    25143923.664    25143923.742    25143940.568  
     -3911.537       -3047.935  
 -21247259.890   -16537702.380    20828742.410    20828741.550    20828748.195  
      1824.319        1421.549  
 -14562066.895   -11324204.687    21798233.047    21798232.981    21798238.532  
     -1830.392       -1426.280  
  -2435008.595    -1636082.207    23928307.541    23928307.187    23928316.435  
     -2045.137       -1593.608  
 99  8  3  1 17 30.0000000  0  8  1 14 15 16 21 22 25 29            
 -17713050.867   -13781088.778    21192112.758    21192112.300    21192118.583  
       383.446         298.784  
 -15152947.409   -11795882.396    21684811.442    21684811.173    21684818.121  
      2106.876        1641.710  
   3729746.565     2932698.818    23572575.815    23572575.186    23572586.787  
     -2584.866       -2014.173  
  -5926021.834    -4598599.511    24181228.735    24181227.960    24181237.119  
      3258.343        2538.969  
    -23016.682        9370.653    25166260.773    25166260.603    25166277.364  
     -3913.933       -3049.830  
 -21301719.781   -16580138.585    20818378.943    20818378.070    20818384.786  
      1806.238        1407.452  
 -14507077.245   -11281355.625    21808697.253    21808697.155    21808702.699  
     -1835.515       -1430.276  
  -2373581.709    -1588217.166    23939996.570    23939996.354    23940005.620  
     -2049.999       -1597.399  
 99  8  3  1 18  0.0000000  0  8  1 14 15 16 21 22 25 29            
 -17724474.831   -13789990.547    21189938.769    21189938.331    21189944.710  
       378.079         294.608  
 -15215944.273   -11844970.775    21672823.415    21672823.197    21672830.150  
      2092.891        1630.822  
   3807383.822     2993195.186    23587349.995    23587349.353    23587360.854  
     -2590.844       -2018.838  
  -6023695.268    -4674708.538    24162641.968    24162641.202    24162650.475  
      3253.281        2535.010  
     94433.604      100890.376    25188611.196    25188610.881    25188627.439  
     -3916.122       -3051.504  
 -21355633.977   -16622149.571    20808119.281    20808118.471    20808125.236  
      1788.260        1393.444  
 -14451946.976   -11238396.980    21819188.148    21819188.084    21819193.524  
     -1839.742       -1433.567  
  -2312017.568    -1540245.178    23951711.742    23951711.526    23951720.852  
     -2054.317       -1600.773  
 99  8  3  1 18 30.0000000  0  8  1 14 15 16 21 22 25 29            
 -17735723.409   -13798755.654    21187798.194    21187797.810    21187804.161  
       371.865         289.767  
 -15278520.031   -11893731.022    21660915.561    21660915.316    21660922.270  
      2078.794        1619.834  
   3885201.421     3053832.099    23602158.372    23602157.809    23602169.225  
     -2596.879       -2023.534  
  -6121211.794    -4750695.335    24144085.039    24144084.332    24144093.637  
      3247.867        2530.805  
    211948.770      192460.649    25210973.449    25210973.370    25210989.903  
     -3918.126       -3053.066  
 -21409008.232   -16663739.816    20797962.523    20797961.652    20797968.452  
      1770.015        1379.233  
 -14396678.650   -11195330.764    21829705.463    21829705.299    21829710.755  
     -1844.696       -1437.422  
  -2250315.368    -1492165.612    23963453.172    23963453.089    23963462.355  
     -2059.259       -1604.605  
 99  8  3  1 19  0.0000000  0  8  1 14 15 16 21 22 25 29            
 -17746779.535   -13807370.795    21185694.409    21185693.947    21185700.184  
       365.294         284.645  
 -15340670.008   -11942159.494    21649088.672    21649088.419    21649095.390  
      2064.492        1608.699  
   3963196.081     3114606.969    23617000.284    23616999.727    23617011.221  
     -2602.705       -2028.080  
  -6218565.967    -4826555.598    24125558.997    24125558.304    24125567.638  
      3242.421        2526.555  
    329524.685      284078.277    25233347.685    25233347.430    25233363.918  
     -3920.410       -3054.856  
 -21461828.093   -16704898.079    20787911.098    20787910.288    20787917.125  
      1751.436        1364.755  
 -14341260.811   -11152148.028    21840251.130    21840250.948    21840256.427  
     -1849.723       -1441.342  
  -2188452.281    -1443960.677    23975225.310    23975225.318    23975234.581  
     -2064.809       -1608.938  
 99  8  3  1 19 30.0000000  0  8  1 14 15 16 21 22 25 29            
 -17757646.409   -13815838.466    21183626.543    21183626.055    21183632.279  
       359.264         279.949  
 -15402386.164   -11990249.932    21637344.400    21637344.145    21637351.051  
      2049.877        1597.308  
   4041364.492     3175517.233    23631875.311    23631874.752    23631886.259  
     -2608.546       -2032.624  
  -6315755.433    -4902287.512    24107064.345    24107063.625    24107073.031  
      3236.692        2522.093  
    447191.942      375767.159    25255739.479    25255738.922    25255755.331  
     -3923.915       -3057.569  
 -21514086.244   -16745618.644    20777966.614    20777965.873    20777972.603  
      1732.491        1349.997  
 -14285700.730   -11108854.454    21850823.772    21850823.630    21850829.134  
     -1854.271       -1444.882  
  -2126429.358    -1395631.181    23987027.824    23987027.995    23987037.345  
     -2070.082       -1613.044  
 99  8  3  1 20  0.0000000  0  8  1 14 15 16 21 22 25 29            
 -17768343.582   -13824173.901    21181590.867    21181590.397    21181596.607  
       353.801         275.689  
 -15463662.792   -12037997.882    21625683.816    21625683.575    21625690.445  
      2035.098        1585.791  
   4119703.183     3236560.174    23646782.887    23646782.176    23646793.831  
     -2614.107       -2036.956  
  -6412762.201    -4977877.040    24088604.421    24088603.731    24088613.202  
      3230.289        2517.109  
    564962.044      467536.123    25278150.377    25278149.936    25278166.198  
     -3927.103       -3060.075  
 -21565782.748   -16785901.565    20768129.084    20768128.303    20768135.083  
      1714.030        1335.605  
 -14230006.194   -11065456.120    21861422.010    21861421.870    21861427.443  
     -1858.767       -1448.391  
  -2064247.388    -1347177.756    23998860.713    23998860.859    23998870.278  
     -2075.399       -1617.195  
 99  8  3  1 20 30.0000000  0  8  1 14 15 16 21 22 25 29            
 -17778875.878   -13832380.861    21179586.550    21179586.100    21179592.333  
       348.366         271.453  
 -15524493.233   -12085398.148    21614108.141    21614107.918    21614114.791  
      2020.161        1574.148  
   4198209.055     3297733.416    23661722.150    23661721.500    23661733.193  
     -2619.711       -2041.330  
  -6509557.042    -5053301.422    24070184.520    24070184.110    24070193.718  
      3222.648        2511.144  
    682831.960      559382.896    25300580.172    25300579.639    25300595.969  
     -3930.663       -3062.838  
 -21616925.086   -16825752.671    20758397.038    20758396.263    20758402.993  
      1695.490        1321.158  
 -14174165.647   -11021944.018    21872048.067    21872047.899    21872053.540  
     -1863.849       -1452.351  
  -2001904.912    -1298599.281    24010724.180    24010724.368    24010733.841  
     -2080.708       -1621.321  
 99  8  3  1 21  0.0000000  0  8  1 14 15 16 21 22 25 29            
 -17789249.564   -13840464.234    21177612.369    21177611.981    21177618.276  
       343.262         267.477  
 -15584863.070   -12132439.509    21602620.128    21602619.952    21602626.776  
      2004.378        1561.847  
   4276879.067     3359034.512    23676692.463    23676691.827    23676703.826  
     -2625.147       -2045.564  
  -6606123.693    -5128547.972    24051808.153    24051807.832    24051817.624  
      3215.114        2505.276  
    800805.560      651310.510    25323029.761    25323029.200    25323045.357  
     -3934.266       -3065.672  
 -21667512.850   -16865171.643    20748770.554    20748769.764    20748776.404  
      1676.999        1306.749  
 -14118183.111   -10978321.284    21882701.053    21882700.950    21882706.595  
     -1868.463       -1455.943  
  -1939408.311    -1249900.714    24022617.104    24022617.176    24022626.626  
     -2085.533       -1625.090  
 99  8  3  1 21 30.0000000  0  8  1 14 15 16 21 22 25 29            
 -17799476.397   -13848433.175    21175666.290    21175665.860    21175672.150  
       338.339         263.641  
 -15644759.672   -12179112.110    21591222.221    21591221.956    21591228.753  
      1988.785        1549.707  
   4355709.882     3420460.919    23691693.651    23691692.965    23691705.091  
     -2630.248       -2049.540  
  -6702471.557    -5203624.047    24033473.532    24033473.188    24033483.059  
      3208.001        2499.724  
    918873.436      743311.489    25345496.947    25345496.816    25345512.883  
     -3936.568       -3067.466  
 -21717547.239   -16904159.411    20739249.287    20739248.517    20739255.044  
      1658.576        1292.396  
 -14062059.096   -10934588.297    21893381.176    21893381.015    21893386.713  
     -1873.093       -1459.549  
  -1876772.615    -1201093.764    24034536.598    24034536.463    24034545.972  
     -2090.239       -1628.740  
 99  8  3  1 22  0.0000000  0  8  1 14 15 16 21 22 25 29            
 -17809543.732   -13856277.839    21173750.512    21173750.090    21173756.357  
       332.690         259.236  
 -15704181.256   -12225414.572    21579914.549    21579914.315    21579921.089  
      1972.697        1537.162  
   4434698.185     3482010.090    23706724.990    23706724.158    23706736.177  
     -2635.615       -2053.731  
  -6798608.122    -5278535.503    24015179.256    24015178.995    24015188.797  
      3201.081        2494.338  
   1036989.1321     835349.8411   25367973.2541   25367973.5321   25367989.6791 
     -3937.7541      -3068.3811 
 -21767022.075   -16942711.168    20729834.474    20729833.701    20729840.186  
      1639.834        1277.788  
 -14005791.477   -10890743.409    21904088.515    21904088.417    21904094.083  
     -1878.125       -1463.477  
  -1813986.718    -1152169.751    24046484.479    24046484.278    24046493.667  
     -2095.528       -1632.870  
 99  8  3  1 22 30.0000000  0  8  1 14 15 16 21 22 25 29            
 -17819437.847   -13863987.531    21171867.801    21171867.315    21171873.530  
       326.926         254.747  
 -15763133.877   -12271351.612    21568696.204    21568695.907    21568702.708  
      1957.426        1525.265  
   4513840.443     3543679.212    23721785.353    23721784.522    23721796.647  
     -2640.592       -2057.603  
  -6894540.475    -5353287.841    23996923.657    23996923.522    23996933.272  
      3194.448        2489.173  
   1155125.426      927404.245    25390453.799    25390454.163    25390470.344  
     -3938.183       -3068.695  
 -21815943.008   -16980831.312    20720524.953    20720524.217    20720530.787  
      1621.597        1263.579  
 -13949374.110   -10846781.826    21914824.361    21914824.320    21914829.932  
     -1883.028       -1467.293  
  -1751046.336    -1103125.391    24058461.670    24058461.427    24058470.855  
     -2100.494       -1636.741  
 99  8  3  1 23  0.0000000  0  8  1 14 15 16 21 22 25 29            
 -17829159.267   -13871562.660    21170017.769    21170017.314    21170023.568  
       321.197         250.280  
 -15821626.078   -12316929.895    21557565.439    21557565.178    21557571.976  
      1942.149        1513.361  
   4593133.761     3605466.037    23736874.252    23736873.601    23736885.938  
     -2645.673       -2061.555  
  -6990283.179    -5427892.408    23978704.435    23978704.203    23978713.896  
      3188.532        2484.563  
   1273269.0791    1019464.4031   25412935.3631   25412936.0041   25412952.2341 
     -3938.1831      -3068.6481 
 -21864315.847   -17018524.371    20711319.816    20711319.047    20711325.720  
      1603.180        1249.230  
 -13892816.384   -10802710.883    21925586.969    21925586.901    21925592.507  
     -1887.633       -1470.876  
  -1687950.673    -1053960.019    24070468.348    24070468.137    24070477.432  
     -2105.942       -1641.003  
 99  8  3  1 23 30.0000000  0  8  1 14 15 16 21 22 25 29            
 -17838703.907   -13879000.034    21168201.426    21168200.996    21168207.232  
       314.908         245.386  
 -15879675.434   -12362163.109    21546518.986    21546518.722    21546525.510  
      1927.691        1502.102  
   4672574.808     3667367.997    23751991.516    23751990.894    23752003.041  
     -2650.461       -2065.278  
  -7085854.707    -5502363.608    23960517.715    23960517.443    23960527.023  
      3182.711        2480.027  
   1391409.4601    1111522.0381   25435416.7041   25435417.1471   25435433.4841 
     -3938.0021      -3068.5911 
 -21912136.703   -17055787.319    20702219.746    20702218.979    20702225.666  
      1584.755        1234.871  
 -13836117.280   -10758529.773    21936376.421    21936376.389    21936382.007  
     -1892.166       -1474.416  
  -1624688.320    -1004664.762    24082506.693    24082506.554    24082515.787  
     -2111.802       -1645.563  
 99  8  3  1 24  0.0000000  0  8  1 14 15 16 21 22 25 29            
 -17848058.178   -13886289.061    21166421.361    21166420.918    21166427.153  
       308.876         240.682  
 -15937285.393   -12407053.929    21535556.151    21535555.845    21535562.696  
      1912.985        1490.637  
   4752159.972     3729382.254    23767136.233    23767135.667    23767147.585  
     -2655.175       -2068.952  
  -7181238.214    -5576688.311    23942366.703    23942366.401    23942375.882  
      3176.117        2474.887  
   1509557.1111    1203585.3221   25457899.3991   25457899.7981   25457916.1701 
     -3938.2501      -3068.7451 
 -21959397.033   -17092613.492    20693226.260    20693225.510    20693232.270  
      1566.077        1220.320  
 -13779288.489   -10714247.611    21947190.641    21947190.628    21947196.225  
     -1896.383       -1477.696  
  -1561246.697     -955229.841    24094579.241    24094579.215    24094588.275  
     -2117.585       -1650.047  
 99  8  3  1 24 30.0000000  0  8  1 14 15 16 21 22 25 29            
 -17857231.928   -13893437.419    21164675.610    21164675.208    21164681.404  
       302.722         235.891  
 -15994459.713   -12451605.309    21524676.164    21524675.876    21524682.680  
      1898.493        1479.351  
   4831886.153     3791506.394    23782307.927    23782307.282    23782318.917  
     -2659.857       -2072.606  
  -7276419.797    -5650855.656    23924254.228    23924253.765    23924263.297  
      3169.344        2469.621  
   1627743.5181    1295679.1721   25480389.0951   25480389.9421   25480405.9481 
     -3940.5681      -3070.4961 
 -22006091.881   -17128999.023    20684340.362    20684339.639    20684346.498  
      1546.784        1205.292  
 -13722333.620   -10669867.214    21958028.855    21958028.823    21958034.423  
     -1900.475       -1480.884  
  -1497633.743     -905661.350    24106684.396    24106684.500    24106693.466  
     -2123.253       -1654.462  
 99  8  3  1 25  0.0000000  0  8  1 14 15 16 21 22 25 29            
 -17866217.220   -13900438.928    21162965.824    21162965.410    21162971.560  
       296.272         230.856  
 -16051186.825   -12495808.211    21513881.258    21513880.989    21513887.773  
      1883.215        1467.436  
   4911750.157     3853737.919    23797505.775    23797505.086    23797516.733  
     -2664.425       -2076.177  
  -7371402.995    -5724868.480    23906179.607    23906178.996    23906188.333  
      3162.801        2464.509  
   1745985.4561    1387815.6831   25502889.4521   25502890.4681   25502906.4041 
     -3942.6391      -3072.1451 
 -22052188.073   -17164918.075    20675568.509    20675567.735    20675574.542  
      1526.203        1189.247  
 -13665261.048   -10625395.098    21968889.428    21968889.369    21968894.935  
     -1904.440       -1483.978  
  -1433845.327     -855956.172    24118822.932    24118823.071    24118832.189  
     -2129.421       -1659.289  
 99  8  3  1 25 30.0000000  0  8  1 14 15 16 21 22 25 29            
 -17874998.202   -13907281.238    21161294.869    21161294.428    21161300.567  
       289.127         225.295  
 -16107442.691   -12539643.913    21503176.069    21503175.811    21503182.622  
      1867.111        1454.897  
   4991748.470     3916074.139    23812729.402    23812728.590    23812740.065  
     -2668.843       -2079.615  
  -7466180.372    -5798720.911    23888144.157    23888143.375    23888152.607  
      3155.570        2458.881  
   1864297.7311    1480007.2481   25525403.0621   25525404.1821   25525420.3221 
     -3944.9031      -3073.9151 
 -22097654.238   -17200346.194    20666916.588    20666915.793    20666922.547  
      1505.018        1172.741  
 -13608060.021   -10580822.898    21979774.466    21979774.350    21979779.921  
     -1908.911       -1487.457  
  -1369862.585     -806099.551    24130998.517    24130998.603    24131007.748  
     -2136.111       -1664.494  
 99  8  3  1 26  0.0000000  0  8  1 14 15 16 21 22 25 29            
 -17883573.869   -13913963.568    21159662.953    21159662.550    21159668.645  
       282.894         220.440  
 -16163213.544   -12583101.687    21492563.206    21492562.933    21492569.781  
      1851.154        1442.461  
   5071877.802     3978512.419    23827977.632    23827976.904    23827988.440  
     -2673.005       -2082.848  
  -7560734.993    -5872399.792    23870150.939    23870150.138    23870159.305  
      3148.265        2453.193  
   1982683.1281    1572255.7331   25547931.4301   25547931.8741   25547948.1061 
     -3936.4321      -3075.4641 
 -22142491.558   -17235284.309    20658384.266    20658383.499    20658390.245  
      1484.497        1156.755  
 -13550728.016   -10536148.636    21990684.522    21990684.357    21990689.886  
     -1913.248       -1490.839  
  -1305685.054     -756091.159    24143211.148    24143211.226    24143220.236  
     -2142.233       -1669.260  
 99  8  3  1 26 30.0000000  0  7  1 14 15 16 22 25 29               
 -17891952.083   -13920492.030    21158068.737    21158068.251    21158074.266  
       275.924         215.008  
 -16218499.471   -12626181.592    21482042.543    21482042.316    21482049.217  
      1834.680        1429.620  
   5152135.172     4041050.462    23843250.062    23843249.365    23843261.093  
     -2677.302       -2086.201  
  -7655067.138    -5945905.312    23852200.076    23852199.292    23852208.411  
      3140.871        2447.428  
 -22186711.360   -17269741.233    20649969.451    20649968.702    20649975.484  
      1463.807        1140.628  
 -13493250.514   -10491360.997    22001622.007    22001621.942    22001627.641  
     -1918.320       -1494.796  
  -1241319.475     -705936.231    24155459.576    24155459.792    24155468.669  
     -2148.532       -1674.179  
 99  8  3  1 27  0.0000000  0  7  1 14 15 16 22 25 29               
 -17900128.463   -13926863.214    21156512.757    21156512.290    21156518.319  
       269.503         210.002  
 -16273282.538   -12668869.663    21471617.670    21471617.417    21471624.351  
      1817.800        1416.469  
   5232517.305     4103685.723    23858546.125    23858545.553    23858557.477  
     -2681.306       -2089.329  
  -7749176.958    -6019237.598    23834291.624    23834290.804    23834299.852  
      3133.233        2441.481  
 -22230319.120   -17303721.245    20641671.108    20641670.368    20641677.205  
      1443.870        1125.093  
 -13435620.570   -10446454.574    22012588.680    22012588.578    22012594.436  
     -1923.461       -1498.799  
  -1176766.365     -655635.184    24167743.919    24167743.919    24167752.863  
     -2154.691       -1678.969  
 99  8  3  1 27 30.0000000  0  7  1 14 15 16 22 25 29               
 -17908125.005   -13933094.259    21154990.964    21154990.539    21154996.639  
       263.690         205.466  
 -16327564.654   -12711167.388    21461288.062    21461287.867    21461294.763  
      1801.247        1403.563  
   5313020.992     4166415.687    23873865.583    23873864.959    23873877.034  
     -2685.561       -2092.646  
  -7843045.864    -6092382.149    23816428.969    23816428.162    23816437.122  
      3124.741        2434.865  
 -22273350.984   -17337252.513    20633482.482    20633481.736    20633488.510  
      1425.091        1110.460  
 -13377842.548   -10401432.765    22023583.587    22023583.425    22023589.331  
     -1928.220       -1502.511  
  -1112035.549     -605195.644    24180061.805    24180061.679    24180070.943  
     -2160.330       -1683.373  
 99  8  3  1 28  0.0000000  0  7  1 14 15 16 22 25 29               
 -17915968.420   -13939205.983    21153498.475    21153498.026    21153504.083  
       259.004         201.815  
 -16381361.722   -12753087.157    21451050.816    21451050.569    21451057.480  
      1785.052        1390.948  
   5393642.827     4229237.710    23889207.698    23889206.910    23889219.157  
     -2689.385       -2095.622  
  -7936661.945    -6165329.683    23798614.301    23798613.511    23798622.555  
      3116.259        2428.257  
 -22315832.000   -17370354.555    20625398.599    20625397.826    20625404.621  
      1406.810        1096.214  
 -13319937.787   -10356312.206    22034602.495    22034602.338    22034608.296  
     -1932.258       -1505.654  
  -1047161.757     -554644.730    24192406.722    24192406.577    24192416.121  
     -2164.576       -1686.688  
 99  8  3  1 28 30.0000000  0  7  1 14 15 16 22 25 29               
 -17923662.359   -13945201.231    21152034.345    21152033.889    21152039.954  
       253.658         197.652  
 -16434666.122   -12794623.036    21440907.291    21440907.014    21440913.968  
      1768.516        1378.062  
   5474379.498     4292149.216    23904571.393    23904570.583    23904583.005  
     -2693.205       -2098.597  
  -8030030.418    -6238084.303    23780846.902    23780846.031    23780855.059  
      3108.240        2422.008  
 -22357758.385   -17403024.419    20617420.187    20617419.485    20617426.256  
      1388.197        1081.714  
 -13261914.219   -10311099.068    22045643.982    22045643.843    22045649.910  
     -1935.901       -1508.493  
   -982161.649     -503995.334    24204775.956    24204775.736    24204785.261  
     -2168.929       -1690.069  
 99  8  3  1 29  0.0000000  0  7  1 14 15 16 22 25 29               
 -17931195.229   -13951070.961    21150600.813    21150600.374    21150606.412  
       248.252         193.439  
 -16487480.153   -12835776.816    21430857.101    21430856.832    21430863.763  
      1752.279        1365.413  
   5555228.141     4355147.989    23919956.582    23919955.799    23919968.101  
     -2696.919       -2101.496  
  -8123155.647    -6310649.365    23763125.654    23763124.869    23763133.877  
      3099.967        2415.539  
 -22399128.053   -17435260.471    20609547.906    20609547.101    20609553.856  
      1369.538        1067.168  
 -13203795.924   -10265812.107    22056703.485    22056703.358    22056709.470  
     -1938.819       -1510.768  
   -917028.309     -453242.123    24217170.034    24217170.036    24217179.714  
     -2173.606       -1693.723  
 99  8  3  1 29 30.0000000  0  7  1 14 15 16 22 25 29               
 -17938561.920   -13956811.204    21149198.885    21149198.474    21149204.551  
       242.542         188.992  
 -16539812.287   -12876555.087    21420898.520    21420898.268    21420905.200  
      1736.400        1353.034  
   5636185.363     4418231.318    23935362.449    23935361.546    23935374.029  
     -2700.290       -2104.112  
  -8216037.202    -6383024.567    23745450.840    23745450.123    23745459.070  
      3092.178        2409.493  
 -22439932.957   -17467056.448    20601782.815    20601782.125    20601788.858  
      1350.546        1052.374  
 -13145595.157   -10220460.883    22067778.667    22067778.517    22067784.728  
     -1941.401       -1512.784  
   -851758.222     -402382.309    24229590.310    24229590.407    24229600.255  
     -2177.884       -1697.061  
 99  8  3  1 30  0.0000000  0  7  1 14 15 16 22 25 29               
 -17945735.911   -13962401.295    21147833.706    21147833.240    21147839.335  
       235.578         183.563  
 -16591654.182   -12916951.355    21411033.273    21411033.062    21411040.003  
      1719.735        1340.052  
   5717247.597     4481396.500    23950788.345    23950787.290    23950799.886  
     -2703.823       -2106.871  
  -8308686.614    -6455218.842    23727820.182    23727819.439    23727828.470  
      3084.491        2403.490  
 -22480144.571   -17498390.115    20594130.824    20594130.108    20594136.787  
      1330.269        1036.568  
 -13087300.777   -10175036.727    22078871.541    22078871.465    22078877.772  
     -1944.872       -1515.485  
   -786336.635     -351404.501    24242039.494    24242039.709    24242049.676  
     -2183.552       -1701.467  
 99  8  3  1 30 30.0000000  0  7  1 14 15 16 22 25 29               
 -17952690.832   -13967820.680    21146510.193    21146509.668    21146515.790  
       228.107         177.746  
 -16642999.069   -12956960.342    21401262.699    21401262.493    21401269.393  
      1703.139        1327.119  
   5798412.224     4544641.457    23966233.202    23966232.307    23966245.300  
     -2707.203       -2109.505  
  -8401112.583    -6527239.008    23710232.019    23710231.294    23710240.373  
      3077.034        2397.689  
 -22519752.026   -17529253.006    20586593.816    20586593.048    20586599.672  
      1310.206        1020.940  
 -13028905.792   -10129534.159    22089983.753    22089983.627    22089989.886  
     -1948.156       -1518.045  
   -720737.448     -300288.320    24254522.633    24254522.901    24254532.906  
     -2189.794       -1706.332  
 99  8  3  1 31  0.0000000  0  7  1 14 15 16 22 25 29               
 -17959423.798   -13973067.116    21145228.892    21145228.439    21145234.535  
       220.957         172.171  
 -16693839.811   -12996576.491    21391588.081    21391587.825    21391594.703  
      1686.150        1313.883  
   5879675.345     4607963.175    23981697.265    23981696.445    23981709.405  
     -2710.384       -2111.980  
  -8493300.413    -6599073.608    23692689.194    23692688.527    23692697.554  
      3068.743        2391.217  
 -22558750.458   -17559641.338    20579172.622    20579171.857    20579178.380  
      1289.739        1004.989  
 -12970410.630   -10083953.546    22101114.916    22101114.846    22101121.043  
     -1951.610       -1520.732  
   -654946.134     -249022.419    24267042.480    24267042.702    24267052.731  
     -2196.043       -1711.201  
 99  8  3  1 31 30.0000000  0  7  1 14 15 16 22 25 29               
 -17965947.458   -13978150.455    21143987.494    21143987.065    21143993.138  
       213.889         166.663  
 -16744164.801   -13035790.753    21382011.531    21382011.301    21382018.125  
      1668.846        1300.396  
   5961034.200     4671359.514    23997179.684    23997178.888    23997191.622  
     -2713.629       -2114.520  
  -8585240.659    -6670715.295    23675193.317    23675192.793    23675201.842  
      3060.456        2384.756  
 -22597134.624   -17589551.030    20571868.291    20571867.578    20571874.008  
      1269.207         988.988  
 -12911799.899   -10038282.857    22112268.204    22112268.099    22112274.148  
     -1955.842       -1524.037  
   -588979.202     -197619.678    24279595.448    24279595.756    24279605.970  
     -2201.935       -1715.807  
 99  8  3  1 32  0.0000000  0  7  1 14 15 16 22 25 29               
 -17972268.425   -13983075.852    21142784.655    21142784.203    21142790.256  
       207.552         161.729  
 -16793977.745   -13074606.019    21372532.495    21372532.261    21372539.016  
      1652.079        1287.339  
   6042485.274     4734827.704    24012679.585    24012678.850    24012691.410  
     -2716.445       -2116.704  
  -8676933.022    -6742163.778    23657744.594    23657744.205    23657753.460  
      3052.239        2378.360  
 -22634910.540   -17618986.751    20564679.835    20564679.077    20564685.419  
      1249.350         973.517  
 -12853067.268    -9992517.178    22123444.691    22123444.594    22123450.477  
     -1959.632       -1526.986  
   -522841.042     -146083.501    24292181.087    24292181.414    24292191.598  
     -2207.183       -1719.890  
 99  8  3  1 32 30.0000000  0  7  1 14 15 16 22 25 29               
 -17978398.551   -13987852.544    21141618.098    21141617.669    21141623.711  
       201.191         156.768  
 -16843284.234   -13113026.636    21363149.761    21363149.530    21363156.279  
      1634.912        1273.953  
   6124025.366     4798365.254    24028196.045    24028195.459    24028208.117  
     -2719.586       -2119.142  
  -8768363.575    -6813408.268    23640345.624    23640345.373    23640354.697  
      3043.032        2371.185  
 -22672099.315   -17647964.961    20557603.071    20557602.237    20557608.509  
      1229.775         958.261  
 -12794218.060    -9946660.653    22134643.521    22134643.342    22134649.015  
     -1963.723       -1530.176  
   -456549.359      -94427.708    24304796.156    24304796.486    24304806.465  
     -2212.478       -1724.002  
 99  8  3  1 33  0.0000000  0  7  1 14 15 16 22 25 29               
 -17984343.933   -13992485.277    21140486.769    21140486.290    21140492.336  
       194.983         151.932  
 -16892086.886   -13151054.659    21353862.953    21353862.692    21353869.436  
      1618.567        1261.218  
   6205651.594     4861969.917    24043729.047    24043728.459    24043741.295  
     -2722.360       -2121.317  
  -8859519.855    -6884439.031    23622999.105    23622998.786    23623008.262  
      3033.861        2364.040  
 -22708699.898   -17676484.847    20550638.083    20550637.274    20550643.541  
      1210.151         942.972  
 -12735247.132    -9900709.299    22145865.315    22145865.145    22145870.816  
     -1967.885       -1533.419  
   -390104.371      -42652.448    24317440.190    24317440.550    24317450.547  
     -2217.278       -1727.746  
 99  8  3  1 33 30.0000000  0  7  1 14 15 16 22 25 29               
 -17990101.425   -13996971.609    21139391.075    21139390.608    21139396.725  
       188.598         146.956  
 -16940405.215   -13188705.286    21344668.219    21344667.935    21344674.709  
      1602.564        1248.748  
   6287360.375     4925638.934    24059277.798    24059277.216    24059290.195  
     -2724.991       -2123.363  
  -8950412.518    -6955264.406    23605702.809    23605702.482    23605711.889  
      3025.421        2357.471  
 -22744715.656   -17704549.017    20543784.424    20543783.639    20543789.915  
      1190.806         927.897  
 -12676145.071    -9854655.747    22157112.169    22157112.000    22157117.481  
     -1972.222       -1536.803  
   -323508.386        9240.475    24330113.165    24330113.331    24330123.539  
     -2222.603       -1731.888  
 99  8  3  1 34  0.0000000  0  7  1 14 15 16 22 25 29               
 -17995655.387   -14001299.350    21138334.132    21138333.684    21138339.770  
       181.734         141.613  
 -16988238.943   -13225978.305    21335565.615    21335565.412    21335572.201  
      1586.284        1236.069  
   6369148.743     4989369.968    24074841.785    24074841.196    24074854.171  
     -2727.486       -2125.304  
  -9041042.345    -7025884.968    23588456.558    23588456.140    23588465.462  
      3016.595        2350.599  
 -22780146.412   -17732157.346    20537042.134    20537041.329    20537047.642  
      1171.340         912.735  
 -12616918.899    -9808505.504    22168382.586    22168382.371    22168387.840  
     -1976.188       -1539.882  
   -256747.306       61262.041    24342817.687    24342817.698    24342827.901  
     -2228.037       -1736.123  
 99  8  3  1 34 30.0000000  0  7  1 14 15 16 22 25 29               
 -18001001.806   -14005465.367    21137316.732    21137316.284    21137322.358  
       174.856         136.252  
 -17035577.468   -13262865.441    21326557.401    21326557.164    21326563.949  
      1569.762        1223.193  
   6451013.326     5053160.376    24090420.422    24090419.749    24090432.639  
     -2730.030       -2127.295  
  -9131396.600    -7096290.815    23571262.614    23571262.256    23571271.366  
      3007.295        2343.344  
 -22814984.809   -17759304.093    20530412.576    20530411.832    20530418.067  
      1151.134         896.987  
 -12557568.626    -9762258.551    22179676.597    22179676.401    22179681.943  
     -1980.395       -1543.160  
   -189818.112      113414.578    24355553.969    24355553.951    24355564.094  
     -2233.957       -1740.740  
 99  8  3  1 35  0.0000000  0  7  1 14 15 16 22 25 29               
 -18006140.046   -14009469.170    21136338.984    21136338.532    21136344.653  
       167.751         130.711  
 -17082424.042   -13299369.243    21317642.825    21317642.591    21317649.337  
      1553.327        1210.384  
   6532951.183     5117007.878    24106012.735    24106012.162    24106024.991  
     -2732.468       -2129.183  
  -9221480.390    -7166485.882    23554120.200    23554119.872    23554128.959  
      2998.417        2336.429  
 -22849204.222   -17785968.519    20523900.850    20523900.075    20523906.294  
      1130.377         880.812  
 -12498093.765    -9715914.519    22190994.242    22190994.118    22190999.653  
     -1984.418       -1546.301  
   -122716.689      165701.330    24368322.803    24368322.920    24368333.133  
     -2239.318       -1744.925  
 99  8  3  1 35 30.0000000  0  7  1 14 15 16 22 25 29               
 -18011072.188   -14013312.380    21135400.370    21135399.949    21135406.092  
       160.993         125.448  
 -17128764.104   -13335478.360    21308824.711    21308824.385    21308831.123  
      1535.869        1196.776  
   6614959.172     5180910.036    24121618.330    24121617.825    24121630.775  
     -2734.801       -2131.019  
  -9311301.023    -7236475.909    23537028.079    23537027.518    23537036.439  
      2989.422        2329.410  
 -22882808.663   -17812153.742    20517506.034    20517505.270    20517511.570  
      1109.905         864.854  
 -12438508.173    -9669484.203    22202333.019    22202332.901    22202338.483  
     -1987.831       -1548.959  
    -55455.193      218112.808    24381122.231    24381122.447    24381132.711  
     -2244.831       -1749.221  
 99  8  3  1 36  0.0000000  0  7  1 14 15 16 22 25 29               
 -18015804.240   -14016999.672    21134499.820    21134499.402    21134505.620  
       154.466         120.361  
 -17174580.334   -13371179.292    21300106.074    21300105.791    21300112.562  
      1518.438        1183.198  
   6697034.036     5244864.308    24137236.789    24137236.106    24137249.265  
     -2736.976       -2132.703  
  -9400841.243    -7306247.433    23519989.009    23519988.538    23519997.494  
      2979.847        2321.959  
 -22915801.059   -17837862.048    20511227.696    20511226.977    20511233.286  
      1089.469         848.933  
 -12378833.074    -9622984.133    22213688.842    22213688.741    22213694.344  
     -1990.701       -1551.196  
     11967.485      270649.884    24393952.635    24393952.843    24393963.024  
     -2250.066       -1753.291  
 99  8  3  1 36 30.0000000  0  7  1 14 15 16 22 25 29               
 -18020349.762   -14020541.624    21133634.833    21133634.388    21133640.562  
       148.268         115.533  
 -17219875.443   -13406474.153    21291486.553    21291486.347    21291493.135  
      1501.032        1169.637  
   6779172.427     5308868.093    24152867.276    24152866.556    24152879.758  
     -2739.119       -2134.377  
  -9490097.191    -7375797.470    23503004.259    23503003.637    23503012.609  
      2970.470        2314.651  
 -22948175.950   -17863089.186    20505067.027    20505066.214    20505072.468  
      1068.668         832.725  
 -12319074.618    -9576419.107    22225060.495    22225060.394    22225065.975  
     -1993.336       -1553.251  
     79548.359      323310.245    24406813.143    24406813.123    24406823.380  
     -2255.525       -1757.563  
 99  8  3  1 37  0.0000000  0  7  1 14 15 16 22 25 29               
 -18024697.724   -14023929.637    21132807.493    21132807.037    21132813.121  
       141.559         110.307  
 -17264641.336   -13441356.630    21282967.832    21282967.648    21282974.424  
      1483.173        1155.721  
   6861370.805     5372918.577    24168509.104    24168508.441    24168521.812  
     -2740.927       -2135.774  
  -9579078.685    -7445133.638    23486071.722    23486070.998    23486080.015  
      2961.386        2307.570  
 -22979928.640   -17887831.487    20499024.575    20499023.782    20499030.037  
      1048.270         816.832  
 -12259245.837    -9529799.275    22236445.607    22236445.557    22236451.075  
     -1995.318       -1554.794  
    147290.364      376096.161    24419704.157    24419703.979    24419714.063  
     -2260.739       -1761.619  
 99  8  3  1 37 30.0000000  0  7  1 14 15 16 22 25 29               
 -18028844.512   -14027160.889    21132018.435    21132017.957    21132023.955  
       134.957         105.158  
 -17308864.807   -13475816.446    21274552.414    21274552.226    21274558.910  
      1465.345        1141.830  
   6943626.623     5437013.839    24184162.064    24184161.368    24184174.758  
     -2742.612       -2137.094  
  -9667773.629    -7514246.518    23469193.677    23469192.851    23469201.892  
      2951.729        2300.045  
 -23011069.574   -17912097.095    20493098.445    20493097.752    20493104.046  
      1027.865         800.933  
 -12199355.103    -9483131.191    22247842.412    22247842.398    22247847.987  
     -1997.415       -1556.428  
    215201.018      429013.456    24432627.130    24432627.016    24432636.975  
     -2266.501       -1766.099  
 99  8  3  1 38  0.0000000  0  7  1 14 15 16 22 25 29               
 -18032781.955   -14030229.013    21131269.190    21131268.718    21131274.696  
       127.483          99.336  
 -17352561.653   -13509865.903    21266237.200    21266237.021    21266243.646  
      1447.751        1128.117  
   7025936.342     5501151.064    24199825.020    24199824.348    24199837.976  
     -2744.698       -2138.724  
  -9756172.751    -7583128.882    23452371.891    23452371.041    23452380.139  
      2941.725        2292.248  
 -23041585.142   -17935875.406    20487291.586    20487290.845    20487297.106  
      1006.464         784.259  
 -12139389.570    -9436404.810    22259253.432    22259253.433    22259259.094  
     -2000.366       -1558.728  
    283287.491      482067.730    24445583.532    24445583.538    24445593.559  
     -2272.530       -1770.797  
 99  8  3  1 38 30.0000000  0  7  1 14 15 16 22 25 29               
 -18036492.988   -14033120.707    21130563.051    21130562.534    21130568.544  
       119.857          93.392  
 -17395734.487   -13543507.041    21258021.685    21258021.476    21258028.064  
      1430.404        1114.596  
   7108296.749     5565327.814    24215498.015    24215497.186    24215510.876  
     -2746.065       -2139.786  
  -9844284.058    -7651786.957    23435604.676    23435603.945    23435613.162  
      2932.415        2284.986  
 -23071465.085   -17959158.424    20481605.678    20481604.878    20481611.107  
       985.616         768.008  
 -12079335.828    -9389609.708    22270681.203    22270681.188    22270687.002  
     -2003.151       -1560.902  
    351544.855      535255.197    24458572.566    24458572.575    24458582.703  
     -2278.042       -1775.102  
 99  8  3  1 39  0.0000000  0  7  1 14 15 16 22 25 29               
 -18039969.957   -14035830.022    21129901.253    21129900.804    21129906.951  
       112.251          87.468  
 -17438388.089   -13576743.581    21249904.893    21249904.715    21249911.310  
      1413.364        1101.323  
   7190705.128     5629541.931    24231180.115    24231179.238    24231192.880  
     -2747.682       -2141.042  
  -9932109.488    -7720222.262    23418891.991    23418891.218    23418900.536  
      2922.776        2277.487  
 -23100726.174   -17981959.214    20476037.429    20476036.613    20476042.896  
       965.487         752.325  
 -12019192.005    -9342744.415    22282126.171    22282126.147    22282132.092  
     -2006.284       -1563.331  
    419971.434      588574.538    24471593.734    24471593.782    24471604.041  
     -2283.541       -1779.386  
 99  8  3  1 39 30.0000000  0  7  1 14 15 16 22 25 29               
 -18043228.478   -14038369.121    21129281.139    21129280.697    21129286.892  
       104.899          81.742  
 -17480537.395   -13609587.157    21241884.050    21241883.861    21241890.514  
      1396.497        1088.176  
   7273157.923     5693790.675    24246870.646    24246869.765    24246883.270  
     -2749.167       -2142.200  
 -10019648.296    -7788434.204    23402233.683    23402233.074    23402242.415  
      2913.138        2269.975  
 -23129389.170   -18004293.965    20470582.982    20470582.204    20470588.525  
       945.298         736.596  
 -11958952.809    -9295804.796    22293589.229    22293589.250    22293595.227  
     -2009.721       -1566.017  
    488561.203      642020.999    24484645.983    24484646.000    24484656.315  
     -2289.213       -1783.806  
 99  8  3  1 40  0.0000000  0  7  1 14 15 16 22 25 29               
 -18046272.499   -14040741.075    21128701.787    21128701.398    21128707.606  
        97.859          76.255  
 -17522179.976   -13642035.880    21233959.676    21233959.503    21233966.188  
      1379.404        1074.861  
   7355652.395     5758071.878    24262569.010    24262568.189    24262581.708  
     -2750.512       -2143.245  
 -10106901.522    -7856423.610    23385629.805    23385629.248    23385638.525  
      2903.617        2262.556  
 -23157447.992   -18026157.929    20465243.497    20465242.775    20465249.099  
       925.299         721.008  
 -11898617.959    -9248790.638    22305070.659    22305070.641    22305076.555  
     -2012.677       -1568.317  
    557315.854      695595.972    24497729.663    24497729.666    24497739.888  
     -2294.502       -1787.928  
 99  8  3  1 40 30.0000000  0  7  1 14 15 16 22 25 29               
 -18049105.601   -14042948.670    21128162.658    21128162.272    21128168.483  
        91.337          71.169  
 -17563298.656   -13674076.366    21226135.076    21226134.896    21226141.558  
      1361.954        1061.264  
   7438185.080     5822382.872    24278274.554    24278273.829    24278287.334  
     -2751.554       -2144.063  
 -10193867.832    -7924189.401    23369080.467    23369079.959    23369089.245  
      2894.189        2255.205  
 -23184914.213   -18047560.122    20460016.996    20460016.186    20460022.370  
       905.949         705.932  
 -11838192.431    -9201705.802    22316569.545    22316569.331    22316575.146  
     -2015.607       -1570.614  
    626233.364      749297.856    24510844.263    24510844.309    24510854.510  
     -2299.878       -1792.111  
 99  8  3  1 41  0.0000000  0  7  1 14 15 16 22 25 29               
 -18051748.318   -14045007.917    21127659.786    21127659.377    21127665.545  
        84.944          66.190  
 -17603886.338   -13705703.092    21218411.545    21218411.308    21218417.929  
      1343.953        1047.237  
   7520753.000     5886721.315    24293986.655    24293986.040    24293999.569  
     -2752.836       -2145.052  
 -10280545.593    -7991730.354    23352586.180    23352585.569    23352594.784  
      2884.396        2247.581  
 -23211783.896   -18068497.485    20454903.855    20454903.029    20454909.123  
       885.376         689.905  
 -11777665.956    -9154542.326    22328087.219    22328087.067    22328092.877  
     -2019.345       -1573.509  
    695318.583      803130.420    24523990.582    24523990.834    24524000.969  
     -2305.751       -1796.686  
 99  8  3  1 41 30.0000000  0  7  1 14 15 16 22 25 29               
 -18054196.911   -14046915.898    21127193.873    21127193.421    21127199.569  
        78.203          60.935  
 -17643924.417   -13736901.554    21210792.533    21210792.270    21210798.870  
      1325.196        1032.619  
   7603353.039     5951084.792    24309705.047    24309704.368    24309717.943  
     -2753.840       -2145.842  
 -10366927.663    -8059040.882    23336147.928    23336147.364    23336156.602  
      2874.340        2239.732  
 -23238022.795   -18088943.338    20449910.695    20449909.877    20449915.966  
       863.681         672.997  
 -11717035.028    -9107297.440    22339624.928    22339624.745    22339630.436  
     -2022.777       -1576.198  
    764577.004      857097.932    24537170.245    24537170.446    24537180.496  
     -2311.531       -1801.192  
 99  8  3  1 42  0.0000000  0  7  1 14 15 16 22 25 29               
 -18056437.824   -14048662.045    21126767.465    21126766.999    21126773.171  
        71.032          55.350  
 -17683399.722   -13767661.497    21203280.566    21203280.301    21203286.927  
      1306.566        1018.104  
   7685982.180     6015470.931    24325429.111    24325428.276    24325442.001  
     -2754.785       -2146.567  
 -10453006.016    -8126114.776    23319767.549    23319767.054    23319776.115  
      2864.281        2231.906  
 -23263606.829   -18108878.905    20445042.237    20445041.434    20445047.430  
       842.096         656.179  
 -11656293.132    -9059966.098    22351183.659    22351183.452    22351189.211  
     -2026.677       -1579.227  
    834006.017      911198.406    24550382.327    24550382.497    24550392.333  
     -2316.960       -1805.427  
 99  8  3  1 42 30.0000000  0  7  1 14 15 16 22 25 29               
 -18058459.970   -14050237.719    21126382.611    21126382.155    21126388.381  
        63.912          49.802  
 -17722318.105   -13797987.475    21195874.574    21195874.358    21195881.008  
      1288.097        1003.715  
   7768637.442     6079877.433    24341158.131    24341157.310    24341170.985  
     -2755.549       -2147.175  
 -10538788.714    -8192958.279    23303443.420    23303443.004    23303451.951  
      2854.608        2224.369  
 -23288543.676   -18128310.160    20440296.938    20440296.123    20440302.099  
       820.372         639.249  
 -11595437.326    -9012546.006    22362763.982    22362763.866    22362769.658  
     -2030.287       -1582.036  
    903597.073      965425.116    24563625.212    24563625.394    24563634.999  
     -2322.351       -1809.617  
 99  8  3  1 43  0.0000000  0  7  1 14 15 16 22 25 29               
 -18060259.081   -14051639.602    21126040.145    21126039.740    21126045.988  
        55.941          43.589  
 -17760682.093   -13827881.458    21188574.151    21188573.922    21188580.625  
      1269.615         989.305  
   7851315.354     6144301.591    24356891.279    24356890.624    24356904.302  
     -2756.244       -2147.715  
 -10624271.417    -8259568.033    23287176.446    23287176.058    23287184.893  
      2844.230        2216.277  
 -23312818.187   -18147225.322    20435677.641    20435676.803    20435682.766  
       798.240         622.002  
 -11534482.215    -8965048.524    22374363.423    22374363.332    22374369.070  
     -2033.129       -1584.256  
    973348.471     1019776.792    24576898.590    24576898.754    24576908.374  
     -2327.825       -1813.881  
 99  8  3  1 43 30.0000000  0  7  1 14 15 16 22 25 29               
 -18061809.990   -14052848.078    21125745.073    21125744.658    21125750.831  
        47.416          36.949  
 -17798487.296   -13857340.029    21181380.084    21181379.835    21181386.529  
      1250.809         974.654  
   7934012.968     6208741.087    24372628.341    24372627.636    24372641.325  
     -2757.029       -2148.334  
 -10709438.870    -8325932.145    23270969.421    23270969.066    23270977.827  
      2833.463        2207.885  
 -23336445.959   -18165636.535    20431181.414    20431180.566    20431186.470  
       777.053         605.495  
 -11473458.166    -8917497.312    22385976.009    22385975.931    22385981.526  
     -2035.342       -1585.979  
   1043260.229     1074253.441    24590202.443    24590202.551    24590212.309  
     -2333.210       -1818.084  
 99  8  3  1 44  0.0000000  0  7  1 14 15 16 22 25 29               
 -18063113.961   -14053864.141    21125496.990    21125496.568    21125502.663  
        39.532          30.806  
 -17835745.169   -13886372.109    21174290.125    21174289.894    21174296.540  
      1232.911         960.709  
   8016726.981     6273193.364    24388368.451    24388367.706    24388381.284  
     -2757.204       -2148.459  
 -10794283.960    -8392045.066    23254823.781    23254823.394    23254832.215  
      2822.815        2199.595  
 -23359457.949   -18183567.916    20426802.206    20426801.449    20426807.363  
       757.167         589.999  
 -11412365.631    -8869892.743    22397601.599    22397601.561    22397607.114  
     -2037.324       -1587.523  
   1113334.333     1128856.580    24603537.248    24603537.304    24603547.152  
     -2338.459       -1822.171  
 99  8  3  1 44 30.0000000  0  7  1 14 15 16 22 25 29               
 -18064174.652   -14054690.642    21125295.142    21125294.717    21125300.791  
        31.513          24.559  
 -17872450.204   -13914973.403    21167305.374    21167305.167    21167311.750  
      1214.188         946.123  
   8099454.433     6337656.127    24404110.871    24404110.296    24404123.919  
     -2757.725       -2148.860  
 -10878795.913    -8457898.426    23238741.678    23238741.199    23238749.935  
      2811.374        2190.672  
 -23381861.563   -18201025.233    20422538.896    20422538.112    20422544.036  
       736.506         573.899  
 -11351219.120    -8822246.108    22409237.481    22409237.434    22409242.906  
     -2038.966       -1588.804  
   1183579.382     1183592.901    24616904.547    24616904.534    24616914.382  
     -2344.327       -1826.745  
 99  8  3  1 45  0.0000000  0  7  1 14 15 16 22 25 29               
 -18064995.930   -14055330.586    21125138.795    21125138.417    21125144.478  
        23.422          18.251  
 -17908593.971   -13943137.353    21160427.374    21160427.186    21160433.691  
      1195.547         931.594  
   8182192.153     6402126.866    24419855.406    24419854.853    24419868.468  
     -2758.083       -2149.153  
 -10962954.975    -8523476.798    23222726.847    23222726.277    23222734.937  
      2799.399        2181.349  
 -23403649.126   -18218002.514    20418392.917    20418392.109    20418397.967  
       716.208         558.080  
 -11290021.720    -8774559.821    22420883.098    22420882.970    22420888.389  
     -2040.935       -1590.338  
   1253994.833     1238461.987    24630304.401    24630304.315    24630314.084  
     -2350.163       -1831.294  
 99  8  3  1 45 30.0000000  0  7  1 14 15 16 22 25 29               
 -18065591.529   -14055794.667    21125025.521    21125025.047    21125031.096  
        16.219          12.633  
 -17944183.465   -13970869.392    21153654.913    21153654.714    21153661.115  
      1177.077         917.198  
   8264937.302     6466603.367    24435601.328    24435600.905    24435614.554  
     -2758.326       -2149.344  
 -11046772.498    -8588789.056    23206776.867    23206776.404    23206784.818  
      2788.378        2172.754  
 -23424837.736   -18234513.083    20414360.743    20414359.951    20414365.848  
       696.155         542.452  
 -11228754.230    -8726818.919    22432541.900    22432541.783    22432547.212  
     -2043.759       -1592.544  
   1324586.673     1293468.513    24643737.415    24643737.502    24643747.228  
     -2355.910       -1835.766  
 99  8  3  1 46  0.0000000  0  7  1 14 15 16 22 25 29               
 -18065978.481   -14056096.168    21124951.897    21124951.422    21124957.464  
         9.401           7.323  
 -17979229.255   -13998177.773    21146985.909    21146985.730    21146992.032  
      1158.927         903.058  
   8347686.779     6531083.249    24451348.400    24451347.849    24451361.512  
     -2758.413       -2149.413  
 -11130259.310    -8653843.651    23190889.942    23190889.454    23190897.484  
      2777.330        2164.150  
 -23445421.770   -18250552.550    20410443.594    20410442.822    20410448.796  
       675.868         526.648  
 -11167399.040    -8679009.672    22444217.414    22444217.292    22444222.639  
     -2046.615       -1594.767  
   1395347.149     1348606.483    24657202.787    24657202.870    24657212.431  
     -2361.309       -1839.967  
 99  8  3  1 46 30.0000000  0  7  1 14 15 16 22 25 29               
 -18066154.462   -14056233.284    21124918.296    21124917.860    21124923.984  
         2.263           1.765  
 -18013720.637   -14025054.152    21140422.345    21140422.242    21140428.523  
      1140.577         888.765  
   8430437.107     6595563.801    24467095.377    24467094.888    24467108.707  
     -2758.413       -2149.403  
 -11213414.367    -8718639.717    23175066.144    23175065.578    23175073.486  
      2766.313        2155.563  
 -23465388.609   -18266111.086    20406643.929    20406643.177    20406649.230  
       655.269         510.599  
 -11105962.286    -8631136.887    22455908.445    22455908.285    22455913.608  
     -2049.450       -1596.965  
   1466265.867     1403867.733    24670698.043    24670698.216    24670707.691  
     -2366.671       -1844.170  
 99  8  3  1 47  0.0000000  0  7  1 14 15 16 22 25 29               
 -18066116.790   -14056203.914    21124925.488    21124925.024    21124931.144  
        -4.911          -3.833  
 -18047671.228   -14051509.130    21133961.879    21133961.680    21133967.987  
      1122.680         874.817  
   8513185.674     6660042.984    24482842.040    24482841.546    24482855.594  
     -2758.271       -2149.294  
 -11296245.928    -8783183.734    23159303.703    23159303.146    23159310.926  
      2755.732        2147.321  
 -23484745.007   -18281193.955    20402960.511    20402959.732    20402965.815  
       635.155         494.923  
 -11044432.237    -8583191.399    22467617.332    22467617.170    22467622.437  
     -2052.670       -1599.483  
   1537344.3841    1459253.4891   24684223.5811   24684223.9251   24684233.5411 
     -2372.0211      -1848.3191 
 99  8  3  1 47 30.0000000  0  7  1 14 15 16 22 25 29               
 -18065858.604   -14056002.712    21124974.642    21124974.139    21124980.263  
       -12.452          -9.697  
 -18081081.431   -14077543.031    21127604.147    21127603.888    21127610.302  
      1104.571         860.706  
   8595929.539     6724518.496    24498587.795    24498587.154    24498601.550  
     -2757.854       -2148.968  
 -11378762.848    -8847482.570    23143600.956    23143600.519    23143608.311  
      2745.100        2139.040  
 -23503495.519   -18295804.706    20399392.338    20399391.577    20399397.632  
       614.850         479.106  
 -10982808.506    -8535172.928    22479343.936    22479343.751    22479349.087  
     -2055.322       -1601.545  
   1608588.6531    1514768.3951   24697780.8281   24697781.2051   24697790.7631 
     -2377.3221      -1852.4401 
 99  8  3  1 48  0.0000000  0  7  1 14 15 16 22 25 29               
 -18065360.427   -14055614.510    21125069.476    21125068.967    21125075.054  
       -20.814         -16.219  
 -18113942.342   -14103148.912    21121350.808    21121350.573    21121357.055  
      1085.918         846.171  
   8678665.578     6788987.916    24514332.102    24514331.491    24514345.894  
     -2757.815       -2148.942  
 -11460934.982    -8911512.735    23127964.022    23127963.552    23127971.456  
      2732.961        2129.588  
 -23521622.932   -18309929.930    20395942.793    20395942.025    20395948.012  
       593.609         462.552  
 -10921109.608    -8487095.867    22491084.813    22491084.685    22491090.150  
     -2057.889       -1603.553  
   1679984.606     1570401.486    24711367.059    24711367.490    24711376.842  
     -2382.554       -1856.521  
 99  8  3  1 48 30.0000000  0  7  1 14 15 16 22 25 29               
 -18064617.056   -14055035.248    21125210.968    21125210.435    21125216.463  
       -28.849         -22.479  
 -18146249.729   -14128323.481    21115202.790    21115202.599    21115209.083  
      1067.891         832.123  
   8761390.389     6853448.567    24530074.296    24530073.709    24530088.203  
     -2757.165       -2148.435  
 -11542755.843    -8975269.206    23112394.004    23112393.516    23112401.400  
      2721.704        2120.809  
 -23539119.870   -18323563.865    20392613.254    20392612.426    20392618.416  
       572.748         446.295  
 -10859339.838    -8438963.594    22502839.110    22502839.034    22502844.583  
     -2060.291       -1605.423  
   1751546.542     1626164.016    24724985.073    24724985.274    24724994.621  
     -2388.200       -1860.928  
 99  8  3  1 49  0.0000000  0  7  1 14 15 16 22 25 29               
 -18063633.673   -14054268.968    21125398.007    21125397.548    21125403.605  
       -36.642         -28.553  
 -18178010.609   -14153072.197    21109158.852    21109158.638    21109165.148  
      1049.505         817.797  
   8844101.101     6917898.246    24545813.739    24545813.284    24545827.716  
     -2756.682       -2148.034  
 -11624231.712    -9038756.844    23096889.673    23096889.167    23096897.113  
      2710.140        2111.800  
 -23555979.422   -18336701.144    20389404.853    20389404.110    20389410.132  
       551.242         429.538  
 -10797491.039    -8390769.731    22514608.457    22514608.372    22514613.984  
     -2062.782       -1607.361  
   1823284.135     1682063.413    24738636.497    24738636.581    24738645.963  
     -2394.132       -1865.553  
 99  8  3  1 49 30.0000000  0  7  1 14 15 16 22 25 29               
 -18062416.228   -14053320.294    21125629.698    21125629.250    21125635.283  
       -44.635         -34.782  
 -18209217.772   -14177389.445    21103220.288    21103220.077    21103226.575  
      1030.865         803.270  
   8926794.708     6982334.600    24561550.090    24561549.638    24561564.165  
     -2756.293       -2147.758  
 -11705358.598    -9101972.551    23081451.922    23081451.221    23081459.306  
      2698.071        2102.390  
 -23572187.287   -18349330.612    20386320.539    20386319.749    20386325.821  
       529.131         412.307  
 -10735576.934    -8342524.983    22526390.131    22526390.151    22526395.876  
     -2064.963       -1609.066  
   1895194.213     1738097.188    24752320.732    24752320.688    24752330.140  
     -2400.045       -1870.182  
 99  8  3  1 50  0.0000000  0  7  1 14 15 16 22 25 29               
 -18060976.038   -14052198.053    21125903.806    21125903.299    21125909.308  
       -51.588         -40.201  
 -18239880.116   -14201282.159    21097385.470    21097385.278    21097391.715  
      1012.897         789.272  
   9009468.200     7046755.301    24577282.652    24577282.142    24577296.740  
     -2755.469       -2147.118  
 -11786130.132    -9164911.370    23066081.485    23066080.818    23066089.018  
      2686.741        2093.566  
 -23587737.070   -18361447.294    20383361.409    20383360.652    20383366.723  
       507.411         395.385  
 -10673600.793    -8294231.902    22538183.854    22538183.828    22538189.516  
     -2067.015       -1610.662  
   1967282.030     1794269.424    24766038.460    24766038.559    24766048.307  
     -2406.226       -1874.975  
 99  8  3  1 50 30.0000000  0  7  1 14 15 16 22 25 29               
 -18059325.155   -14050911.640    21126217.904    21126217.426    21126223.474  
       -58.673         -45.725  
 -18269989.716   -14224744.160    21091655.876    21091655.680    21091662.105  
       994.222         774.714  
   9092118.630     7111158.049    24593010.637    24593010.039    24593024.904  
     -2754.742       -2146.559  
 -11866573.331    -9227594.315    23050773.437    23050772.860    23050781.313  
      2675.862        2085.082  
 -23602633.795   -18373055.108    20380526.588    20380525.864    20380531.923  
       485.623         378.402  
 -10611558.010    -8245886.879    22549990.368    22549990.218    22549995.907  
     -2069.285       -1612.434  
   2039561.975     1850591.348    24779793.043    24779793.114    24779803.072  
     -2412.480       -1879.840  
 99  8  3  1 51  0.0000000  0  7  1 14 15 16 22 25 29               
 -18057463.512   -14049460.994    21126572.150    21126571.706    21126577.733  
       -65.677         -51.177  
 -18299532.608   -14247764.569    21086034.031    21086033.825    21086040.339  
       975.211         759.904  
   9174742.887     7175540.364    24608733.330    24608732.864    24608748.091  
     -2753.591       -2145.645  
 -11946681.181    -9290015.957    23035529.500    23035528.832    23035537.335  
      2664.592        2076.303  
 -23616874.960   -18384152.093    20377816.621    20377815.862    20377821.961  
       463.828         361.424  
 -10549465.129    -8197502.832    22561806.111    22561806.009    22561811.792  
     -2070.417       -1613.313  
   2112018.078     1907050.572    24793581.081    24793581.161    24793591.176  
     -2417.998       -1884.146  
 99  8  3  1 51 30.0000000  0  7  1 14 15 16 22 25 29               
 -18055376.772   -14047834.950    21126969.305    21126968.827    21126974.857  
       -73.457         -57.238  
 -18328494.675   -14270332.395    21080522.697    21080522.518    21080529.102  
       955.657         744.669  
   9257338.208     7239900.153    24624450.739    24624450.333    24624465.530  
     -2752.669       -2144.942  
 -12026441.742    -9352166.997    23020351.500    23020350.910    23020359.377  
      2652.755        2067.079  
 -23630465.023   -18394741.731    20375230.499    20375229.756    20375235.893  
       442.357         344.696  
 -10487329.951    -8149085.823    22573629.981    22573629.847    22573635.731  
     -2072.021       -1614.568  
   2184641.460     1963640.167    24807401.211    24807401.121    24807411.205  
     -2423.496       -1888.430  
 99  8  3  1 52  0.0000000  0  7  1 14 15 16 22 25 29               
 -18053056.009   -14046026.554    21127410.872    21127410.456    21127416.506  
       -81.492         -63.497  
 -18356864.031   -14292438.369    21075124.236    21075124.011    21075130.603  
       935.513         728.971  
   9339901.709     7304235.167    24640162.342    24640161.888    24640176.781  
     -2751.544       -2144.038  
 -12105845.045    -9414039.648    23005241.575    23005241.019    23005249.447  
      2640.809        2057.772  
 -23643412.835   -18404830.908    20372766.663    20372765.910    20372772.019  
       420.882         327.960  
 -10425137.014    -8100623.812    22585464.945    22585464.733    22585470.690  
     -2074.190       -1616.247  
   2257428.541     2020357.319    24821252.424    24821252.196    24821262.324  
     -2429.038       -1892.751  
 99  8  3  1 52 30.0000000  0  7  1 14 15 16 22 25 29               
 -18050483.447   -14044021.951    21127900.403    21127900.007    21127906.045  
       -90.128         -70.233  
 -18384628.451   -14314072.965    21069840.799    21069840.552    21069847.163  
       915.392         713.289  
   9422430.200     7368542.915    24655867.690    24655866.905    24655881.473  
     -2750.445       -2143.183  
 -12184882.958    -9475627.594    22990201.344    22990200.692    22990208.955  
      2628.072        2047.843  
 -23655721.986   -18414422.427    20370424.321    20370423.538    20370429.687  
       399.607         311.380  
 -10362882.403    -8052113.738    22597311.661    22597311.402    22597317.414  
     -2076.295       -1617.895  
   2330374.148     2077197.985    24835133.675    24835133.338    24835143.614  
     -2434.203       -1896.783  
 99  8  3  1 53  0.0000000  0  7  1 14 15 16 22 25 29               
 -18047645.609   -14041810.638    21128440.470    21128440.050    21128446.027  
       -99.035         -77.165  
 -18411792.267   -14335239.557    21064671.612    21064671.399    21064678.023  
       895.638         697.902  
   9504920.888     7432821.196    24671565.428    24671564.518    24671579.120  
     -2748.979       -2142.059  
 -12263534.728    -9536914.661    22975234.378    22975233.743    22975241.816  
      2615.568        2038.103  
 -23667394.236   -18423517.656    20368203.178    20368202.371    20368208.496  
       378.715         295.105  
 -10300556.543    -8003548.145    22609172.011    22609171.728    22609177.744  
     -2078.849       -1619.880  
   2403479.770     2134163.308    24849044.921    24849044.667    24849055.307  
     -2439.422       -1900.843  
 99  8  3  1 53 30.0000000  0  7  1 14 15 16 22 25 29               
 -18044538.534   -14039389.521    21129031.794    21129031.318    21129037.237  
      -107.936         -84.108  
 -18438361.169   -14355942.578    21059615.769    21059615.493    21059622.078  
       875.826         682.463  
   9587370.624     7497067.594    24687254.956    24687254.257    24687268.952  
     -2747.685       -2141.035  
 -12341810.517    -9597908.746    22960338.942    22960338.288    22960346.304  
      2602.930        2028.259  
 -23678443.679   -18432127.593    20366100.519    20366099.705    20366105.786  
       358.173         279.096  
 -10238141.047    -7954912.718    22621049.272    22621049.034    22621055.156  
     -2081.998       -1622.335  
   2476752.120     2191258.532    24862987.963    24862987.986    24862998.720  
     -2445.262       -1905.393  
 99  8  3  1 54  0.0000000  0  7  1 14 15 16 22 25 29               
 -18041174.137   -14036767.903    21129671.952    21129671.525    21129677.430  
      -116.345         -90.662  
 -18464344.069   -14376188.976    21054671.315    21054671.064    21054677.628  
       856.398         667.321  
   9669776.786     7561280.038    24702936.493    24702935.639    24702950.548  
     -2746.051       -2139.779  
 -12419714.968    -9658613.486    22945514.037    22945513.472    22945521.425  
      2590.710        2018.741  
 -23688881.761   -18440261.142    20364114.178    20364113.386    20364119.419  
       337.765         263.191  
 -10175640.313    -7906210.865    22632942.890    22632942.623    22632948.722  
     -2084.490       -1624.277  
   2550196.584     2248487.843    24876964.059    24876964.002    24876974.853  
     -2451.047       -1909.901  
 99  8  3  1 54 30.0000000  0  7  1 14 15 16 22 25 29               
 -18037560.091   -14033951.746    21130359.646    21130359.203    21130365.179  
      -124.415         -96.947  
 -18489744.922   -14395981.826    21049837.592    21049837.355    21049843.940  
       836.961         652.178  
   9752135.941     7625455.824    24718609.138    24718608.199    24718623.278  
     -2744.475       -2138.549  
 -12497255.397    -9719034.573    22930758.454    22930757.954    22930765.773  
      2578.690        2009.367  
 -23698706.253   -18447916.569    20362244.638    20362243.821    20362249.827  
       317.158         247.134  
 -10113074.341    -7857458.174    22644848.947    22644848.652    22644854.739  
     -2086.522       -1625.861  
   2623817.723     2305854.833    24890973.804    24890973.689    24890984.578  
     -2456.884       -1914.451  
 99  8  3  1 55  0.0000000  0  7  1 14 15 16 22 25 29               
 -18033708.436   -14030950.461    21131092.495    21131092.081    21131098.152  
      -132.363        -103.140  
 -18514560.110   -14415318.315    21045115.364    21045115.154    21045121.687  
       817.442         636.966  
   9834445.290     7689592.804    24734272.266    24734271.290    24734286.436  
     -2742.815       -2137.257  
 -12574443.615    -9779181.217    22916070.072    22916069.563    22916077.239  
      2567.114        2000.351  
 -23707906.646   -18455085.685    20360493.896    20360493.038    20360499.029  
       296.155         230.772  
 -10050454.320    -7808663.375    22656765.085    22656764.831    22656770.945  
     -2088.095       -1627.084  
   2697610.398     2363355.514    24905016.217    24905016.143    24905026.947  
     -2462.455       -1918.790  
 99  8  3  1 55 30.0000000  0  7  1 14 15 16 22 25 29               
 -18029628.666   -14027771.410    21131868.834    21131868.379    21131874.552  
      -139.839        -108.962  
 -18538798.935   -14434205.691    21040502.922    21040502.708    21040509.128  
       798.463         622.181  
   9916702.022     7753688.819    24749925.204    24749924.426    24749939.461  
     -2741.117       -2135.926  
 -12651278.034    -9839052.162    22901448.960    22901448.473    22901456.069  
      2554.874        1990.805  
 -23716475.080   -18461762.360    20358863.423    20358862.531    20358868.513  
       274.997         214.285  
  -9987794.581    -7759837.626    22668688.775    22668688.506    22668694.552  
     -2089.253       -1627.991  
   2771565.516     2420982.756    24919089.437    24919089.300    24919100.301  
     -2467.974       -1923.082  
 99  8  3  1 56  0.0000000  0  7  1 14 15 16 22 25 29               
 -18025318.290   -14024412.663    21132689.032    21132688.549    21132694.795  
      -147.635        -115.044  
 -18562470.327   -14452650.909    21035998.546    21035998.285    21036004.586  
       779.491         607.395  
   9998903.102     7817741.446    24765567.659    24765566.970    24765581.997  
     -2739.080       -2134.338  
 -12727739.407    -9898632.434    22886898.792    22886898.370    22886905.878  
      2542.479        1981.150  
 -23724397.719   -18467935.821    20357355.715    20357354.880    20357360.897  
       253.024         197.161  
  -9925097.555    -7710982.835    22680619.463    22680619.259    22680625.294  
     -2090.573       -1629.019  
   2845680.225     2478734.355    24933192.607    24933192.781    24933203.978  
     -2473.170       -1927.150  
 99  8  3  1 56 30.0000000  0  7  1 14 15 16 22 25 29               
 -18020765.099   -14020864.704    21133555.447    21133555.003    21133561.189  
      -156.080        -121.627  
 -18585571.199   -14470651.567    21031602.561    21031602.325    21031608.689  
       760.482         592.578  
  10081045.615     7881748.440    24781198.960    24781198.295    24781213.428  
     -2737.135       -2132.813  
 -12803823.599    -9957918.804    22872420.540    22872420.036    22872427.438  
      2529.777        1971.251  
 -23731655.696   -18473591.361    20355974.570    20355973.713    20355979.731  
       230.765         179.813  
  -9862359.527    -7662096.087    22692558.122    22692557.905    22692563.800  
     -2092.271       -1630.343  
   2919955.884     2536611.346    24947326.697    24947327.040    24947338.323  
     -2478.467       -1931.252  
 99  8  3  1 57  0.0000000  0  7  1 14 15 16 22 25 29               
 -18015952.180   -14017114.363    21134471.252    21134470.794    21134476.912  
      -164.833        -128.441  
 -18608105.204   -14488210.519    21027314.512    21027314.276    21027320.636  
       741.904         578.106  
  10163126.929     7945707.794    24796818.540    24796817.904    24796833.113  
     -2735.029       -2131.180  
 -12879522.227   -10016904.722    22858015.558    22858015.079    22858022.557  
      2516.632        1961.021  
 -23738250.645   -18478730.252    20354719.563    20354718.742    20354724.692  
       208.998         162.855  
  -9799562.718    -7613163.535    22704507.788    22704507.691    22704513.547  
     -2094.266       -1631.892  
   2994388.135     2594610.329    24961491.024    24961490.986    24961502.491  
     -2483.676       -1935.320  
 99  8  3  1 57 30.0000000  0  7  1 14 15 16 22 25 29               
 -18010880.352   -14013162.280    21135436.308    21135435.916    21135442.013  
      -173.540        -135.228  
 -18630089.722   -14505341.297    21023131.012    21023130.807    21023137.136  
       723.567         563.815  
  10245144.055     8009617.080    24812425.948    24812425.276    24812440.586  
     -2732.756       -2129.424  
 -12954822.074   -10075579.894    22843686.577    22843686.004    22843693.551  
      2503.391        1950.688  
 -23744203.608   -18483368.896    20353586.725    20353585.891    20353591.836  
       187.907         146.421  
  -9736701.500    -7564180.780    22716469.867    22716469.826    22716475.693  
     -2096.470       -1633.612  
   3068987.190     2652739.332    24975687.063    24975686.700    24975698.266  
     -2489.285       -1939.687  
 99  8  3  1 58  0.0000000  0  7  1 14 15 16 22 25 29               
 -18005536.758   -14008998.434    21136453.344    21136452.878    21136458.905  
      -182.673        -142.340  
 -18651512.447   -14522034.313    21019054.383    21019054.172    21019060.534  
       704.548         548.999  
  10327094.126     8073474.115    24828020.632    24828019.918    24828035.206  
     -2730.478       -2127.635  
 -13029729.865   -10133949.583    22829432.073    22829431.491    22829438.991  
      2490.648        1940.756  
 -23749521.060   -18487512.329    20352574.790    20352573.959    20352579.976  
       166.720         129.914  
  -9673777.541    -7515149.150    22728443.870    22728443.854    22728449.760  
     -2098.376       -1635.092  
   3143759.1751    2711002.9631   24989915.5221   24989915.2401   24989926.8771 
     -2495.2691      -1944.3731 
 99  8  3  1 58 30.0000000  0  7  1 14 15 16 22 25 29               
 -17999921.945   -14004623.253    21137521.727    21137521.281    21137527.352  
      -191.520        -149.235  
 -18672364.687   -14538282.790    21015086.283    21015086.044    21015092.463  
       685.643         534.272  
  10408974.194     8137276.641    24843602.235    24843601.519    24843616.423  
     -2727.993       -2125.694  
 -13104258.238   -10192023.615    22815249.682    22815249.188    22815256.714  
      2477.898        1930.831  
 -23754211.274   -18491167.016    20351682.178    20351681.398    20351687.426  
       146.152         113.887  
  -9610797.908    -7466074.124    22740428.719    22740428.656    22740434.396  
     -2100.261       -1636.563  
   3218713.3241    2769408.5531   25004179.0251   25004179.0711   25004190.3231 
     -2501.5271      -1949.2261 
 99  8  3  1 59  0.0000000  0  7  1 14 15 16 22 25 29               
 -17994051.557   -14000048.910    21138638.821    21138638.400    21138644.474  
      -199.866        -155.741  
 -18692646.006   -14554086.396    21011226.777    21011226.561    21011233.020  
       666.427         519.294  
  10490781.652     8201022.550    24859170.014    24859169.216    24859184.124  
     -2725.757       -2123.944  
 -13178396.458   -10249793.617    22801141.650    22801141.086    22801148.685  
      2464.665        1920.516  
 -23758292.513   -18494347.175    20350905.513    20350904.780    20350910.705  
       125.931          98.124  
  -9547758.930    -7416952.863    22752424.920    22752424.709    22752430.387  
     -2102.194       -1638.072  
   3293849.410     2827955.983    25018477.439    25018477.132    25018488.320  
     -2507.501       -1953.883  
 99  8  3  1 59 30.0000000  0  7  1 14 15 16 22 25 29               
 -17987932.762   -13995281.010    21139803.227    21139802.762    21139808.849  
      -208.332        -162.336  
 -18712347.958   -14569438.550    21007477.568    21007477.366    21007483.818  
       646.818         504.014  
  10572513.264     8264709.378    24874723.417    24874722.542    24874737.327  
     -2723.103       -2121.901  
 -13252139.155   -10307255.423    22787108.760    22787108.275    22787115.864  
      2451.491        1910.254  
 -23761764.389   -18497052.501    20350244.833    20350244.073    20350250.019  
       105.454          82.172  
  -9484669.193    -7367792.072    22764430.512    22764430.328    22764436.112  
     -2103.840       -1639.350  
   3369161.581     2886640.667    25032808.907    25032808.739    25032819.886  
     -2513.120       -1958.254  
 99  8  3  2  0  0.0000000  0  7  1 14 15 16 22 25 29               
 -17981560.344   -13990315.477    21141015.881    21141015.403    21141021.424  
      -216.412        -168.634  
 -18731454.230   -14584326.541    21003841.732    21003841.574    21003847.928  
       626.930         488.515  
  10654166.053     8328334.814    24890261.595    24890260.529    24890275.351  
     -2720.354       -2119.738  
 -13325485.068   -10364408.058    22773151.695    22773151.033    22773158.528  
      2438.186        1899.881  
 -23764618.393   -18499276.369    20349701.681    20349700.929    20349706.908  
        84.881          66.140  
  -9421527.033    -7318590.424    22776446.192    22776445.964    22776451.750  
     -2105.628       -1640.746  
   3444635.182     2945451.111    25047171.372    25047171.366    25047182.258  
     -2518.651       -1962.575  
 99  8  3  2  0 30.0000000  0  7  1 14 15 16 22 25 29               
 -17974946.237   -13985161.616    21142274.510    21142274.080    21142279.974  
      -224.419        -174.875  
 -18749966.432   -14598751.621    21000319.063    21000318.890    21000325.087  
       607.272         473.201  
  10735737.593     8391896.862    24905783.397    24905782.735    24905798.020  
     -2717.540       -2117.571  
 -13398417.903   -10421238.802    22759273.055    22759272.348    22759279.951  
      2423.966        1888.804  
 -23766856.081   -18501019.995    20349275.827    20349275.091    20349281.107  
        64.400          50.180  
  -9358324.996    -7269342.113    22788473.200    22788472.940    22788478.789  
     -2107.742       -1642.395  
   3520266.914     3004384.879    25061564.015    25061563.914    25061574.553  
     -2523.514       -1966.373  
 99  8  3  2  1  0.0000000  0  7  1 14 15 16 22 25 29               
 -17968088.398   -13979817.834    21143579.553    21143579.112    21143584.997  
      -232.865        -181.449  
 -18767888.955   -14612717.213    20996908.563    20996908.363    20996914.492  
       587.650         457.914  
  10817224.881     8455393.321    24921289.567    24921288.950    24921304.417  
     -2714.729       -2115.351  
 -13470918.009   -10477732.332    22745476.593    22745475.939    22745483.697  
      2409.569        1877.592  
 -23768476.686   -18502282.770    20348967.463    20348966.670    20348972.635  
        43.543          33.929  
  -9295067.585    -7220050.660    22800510.560    22800510.322    22800516.326  
     -2109.217       -1643.549  
   3596035.499     3063425.201    25075982.312    25075982.350    25075992.790  
     -2527.659       -1969.620  
 99  8  3  2  1 30.0000000  0  7  1 14 15 16 22 25 29               
 -17960966.264   -13974268.110    21144934.845    21144934.404    21144940.347  
      -241.748        -188.376  
 -18785224.646   -14626225.536    20993609.619    20993609.396    20993615.617  
       568.176         442.733  
  10898625.111     8518821.960    24936779.879    24936779.141    24936794.348  
     -2711.813       -2113.115  
 -13542990.212   -10533892.427    22731761.622    22731760.952    22731768.907  
      2395.430        1866.569  
 -23769460.511   -18503049.351    20348780.224    20348779.449    20348785.360  
        22.246          17.333  
  -9231772.282    -7170729.669    22812555.192    22812554.945    22812561.097  
     -2110.381       -1644.447  
   3671933.847     3122566.742    25090425.446    25090425.551    25090435.321  
     -2532.318       -1973.246  
 99  8  3  2  2  0.0000000  0  7  1 14 15 16 22 25 29               
 -17953580.221   -13968512.747    21146340.255    21146339.827    21146345.881  
      -250.348        -195.074  
 -18801975.459   -14639278.112    20990421.996    20990421.793    20990428.059  
       548.682         427.550  
  10979935.683     8582180.708    24952252.696    24952252.213    24952267.389  
     -2708.613       -2110.589  
 -13614641.894   -10589724.855    22718126.504    22718126.022    22718134.069  
      2381.502        1855.715  
 -23769807.991   -18503320.085    20348714.203    20348713.364    20348719.273  
         1.086           0.850  
  -9168445.006    -7121383.764    22824605.930    22824605.692    22824611.839  
     -2111.118       -1645.024  
   3747982.381     3181825.282    25104897.044    25104897.079    25104907.003  
     -2537.497       -1977.277  
 99  8  3  2  2 30.0000000  0  7  1 14 15 16 22 25 29               
 -17945926.141   -13962548.520    21147796.695    21147796.264    21147802.307  
      -259.575        -202.267  
 -18818134.150   -14651869.294    20987347.033    20987346.858    20987353.150  
       528.762         412.022  
  11061153.481     8645467.210    24967708.525    24967707.896    24967722.835  
     -2705.683       -2108.334  
 -13685868.528   -10645226.078    22704572.616    22704572.015    22704580.101  
      2367.300        1844.646  
 -23769507.493   -18503085.898    20348771.344    20348770.518    20348776.416  
       -20.893         -16.284  
  -9105093.454    -7072018.934    22836661.371    22836661.202    22836667.236  
     -2112.103       -1645.799  
   3824187.860     3241206.100    25119398.544    25119398.674    25119408.653  
     -2542.694       -1981.305  
 99  8  3  2  3  0.0000000  0  8  1  3 14 15 16 22 25 29            
 -17938002.293   -13956374.089    21149304.529    21149304.096    21149310.068  
      -268.748        -209.415  
   -101789.1913          0.0003          0.0003   25234773.9783          0.0003 
      2502.7903          0.0003 
 -18833692.352   -14663992.568    20984386.438    20984386.242    20984392.571  
       508.369         396.130  
  11142276.041     8708679.452    24983145.703    24983145.087    24983160.225  
     -2702.532       -2105.872  
 -13756690.183   -10700411.733    22691095.734    22691095.149    22691103.138  
      2354.267        1834.488  
 -23768541.840   -18502333.416    20348954.996    20348954.212    20348960.115  
       -43.518         -33.912  
  -9041720.549    -7022637.471    22848720.893    22848720.759    22848726.677  
     -2112.832       -1646.357  
   3900551.104     3300709.812    25133929.999    25133930.127    25133940.359  
     -2548.317       -1985.702  
 99  8  3  2  3 30.0000000  0  8  1  3 14 15 16 22 25 29            
 -17929807.744   -13949988.725    21150863.916    21150863.460    21150869.354  
      -277.447        -216.187  
   -176945.6963     -55042.4393          0.0003   25220472.1583   25236692.8303 
      2507.6023       1950.0363 
 -18848635.872   -14675636.860    20981542.836    20981542.585    20981548.972  
       487.851         380.146  
  11223300.371     8771815.180    24998564.180    24998563.625    24998578.825  
     -2699.046       -2103.156  
 -13827127.805   -10755298.127    22677692.006    22677691.333    22677699.272  
      2341.540        1824.578  
 -23766902.613   -18501056.066    20349266.908    20349266.113    20349271.992  
       -65.520         -51.054  
  -8978322.729    -6973236.582    22860785.312    22860785.099    22860790.805  
     -2113.749       -1647.072  
   3977091.755     3360351.769    25148495.137    25148495.269    25148505.795  
     -2554.294       -1990.341  
 99  8  3  2  4  0.0000000  0  7  1 14 15 16 22 25 29               
 -17921346.933   -13943395.880    21152473.857    21152473.457    21152479.411  
      -286.571        -223.304  
 -18862948.812   -14686789.792    20978819.056    20978818.862    20978825.324  
       466.439         363.460  
  11304223.679     8834872.184    25013963.277    25013962.717    25013978.176  
     -2695.736       -2100.577  
 -13897166.800   -10809873.901    22664363.974    22664363.316    22664371.211  
      2327.677        1813.771  
 -23764596.145   -18499258.788    20349705.850    20349705.018    20349710.874  
       -88.099         -68.651  
  -8914884.590    -6923804.280    22872857.357    22872857.128    22872862.750  
     -2115.478       -1648.427  
   4053816.075     3420136.874    25163095.171    25163095.372    25163105.985  
     -2560.284       -1995.013  
 99  8  3  2  4 30.0000000  0  7  1 14 15 16 22 25 29               
 -17912615.515   -13936592.172    21154135.461    21154135.004    21154141.018  
      -295.564        -230.309  
 -18876628.688   -14697449.434    20976215.766    20976215.612    20976222.130  
       445.619         347.234  
  11385043.310     8897848.431    25029342.974    25029342.303    25029357.883  
     -2692.214       -2097.826  
 -13966797.495   -10864131.522    22651113.626    22651112.954    22651120.809  
      2314.335        1803.380  
 -23761617.069   -18496937.403    20350272.693    20350271.910    20350277.714  
      -110.305         -85.951  
  -8851392.017    -6874329.566    22884939.611    22884939.410    22884945.050  
     -2117.406       -1649.926  
   4130701.947     3480047.803    25177725.875    25177725.989    25177737.164  
     -2565.828       -1999.332  
 99  8  3  2  5  0.0000000  0  7  1 14 15 16 22 25 29               
 -17903609.945   -13929574.835    21155849.183    21155848.742    21155854.803  
      -304.957        -237.627  
 -18889688.303   -14707625.750    20973730.675    20973730.443    20973736.947  
       425.099         331.247  
  11465756.417     8960741.653    25044702.268    25044701.617    25044717.187  
     -2688.640       -2095.037  
 -14036023.902   -10918074.123    22637940.268    22637939.580    22637947.259  
      2300.590        1792.664  
 -23757981.748   -18494104.657    20350964.519    20350963.681    20350969.431  
      -131.877        -102.761  
  -8787845.876    -6824813.107    22897032.053    22897031.863    22897037.499  
     -2119.038       -1651.196  
   4207753.1121    3540087.5031   25192388.3591   25192388.3151   25192399.6711 
     -2571.4291      -2003.7171 
 99  8  3  2  5 30.0000000  0  8  1  3 14 15 16 22 25 29            
 -17894319.936   -13922335.859    21157616.984    21157616.547    21157622.696  
      -314.225        -244.851  
    -28370.1453          0.0003          0.0003   25162975.3293          0.0003 
      2528.8453          0.0003 
 -18902137.408   -14717326.347    20971361.584    20971361.354    20971367.943  
       405.034         315.610  
  11546360.355     9023549.786    25060040.889    25060040.232    25060055.891  
     -2684.833       -2092.070  
 -14104816.210   -10971678.464    22624849.326    22624848.751    22624856.299  
      2285.569        1780.963  
 -23753716.117   -18490780.765    20351776.292    20351775.462    20351781.099  
      -152.285        -118.665  
  -8724242.563    -6775252.098    22909135.395    22909135.121    22909140.814  
     -2121.045       -1652.760  
   4284973.5121    3600259.0431   25207083.0971   25207082.9251   25207094.3361 
     -2576.5891      -2007.7301 
 99  8  3  2  6  0.0000000  0  8  1  3 14 15 16 22 25 29            
 -17884753.006   -13914881.102    21159437.423    21159436.997    21159443.232  
      -323.574        -252.134  
   -104310.4263          0.0003          0.0003   25148524.3623          0.0003 
      2533.7783          0.0003 
 -18913991.862   -14726563.592    20969105.569    20969105.391    20969112.097  
       385.294         300.230  
  11626852.267     9086270.606    25075358.105    25075357.335    25075373.264  
     -2681.176       -2089.222  
 -14173155.276   -11024929.634    22611844.662    22611844.169    22611851.636  
      2270.420        1769.161  
 -23748839.498   -18486980.776    20352704.365    20352703.503    20352709.050  
      -172.720        -134.589  
  -8660577.991    -6725643.348    22921250.198    22921249.966    22921255.841  
     -2123.316       -1654.535  
   4362349.1671    3660551.5381   25221806.6711   25221806.5771   25221818.7381 
     -2582.1941      -2012.0741 
 99  8  3  2  6 30.0000000  0  7  1  3 14 15 16 22 25               
 -17874913.740   -13907214.139    21161309.732    21161309.313    21161315.547  
      -332.480        -259.073  
   -180403.6603          0.0003          0.0003   25134044.2893          0.0003 
      2538.8263          0.0003 
 -18925267.732   -14735349.992    20966959.863    20966959.681    20966966.334  
       366.341         285.463  
  11707229.210     9148901.902    25090653.453    25090652.696    25090668.648  
     -2677.356       -2086.260  
 -14241051.912   -11077836.063    22598924.359    22598923.862    22598931.246  
      2255.902        1757.847  
 -23743369.276   -18482718.236    20353745.239    20353744.416    20353750.008  
      -192.107        -149.691  
  -8596857.144    -6675990.748    22933375.713    22933375.515    22933381.586  
     -2124.689       -1655.602  
 99  8  3  2  7  0.0000000  0  6  1 14 15 16 22 25                  
 -17864805.066   -13899337.246    21163233.394    21163232.987    21163239.126  
      -341.473        -266.086  
 -18935973.355   -14743692.034    20964922.629    20964922.472    20964929.082  
       347.267         270.597  
  11787488.761     9211441.669    25105926.262    25105925.727    25105941.793  
     -2673.263       -2083.055  
 -14308502.510   -11130394.915    22586089.069    22586088.439    22586095.780  
      2240.915        1746.159  
 -23737316.148   -18478001.491    20354897.089    20354896.292    20354901.883  
      -211.470        -164.782  
  -8533095.804    -6626306.593    22945508.997    22945508.880    22945514.919  
     -2126.116       -1656.714  
 99  8  3  2  7 30.0000000  0  6  1 14 15 16 22 25                  
 -17854429.026   -13891252.015    21165207.962    21165207.530    21165213.604  
      -350.261        -272.933  
 -18946099.157   -14751582.271    20962995.725    20962995.595    20963002.233  
       327.752         255.392  
  11867628.376     9273888.041    25121176.676    25121176.036    25121192.053  
     -2669.365       -2080.032  
 -14375504.683   -11182604.364    22573338.935    22573338.363    22573345.703  
      2226.107        1734.623  
 -23730677.321   -18472828.362    20356160.471    20356159.609    20356165.211  
      -231.309        -180.244  
  -8469277.555    -6576578.097    22957653.385    22957653.143    22957659.032  
     -2128.275       -1658.392  
 99  8  3  2  8  0.0000000  0  6  1 14 15 16 22 25                  
 -17843789.816   -13882961.716    21167232.606    21167232.153    21167238.159  
      -359.168        -279.871  
 -18955637.738   -14759014.933    20961180.644    20961180.465    20961187.095  
       307.909         239.932  
  11947644.970     9336238.574    25136403.441    25136402.809    25136418.770  
     -2665.215       -2076.790  
 -14442081.624   -11234482.454    22560669.819    22560669.160    22560676.578  
      2212.171        1723.768  
 -23723426.160   -18467178.090    20357540.199    20357539.390    20357545.050  
      -252.352        -196.638  
  -8405404.668    -6526807.041    22969807.882    22969807.674    22969813.662  
     -2129.889       -1659.654  
 99  8  3  2  8 30.0000000  0  6  1 14 15 16 22 25                  
 -17832882.065   -13874462.160    21169308.337    21169307.878    21169313.801  
      -368.273        -286.969  
 -18964576.680   -14765980.336    20959479.618    20959479.452    20959486.071  
       287.767         224.234  
  12027535.834     9398491.131    25151606.218    25151605.452    25151621.509  
     -2661.045       -2073.537  
 -14508237.224   -11286032.215    22548080.673    22548080.090    22548087.668  
      2197.890        1712.640  
 -23715528.691   -18461024.197    20359042.944    20359042.132    20359047.867  
      -274.464        -213.872  
  -8341492.480    -6477005.360    22981969.916    22981969.652    22981975.805  
     -2131.127       -1660.612  
 99  8  3  2  9  0.0000000  0  6  1 14 15 16 22 25                  
 -17821699.337   -13865748.333    21171436.402    21171435.913    21171441.788  
      -377.365        -294.048  
 -18972907.111   -14772471.581    20957894.437    20957894.262    20957900.850  
       267.466         208.417  
  12107298.466     9460643.791    25166784.182    25166783.588    25166799.738  
     -2656.537       -2070.030  
 -14573968.188   -11337251.093    22535572.349    22535571.744    22535579.537  
      2184.025        1701.832  
 -23706960.752   -18454347.862    20360673.267    20360672.460    20360678.258  
      -296.657        -231.160  
  -8277534.605    -6427168.077    22994140.542    22994140.383    22994146.597  
     -2132.717       -1661.860  
 99  8  3  2  9 30.0000000  0  6  1 14 15 16 22 25                  
 -17810235.139   -13856815.184    21173617.948    21173617.459    21173623.329  
      -386.656        -301.291  
 -18980618.090   -14778480.136    20956427.222    20956426.980    20956433.502  
       246.947         192.427  
  12186930.171     9522694.411    25181937.718    25181937.006    25181953.128  
     -2651.921       -2066.436  
 -14639274.438   -11388139.019    22523144.659    22523144.207    22523152.164  
      2169.865        1690.804  
 -23697718.426   -18447146.030    20362431.930    20362431.187    20362436.973  
      -319.099        -248.648  
  -8213528.848    -6377293.478    23006320.475    23006320.275    23006326.483  
     -2133.837       -1662.722  
 99  8  3  2 10  0.0000000  0  6  1 14 15 16 22 25                  
 -17798482.277   -13847657.101    21175854.311    21175853.874    21175859.773  
      -396.795        -309.195  
 -18987706.090   -14784003.252    20955078.440    20955078.227    20955084.697  
       225.684         175.857  
  12266428.497     9584641.084    25197066.219    25197065.181    25197081.280  
     -2647.800       -2063.215  
 -14704146.789   -11438688.859    22510799.817    22510799.358    22510807.344  
      2154.882        1679.123  
 -23687805.331   -18439421.521    20364318.351    20364317.606    20364323.315  
      -341.386        -266.019  
  -8149504.709    -6327404.552    23018503.712    23018503.603    23018509.951  
     -2134.460       -1663.214  
 99  8  3  2 10 30.0000000  0  6  1 14 15 16 22 25                  
 -17786434.023   -13838268.839    21178147.027    21178146.611    21178152.498  
      -406.350        -316.634  
 -18994169.374   -14789039.575    20953848.473    20953848.274    20953854.770  
       205.276         159.956  
  12345790.768     9646481.756    25212168.191    25212167.559    25212183.492  
     -2642.898       -2059.404  
 -14768572.378   -11488890.566    22498540.123    22498539.591    22498547.499  
      2140.335        1667.791  
 -23677254.487   -18431200.063    20366326.138    20366325.381    20366331.055  
      -361.788        -281.911  
  -8085463.089    -6277502.018    23030690.360    23030690.305    23030696.871  
     -2135.036       -1663.663  
 99  8  3  2 11  0.0000000  0  6  1 14 15 16 22 25                  
 -17774084.697   -13828645.985    21180497.106    21180496.649    21180502.505  
      -416.670        -324.680  
 -19000005.972   -14793587.582    20952737.727    20952737.580    20952744.050  
       184.059         143.422  
  12425014.380     9708214.415    25227243.915    25227243.258    25227259.362  
     -2638.360       -2055.867  
 -14832553.052   -11538745.576    22486364.951    22486364.422    22486372.272  
      2125.140        1655.951  
 -23666096.878   -18422505.810    20368449.411    20368448.656    20368454.252  
      -381.718        -297.443  
  -8021392.362    -6227576.816    23042882.761    23042882.547    23042889.297  
     -2136.073       -1664.477  
 99  8  3  2 11 30.0000000  0  7  1 14 15 16 18 22 25               
 -17761439.841   -13818792.846    21182903.317    21182902.865    21182908.740  
      -426.193        -332.096  
 -19005212.729   -14797644.793    20951746.886    20951746.723    20951753.173  
       163.131         127.118  
  12504096.388     9769836.754    25242292.752    25242292.140    25242308.102  
     -2633.645       -2052.190  
 -14896081.495   -11588248.202    22474275.927    22474275.354    22474283.137  
      2110.144        1644.272  
   -269828.0333    -193801.2403   25207913.4223   25207917.5853   25207965.9973 
      3101.1173       2416.5873 
 -23654350.502   -18413352.780    20370684.697    20370683.926    20370689.446  
      -401.347        -312.736  
  -7957306.592    -6177639.897    23055077.812    23055077.668    23055084.481  
     -2136.406       -1664.733  
 99  8  3  2 12  0.0000000  0  7  1 14 15 16 18 22 25               
 -17748517.344   -13808723.358    21185362.356    21185361.928    21185367.755  
      -435.125        -339.063  
 -19009794.413   -14801214.928    20950874.871    20950874.729    20950881.283  
       142.640         111.146  
  12583034.626     9831347.015    25257314.417    25257313.707    25257329.554  
     -2628.789       -2048.387  
 -14959156.751   -11637397.692    22462273.191    22462272.632    22462280.273  
      2094.919        1632.404  
    -61170.4743     -33271.6153          0.0003   25190207.3113   25190646.6923 
      3102.7213       2417.3603 
 -23642015.818   -18403741.315    20373031.946    20373031.160    20373036.565  
      -421.018        -328.068  
  -7893204.473    -6127690.228    23067276.010    23067275.891    23067282.692  
     -2137.010       -1665.207  
 99  8  3  2 12 30.0000000  0  7  1 14 15 16 18 22 25               
 -17735335.172   -13798451.531    21187870.896    21187870.427    21187876.218  
      -443.743        -345.770  
 -19013774.899   -14804316.605    20950117.392    20950117.235    20950123.822  
       122.843          95.720  
  12661826.042     9892742.901    25272308.036    25272307.393    25272323.086  
     -2623.862       -2044.576  
 -15021771.274   -11686188.162    22450358.163    22450357.603    22450365.102  
      2079.455        1620.354  
   -154278.1353     -88889.2453          0.0003   25172489.5003   25176927.6203 
      3104.5093       2418.4003 
 -23629079.015   -18393660.674    20375493.695    20375492.917    20375498.352  
      -441.494        -344.023  
  -7829078.575    -6077722.036    23079478.898    23079478.746    23079485.431  
     -2137.960       -1665.946  
 99  8  3  2 13  0.0000000  0  7  1 14 15 16 18 22 25               
 -17721895.254   -13787978.860    21190428.454    21190427.965    21190433.724  
      -452.159        -352.332  
 -19017167.808   -14806960.431    20949471.845    20949471.653    20949478.135  
       103.590          80.723  
  12740468.213     9954022.505    25287272.748    25287272.375    25287288.107  
     -2618.795       -2040.620  
 -15083919.138   -11734615.009    22438531.878    22438531.352    22438538.722  
      2063.832        1608.184  
   -247449.8843    -139694.9573          0.0003   25154759.4953   25164528.0253 
      3107.1563       2420.9303 
 -23615527.896   -18383101.341    20378072.430    20378071.620    20378077.073  
      -461.744        -359.797  
  -7764937.575    -6027742.074    23091684.817    23091684.590    23091690.985  
     -2138.000       -1665.969  
 99  8  3  2 13 30.0000000  0  6  1 14 15 16 22 25                  
 -17708195.709   -13777303.882    21193035.360    21193034.936    21193040.646  
      -460.975        -359.202  
 -19019988.323   -14809158.237    20948935.168    20948935.017    20948941.414  
        84.717          66.017  
  12818958.223    10015183.561    25302208.773    25302208.328    25302224.455  
     -2613.511       -2036.480  
 -15145595.882   -11782674.744    22426795.227    22426794.714    22426802.023  
      2048.309        1596.090  
 -23601360.232   -18372061.582    20380768.436    20380767.597    20380773.063  
      -482.553        -376.013  
  -7700787.179    -5977754.788    23103892.436    23103892.180    23103898.401  
     -2138.474       -1666.332  
 99  8  3  2 14  0.0000000  0  6  1 14 15 16 22 25                  
 -17694220.311   -13766413.945    21195694.823    21195694.417    21195700.061  
      -470.727        -366.805  
 -19022248.529   -14810919.441    20948505.185    20948504.987    20948511.337  
        66.012          51.438  
  12897293.928    10076224.342    25317115.300    25317114.946    25317131.423  
     -2608.593       -2032.672  
 -15206806.432   -11830371.201    22415147.205    22415146.664    22415154.022  
      2032.528        1583.793  
 -23586564.342   -18360532.300    20383583.989    20383583.142    20383588.590  
      -503.811        -392.582  
  -7636617.929    -5927752.830    23116103.450    23116103.238    23116109.538  
     -2139.344       -1667.022  
 99  8  3  2 14 30.0000000  0  6  1 14 15 16 22 25                  
 -17679944.099   -13755289.606    21198411.502    21198411.109    21198416.720  
      -481.097        -374.883  
 -19023942.141   -14812239.142    20948182.886    20948182.674    20948189.091  
        46.723          36.403  
  12975472.571    10137142.718    25331992.675    25331991.928    25332008.310  
     -2603.350       -2028.598  
 -15267550.458   -11877704.146    22403587.933    22403587.376    22403594.682  
      2017.198        1571.838  
 -23571142.692   -18348515.406    20386518.571    20386517.725    20386523.196  
      -524.093        -408.386  
  -7572420.940    -5877729.244    23128319.812    23128319.598    23128325.922  
     -2140.536       -1667.947  
 99  8  3  2 15  0.0000000  0  6  1 14 15 16 22 25                  
 -17665345.356   -13743913.951    21201189.520    21201189.095    21201194.745  
      -492.058        -383.422  
 -19025042.147   -14813096.288    20947973.498    20947973.336    20947979.765  
        26.535          20.676  
  13053491.812    10197936.935    25346839.160    25346838.667    25346854.981  
     -2598.070       -2024.487  
 -15327831.464   -11924676.306    22392116.773    22392116.174    22392123.394  
      2001.490        1559.607  
 -23555109.724   -18336022.161    20389569.387    20389568.632    20389574.165  
      -544.837        -424.550  
  -7508179.485    -5827671.000    23140544.618    23140544.412    23140550.763  
     -2142.271       -1669.302  
 99  8  3  2 15 30.0000000  0  6  1 14 15 16 22 25                  
 -17650425.193   -13732287.844    21204028.740    21204028.288    21204033.972  
      -502.543        -391.590  
 -19025533.120   -14813478.871    20947880.044    20947879.894    20947886.317  
         5.904           4.600  
  13131349.006    10258604.870    25361655.277    25361654.534    25361670.563  
     -2592.634       -2020.226  
 -15387647.629   -11971286.254    22380733.888    22380733.402    22380740.648  
      1986.101        1547.605  
 -23538446.200   -18323037.577    20392740.348    20392739.534    20392745.187  
      -566.130        -441.143  
  -7443883.507    -5777570.285    23152779.748    23152779.534    23152786.029  
     -2144.011       -1670.657  
 99  8  3  2 16  0.0000000  0  6  1 14 15 16 22 25                  
 -17635200.349   -13720424.324    21206925.853    21206925.395    21206931.245  
      -512.497        -399.346  
 -19025393.162   -14813369.810    20947906.642    20947906.475    20947912.975  
       -15.363         -11.973  
  13209041.354    10319144.315    25376439.642    25376438.921    25376454.810  
     -2587.043       -2015.887  
 -15446986.645   -12017524.396    22369441.882    22369441.408    22369448.753  
      1969.771        1534.887  
 -23521139.727   -18309551.992    20396033.625    20396032.824    20396038.532  
      -587.524        -457.811  
  -7379535.333    -5727428.891    23165024.705    23165024.587    23165031.246  
     -2145.809       -1672.058  
 99  8  3  2 16 30.0000000  0  6  1 14 15 16 22 25                  
 -17619676.505   -13708327.818    21209879.860    21209879.458    21209885.411  
      -522.338        -407.019  
 -19024608.069   -14812758.050    20948056.112    20948055.946    20948062.438  
       -36.878         -28.739  
  13286566.7291   10379553.7091   25391192.0801   25391191.4661   25391207.4141 
     -2581.3561      -2011.4581 
 -15505836.574   -12063381.439    22358242.984    22358242.497    22358249.992  
      1953.589        1522.277  
 -23503196.836   -18295570.509    20399448.062    20399447.285    20399452.909  
      -608.643        -474.269  
  -7315141.317    -5677251.786    23177278.547    23177278.390    23177285.159  
     -2146.967       -1672.964  
 99  8  3  2 17  0.0000000  0  6  1 14 15 16 22 25                  
 -17603866.105   -13696008.016    21212888.507    21212888.089    21212894.066  
      -531.434        -414.102  
 -19023184.414   -14811648.714    20948327.264    20948327.020    20948333.394  
       -57.756         -45.002  
  13363922.038    10439830.523    25405912.268    25405911.669    25405927.568  
     -2575.423       -2006.820  
 -15564200.359   -12108859.676    22347136.602    22347136.117    22347143.660  
      1937.582        1509.808  
 -23484608.712   -18281086.251    20402985.260    20402984.503    20402990.121  
      -630.267        -491.114  
  -7250721.673    -5627054.717    23189537.124    23189536.946    23189543.888  
     -2147.390       -1673.300  
 99  8  3  2 17 30.0000000  0  7  1 14 15 16 18 22 25               
 -17587782.990   -13683475.701    21215949.096    21215948.687    21215954.592  
      -540.751        -421.365  
 -19021134.352   -14810051.265    20948717.455    20948717.189    20948723.512  
       -78.775         -61.386  
  13441105.265    10499973.257    25420599.619    25420599.197    25420615.230  
     -2569.918       -2002.540  
 -15622087.843   -12153966.781    22336120.892    22336120.408    22336127.974  
      1921.619        1497.366  
    -19915.7553      -5503.0713   24994595.6513   24994596.6673   24994579.6333 
      3127.6153       2437.0543 
 -23465385.288   -18266106.945    20406643.300    20406642.560    20406648.233  
      -650.889        -507.191  
  -7186293.324    -5576850.854    23201797.187    23201797.097    23201804.203  
     -2147.591       -1673.452  
 99  8  3  2 18  0.0000000  0  7  1 14 15 16 18 22 25               
 -17571417.945   -13670723.697    21219063.280    21219062.813    21219068.753  
      -550.419        -428.900  
 -19018469.037   -14807974.397    20949224.586    20949224.370    20949230.733  
       -98.756         -76.954  
  13518113.974    10559979.980    25435254.045    25435253.751    25435269.685  
     -2564.099       -1997.980  
 -15679496.493   -12198700.758    22325196.399    22325195.867    22325203.495  
      1905.755        1484.998  
   -113793.0163     -78654.4893   24976730.7723   24976732.4073   24976743.9153 
      3130.7963       2439.5963 
 -23445561.485   -18250659.804    20410415.674    20410414.889    20410420.560  
      -670.564        -522.519  
  -7121863.550    -5526645.875    23214057.701    23214057.627    23214064.817  
     -2147.759       -1673.569  
 99  8  3  2 18 30.0000000  0  7  1 14 15 16 18 22 25               
 -17554755.995   -13657740.344    21222233.789    21222233.365    21222239.368  
      -560.377        -436.659  
 -19015213.883   -14805437.908    20949844.023    20949843.800    20949850.200  
      -118.326         -92.202  
  13594945.387    10619848.619    25449874.793    25449874.287    25449890.233  
     -2558.145       -1993.359  
 -15736431.515   -12243065.688    22314362.079    22314361.488    22314369.150  
      1889.881        1472.633  
   -207763.5803    -151878.2663   24958848.6983   24958850.3923   24958855.1553 
      3133.7633       2441.8883 
 -23425155.878   -18234759.317    20414298.662    20414297.906    20414303.583  
      -689.912        -537.596  
  -7057430.132    -5476438.049    23226319.041    23226318.964    23226326.074  
     -2148.016       -1673.775  
 99  8  3  2 19  0.0000000  0  7  1 14 15 16 18 22 25               
 -17537800.031   -13644527.890    21225460.334    21225459.924    21225465.934  
      -570.251        -444.357  
 -19011377.543   -14802448.544    20950574.028    20950573.838    20950580.219  
      -137.563        -107.196  
  13671597.371    10679577.427    25464461.070    25464460.523    25464476.555  
     -2552.099       -1988.645  
 -15792890.708   -12287059.846    22303618.178    22303617.588    22303625.283  
      1873.787        1460.099  
   -301818.6721    -225167.8611   24940950.4421   24940950.1071   24940958.0601 
      3136.2181       2443.8141 
 -23404177.852   -18218412.780    20418290.673    20418289.908    20418295.530  
      -708.675        -552.216  
  -6992985.157    -5426221.221    23238582.680    23238582.522    23238589.450  
     -2148.510       -1674.167  
 99  8  3  2 19 30.0000000  0  7  1 14 15 16 18 22 25               
 -17520538.013   -13631076.956    21228745.152    21228744.699    21228750.792  
      -580.412        -452.269  
 -19006961.527   -14799007.483    20951414.304    20951414.137    20951420.602  
      -156.764        -122.156  
  13748067.159    10739164.257    25479012.939    25479012.392    25479028.287  
     -2545.732       -1983.690  
 -15848857.731   -12330670.503    22292967.949    22292967.389    22292975.108  
      1857.461        1447.371  
   -395932.9361    -298503.5841   24923040.913    24923041.6631   24923049.4301 
      3138.1331       2445.3011 
 -23382639.354   -18201629.511    20422389.319    20422388.521    20422394.110  
      -727.166        -566.626  
  -6928519.413    -5375988.181    23250850.135    23250850.024    23250856.749  
     -2149.066       -1674.597  
 99  8  3  2 20  0.0000000  0  7  1 14 15 16 18 22 25               
 -17502965.576   -13617384.143    21232089.029    21232088.628    21232094.716  
      -590.744        -460.325  
 -19001959.820   -14795110.040    20952366.114    20952365.924    20952372.407  
      -176.523        -137.551  
  13824352.183    10798607.091    25493529.713    25493529.247    25493544.975  
     -2539.684       -1978.978  
 -15904320.721   -12373888.414    22282413.755    22282413.188    22282420.836  
      1840.453        1434.120  
   -490085.515     -371869.163    24905124.787    24905124.859    24905132.685  
      3138.843        2445.849  
 -23360520.619   -18184394.113    20426598.329    20426597.568    20426603.147  
      -747.371        -582.369  
  -6864014.273    -5325724.452    23263125.047    23263124.972    23263131.671  
     -2150.984       -1676.096  
 99  8  3  2 20 30.0000000  0  7  1 14 15 16 18 22 25               
 -17485097.474   -13603460.935    21235489.239    21235488.806    21235494.888  
      -600.401        -467.843  
 -18996360.904   -14790747.234    20953431.571    20953431.361    20953437.858  
      -196.853        -153.393  
  13900450.510    10857904.439    25508010.762    25508010.309    25508026.095  
     -2533.559       -1974.204  
 -15959288.510   -12416720.460    22271953.741    22271953.198    22271960.740  
      1824.084        1421.367  
   -584258.536     -445250.661    24887204.378    24887204.096    24887212.019  
      3139.503        2446.365  
 -23337791.534   -18166683.124    20430923.580    20430922.786    20430928.313  
      -767.982        -598.430  
  -6799462.230    -5275424.177    23275409.057    23275408.919    23275415.550  
     -2152.405       -1677.194  
 99  8  3  2 21  0.0000000  0  7  1 14 15 16 18 22 25               
 -17466939.087   -13589311.532    21238944.605    21238944.206    21238950.321  
      -610.129        -475.426  
 -18990147.186   -14785905.362    20954613.940    20954613.740    20954620.300  
      -217.387        -169.396  
  13976359.4411   10917054.2551   25522455.4061   25522454.8921   25522471.2061 
     -2527.1431      -1969.2051 
 -16013761.897   -12459167.253    22261587.736    22261587.229    22261594.770  
      1807.539        1408.474  
   -678449.093     -518645.844    24869280.430    24869280.236    24869288.057  
      3140.091        2446.801  
 -23314432.953   -18148481.613    20435368.545    20435367.750    20435373.260  
      -789.225        -614.982  
  -6734870.888    -5225093.260    23287700.672    23287700.413    23287706.931  
     -2153.662       -1678.193  
 99  8  3  2 21 30.0000000  0  7  1 14 15 16 18 22 25               
 -17448492.561   -13574937.608    21242454.743    21242454.395    21242460.637  
      -619.635        -482.833  
 -18983312.935   -14780579.950    20955914.411    20955914.240    20955920.811  
      -238.271        -185.668  
  14052076.6971   10976054.6721   25536863.8561   25536863.2011   25536879.7021 
     -2520.7311      -1964.2251 
 -16067741.245   -12501229.080    22251315.799    22251315.281    22251322.835  
      1791.153        1395.701  
   -772663.311     -592059.467    24851352.019    24851351.900    24851359.656  
      3141.009        2447.544  
 -23290430.439   -18129778.336    20439935.993    20439935.210    20439940.807  
      -810.891        -631.863  
  -6670239.848    -5174731.412    23299999.467    23299999.251    23300005.885  
     -2155.143       -1679.332  
 99  8  3  2 22  0.0000000  0  7  1 14 15 16 18 22 25               
 -17429768.493   -13560347.420    21246017.756    21246017.437    21246023.704  
      -628.880        -490.037  
 -18975848.142   -14774763.202    20957334.978    20957334.793    20957341.275  
      -259.342        -202.085  
  14127599.834    11034903.862    25551235.352    25551234.890    25551251.349  
     -2514.255       -1959.182  
 -16121233.430   -12542911.304    22241136.532    22241136.071    22241143.560  
      1774.869        1383.007  
   -866914.630     -665501.944    24833416.582    24833416.309    24833424.353  
      3142.575        2448.763  
 -23265780.487   -18110570.563    20444626.641    20444625.863    20444631.553  
      -832.325        -648.570  
  -6605572.922    -5124341.601    23312305.061    23312304.957    23312311.531  
     -2155.813       -1679.854  
 99  8  3  2 22 30.0000000  0  7  1 14 15 16 18 22 25               
 -17410754.051   -13545530.968    21249636.151    21249635.788    21249641.949  
      -638.761        -497.735  
 -18967756.701   -14768458.152    20958874.723    20958874.522    20958880.965  
      -279.966        -218.153  
  14202926.072    11093599.666    25565569.654    25565569.149    25565585.416  
     -2507.382       -1953.805  
 -16174236.726   -12584212.573    22231050.423    22231049.980    22231057.354  
      1758.654        1370.384  
   -961227.343     -738992.264    24815469.164    24815468.896    24815477.285  
      3145.095        2450.727  
 -23240501.651   -18090872.749    20449437.059    20449436.288    20449441.956  
      -852.645        -664.400  
  -6540905.279    -5073951.240    23324611.019    23324610.857    23324617.257  
     -2155.300       -1679.447  
 99  8  3  2 23  0.0000000  0  7  1 14 15 16 18 22 25               
 -17391432.940   -13530475.549    21253312.958    21253312.507    21253318.534  
      -649.159        -505.830  
 -18959041.697   -14761667.212    20960533.079    20960532.924    20960539.327  
      -300.729        -234.329  
  14278053.382    11152140.384    25579865.990    25579865.384    25579881.668  
     -2500.754       -1948.632  
 -16226743.927   -12625127.263    22221058.668    22221058.238    22221065.605  
      1742.070        1357.463  
  -1055617.952     -812543.309    24797506.790    24797506.716    24797515.443  
      3147.798        2452.819  
 -23214617.967   -18070703.623    20454362.579    20454361.785    20454367.466  
      -872.498        -679.865  
  -6476248.211    -5023569.115    23336914.964    23336914.755    23336920.889  
     -2155.032       -1679.239  
 99  8  3  2 23 30.0000000  0  7  1 14 15 16 18 22 25               
 -17371797.699   -13515175.357    21257049.282    21257048.874    21257055.007  
      -659.734        -514.078  
 -18949698.950   -14754387.109    20962310.964    20962310.795    20962317.120  
      -321.831        -250.779  
  14352979.125    11210524.022    25594124.056    25594123.295    25594139.581  
     -2494.066       -1943.414  
 -16278756.228   -12665656.316    22211160.973    22211160.587    22211167.994  
      1725.722        1344.720  
  -1150087.9261    -886156.1331   24779529.0831   24779529.3371   24779538.4431 
      3150.4261       2454.8691 
 -23188145.772   -18050075.921    20459399.992    20459399.226    20459404.939  
      -892.119        -695.158  
  -6411593.968    -4973189.179    23349218.131    23349218.036    23349224.001  
     -2154.859       -1679.110  
 99  8  3  2 24  0.0000000  0  7  1 14 15 16 18 22 25               
 -17351840.715   -13499624.464    21260846.830    21260846.460    21260852.711  
      -670.929        -522.809  
 -18939732.409   -14746620.938    20964207.465    20964207.313    20964213.583  
      -342.624        -266.983  
  14427700.989    11268748.876    25608343.150    25608342.533    25608358.839  
     -2487.527       -1938.336  
 -16330282.396   -12705806.551    22201355.907    22201355.445    22201362.843  
      1709.143        1331.792  
  -1244631.959     -959826.740    24761538.009    24761538.162    24761547.387  
      3152.435        2456.430  
 -23161089.546   -18028993.127    20464548.607    20464547.857    20464553.549  
      -911.768        -710.473  
  -6346955.350    -4922821.428    23361518.339    23361518.315    23361524.330  
     -2154.553       -1678.879  
 99  8  3  2 24 30.0000000  0  7  1 14 15 16 18 22 25               
 -17331554.133   -13483816.739    21264707.311    21264706.921    21264713.106  
      -681.697        -531.194  
 -18929159.569   -14738382.329    20966219.407    20966219.186    20966225.472  
      -362.611        -282.554  
  14502216.602    11326812.967    25622523.203    25622522.460    25622538.493  
     -2480.509       -1932.868  
 -16381314.704   -12745571.950    22191644.731    22191644.229    22191651.691  
      1692.554        1318.876  
  -1339238.136    -1033545.734    24743535.153    24743535.104    24743544.460  
      3154.104        2457.746  
 -23133450.379   -18007456.106    20469808.205    20469807.437    20469813.064  
      -931.221        -725.629  
  -6282327.677    -4872462.228    23373816.495    23373816.453    23373822.582  
     -2154.625       -1678.926  
 99  8  3  2 25  0.0000000  0  7  1 14 15 16 18 22 25               
 -17310948.547   -13467760.437    21268628.562    21268628.123    21268634.164  
      -692.122        -539.318  
 -18917978.910   -14729670.093    20968346.913    20968346.694    20968353.073  
      -382.732        -298.233  
  14576523.729    11384714.624    25636663.662    25636662.769    25636678.566  
     -2473.381       -1927.315  
 -16431840.385   -12784942.562    22182029.862    22182029.371    22182036.989  
      1675.709        1305.747  
  -1433873.888    -1107287.803    24725526.741    24725526.656    24725535.850  
      3154.795        2458.284  
 -23105220.714   -17985458.945    20475180.223    20475179.416    20475184.980  
      -950.849        -740.920  
  -6217675.437    -4822083.886    23386119.313    23386119.241    23386125.429  
     -2155.639       -1679.714  
 99  8  3  2 25 30.0000000  0  7  1 14 15 16 18 22 25               
 -17290023.716   -13451455.372    21272610.561    21272610.087    21272616.042  
      -702.860        -547.683  
 -18906202.946   -14720493.985    20970587.677    20970587.512    20970593.942  
      -402.197        -313.402  
  14650620.099    11442452.060    25650763.844    25650762.909    25650778.714  
     -2466.339       -1921.834  
 -16481854.962   -12823914.899    22172512.306    22172511.875    22172519.538  
      1658.562        1292.379  
  -1528518.299    -1181036.604    24707516.784    24707516.623    24707525.680  
      3154.764        2458.263  
 -23076398.737   -17963000.243    20480664.852    20480664.052    20480669.687  
      -970.581        -756.295  
  -6152988.550    -4771678.531    23398428.909    23398428.778    23398434.890  
     -2156.693       -1680.540  
 99  8  3  2 26  0.0000000  0  7  1 14 15 16 18 22 25               
 -17268769.750   -13434893.844    21276655.110    21276654.632    21276660.573  
      -713.972        -556.339  
 -18893853.834   -14710871.272    20972937.573    20972937.400    20972943.876  
      -421.201        -328.205  
  14724503.1971   11500023.2641   25664823.0811   25664822.1081   25664838.1991 
     -2458.9591      -1916.0431 
 -16531349.925   -12862482.351    22163093.712    22163093.291    22163100.900  
      1640.944        1278.658  
  -1623162.354    -1254785.107    24689506.921    24689506.601    24689515.550  
      3154.975        2458.414  
 -23046988.347   -17940083.046    20486261.470    20486260.663    20486266.267  
      -989.963        -771.400  
  -6088268.125    -4721247.051    23410744.713    23410744.671    23410750.762  
     -2157.999       -1681.561  
 99  8  3  2 26 30.0000000  0  6  1 14 16 18 22 25                  
 -17247184.705   -13418074.326    21280762.604    21280762.139    21280768.057  
      -724.877        -564.838  
 -18880924.500   -14700796.439    20975397.907    20975397.767    20975404.218  
      -440.679        -343.386  
 -16580310.364   -12900633.281    22153776.781    22153776.369    22153783.926  
      1623.283        1264.893  
  -1717819.414    -1328543.764    24671494.425    24671494.052    24671502.856  
      3155.525        2458.846  
 -23016998.388   -17916714.237    20491968.310    20491967.585    20491973.138  
     -1009.247        -786.428  
  -6023504.408    -4670781.855    23423068.998    23423068.929    23423074.980  
     -2159.509       -1682.734  
 99  8  3  2 27  0.0000000  0  7  1 14 16 18 19 22 25               
 -17225272.678   -13401000.016    21284932.377    21284931.904    21284937.702  
      -735.944        -573.463  
 -18867405.454   -14690262.094    20977970.527    20977970.371    20977976.744  
      -460.495        -358.825  
 -16628748.660   -12938377.340    22144559.208    22144558.775    22144566.399  
      1606.076        1251.480  
  -1812493.933    -1402316.047    24653478.544    24653478.104    24653486.839  
      3156.381        2459.521  
   -177137.5563    -123661.6863          0.0003   25461549.8973   25461780.8173 
      2338.7183       1822.4263 
 -22986433.024   -17892897.058    20497784.738    20497783.999    20497789.459  
     -1028.262        -801.241  
  -5958696.964    -4620282.590    23435401.551    23435401.415    23435407.400  
     -2160.786       -1683.720  
 99  8  3  2 27 30.0000000  0  7  1 14 16 18 19 22 25               
 -17203029.335   -13383667.539    21289165.095    21289164.609    21289170.426  
      -746.966        -582.052  
 -18853301.006   -14679271.598    20980654.547    20980654.335    20980660.649  
      -480.095        -374.102  
 -16676676.368   -12975723.534    22135438.896    22135438.429    22135446.030  
      1588.858        1238.071  
  -1907212.476    -1476122.563    24635454.065    24635453.567    24635462.487  
      3158.128        2460.872  
   -247247.2221    -179203.6111   25448206.6501   25448206.0991   25448216.8151 
      2335.2461       1819.6731 
 -22955300.267   -17868637.750    20503709.098    20503708.329    20503713.814  
     -1047.415        -816.171  
  -5893868.095    -4569766.620    23447738.068    23447737.956    23447743.938  
     -2161.272       -1684.115  
 99  8  3  2 28  0.0000000  0  8  1  3 14 16 18 19 22 25            
 -17180475.233   -13366092.909    21293456.903    21293456.424    21293462.368  
      -756.705        -589.640  
    -41779.9173     -17008.6483   24494016.0713   24494021.1703   24494092.4183 
      2648.0253       2063.3963 
 -18838596.769   -14667813.735    20983452.578    20983452.421    20983458.716  
      -500.474        -389.986  
 -16724088.902   -13012668.296    22126416.751    22126416.187    22126423.635  
      1571.849        1224.814  
  -2001994.461    -1549978.560    24617417.512    24617417.072    24617425.986  
      3160.570        2462.773  
   -317261.3071    -233759.7991   25434883.308    25434882.2931   25434893.4091 
      2332.2601       1817.3001 
 -22923593.322   -17843931.020    20509742.687    20509741.909    20509747.430  
     -1066.493        -831.036  
  -5829027.714    -4519241.671    23460076.942    23460076.751    23460082.777  
     -2161.521       -1684.297  
 99  8  3  2 28 30.0000000  0  8  1  3 14 16 18 19 22 25            
 -17157635.244   -13348295.519    21297803.149    21297802.723    21297808.751  
      -766.015        -596.895  
   -121229.0003     -78916.5473   24478898.7543   24478902.5023   24478906.8703 
      2648.6943       2063.9033 
 -18823274.197   -14655874.062    20986368.359    20986368.206    20986374.437  
      -520.806        -405.825  
 -16770990.704   -13049215.082    22117491.674    22117491.021    22117498.404  
      1555.060        1211.726  
  -2096843.686    -1623886.930    24599368.139    24599367.689    24599376.668  
      3162.671        2464.415  
   -387186.409     -288246.696    25421576.913    25421575.846    25421586.862  
      2329.479        1815.169  
 -22891305.351   -17818771.551    20515886.810    20515886.072    20515891.599  
     -1085.985        -846.222  
  -5764183.786    -4468713.965    23472416.469    23472416.164    23472422.342  
     -2161.473       -1684.265  
 99  8  3  2 29  0.0000000  0  8  1  3 14 16 18 19 22 25            
 -17134504.418   -13330271.500    21302204.919    21302204.448    21302210.438  
      -776.030        -604.700  
   -200694.1633    -140837.1463   24463775.4603   24463780.7713   24463787.7573 
      2649.0453       2064.8963 
 -18807348.153   -14643464.150    20989398.973    20989398.768    20989404.987  
      -540.857        -421.450  
 -16817383.336   -13085365.111    22108663.281    22108662.700    22108670.074  
      1537.690        1198.194  
  -2191744.978    -1697835.897    24581308.882    24581308.424    24581317.382  
      3164.247        2465.653  
   -457023.166     -342664.714    25408286.869    25408286.164    25408297.222  
      2326.439        1812.814  
 -22858430.351   -17793154.655    20522142.703    20522141.931    20522147.504  
     -1105.558        -861.478  
  -5699338.371    -4418185.093    23484755.970    23484755.730    23484762.093  
     -2161.471       -1684.263  
 99  8  3  2 29 30.0000000  0  8  1  3 14 16 18 19 22 25            
 -17111072.208   -13312012.638    21306663.875    21306663.433    21306669.464  
      -786.082        -612.532  
   -280177.7161    -202772.1161   24448651.8781   24448650.6001   24448661.0911 
      2649.9671       2064.9041 
 -18790824.296   -14630588.413    20992543.275    20992543.106    20992549.347  
      -560.824        -437.009  
 -16863244.875   -13121101.306    22099936.129    22099935.492    22099942.809  
      1519.764        1184.230  
  -2286691.322    -1771819.966    24563241.050    24563240.679    24563249.671  
      3165.368        2466.518  
   -526775.850     -397017.277    25395013.033    25395012.509    25395023.620  
      2323.831        1810.768  
 -22824965.005   -17767077.753    20528510.896    20528510.161    20528515.761  
     -1125.490        -877.005  
  -5634492.337    -4367655.753    23497095.536    23497095.432    23497101.987  
     -2161.661       -1684.412  
 99  8  3  2 30  0.0000000  0  8  1  3 14 16 18 19 22 25            
 -17087336.970   -13293517.643    21311180.478    21311180.074    21311186.168  
      -796.546        -620.687  
   -359694.9431    -264733.2961   24433519.868    24433518.6831   24433528.9771 
      2651.0591       2065.7511 
 -18773695.808   -14617241.537    20995802.726    20995802.586    20995808.829  
      -580.994        -452.726  
 -16908566.536   -13156416.833    22091311.523    22091311.014    22091318.336  
      1501.772        1170.213  
  -2381670.427    -1845829.545    24545166.936    24545166.529    24545175.761  
      3166.489        2467.397  
   -596452.557     -451310.648    25381753.991    25381753.231    25381764.559  
      2321.354        1808.830  
 -22790899.763   -17740533.395    20534993.387    20534992.601    20534998.164  
     -1145.353        -892.485  
  -5569632.947    -4317116.014    23509437.835    23509437.697    23509444.371  
     -2162.386       -1684.976  
 99  8  3  2 30 30.0000000  0  8  1  3 14 16 18 19 22 25            
 -17063269.543   -13274763.798    21315760.357    21315759.940    21315766.018  
      -808.004        -629.613  
   -439235.908     -326712.982    24418383.168    24418382.515    24418393.163  
      2651.645        2066.207  
 -18755975.988   -14603433.884    20999174.699    20999174.582    20999180.836  
      -600.327        -467.786  
 -16953344.730   -13191308.877    22082790.497    22082789.946    22082797.392  
      1483.373        1155.876  
  -2476678.288    -1919861.593    24527087.397    24527087.016    24527096.335  
      3167.440        2468.139  
   -666049.986     -505542.232    25368509.952    25368509.207    25368520.687  
      2318.627        1806.722  
 -22756247.684   -17713531.766    20541587.412    20541586.622    20541592.222  
     -1164.696        -907.558  
  -5504754.266    -4266561.224    23521783.957    23521783.797    23521790.415  
     -2163.085       -1685.518  
 99  8  3  2 31  0.0000000  0  8  1  3 14 16 18 19 22 25            
 -17038857.893   -13255741.728    21320405.769    21320405.344    21320411.338  
      -819.221        -638.356  
   -518788.607     -388701.786    24403245.040    24403244.235    24403254.584  
      2651.920        2066.431  
 -18737675.737   -14589173.944    21002657.102    21002657.020    21002663.274  
      -619.876        -483.022  
 -16997566.134   -13225767.069    22074375.288    22074374.836    22074382.355  
      1464.786        1141.393  
  -2571710.809    -1993912.807    24509003.164    24509002.790    24509012.260  
      3168.123        2468.657  
   -735566.8381    -559711.0001   25355280.8941   25355280.2461   25355291.9981 
      2315.8031       1804.5211 
 -22721026.054   -17686086.334    20548289.773    20548288.990    20548294.625  
     -1183.386        -922.120  
  -5439848.148    -4215985.029    23534135.417    23534135.261    23534141.638  
     -2163.864       -1686.126  
 99  8  3  2 31 30.0000000  0  8  1  3 14 16 18 19 22 25            
 -17014119.238   -13236464.840    21325113.502    21325113.046    21325118.894  
      -829.845        -646.631  
   -598350.534     -450697.793    24388104.472    24388103.922    24388114.362  
      2652.258        2066.691  
 -18718780.122   -14574450.083    21006252.861    21006252.742    21006258.993  
      -639.786        -498.533  
 -17041240.715   -13259799.173    22066064.319    22066063.866    22066071.355  
      1446.901        1127.453  
  -2666774.512    -2067988.382    24490913.053    24490912.658    24490922.044  
      3169.446        2469.695  
   -805008.097     -613820.871    25342066.094    25342065.844    25342077.913  
      2313.659        1802.850  
 -22685242.426   -17658202.970    20555099.247    20555098.451    20555104.019  
     -1202.131        -936.727  
  -5374919.226    -4165391.075    23546491.089    23546490.974    23546497.265  
     -2164.615       -1686.707  
 99  8  3  2 32  0.0000000  0  8  1  3 14 16 18 19 22 25            
 -16989065.780   -13216942.657    21329881.069    21329880.594    21329886.402  
      -840.317        -654.796  
   -677912.275     -512693.671    24372964.092    24372963.665    24372974.117  
      2651.875        2066.387  
 -18699283.677   -14559258.043    21009963.021    21009962.849    21009969.054  
      -659.899        -514.206  
 -17084379.818   -13293414.040    22057855.262    22057854.824    22057862.208  
      1429.199        1113.659  
  -2761882.693    -2142098.613    24472814.446    24472813.956    24472823.465  
      3171.034        2470.954  
   -874381.965     -667878.204    25328864.953    25328864.479    25328876.673  
      2311.291        1800.986  
 -22648900.139   -17629884.291    20562015.071    20562014.221    20562019.763  
     -1220.579        -951.099  
  -5309970.011    -4114781.323    23558850.486    23558850.402    23558856.827  
     -2165.116       -1687.105  
 99  8  3  2 32 30.0000000  0  8  1  3 14 16 18 19 22 25            
 -16963701.174   -13197178.028    21334707.817    21334707.340    21334713.154  
      -850.526        -662.742  
   -757458.382     -574677.363    24357826.960    24357826.447    24357836.696  
      2651.185        2065.853  
 -18679184.417   -14543596.278    21013787.808    21013787.653    21013793.863  
      -680.105        -529.949  
 -17126991.570   -13326617.986    22049746.489    22049746.088    22049753.387  
      1411.669        1100.004  
  -2857024.993    -2216235.404    24454709.208    24454708.748    24454718.437  
      3171.665        2471.436  
   -943685.648     -721880.900    25315676.237    25315676.217    25315688.513  
      2308.891        1799.133  
 -22612002.823   -17601133.128    20569036.405    20569035.565    20569041.063  
     -1239.338        -965.714  
  -5245015.938    -4064167.784    23571210.692    23571210.669    23571217.325  
     -2165.201       -1687.158  
 99  8  3  2 33  0.0000000  0  8  1  3 14 16 18 19 22 25            
 -16938038.870   -13177181.423    21339591.225    21339590.775    21339596.531  
      -860.309        -670.368  
   -836993.242     -636652.315    24342691.820    24342691.418    24342701.483  
      2651.286        2065.929  
 -18658473.180   -14527457.647    21017728.987    21017728.870    21017735.060  
      -700.540        -545.875  
 -17169088.840   -13359421.047    22041735.719    22041735.212    22041742.398  
      1394.865        1086.910  
  -2952181.528    -2290383.378    24436601.217    24436600.813    24436610.460  
      3172.293        2471.911  
  -1012915.238     -775825.856    25302501.882    25302502.079    25302514.444  
      2306.502        1797.291  
 -22574534.695   -17571937.177    20576166.288    20576165.450    20576170.995  
     -1258.492        -980.641  
  -5180059.765    -4013552.593    23583571.328    23583571.373    23583578.133  
     -2165.040       -1687.043  
 99  8  3  2 33 30.0000000  0  8  1  3 14 16 18 19 22 25            
 -16912067.189   -13156943.743    21344533.567    21344533.091    21344538.781  
      -871.020        -678.716  
   -916528.625     -698627.704    24327556.560    24327556.114    24327566.309  
      2651.191        2065.856  
 -18637141.571   -14510835.611    21021788.335    21021788.151    21021794.267  
      -721.262        -562.022  
 -17210678.024   -13391828.197    22033821.519    22033821.021    22033828.149  
      1377.703        1073.538  
  -3047351.330    -2364541.641    24418490.756    24418490.580    24418500.024  
      3172.619        2472.157  
  -1082071.097     -829713.351    25289341.953    25289342.061    25289354.294  
      2303.953        1795.265  
 -22536480.405   -17542284.474    20583407.681    20583406.881    20583412.463  
     -1278.150        -995.962  
  -5115103.740    -3962937.531    23595932.152    23595932.142    23595938.881  
     -2165.154       -1687.141  
 99  8  3  2 34  0.0000000  0  8  1  3 14 16 18 19 22 25            
 -16885769.458   -13136452.005    21349537.795    21349537.354    21349543.097  
      -882.324        -687.525  
   -996056.679     -760597.365    24312422.667    24312422.325    24312432.341  
      2650.671        2065.458  
 -18615191.918   -14493731.976    21025965.281    21025965.021    21025971.115  
      -741.978        -578.169  
 -17251746.786   -13423829.816    22026006.349    22026005.809    22026013.012  
      1360.222        1059.913  
  -3142519.342    -2438698.516    24400381.018    24400380.779    24400390.142  
      3171.903        2471.618  
  -1151147.946     -883539.314    25276197.039    25276197.047    25276209.309  
      2301.057        1793.023  
 -22497845.486   -17512179.338    20590759.540    20590758.752    20590764.406  
     -1297.513       -1011.047  
  -5050149.178    -3912323.616    23608292.699    23608292.660    23608299.273  
     -2165.138       -1687.121  
 99  8  3  2 34 30.0000000  0  8  1  3 14 16 18 19 22 25            
 -16859126.129   -13115690.973    21354607.763    21354607.356    21354613.175  
      -894.026        -696.646  
  -1075581.440     -822564.499    24297289.468    24297289.143    24297298.995  
      2650.773        2065.516  
 -18592637.568   -14476157.155    21030257.230    21030257.006    21030263.163  
      -761.711        -593.542  
 -17292297.477   -13455427.766    22018289.715    22018289.202    22018296.467  
      1342.930        1046.442  
  -3237669.341    -2512841.344    24382274.622    24382274.463    24382283.742  
      3171.404        2471.221  
  -1220138.339     -937297.907    25263068.565    25263068.535    25263080.708  
      2298.163        1790.768  
 -22458632.920   -17481624.091    20598221.431    20598220.653    20598226.303  
     -1316.631       -1025.945  
  -4985193.322    -3861708.682    23620653.535    23620653.464    23620659.808  
     -2165.564       -1687.463  
 99  8  3  2 35  0.0000000  0  8  1  3 14 16 18 19 22 25            
 -16832127.329   -13094652.943    21359745.523    21359745.110    21359750.877  
      -906.065        -706.022  
  -1155103.321     -884529.374    24282156.819    24282156.457    24282166.178  
      2650.573        2065.378  
 -18569492.683   -14458122.167    21034661.563    21034661.335    21034667.597  
      -781.274        -608.786  
 -17332320.141   -13486614.275    22010673.661    22010673.153    22010680.373  
      1325.117        1032.563  
  -3332812.232    -2586978.674    24364169.731    24364169.488    24364178.583  
      3171.563        2471.348  
  -1289046.157     -990992.185    25249955.838    25249955.791    25249967.836  
      2295.655        1788.816  
 -22418851.032   -17450625.209    20605791.732    20605790.938    20605796.552  
     -1335.353       -1040.531  
  -4920219.997    -3811080.126    23633017.582    23633017.466    23633023.673  
     -2166.165       -1687.911  
 99  8  3  2 35 30.0000000  0  8  1  3 14 16 18 19 22 25            
 -16804763.338   -13073330.346    21364952.763    21364952.302    21364958.049  
      -918.073        -715.379  
  -1234613.953     -946485.510    24267026.077    24267025.830    24267035.337  
      2649.872        2064.825  
 -18545764.436   -14439632.613    21039176.821    21039176.607    21039182.973  
      -800.599        -623.843  
 -17371804.745   -13517381.515    22003160.036    22003159.503    22003166.663  
      1307.023        1018.458  
  -3427969.974    -2661127.541    24346061.819    24346061.660    24346070.643  
      3172.208        2471.846  
  -1357884.691    -1044632.463    25236856.105    25236856.160    25236868.116  
      2293.491        1787.139  
 -22378515.776   -17419195.128    20613467.349    20613466.519    20613472.098  
     -1353.662       -1054.803  
  -4855228.424    -3760437.370    23645384.966    23645384.868    23645391.088  
     -2166.696       -1688.338  
 99  8  3  2 36  0.0000000  0  8  1  3 14 16 18 19 22 25            
 -16777047.758   -13051733.785    21370226.833    21370226.402    21370232.104  
      -929.627        -724.382  
  -1314095.546    -1008419.019    24251901.002    24251900.769    24251910.172  
      2648.944        2064.104  
 -18521462.549   -14420696.066    21043801.268    21043801.085    21043807.421  
      -819.526        -638.592  
 -17410746.537   -13547725.788    21995749.562    21995749.072    21995756.227  
      1289.075        1004.474  
  -3523154.340    -2735297.197    24327948.974    24327948.796    24327957.540  
      3173.351        2472.741  
  -1426658.822    -1098222.588    25223768.745    25223768.745    25223780.608  
      2291.440        1785.528  
 -22337634.173   -17387339.321    20621246.870    20621246.064    20621251.625  
     -1371.975       -1069.074  
  -4790218.160    -3709780.032    23657756.119    23657755.953    23657762.023  
     -2167.429       -1688.910  
