     2.00           Observation         G (GPS)             RINEX VERSION / TYPE
BJfmt               engb                07/21/2004 17:55:20 PGM / RUN BY / DATE
FRED                                                        MARKER NAME
Wernicke, Brian     CALTECH                                 OBSERVER / AGENCY
RECNUM              RECTYPE             RECVERS             REC # / TYPE / VERS
ANTNUM              ANTTYPE                                 ANT # / TYPE
        0.0000        0.0000        0.0000                  APPROX POSITION XYZ
        0.0000        0.0000        0.0000                  ANTENNA: DELTA H/E/N
     1     1                                                WAVELENGTH FACT L1/2
     5    L1    L2    P1    P2    C1                        # / TYPES OF OBSERV
     1.000                                                  INTERVAL
  2002     1    11     0     7   47.0000000     GPS         TIME OF FIRST OBS
SNR is mapped to signal strength [0,1,2-9]                  COMMENT
SNR: >500 >100  >50  >10   >5   >3  >1  >0  bad  n/a        COMMENT
sig:    9    8    7    6    5    4   3   2    1    0        COMMENT
Edited by GPSTK Rinex Editor ver 3.0 9/8/2003 on 2004/07/21 COMMENT
                                                            END OF HEADER
 02  1 11  1  3 52.0000000  0  1G31
        -0.490 8        -0.905 8  26020784.286    26020800.606    26020784.475  
 02  1 11  1  3 53.0000000  0  1G31
     29209.955 8     22760.000 8  26026343.565    26026359.697    26026343.415  
 02  1 11  1  3 54.0000000  0  1G31
     58417.817 8     45518.885 8  26031901.870    26031918.235    26031901.703  
 02  1 11  1  3 55.0000000  0  1G31
     87623.579 8     68276.123 8  26037459.762    26037476.493    26037460.028  
 02  1 11  1  3 56.0000000  0  1G31
    116826.427 8     91031.092 8  26043017.358    26043034.099    26043017.507  
 02  1 11  1  3 57.0000000  0  1G31
    146027.404 8    113784.580 8  26048574.423    26048591.334    26048574.535  
 02  1 11  1  3 58.0000000  0  1G31
    175225.869 8    136536.121 8  26054131.039    26054148.158    26054131.298  
 02  1 11  1  3 59.0000000  0  1G31
    204421.509 8    159285.451 8  26059687.368    26059704.573    26059687.388  
 02  1 11  1  4  0.0000000  0  1G31
    233614.495 8    182032.718 8  26065242.818    26065259.998    26065243.132  
 02  1 11  1  4  1.0000000  0  1G31
    262804.656 8    204777.780 8  26070797.963    26070815.143    26070798.624  
 02  1 11  1  4  2.0000000  0  1G31
    291992.583 8    227521.095 8  26076352.632    26076370.138    26076352.794  
 02  1 11  1  4  3.0000000  0  1G31
    321177.905 8    250262.377 8  26081906.920    26081924.823    26081907.058  
 02  1 11  1  4  4.0000000  0  1G31
    350360.571 8    273001.578 8  26087460.361    26087478.036    26087460.730  
 02  1 11  1  4  5.0000000  0  1G31
    379540.526 8    295738.657 8  26093013.589    26093031.533    26093013.982  
 02  1 11  1  4  6.0000000  0  1G31
    408717.483 8    318473.399 8  26098566.225    26098584.386    26098566.302  
 02  1 11  1  4  7.0000000  0  1G31
    437892.356 8    341206.517 8  26104118.113    26104136.591    26104118.723  
 02  1 11  1  4  8.0000000  0  1G31
    467064.708 8    363937.668 8  26109670.011    26109688.398    26109670.314  
 02  1 11  1  4  9.0000000  0  1G31
    496233.545 8    386666.063 8  26115221.015    26115239.609    26115221.554  
 02  1 11  1  4 10.0000000  0  1G31
    525399.481 8    409392.195 8  26120771.784    26120790.339    26120772.173  
 02  1 11  1  4 11.0000000  0  1G31
    554561.992 8    432115.655 8  26126321.863    26126340.339    26126322.083  
 02  1 11  1  4 12.0000000  0  1G31
    583722.541 8    454837.578 8  26131871.352    26131890.051    26131871.311  
 02  1 11  1  4 13.0000000  0  1G31
    612880.120 8    477557.184 8  26137420.136    26137439.146    26137420.497  
 02  1 11  1  4 14.0000000  0  1G31
    642035.082 8    500274.747 8  26142968.501    26142987.892    26142968.687  
 02  1 11  1  4 15.0000000  0  1G31
    671186.739 8    522989.728 8  26148516.455    26148535.500    26148516.463  
 02  1 11  1  4 16.0000000  0  1G31
    700334.656 8    545701.801 8  26154063.714    26154082.712    26154063.676  
 02  1 11  1  4 17.0000000  0  1G31
    729479.660 8    568411.591 8  26159610.284    26159629.618    26159610.300  
 02  1 11  1  4 18.0000000  0  1G31
    758622.326 8    591119.558 8  26165156.255    26165175.853    26165156.278  
 02  1 11  1  4 19.0000000  0  1G31
    787761.641 8    613824.911 8  26170701.527    26170721.608    26170701.789  
 02  1 11  1  4 20.0000000  0  1G31
    816898.236 8    636528.138 8  26176246.467    26176266.689    26176246.875  
 02  1 11  1  4 21.0000000  0  1G31
    846030.877 8    659228.282 8  26181791.006    26181810.916    26181791.070  
 02  1 11  1  4 22.0000000  0  1G31
    875160.514 8    681926.085 8  26187334.596    26187354.897    26187334.684  
 02  1 11  1  4 23.0000000  0  1G31
    904287.368 8    704621.714 8  26192877.478    26192898.071    26192877.852  
 02  1 11  1  4 24.0000000  0  1G31
    933411.161 8    727314.949 8  26198420.385    26198440.759    26198420.326  
 02  1 11  1  4 25.0000000  0  1G31
    962531.875 8    750005.785 8  26203961.995    26203982.931    26203962.122  
 02  1 11  1  4 26.0000000  0  1G31
    991649.044 8    772693.847 8  26209503.519    26209524.511    26209503.905  
 02  1 11  1  4 27.0000000  0  1G31
   1020763.364 8    795379.684 8  26215044.444    26215065.063    26215044.706  
 02  1 11  1  4 28.0000000  0  1G31
   1049874.455 8    818063.001 8  26220584.315    26220605.692    26220584.456  
 02  1 11  1  4 29.0000000  0  1G31
   1078982.245 8    840743.747 8  26226124.084    26226145.359    26226124.084  
 02  1 11  1  4 30.0000000  0  1G31
   1108086.144 8    863421.443 8  26231662.668    26231684.291    26231663.037  
 02  1 11  1  4 31.0000000  0  1G31
   1137186.391 8    886096.304 8  26237200.884    26237222.292    26237201.099  
 02  1 11  1  4 32.0000000  0  1G31
   1166283.432 8    908768.662 8  26242738.157    26242759.899    26242738.485  
 02  1 11  1  4 33.0000000  0  1G31
   1195377.177 8    931438.446 8  26248275.198    26248297.289    26248275.244  
 02  1 11  1  4 34.0000000  0  1G31
   1224467.279 8    954105.393 8  26253811.388    26253833.534    26253811.583  
 02  1 11  1  4 35.0000000  0  1G31
   1253554.570 8    976770.154 8  26259347.022    26259369.396    26259347.118  
 02  1 11  1  4 36.0000000  0  1G31
   1282637.970 8    999431.874 8  26264881.563    26264904.471    26264882.075  
 02  1 11  1  4 37.0000000  0  1G31
   1311718.305 8   1022091.213 8  26270416.300    26270438.875    26270416.362  
 02  1 11  2 57 48.0000000  0  1G31
        -0.838 8        -0.702 2  26452655.870    26452659.676    26452655.813  
 02  1 11  2 57 49.0000000  0  1G31
     21452.539 8     16718.325 2  26456738.227    26456743.225    26456739.332  
 02  1 11  2 57 50.0000000  0  1G31
     42907.929 8     33439.071 2  26460821.574    26460824.445    26460822.595  
 02  1 11  2 57 51.0000000  0  1G31
     64365.531 8     50161.440 2  26464905.975    26464908.240    26464906.736  
 02  1 11  2 57 52.0000000  0  1G31
     85826.903 8     66886.827 2  26468990.053    26468993.706    26468991.047  
 02  1 11  2 57 53.0000000  0  1G31
    107290.885 8     83613.979 2  26473075.447    26473077.567    26473076.326  
 02  1 11  2 57 54.0000000  0  1G31
    128757.636 8    100343.425 2  26477161.098    26477161.578    26477161.817  
 02  1 11  2 57 55.0000000  0  1G31
    150227.143 8    117075.174 2  26481247.786    26481248.286    26481247.643  
 02  1 11  2 57 56.0000000  0  1G31
    171698.905 8    133808.969 3  26485333.750    26485333.272    26485334.180  
 02  1 11  2 57 57.0000000  0  1G31
    193173.844 8    150545.266 2  26489420.705    26489420.585    26489421.274  
 02  1 11  2 57 58.0000000  0  1G31
    214652.155 8    167284.138 2  26493508.439    26493507.921    26493508.811  
 02  1 11  4 39 21.0000000  0  1G31
        -0.256 8        -0.087 7  23904519.448    23904520.996    23904519.233  
 02  1 11  4 39 22.0000000  0  1G31
     32716.961 8     25493.734 8  23910745.004    23910746.953    23910745.516  
 02  1 11  4 39 23.0000000  0  1G31
     65446.613 8     50997.187 8  23916973.619    23916975.167    23916973.634  
 02  1 11  4 39 24.0000000  0  1G31
     98189.320 8     76510.826 8  23923204.228    23923206.274    23923204.665  
 02  1 11  4 39 25.0000000  0  1G31
    130945.565 8    102035.092 8  23929437.775    23929439.482    23929437.872  
 02  1 11  4 39 26.0000000  0  1G31
    163714.488 8    127569.192 8  23935673.499    23935675.243    23935673.779  
 02  1 11  4 39 27.0000000  0  1G31
    196496.543 8    153113.520 7  23941912.089    23941913.698    23941912.184  
 02  1 11  4 39 28.0000000  0  1G31
    229292.286 8    178668.573 8  23948153.098    23948155.042    23948152.808  
 02  1 11  4 39 29.0000000  0  1G31
    262100.647 8    204233.469 8  23954396.073    23954398.066    23954396.374  
 02  1 11  4 39 30.0000000  0  1G31
    294921.202 8    229807.862 8  23960641.737    23960643.468    23960641.722  
 02  1 11  4 39 31.0000000  0  1G31
    327753.755 8    255391.523 8  23966889.508    23966891.341    23966889.937  
 02  1 11  4 39 32.0000000  0  1G31
    360599.563 8    280985.461 8  23973140.247    23973142.109    23973140.311  
 02  1 11  4 39 33.0000000  0  1G31
    393458.698 8    306589.868 8  23979393.447    23979395.282    23979393.365  
 02  1 11  4 39 34.0000000  0  1G31
    426330.386 8    332204.043 8  23985648.556    23985650.592    23985648.872  
 02  1 11  4 39 35.0000000  0  1G31
    459214.652 8    357827.943 8  23991906.256    23991908.301    23991906.488  
 02  1 11  4 39 36.0000000  0  1G31
    492110.922 8    383461.244 8  23998166.345    23998168.241    23998166.696  
 02  1 11  4 39 37.0000000  0  1G31
    525020.010 8    409104.581 8  24004428.601    24004431.144    24004429.011  
 02  1 11  4 39 38.0000000  0  1G31
    557941.293 8    434757.371 8  24010693.630    24010696.008    24010693.981  
 02  1 11  4 39 39.0000000  0  1G31
    590875.371 8    460420.202 8  24016960.950    24016963.006    24016961.044  
 02  1 11  4 39 40.0000000  0  1G31
    623821.938 8    486092.722 8  24023230.371    24023232.978    24023230.767  
 02  1 11  4 39 41.0000000  0  1G31
    656780.352 8    511774.437 8  24029502.884    24029505.078    24029502.628  
 02  1 11  4 39 42.0000000  0  1G31
    689751.743 8    537466.271 8  24035776.825    24035779.424    24035776.851  
 02  1 11  4 39 43.0000000  0  1G31
    722735.801 8    563167.895 8  24042053.485    24042056.134    24042053.752  
 02  1 11  4 39 44.0000000  0  1G31
    755732.083 8    588879.051 8  24048332.775    24048335.088    24048332.809  
 02  1 11  4 39 45.0000000  0  1G31
    788740.685 8    614599.802 8  24054614.183    24054616.811    24054614.381  
 02  1 11  4 39 46.0000000  0  1G31
    821760.499 8    640329.200 8  24060897.647    24060900.367    24060898.095  
 02  1 11  4 39 47.0000000  0  1G31
    854793.408 8    666068.898 8  24067184.002    24067187.086    24067184.176  
 02  1 11  4 39 48.0000000  0  1G31
    887837.915 8    691817.609 8  24073472.346    24073475.225    24073472.765  
 02  1 11  4 39 49.0000000  0  1G31
    920894.864 8    717575.991 8  24079763.171    24079766.214    24079763.499  
 02  1 11  4 39 50.0000000  0  1G31
    953963.303 8    743343.425 8  24086055.874    24086059.008    24086056.608  
 02  1 11  4 39 51.0000000  0  1G31
    987043.630 8    769120.142 8  24092350.903    24092354.133    24092351.457  
 02  1 11  4 39 52.0000000  0  1G31
   1020136.776 8    794906.866 8  24098648.692    24098651.489    24098648.876  
 02  1 11  4 39 53.0000000  0  1G31
   1053241.595 8    820702.606 8  24104948.324    24104951.484    24104948.880  
 02  1 11  4 39 54.0000000  0  1G31
   1086358.084 8    846507.451 8  24111250.740    24111253.652    24111250.403  
 02  1 11  4 39 55.0000000  0  1G31
   1119486.565 8    872321.661 8  24117554.827    24117558.082    24117554.890  
 02  1 11  4 39 56.0000000  0  1G31
   1152626.043 8    898144.464 8  24123861.379    24123864.181    24123861.212  
 02  1 11  4 39 57.0000000  0  1G31
   1185777.685 8    923976.770 8  24130169.839    24130173.139    24130170.008  
 02  1 11  4 39 58.0000000  0  1G31
   1218941.853 8    949818.847 8  24136480.519    24136484.085    24136481.168  
 02  1 11  4 39 59.0000000  0  1G31
   1252117.627 8    975670.025 8  24142794.032    24142797.225    24142794.239  
 02  1 11  4 40  0.0000000  0  1G31
   1285304.877 8   1001530.129 8  24149109.688    24149112.882    24149109.605  
 02  1 11  4 40  1.0000000  0  1G31
   1318502.446 8   1027398.124 8  24155427.060    24155430.338    24155426.944  
 02  1 11  4 40  2.0000000  0  1G31
   1351711.242 8   1053274.640 8  24161746.363    24161749.941    24161746.802  
 02  1 11  4 40  3.0000000  0  1G31
   1384932.239 8   1079160.881 8  24168068.658    24168072.162    24168068.780  
 02  1 11  4 40  4.0000000  0  1G31
   1418164.237 8   1105055.821 8  24174392.574    24174396.138    24174392.798  
 02  1 11  4 40  5.0000000  0  1G31
   1451407.065 8   1130959.220 8  24180718.652    24180722.226    24180718.920  
 02  1 11  4 40  6.0000000  0  1G31
   1484660.617 8   1156870.988 8  24187046.643    24187050.007    24187046.802  
 02  1 11  4 40  7.0000000  0  1G31
   1517925.452 8   1182791.598 8  24193376.643    24193380.246    24193376.968  
 02  1 11  4 40  8.0000000  0  1G31
   1551202.397 8   1208721.687 8  24199709.067    24199712.820    24199708.957  
 02  1 11  4 40  9.0000000  0  1G31
   1584490.602 8   1234660.473 8  24206043.349    24206047.232    24206043.682  
 02  1 11  4 40 10.0000000  0  1G31
   1617789.641 8   1260607.605 8  24212380.428    24212383.873    24212380.353  
 02  1 11  4 40 11.0000000  0  1G31
   1651099.376 8   1286563.050 8  24218719.270    24218722.993    24218719.034  
 02  1 11  4 40 12.0000000  0  1G31
   1684420.678 8   1312527.465 8  24225060.392    24225064.076    24225060.359  
 02  1 11  4 40 13.0000000  0  1G31
   1717753.974 8   1338501.267 8  24231403.609    24231407.172    24231403.617  
 02  1 11  4 40 14.0000000  0  1G31
   1751099.941 8   1364485.116 8  24237749.020    24237752.778    24237749.312  
 02  1 11  4 40 15.0000000  0  1G31
   1784457.654 8   1390478.238 8  24244096.661    24244100.375    24244096.950  
 02  1 11  4 40 16.0000000  0  1G31
   1817825.475 8   1416479.186 8  24250446.549    24250450.409    24250446.471  
 02  1 11  4 40 17.0000000  0  1G31
   1851204.438 8   1442488.752 8  24256797.969    24256801.793    24256798.165  
 02  1 11  4 40 18.0000000  0  1G31
   1884593.789 8   1468506.338 8  24263151.841    24263155.761    24263152.285  
 02  1 11  4 40 19.0000000  0  1G31
   1917993.897 8   1494532.297 8  24269507.827    24269511.645    24269508.211  
 02  1 11  4 40 20.0000000  0  1G31
   1951404.426 8   1520566.414 8  24275865.666    24275869.642    24275865.904  
 02  1 11  4 40 21.0000000  0  1G31
   1984823.524 8   1546607.118 8  24282225.451    24282228.915    24282225.466  
 02  1 11  4 40 22.0000000  0  1G31
   2018254.737 8   1572657.257 8  24288587.342    24288591.117    24288587.431  
 02  1 11  4 40 23.0000000  0  1G31
   2051697.411 8   1598716.363 8  24294951.304    24294955.123    24294951.425  
 02  1 11  4 40 24.0000000  0  1G31
   2085150.844 8   1624783.882 8  24301317.412    24301321.028    24301317.380  
 02  1 11  4 40 25.0000000  0  1G31
   2118614.949 8   1650859.734 8  24307685.456    24307689.416    24307685.462  
 02  1 11  4 40 26.0000000  0  1G31
   2152089.198 8   1676943.400 8  24314055.303    24314059.379    24314055.358  
 02  1 11  4 40 27.0000000  0  1G31
   2185574.261 8   1703035.642 8  24320427.308    24320431.350    24320427.542  
 02  1 11  4 40 28.0000000  0  1G31
   2219069.948 8   1729136.197 8  24326801.365    24326805.600    24326801.471  
 02  1 11  4 40 29.0000000  0  1G31
   2252575.923 8   1755244.762 8  24333177.548    24333181.538    24333177.566  
 02  1 11  4 40 30.0000000  0  1G31
   2286092.155 8   1781361.264 8  24339555.086    24339559.116    24339555.630  
 02  1 11  4 40 31.0000000  0  1G31
   2319616.994 8   1807484.419 8  24345934.883    24345938.960    24345935.271  
 02  1 11  4 40 32.0000000  0  1G31
   2353141.325 8   1833607.273 8  24352314.733    24352318.762    24352314.697  
 02  1 11  4 40 33.0000000  0  1G31
   2386669.844 8   1859733.324 8  24358694.810    24358698.648    24358694.884  
 02  1 11  4 40 34.0000000  0  1G31
   2420207.268 8   1885866.301 8  24365076.466    24365080.743    24365076.781  
 02  1 11  4 40 35.0000000  0  1G31
   2453754.085 8   1912006.531 8  24371460.684    24371464.803    24371460.962  
 02  1 11  4 40 36.0000000  0  1G31
   2487310.060 8   1938153.956 8  24377846.260    24377850.136    24377846.390  
 02  1 11  4 40 37.0000000  0  1G31
   2520876.964 8   1964309.946 8  24384233.870    24384237.916    24384234.016  
 02  1 11  4 40 38.0000000  0  1G31
   2554453.965 8   1990473.885 8  24390623.082    24390627.325    24390623.640  
 02  1 11  4 40 39.0000000  0  1G31
   2588040.818 8   2016645.469 8  24397014.493    24397018.640    24397014.733  
 02  1 11  4 40 40.0000000  0  1G31
   2621637.462 8   2042824.641 8  24403407.725    24403411.901    24403408.140  
 02  1 11  4 40 41.0000000  0  1G31
   2655243.712 8   2069011.334 8  24409803.009    24409807.128    24409803.177  
 02  1 11  4 40 42.0000000  0  1G31
   2688859.863 9   2095205.698 8  24416199.777    24416203.925    24416200.133  
 02  1 11  4 40 43.0000000  0  1G31
   2722485.029 8   2121407.077 8  24422598.506    24422602.943    24422598.797  
 02  1 11  4 40 44.0000000  0  1G31
   2756119.846 8   2147616.012 8  24428999.056    24429003.395    24428999.301  
 02  1 11  4 40 45.0000000  0  1G31
   2789764.843 9   2173833.048 8  24435401.399    24435405.467    24435401.715  
 02  1 11  4 40 46.0000000  0  1G31
   2823419.209 9   2200057.407 8  24441805.592    24441809.489    24441805.670  
 02  1 11  4 40 47.0000000  0  1G31
   2857083.178 9   2226289.148 8  24448211.436    24448215.606    24448211.657  
 02  1 11  4 40 48.0000000  0  1G31
   2890756.941 9   2252528.522 8  24454619.151    24454623.436    24454619.738  
 02  1 11  4 40 49.0000000  0  1G31
   2924440.116 9   2278775.334 8  24461028.888    24461033.047    24461029.167  
 02  1 11  4 40 50.0000000  0  1G31
   2958132.365 9   2305029.127 8  24467440.246    24467444.158    24467440.422  
 02  1 11  4 40 51.0000000  0  1G31
   2991832.816 9   2331289.189 8  24473853.248    24473857.398    24473853.329  
 02  1 11  4 40 52.0000000  0  1G31
   3025543.255 9   2357557.171 8  24480267.967    24480272.144    24480268.051  
 02  1 11  4 40 53.0000000  0  1G31
   3059263.333 9   2383832.630 8  24486684.578    24486688.514    24486684.682  
 02  1 11  4 40 54.0000000  0  1G31
   3092993.002 9   2410115.659 8  24493103.187    24493106.966    24493103.543  
 02  1 11  4 40 55.0000000  0  1G31
   3126731.902 9   2436405.907 8  24499523.349    24499526.996    24499523.430  
 02  1 11  4 40 56.0000000  0  1G31
   3160478.104 9   2462701.722 8  24505944.943    24505948.822    24505945.245  
 02  1 11  4 47  2.0000000  0  1G31
        -0.194 9        -0.397 7  26909742.844    26909751.395    26909743.056  
 02  1 11  4 47  3.0000000  0  1G31
     34417.952 9     26819.279 8  26916292.263    26916300.164    26916292.476  
 02  1 11  4 47  4.0000000  0  1G31
     68830.977 9     53634.842 8  26922840.720    26922848.254    26922840.930  
 02  1 11  4 47  5.0000000  0  1G31
    103238.954 9     80446.466 8  26929388.177    26929395.663    26929388.354  
 02  1 11  4 47  6.0000000  0  1G31
    137640.738 9    107253.176 8  26935934.458    26935942.031    26935934.602  
 02  1 11  4 47  7.0000000  0  1G31
    172037.654 9    134056.061 8  26942479.797    26942487.437    26942480.257  
 02  1 11  4 47  8.0000000  0  1G31
    206429.751 9    160855.203 8  26949024.407    26949031.887    26949024.592  
 02  1 11  4 47  9.0000000  0  1G31
    240816.336 9    187650.045 8  26955568.020    26955575.237    26955568.027  
 02  1 11  4 47 10.0000000  0  1G31
    275197.896 9    214441.012 8  26962110.517    26962117.800    26962110.747  
 02  1 11  4 47 11.0000000  0  1G31
    309573.562 9    241227.415 8  26968651.833    26968659.033    26968651.766  
 02  1 11  4 47 12.0000000  0  1G31
    343944.255 9    268009.939 8  26975192.172    26975199.359    26975192.224  
 02  1 11  4 47 13.0000000  0  1G31
    378309.603 9    294788.263 8  26981731.577    26981738.792    26981731.921  
 02  1 11  4 47 14.0000000  0  1G31
    412669.571 9    321562.392 8  26988269.966    26988277.154    26988270.157  
 02  1 11  4 47 15.0000000  0  1G31
    447024.429 9    348332.540 8  26994807.275    26994814.516    26994807.669  
 02  1 11  4 47 16.0000000  0  1G31
    481373.167 9    375097.979 8  27001343.605    27001350.702    27001343.832  
 02  1 11  4 47 17.0000000  0  1G31
    515716.741 9    401859.384 8  27007878.864    27007885.903    27007878.999  
 02  1 11  4 47 18.0000000  0  1G31
    550055.522 9    428617.071 8  27014412.980    27014420.322    27014413.331  
 02  1 11  4 47 19.0000000  0  1G31
    584388.793 9    455370.460 8  27020946.275    27020953.463    27020946.555  
 02  1 11  4 47 20.0000000  0  1G31
    618716.577 9    482119.543 8  27027478.576    27027485.714    27027478.782  
 02  1 11  4 47 21.0000000  0  1G31
    653038.290 9    508863.916 8  27034009.742    27034016.578    27034009.858  
 02  1 11  4 47 22.0000000  0  1G31
    687355.048 9    535604.390 8  27040539.821    27040546.626    27040540.192  
 02  1 11  4 47 23.0000000  0  1G31
    721665.489 9    562339.835 8  27047068.751    27047075.787    27047069.151  
 02  1 11  4 47 24.0000000  0  1G31
    755970.350 9    589071.042 8  27053596.774    27053603.648    27053597.051  
 02  1 11  4 47 25.0000000  0  1G31
    790269.634 9    615797.906 8  27060123.589    27060130.329    27060123.847  
 02  1 11  4 47 26.0000000  0  1G31
    824562.394 9    642519.616 8  27066649.258    27066656.012    27066649.589  
 02  1 11  4 47 27.0000000  0  1G31
    858849.754 9    669237.199 8  27073173.880    27073180.487    27073173.943  
 02  1 11  4 47 28.0000000  0  1G31
    893131.412 9    695950.395 8  27079697.191    27079703.759    27079697.389  
 02  1 11  4 47 29.0000000  0  1G31
    927407.719 9    722659.403 8  27086219.576    27086226.234    27086219.762  
 02  1 11  4 47 30.0000000  0  1G31
    961678.525 9    749364.123 8  27092741.008    27092747.530    27092741.099  
 02  1 11  4 47 31.0000000  0  1G31
    995942.878 9    776063.826 8  27099261.023    27099267.796    27099261.229  
 02  1 11  4 47 32.0000000  0  1G31
   1030201.153 9    802758.727 8  27105780.134    27105786.548    27105780.316  
 02  1 11  4 47 33.0000000  0  1G31
   1064453.938 9    829449.336 8  27112298.150    27112304.500    27112298.338  
 02  1 11  4 47 34.0000000  0  1G31
   1098701.258 9    856135.714 8  27118814.960    27118821.450    27118815.295  
 02  1 11  4 47 35.0000000  0  1G31
   1132942.457 9    882817.264 8  27125330.877    27125337.244    27125331.164  
 02  1 11  4 47 36.0000000  0  1G31
   1167176.781 9    909493.462 8  27131845.230    27131851.687    27131845.494  
 02  1 11  4 47 37.0000000  0  1G31
   1201394.723 9    936156.888 8  27138356.898    27138363.129    27138356.949  
 02  1 11  4 47 38.0000000  0  1G31
   1235603.473 9    962813.208 8  27144866.418    27144872.564    27144866.324  
 02  1 11  4 47 39.0000000  0  1G31
   1269805.555 9    989464.286 8  27151374.660    27151380.859    27151375.001  
 02  1 11  4 47 40.0000000  0  1G31
   1304001.237 9   1016110.274 8  27157881.995    27157888.247    27157882.111  
 02  1 11  4 47 41.0000000  0  1G31
   1338189.977 9   1042750.871 8  27164387.852    27164394.013    27164388.168  
 02  1 11  4 47 42.0000000  0  1G31
   1372372.970 9   1069387.021 8  27170892.581    27170898.716    27170892.847  
 02  1 11  4 47 43.0000000  0  1G31
   1406550.348 9   1096018.821 8  27177396.205    27177402.356    27177396.308  
 02  1 11  4 47 44.0000000  0  1G31
   1440721.481 9   1122645.724 8  27183898.725    27183905.027    27183899.004  
 02  1 11  4 47 45.0000000  0  1G31
   1474886.086 9   1149267.533 8  27190399.995    27190406.219    27190400.305  
 02  1 11  4 47 46.0000000  0  1G31
   1509043.526 9   1175883.776 8  27196900.060    27196906.061    27196900.322  
 02  1 11  4 47 47.0000000  0  1G31
   1543195.410 9   1202495.680 8  27203398.746    27203405.017    27203399.277  
 02  1 11  4 47 48.0000000  0  1G31
   1577341.158 9   1229102.820 8  27209896.437    27209902.554    27209896.662  
 02  1 11  4 47 49.0000000  0  1G31
   1611480.627 9   1255705.024 8  27216393.010    27216398.984    27216393.145  
 02  1 11  4 47 50.0000000  0  1G31
   1645613.940 9   1282302.379 8  27222888.346    27222894.566    27222888.629  
 02  1 11  4 47 51.0000000  0  1G31
   1679740.855 9   1308894.792 8  27229382.452    27229388.740    27229382.741  
 02  1 11  4 47 52.0000000  0  1G31
   1713861.290 9   1335482.061 8  27235875.356    27235881.689    27235875.670  
 02  1 11  4 47 53.0000000  0  1G31
   1747975.116 9   1362064.140 8  27242367.242    27242373.390    27242367.209  
 02  1 11  4 47 54.0000000  0  1G31
   1782083.106 9   1388641.814 8  27248857.614    27248863.956    27248857.887  
 02  1 11  4 47 55.0000000  0  1G31
   1816184.439 9   1415214.339 8  27255346.848    27255352.938    27255347.096  
 02  1 11  4 47 56.0000000  0  1G31
   1850278.868 9   1441781.488 8  27261834.805    27261841.017    27261835.093  
 02  1 11  4 47 57.0000000  0  1G31
   1884366.938 9   1468343.636 8  27268321.597    27268327.860    27268321.734  
 02  1 11  4 47 58.0000000  0  1G31
   1918449.001 9   1494901.133 8  27274807.028    27274813.322    27274807.404  
 02  1 11  4 47 59.0000000  0  1G31
   1952524.662 9   1521453.656 8  27281291.457    27281297.644    27281291.597  
 02  1 11  4 48  0.0000000  0  1G31
   1986593.453 9   1548000.804 8  27287774.434    27287780.527    27287774.739  
 02  1 11  4 48  1.0000000  0  1G31
   2020655.601 9   1574542.826 8  27294256.349    27294262.442    27294256.477  
 02  1 11  4 48  2.0000000  0  1G31
   2054711.099 9   1601079.691 8  27300736.828    27300742.803    27300736.769  
 02  1 11  4 48  3.0000000  0  1G31
   2088759.537 9   1627611.073 8  27307215.842    27307221.867    27307215.868  
 02  1 11  4 48  4.0000000  0  1G31
   2122801.274 9   1654137.270 8  27313693.653    27313699.561    27313693.659  
 02  1 11  4 48  5.0000000  0  1G31
   2156836.588 9   1680658.490 8  27320170.198    27320176.145    27320170.411  
 02  1 11  4 48  6.0000000  0  1G31
   2190864.669 9   1707174.123 8  27326645.423    27326651.256    27326645.565  
 02  1 11  4 48  7.0000000  0  1G31
   2224885.696 9   1733684.095 8  27333119.288    27333125.082    27333119.604  
 02  1 11  4 48  8.0000000  0  1G31
   2258899.599 9   1760188.403 8  27339592.000    27339597.755    27339592.115  
 02  1 11  4 48  9.0000000  0  1G31
   2292906.757 9   1786687.506 8  27346063.255    27346069.044    27346063.363  
 02  1 11  4 48 10.0000000  0  1G31
   2326907.079 9   1813181.228 8  27352533.235    27352539.087    27352533.493  
 02  1 11  4 48 11.0000000  0  1G31
   2360900.097 9   1839669.190 8  27359001.926    27359007.927    27359002.283  
 02  1 11  4 48 12.0000000  0  1G31
   2394886.820 9   1866152.260 8  27365469.612    27365475.523    27365469.854  
 02  1 11  4 48 13.0000000  0  1G31
   2428866.043 9   1892629.466 8  27371935.794    27371941.769    27371935.871  
 02  1 11  4 48 14.0000000  0  1G31
   2462838.356 9   1919101.298 8  27378400.475    27378406.542    27378400.600  
 02  1 11  4 48 15.0000000  0  1G31
   2496803.266 9   1945567.375 8  27384863.823    27384869.872    27384864.104  
 02  1 11  4 48 16.0000000  0  1G31
   2530761.038 9   1972027.933 8  27391325.853    27391331.796    27391326.033  
 02  1 11  4 48 17.0000000  0  1G31
   2564712.370 9   1998483.454 8  27397786.578    27397792.647    27397786.943  
 02  1 11  4 48 18.0000000  0  1G31
   2598656.899 9   2024933.625 8  27404246.202    27404252.238    27404246.414  
 02  1 11  4 48 19.0000000  0  1G31
   2632594.286 9   2051378.213 8  27410704.265    27410710.540    27410704.628  
 02  1 11  4 48 20.0000000  0  1G31
   2666524.268 9   2077817.097 8  27417160.964    27417167.207    27417161.215  
 02  1 11  4 48 21.0000000  0  1G31
   2700446.662 9   2104250.142 8  27423616.277    27423622.453    27423616.421  
 02  1 11  4 48 22.0000000  0  1G31
   2734362.153 9   2130677.712 8  27430070.161    27430076.384    27430070.409  
 02  1 11  4 48 23.0000000  0  1G31
   2768269.831 9   2157099.126 8  27436522.626    27436528.876    27436522.803  
 02  1 11  4 48 24.0000000  0  1G31
   2802170.081 9   2183514.816 8  27442973.736    27442979.805    27442974.035  
 02  1 11  4 48 25.0000000  0  1G31
   2836062.913 9   2209924.786 8  27449423.450    27449429.554    27449423.668  
 02  1 11  4 48 26.0000000  0  1G31
   2869947.531 9   2236328.349 8  27455871.435    27455877.565    27455871.648  
 02  1 11  4 48 27.0000000  0  1G31
   2903825.295 9   2262726.674 8  27462318.101    27462324.201    27462318.423  
 02  1 11  4 48 28.0000000  0  1G31
   2937695.416 9   2289119.014 8  27468763.258    27468769.633    27468763.634  
 02  1 11  4 48 29.0000000  0  1G31
   2971557.643 9   2315505.154 8  27475207.177    27475213.337    27475207.457  
 02  1 11  4 48 30.0000000  0  1G31
   3005411.477 9   2341884.548 8  27481649.452    27481655.530    27481649.558  
 02  1 11  4 48 31.0000000  0  1G31
   3039257.258 9   2368257.645 8  27488090.352    27488096.451    27488090.414  
 02  1 11  4 48 32.0000000  0  1G31
   3073096.465 9   2394625.731 8  27494529.702    27494536.138    27494529.969  
 02  1 11  4 48 33.0000000  0  1G31
   3106927.995 9   2420987.845 8  27500967.665    27500974.099    27500967.951  
 02  1 11  4 48 34.0000000  0  1G31
   3140751.680 9   2447343.845 8  27507404.290    27507410.685    27507404.567  
 02  1 11  4 48 35.0000000  0  1G31
   3174567.434 9   2473693.639 8  27513839.305    27513845.605    27513839.561  
 02  1 11  4 48 36.0000000  0  1G31
   3208374.355 9   2500036.628 8  27520272.776    27520279.085    27520272.898  
 02  1 11  4 48 37.0000000  0  1G31
   3242173.867 9   2526373.817 8  27526704.552    27526710.979    27526704.828  
 02  1 11  4 48 38.0000000  0  1G31
   3275965.814 9   2552705.061 8  27533135.045    27533141.497    27533135.296  
 02  1 11  4 48 39.0000000  0  1G31
   3309749.880 9   2579030.066 8  27539564.137    27539570.670    27539564.305  
 02  1 11  4 48 40.0000000  0  1G31
   3343525.455 9   2605348.429 8  27545991.614    27545998.272    27545991.773  
 02  1 11  4 48 41.0000000  0  1G31
   3377293.299 9   2631660.941 8  27552417.434    27552424.023    27552417.539  
 02  1 11  4 48 42.0000000  0  1G31
   3411053.110 9   2657967.185 8  27558841.825    27558848.485    27558842.197  
 02  1 11  4 48 43.0000000  0  1G31
   3444804.762 9   2684267.000 8  27565264.729    27565271.452    27565264.900  
 02  1 11  4 48 44.0000000  0  1G31
   3478548.073 9   2710560.337 8  27571685.905    27571692.684    27571686.049  
 02  1 11  4 48 45.0000000  0  1G31
   3512283.617 9   2736847.717 8  27578105.594    27578112.441    27578105.855  
 02  1 11  4 48 46.0000000  0  1G31
   3546010.522 9   2763128.347 8  27584523.620    27584530.466    27584523.985  
 02  1 11  4 48 47.0000000  0  1G31
   3579729.031 9   2789402.364 8  27590940.288    27590947.104    27590940.450  
 02  1 11  4 48 48.0000000  0  1G31
   3613439.566 9   2815670.198 8  27597355.298    27597361.987    27597355.521  
 02  1 11  4 48 49.0000000  0  1G31
   3647142.001 9   2841931.861 8  27603768.605    27603775.350    27603768.754  
 02  1 11  4 48 50.0000000  0  1G31
   3680836.614 9   2868187.446 8  27610180.385    27610187.229    27610180.489  
 02  1 11  4 48 51.0000000  0  1G31
   3714521.798 9   2894435.709 8  27616590.458    27616597.174    27616590.637  
 02  1 11  4 48 52.0000000  0  1G31
   3748198.525 9   2920677.355 8  27622998.902    27623005.599    27622998.968  
 02  1 11  4 48 53.0000000  0  1G31
   3781867.190 9   2946912.843 8  27629405.732    27629412.499    27629405.836  
 02  1 11  4 48 54.0000000  0  1G31
   3815527.138 9   2973141.634 8  27635810.803    27635817.578    27635810.959  
 02  1 11  4 49 22.0000000  0  1G31
     33398.700 9     26025.350 7  27814399.352    27814408.131    27814399.478  
 02  1 11  4 49 23.0000000  0  1G31
     66790.649 9     52044.829 7  27820753.520    27820761.167    27820753.568  
 02  1 11  4 49 24.0000000  0  1G31
    100175.547 9     78059.070 8  27827106.459    27827111.873    27827106.598  
 02  1 11  4 49 25.0000000  0  1G31
    133554.033 9    104068.290 8  27833457.921    27833463.546    27833458.204  
 02  1 11  4 49 26.0000000  0  1G31
    166926.083 9    130072.470 7  27839808.498    27839813.853    27839808.965  
 02  1 11  4 49 27.0000000  0  1G31
    200293.111 9    156072.728 7  27846158.017    27846163.384    27846158.370  
 02  1 11  4 49 28.0000000  0  1G31
    233656.266 9    182070.052 7  27852506.675    27852512.305    27852507.185  
 02  1 11  4 49 29.0000000  0  1G31
    267015.365 9    208064.170 7  27858854.871    27858860.484    27858855.071  
 02  1 11  4 49 30.0000000  0  1G31
    300370.775 8    234055.394 7  27865201.952    27865207.446    27865202.477  
 02  1 11  4 49 31.0000000  0  1G31
    333722.156 8    260043.500 7  27871548.498    27871554.155    27871548.695  
 02  1 11  4 49 32.0000000  0  1G31
    367071.516 8    286029.991 7  27877894.609    27877900.312    27877895.048  
 02  1 11  4 49 33.0000000  0  1G31
    400418.342 8    312014.506 7  27884240.631    27884245.733    27884240.684  
 02  1 11  4 49 34.0000000  0  1G31
    433763.320 8    337997.418 6  27890585.765    27890590.916    27890586.178  
 02  1 11  4 49 35.0000000  0  1G31
    467106.887 8    363979.301 6  27896930.712    27896936.683    27896931.234  
 02  1 11  4 49 36.0000000  0  1G31
    500448.806 8    389959.966 6  27903275.769    27903281.628    27903276.338  
 02  1 11  4 49 37.0000000  0  1G31
    533790.497 8    415940.445 6  27909620.519    27909626.437    27909621.114  
 02  1 11  4 49 38.0000000  0  1G31
    567130.934 8    441919.862 6  27915965.086    27915971.509    27915965.394  
 02  1 11  4 49 39.0000000  0  1G31
    600471.572 8    467899.498 6  27922309.649    27922316.043    27922310.155  
 02  1 11  4 49 40.0000000  0  1G31
    633810.897 8    493878.078 6  27928654.469    27928660.119    27928654.181  
 02  1 11  4 49 41.0000000  0  1G31
    667148.190 8    519855.120 6  27934998.786    27935004.563    27934998.054  
 02  1 11  4 49 42.0000000  0  1G31
    700484.430 8    545831.355 6  27941341.852    27941347.862    27941342.396  
 02  1 11  4 49 43.0000000  0  1G31
    733818.169 8    571805.583 6  27947685.091    27947690.904    27947685.314  
 02  1 11  4 49 44.0000000  0  1G31
    767150.358 8    597778.528 6  27954027.850    27954034.359    27954028.856  
 02  1 11  4 49 45.0000000  0  1G31
    800481.906 8    623750.998 6  27960370.792    27960377.255    27960371.247  
 02  1 11  4 49 46.0000000  0  1G31
    833812.525 8    649722.754 6  27966714.084    27966720.114    27966714.018  
 02  1 11  4 49 47.0000000  0  1G31
    867143.335 8    675694.607 6  27973056.392    27973062.944    27973057.283  
 02  1 11  4 49 48.0000000  0  1G31
    900474.837 8    701667.101 5  27979399.203    27979403.422    27979399.430  
 02  1 11  4 49 49.0000000  0  1G31
    933806.653 8    727639.840 6  27985742.660    27985747.655    27985742.588  
 02  1 11  4 49 50.0000000  0  1G31
    967137.400 7    753611.679 4  27992086.125    27992091.620    27992086.462  
 02  1 11  4 49 51.0000000  0  1G31
   1000467.961 6    779583.431 2  27998432.903    27998433.642    27998429.597  
 02  1 11  4 49 52.0000000  0  1G31
   1033798.049 6    805551.951 2  28004777.493    28004773.426    28004771.496  
 02  1 11  4 49 53.0000000  0  1G31
   1067127.691 6    831525.941 2  28011131.295    28011109.807    28011120.376  
 02  1 11  4 49 54.0000000  0  1G31
   1100457.017 6    857510.986 2  28017499.383    28017449.717    28017460.942  
 02  1 11  4 49 55.0000000  0  1G31
   1133786.082 6    883520.273 2  28023864.754    28023795.310    28023797.203  
 02  1 11  4 49 56.0000000  0  1G31
   1167114.817 6    909513.092 2  28030206.810    28030138.677    28030144.092  
 02  1 11  4 49 57.0000000  0  1G31
   1200443.252 6    935475.924 2  28036556.577    28036473.647    28036496.310  
 02  1 11  4 49 58.0000000  0  1G31
   1233771.424 6    961404.172 2  28042876.725    28042804.639    28042847.537  
 02  1 11  4 49 59.0000000  0  1G31
   1267099.196 6    987290.285 2  28049214.600    28049138.565    28049183.374  
 02  1 11  8 18 56.0000000  0  1G31
        -0.497 8        -0.190 7  27317334.717    27317363.261    27317334.464  
 02  1 11  8 18 57.0000000  0  1G31
     20371.091 8     15874.220 7  27321211.171    27321239.654    27321210.553  
 02  1 11  8 18 58.0000000  0  1G31
     40739.395 8     31746.038 7  27325087.212    27325114.942    27325086.413  
 02  1 11  8 18 59.0000000  0  1G31
     61105.932 8     47616.490 7  27328961.732    27328990.113    27328962.119  
 02  1 11  8 19  0.0000000  0  1G31
     81471.315 8     63486.043 7  27332836.815    27332865.283    27332836.893  
 02  1 11  8 19  1.0000000  0  1G31
    101834.063 8     79353.541 7  27336711.743    27336739.412    27336711.753  
 02  1 11  8 19  2.0000000  0  1G31
    122193.971 8     95218.833 7  27340585.741    27340613.118    27340585.696  
 02  1 11  8 19  3.0000000  0  1G31
    142551.220 8    111082.042 7  27344459.109    27344487.039    27344459.193  
 02  1 11  8 19  4.0000000  0  1G31
    162905.839 8    126943.213 7  27348332.413    27348360.113    27348332.254  
 02  1 11  8 19  5.0000000  0  1G31
    183257.816 8    142802.332 7  27352205.040    27352232.469    27352204.950  
 02  1 11  8 19  6.0000000  0  1G31
    203606.771 8    158659.092 7  27356077.206    27356104.384    27356076.923  
 02  1 11  8 19  7.0000000  0  1G31
    223952.905 8    174513.669 7  27359948.309    27359975.376    27359948.531  
 02  1 11  8 19  8.0000000  0  1G31
    244296.424 8    190366.207 7  27363819.181    27363846.208    27363819.029  
 02  1 11  8 19  9.0000000  0  1G31
    264636.769 8    206216.266 7  27367689.671    27367716.161    27367689.553  
 02  1 11  8 19 10.0000000  0  1G31
    284972.288 8    222062.574 7  27371559.128    27371585.982    27371559.303  
 02  1 11  8 19 11.0000000  0  1G31
    305305.613 8    237907.177 7  27375427.796    27375454.705    27375427.884  
 02  1 11  8 19 12.0000000  0  1G31
    325637.286 8    253750.491 7  27379296.709    27379322.891    27379296.172  
 02  1 11  8 19 13.0000000  0  1G31
    345966.015 8    269591.521 7  27383164.314    27383191.214    27383164.698  
 02  1 11  8 19 14.0000000  0  1G31
    366291.864 8    285430.303 7  27387031.784    27387058.551    27387032.002  
 02  1 11  8 19 15.0000000  0  1G31
    386614.940 8    301266.922 7  27390899.293    27390925.192    27390899.164  
 02  1 11  8 19 16.0000000  0  1G31
    406934.250 8    317100.603 7  27394765.266    27394791.927    27394764.916  
 02  1 11  8 19 17.0000000  0  1G31
    427251.471 8    332932.666 7  27398631.037    27398657.029    27398630.809  
 02  1 11  8 19 18.0000000  0  1G31
    447565.459 8    348762.202 7  27402496.495    27402522.237    27402496.677  
 02  1 11  8 19 19.0000000  0  1G31
    467876.629 8    364589.548 7  27406360.965    27406387.019    27406360.859  
 02  1 11  8 19 20.0000000  0  1G31
    488184.644 8    380414.438 7  27410225.192    27410250.944    27410225.040  
 02  1 11  8 19 21.0000000  0  1G31
    508489.380 8    396236.763 7  27414088.514    27414114.831    27414088.798  
 02  1 11  8 19 22.0000000  0  1G31
    528790.908 8    412056.593 7  27417951.887    27417976.936    27417951.306  
 02  1 11  8 19 23.0000000  0  1G31
    549087.791 8    427872.810 7  27421813.487    27421838.941    27421813.431  
 02  1 11  8 19 24.0000000  0  1G31
    569382.738 8    443687.504 7  27425675.128    27425700.497    27425675.383  
 02  1 11  8 19 25.0000000  0  1G31
    589675.735 8    459500.677 7  27429536.930    27429562.167    27429536.735  
 02  1 11  8 19 26.0000000  0  1G31
    609965.648 8    475311.455 7  27433397.490    27433422.855    27433397.449  
 02  1 11  8 19 27.0000000  0  1G31
    630252.722 8    491120.007 7  27437257.294    27437282.430    27437257.259  
 02  1 11  8 19 28.0000000  0  1G31
    650537.321 8    506926.630 7  27441117.065    27441142.452    27441117.137  
 02  1 11  8 19 29.0000000  0  1G31
    670818.715 8    522730.752 7  27444976.348    27445001.483    27444976.576  
 02  1 11  8 19 30.0000000  0  1G31
    691096.517 8    538532.081 7  27448834.580    27448859.886    27448834.890  
 02  1 11  8 19 31.0000000  0  1G31
    711370.692 8    554330.581 7  27452692.612    27452716.701    27452692.490  
 02  1 11  8 19 32.0000000  0  1G31
    731642.537 8    570127.250 7  27456550.038    27456574.024    27456550.071  
 02  1 11  8 19 33.0000000  0  1G31
    751910.859 8    585921.188 7  27460406.946    27460430.372    27460406.607  
 02  1 11  8 19 34.0000000  0  1G31
    772175.155 8    601711.973 7  27464261.646    27464286.634    27464262.301  
 02  1 11  8 19 35.0000000  0  1G31
    792434.579 8    617498.967 7  27468116.742    27468141.213    27468117.344  
 02  1 11  8 19 36.0000000  0  1G31
    812691.175 8    633283.749 7  27471971.569    27471996.136    27471971.369  
 02  1 11  8 19 37.0000000  0  1G31
    832945.956 8    649067.122 7  27475825.534    27475849.246    27475825.714  
 02  1 11  8 19 38.0000000  0  1G31
    853197.645 8    664848.083 7  27479678.519    27479702.769    27479678.739  
 02  1 11  8 19 39.0000000  0  1G31
    873446.045 8    680626.471 7  27483531.397    27483555.266    27483531.635  
 02  1 11  8 19 40.0000000  0  1G31
    893690.948 8    696402.131 7  27487383.323    27487407.813    27487384.124  
 02  1 11  8 19 41.0000000  0  1G31
    913932.094 8    712174.859 7  27491235.402    27491259.059    27491235.236  
 02  1 11  8 19 42.0000000  0  1G31
    934170.526 8    727945.475 7  27495086.408    27495109.561    27495086.427  
 02  1 11  8 19 43.0000000  0  1G31
    954405.679 8    743713.520 7  27498936.760    27498960.166    27498936.788  
 02  1 11  8 19 44.0000000  0  1G31
    974637.781 8    759479.185 7  27502786.149    27502810.424    27502786.446  
 02  1 11  8 19 45.0000000  0  1G31
    994866.326 8    775242.075 7  27506635.304    27506659.021    27506635.560  
 02  1 11  8 19 46.0000000  0  1G31
   1015090.627 8    791001.643 7  27510484.025    27510506.418    27510483.710  
 02  1 11  8 19 47.0000000  0  1G31
   1035309.987 8    806757.360 7  27514331.604    27514353.657    27514331.250  
 02  1 11  8 19 48.0000000  0  1G31
   1055527.331 8    822511.500 7  27518177.969    27518200.872    27518178.426  
 02  1 11  8 19 49.0000000  0  1G31
   1075741.793 8    838263.384 7  27522024.486    27522046.859    27522024.525  
 02  1 11  8 19 50.0000000  0  1G31
   1095952.310 8    854012.187 7  27525870.434    27525892.639    27525870.264  
 02  1 11  8 19 51.0000000  0  1G31
   1116158.866 8    869757.903 7  27529714.755    27529737.493    27529715.066  
 02  1 11  8 19 52.0000000  0  1G31
   1136362.527 8    885501.351 7  27533559.031    27533582.192    27533559.240  
 02  1 11  8 19 53.0000000  0  1G31
   1156562.509 8    901241.925 7  27537403.032    27537425.363    27537402.912  
 02  1 11  8 19 54.0000000  0  1G31
   1176759.202 8    916979.926 7  27541246.476    27541268.290    27541246.032  
 02  1 11  8 19 55.0000000  0  1G31
   1196952.283 8    932715.106 7  27545088.700    27545110.787    27545088.707  
 02  1 11  8 19 56.0000000  0  1G31
   1217141.557 8    948447.318 7  27548929.760    27548952.422    27548930.180  
 02  1 11  8 19 57.0000000  0  1G31
   1237327.361 8    964176.823 7  27552770.672    27552793.326    27552771.400  
 02  1 11  8 19 58.0000000  0  1G31
   1257509.597 8    979903.536 7  27556611.219    27556633.544    27556611.928  
 02  1 11  8 19 59.0000000  0  1G31
   1277686.853 8    995626.358 7  27560450.771    27560473.107    27560450.892  
 02  1 11  8 20  0.0000000  0  1G31
   1297861.033 8   1011346.783 7  27564289.990    27564311.645    27564290.109  
 02  1 11  8 20  1.0000000  0  1G31
   1318032.370 8   1027064.983 7  27568128.373    27568149.618    27568127.812  
 02  1 11  8 20  2.0000000  0  1G31
   1338200.713 8   1042780.852 7  27571965.956    27571987.369    27571965.708  
 02  1 11  8 20  3.0000000  0  1G31
   1358365.351 8   1058493.817 7  27575802.183    27575824.501    27575802.436  
 02  1 11  8 20  4.0000000  0  1G31
   1378526.473 8   1074204.043 7  27579638.880    27579660.806    27579638.835  
 02  1 11  8 20  5.0000000  0  1G31
   1398684.034 8   1089911.490 7  27583474.822    27583496.122    27583474.264  
 02  1 11  8 20  6.0000000  0  1G31
   1418835.866 8   1105614.468 7  27587309.303    27587330.954    27587309.409  
 02  1 11  8 20  7.0000000  0  1G31
   1438973.878 8   1121306.671 7  27591141.249    27591163.224    27591141.398  
 02  1 11  8 20  8.0000000  0  1G31
   1459104.636 8   1136993.219 7  27594971.644    27594993.231    27594971.651  
 02  1 11  8 20  9.0000000  0  1G31
   1479231.100 8   1152676.414 7  27598801.297    27598822.077    27598801.690  
 02  1 11  8 20 10.0000000  0  1G31
   1499353.384 8   1168356.353 7  27602630.390    27602651.569    27602630.516  
 02  1 11  8 20 11.0000000  0  1G31
   1519470.621 8   1184032.341 7  27606458.658    27606480.078    27606458.992  
 02  1 11  8 20 12.0000000  0  1G31
   1539584.989 8   1199706.097 7  27610286.231    27610307.345    27610286.158  
 02  1 11  8 20 13.0000000  0  1G31
   1559696.943 8   1215377.968 7  27614112.792    27614134.209    27614113.314  
 02  1 11  8 20 14.0000000  0  1G31
   1579804.751 8   1231046.609 7  27617939.319    27617960.484    27617939.811  
 02  1 11  8 20 15.0000000  0  1G31
   1599908.547 8   1246712.119 7  27621764.641    27621785.773    27621764.865  
 02  1 11  8 20 16.0000000  0  1G31
   1620007.824 8   1262374.102 7  27625589.196    27625610.092    27625589.368  
 02  1 11  8 20 17.0000000  0  1G31
   1640103.377 8   1278033.181 7  27629412.877    27629433.948    27629412.828  
 02  1 11  8 20 18.0000000  0  1G31
   1660195.721 8   1293689.757 7  27633236.427    27633257.456    27633236.853  
 02  1 11  8 20 19.0000000  0  1G31
   1680284.162 8   1309343.286 7  27637059.117    27637080.044    27637058.992  
 02  1 11  8 20 20.0000000  0  1G31
   1700368.183 8   1324993.372 7  27640880.713    27640901.720    27640880.853  
 02  1 11  8 20 21.0000000  0  1G31
   1720447.747 8   1340639.993 7  27644701.621    27644722.125    27644701.744  
 02  1 11  8 20 22.0000000  0  1G31
   1740523.718 8   1356283.799 7  27648521.928    27648542.500    27648521.929  
 02  1 11  8 20 23.0000000  0  1G31
   1760594.198 8   1371923.324 7  27652340.508    27652361.522    27652340.819  
 02  1 11  8 20 24.0000000  0  1G31
   1780661.765 8   1387560.579 7  27656159.567    27656180.205    27656159.700  
 02  1 11  8 20 25.0000000  0  1G31
   1800726.158 8   1403195.360 7  27659977.283    27659997.956    27659977.466  
 02  1 11  8 20 26.0000000  0  1G31
   1820785.994 8   1418826.590 7  27663794.808    27663815.501    27663794.742  
 02  1 11  8 20 27.0000000  0  1G31
   1840842.395 8   1434455.136 7  27667610.939    27667631.750    27667611.355  
 02  1 11  8 20 28.0000000  0  1G31
   1860895.145 8   1450080.841 7  27671426.929    27671447.478    27671426.774  
 02  1 11  8 20 29.0000000  0  1G31
   1880944.065 8   1465703.560 7  27675240.978    27675262.137    27675241.583  
 02  1 11  8 20 30.0000000  0  1G31
   1900988.838 8   1481323.038 7  27679055.741    27679076.452    27679056.449  
 02  1 11  8 20 31.0000000  0  1G31
   1921029.206 8   1496939.089 7  27682869.833    27682889.770    27682869.805  
 02  1 11  8 20 32.0000000  0  1G31
   1941065.774 8   1512552.174 7  27686682.107    27686702.449    27686682.387  
 02  1 11  8 20 33.0000000  0  1G31
   1961098.527 8   1528162.288 7  27690494.074    27690514.623    27690494.516  
 02  1 11  8 20 34.0000000  0  1G31
   1981127.498 8   1543769.446 7  27694304.661    27694325.982    27694305.607  
 02  1 11  8 20 35.0000000  0  1G31
   2001152.927 8   1559373.848 7  27698115.632    27698136.392    27698116.076  
 02  1 11 10  8 28.0000000  0  1G31
        -0.904 9        -0.708 8  27275674.697    27275683.439    27275675.087  
 02  1 11 10  8 29.0000000  0  1G31
     31266.887 9     24363.878 8  27281624.943    27281633.675    27281625.117  
 02  1 11 10  8 30.0000000  0  1G31
     62533.256 9     48727.312 8  27287574.712    27287583.660    27287574.811  
 02  1 11 10  8 31.0000000  0  1G31
     93798.114 9     73089.590 8  27293524.036    27293532.865    27293524.162  
 02  1 11 10  8 32.0000000  0  1G31
    125061.782 9     97450.978 8  27299473.242    27299482.113    27299473.479  
 02  1 11 10  8 33.0000000  0  1G31
    156323.866 9    121811.000 8  27305422.410    27305431.055    27305422.128  
 02  1 11 10  8 34.0000000  0  1G31
    187583.779 9    146169.138 8  27311370.807    27311379.582    27311370.992  
 02  1 11 10  8 35.0000000  0  1G31
    218842.765 9    170526.710 8  27317319.394    27317328.121    27317319.502  
 02  1 11 10  8 36.0000000  0  1G31
    250100.048 9    194883.001 8  27323267.485    27323276.335    27323267.768  
 02  1 11 10  8 37.0000000  0  1G31
    281356.020 9    219238.273 8  27329215.250    27329224.163    27329215.857  
 02  1 11 10  8 38.0000000  0  1G31
    312610.765 9    243592.609 8  27335163.041    27335171.783    27335163.046  
 02  1 11 10  8 39.0000000  0  1G31
    343864.031 9    267945.762 8  27341110.375    27341119.097    27341110.370  
 02  1 11 10  8 40.0000000  0  1G31
    375115.853 9    292297.726 8  27347057.397    27347066.291    27347057.392  
 02  1 11 10  8 41.0000000  0  1G31
    406365.763 9    316648.183 8  27353003.997    27353013.017    27353004.256  
 02  1 11 10  8 42.0000000  0  1G31
    437614.331 9    340997.618 8  27358950.780    27358959.491    27358950.654  
 02  1 11 10  8 43.0000000  0  1G31
    468861.263 9    365345.798 8  27364896.880    27364905.693    27364896.911  
 02  1 11 10  8 44.0000000  0  1G31
    500105.836 9    389692.136 8  27370842.826    27370851.632    27370842.808  
 02  1 11 10  8 45.0000000  0  1G31
    531348.370 9    414036.861 8  27376787.810    27376796.864    27376787.881  
 02  1 11 10  8 46.0000000  0  1G31
    562588.724 9    438379.899 8  27382732.880    27382741.891    27382733.104  
 02  1 11 10  8 47.0000000  0  1G31
    593826.848 9    462721.174 8  27388677.240    27388686.350    27388677.542  
 02  1 11 10  8 48.0000000  0  1G31
    625063.868 9    487061.620 8  27394621.406    27394630.665    27394621.581  
 02  1 11 10  8 49.0000000  0  1G31
    656298.841 9    511400.541 8  27400565.444    27400574.408    27400565.502  
 02  1 11 10  8 50.0000000  0  1G31
    687531.707 9    535737.803 8  27406508.881    27406517.865    27406508.983  
 02  1 11 10  8 51.0000000  0  1G31
    718761.983 9    560073.075 8  27412451.786    27412460.806    27412451.880  
 02  1 11 10  8 52.0000000  0  1G31
    749990.857 9    584407.213 8  27418394.400    27418403.529    27418394.546  
 02  1 11 10  8 53.0000000  0  1G31
    781218.096 9    608740.011 8  27424336.926    27424346.040    27424336.910  
 02  1 11 10  8 54.0000000  0  1G31
    812443.121 9    633071.109 8  27430278.838    27430288.183    27430278.724  
 02  1 11 10  8 55.0000000  0  1G31
    843666.371 9    657400.880 8  27436220.409    27436229.405    27436220.746  
 02  1 11 10  8 56.0000000  0  1G31
    874887.177 9    681728.721 8  27442161.596    27442170.893    27442161.840  
 02  1 11 10  8 57.0000000  0  1G31
    906106.500 9    706055.335 8  27448102.503    27448111.750    27448102.698  
 02  1 11 10  8 58.0000000  0  1G31
    937323.724 9    730380.295 8  27454043.065    27454052.230    27454043.167  
 02  1 11 10  8 59.0000000  0  1G31
    968538.709 9    754703.540 8  27459983.238    27459992.294    27459983.523  
 02  1 11 10  9  0.0000000  0  1G31
    999751.571 9    779025.135 8  27465923.001    27465932.215    27465922.930  
 02  1 11 10  9  1.0000000  0  1G31
   1030961.554 9    803344.446 8  27471862.139    27471871.511    27471862.414  
 02  1 11 10  9  2.0000000  0  1G31
   1062170.351 9    827662.923 8  27477800.964    27477810.374    27477800.812  
 02  1 11 10  9  3.0000000  0  1G31
   1093376.607 9    851979.313 8  27483739.384    27483748.874    27483739.631  
 02  1 11 10  9  4.0000000  0  1G31
   1124580.387 9    876293.766 8  27489677.518    27489686.759    27489677.684  
 02  1 11 10  9  5.0000000  0  1G31
   1155782.419 9    900606.815 8  27495615.098    27495624.567    27495615.659  
 02  1 11 10  9  6.0000000  0  1G31
   1186981.717 9    924917.791 8  27501552.471    27501561.890    27501552.778  
 02  1 11 10  9  7.0000000  0  1G31
   1218178.756 9    949226.988 8  27507488.963    27507498.472    27507488.979  
 02  1 11 10  9  8.0000000  0  1G31
   1249373.665 9    973534.556 8  27513425.323    27513434.915    27513425.278  
 02  1 11 10  9  9.0000000  0  1G31
   1280566.237 9    997840.351 8  27519361.213    27519370.726    27519361.467  
 02  1 11 10  9 10.0000000  0  1G31
   1311757.006 9   1022144.761 8  27525296.670    27525306.325    27525296.760  
 02  1 11 10  9 11.0000000  0  1G31
   1342945.354 9   1046447.203 8  27531231.850    27531241.452    27531231.693  
 02  1 11 10  9 12.0000000  0  1G31
   1374142.452 9   1070756.436 8  27537168.431    27537178.192    27537168.648  
 02  1 11 10  9 13.0000000  0  1G31
   1405340.686 9   1095066.546 8  27543105.546    27543115.410    27543105.710  
 02  1 11 10  9 14.0000000  0  1G31
   1436537.303 9   1119375.393 8  27549042.312    27549052.029    27549042.385  
 02  1 11 10  9 15.0000000  0  1G31
   1467731.722 9   1143682.599 8  27554978.572    27554988.233    27554978.473  
 02  1 11 10  9 16.0000000  0  1G31
   1498922.654 9   1167987.055 8  27560913.843    27560923.581    27560914.135  
 02  1 11 10  9 17.0000000  0  1G31
   1530111.219 9   1192289.651 8  27566848.931    27566859.020    27566849.388  
 02  1 11 10  9 18.0000000  0  1G31
   1561297.953 9   1216590.791 8  27572783.922    27572793.732    27572784.014  
 02  1 11 10  9 19.0000000  0  1G31
   1592482.316 9   1240890.094 8  27578718.198    27578728.058    27578718.260  
 02  1 11 10  9 20.0000000  0  1G31
   1623664.263 9   1265187.571 8  27584652.026    27584662.126    27584652.023  
 02  1 11 10  9 21.0000000  0  1G31
   1654842.862 9   1289482.423 8  27590585.267    27590595.422    27590585.277  
 02  1 11 10  9 22.0000000  0  1G31
   1686019.025 9   1313775.419 8  27596518.098    27596527.903    27596518.173  
 02  1 11 10  9 23.0000000  0  1G31
   1717192.725 9   1338066.487 8  27602450.123    27602460.429    27602450.443  
 02  1 11 10  9 24.0000000  0  1G31
   1748363.682 9   1362355.455 8  27608382.138    27608392.105    27608382.178  
 02  1 11 10  9 25.0000000  0  1G31
   1779531.533 9   1386642.009 8  27614313.135    27614323.417    27614313.095  
 02  1 11 10  9 26.0000000  0  1G31
   1810696.032 9   1410925.988 8  27620243.364    27620253.485    27620243.603  
 02  1 11 10  9 27.0000000  0  1G31
   1841858.206 9   1435208.148 8  27626173.385    27626183.744    27626173.514  
 02  1 11 10  9 28.0000000  0  1G31
   1873017.645 9   1459488.161 8  27632102.955    27632113.208    27632103.242  
 02  1 11 10  9 29.0000000  0  1G31
   1904173.933 9   1483765.697 8  27638031.982    27638042.215    27638031.977  
 02  1 11 10  9 30.0000000  0  1G31
   1935327.431 9   1508041.063 8  27643960.426    27643970.608    27643960.454  
 02  1 11 10  9 31.0000000  0  1G31
   1966477.784 9   1532313.955 8  27649888.156    27649898.415    27649888.222  
 02  1 11 10  9 32.0000000  0  1G31
   1997625.644 9   1556584.852 8  27655815.620    27655825.741    27655815.544  
 02  1 11 10  9 33.0000000  0  1G31
   2028770.619 9   1580853.542 8  27661742.230    27661752.739    27661742.218  
 02  1 11 10  9 34.0000000  0  1G31
   2059912.860 9   1605120.143 8  27667668.340    27667678.990    27667668.636  
 02  1 11 10  9 35.0000000  0  1G31
   2091051.630 9   1629384.038 8  27673594.022    27673604.571    27673594.224  
 02  1 11 10  9 36.0000000  0  1G31
   2122186.664 9   1653644.930 8  27679519.040    27679529.559    27679519.154  
 02  1 11 10  9 37.0000000  0  1G31
   2153318.737 9   1677903.462 8  27685443.419    27685453.779    27685443.350  
 02  1 11 10  9 38.0000000  0  1G31
   2184448.117 9   1702159.979 8  27691367.107    27691377.868    27691367.363  
 02  1 11 10  9 39.0000000  0  1G31
   2215574.159 9   1726413.885 8  27697290.436    27697300.961    27697290.706  
 02  1 11 10  9 40.0000000  0  1G31
   2246697.444 9   1750665.694 8  27703213.080    27703223.667    27703213.288  
 02  1 11 10  9 41.0000000  0  1G31
   2277816.858 9   1774914.429 8  27709135.105    27709145.664    27709135.143  
 02  1 11 10  9 42.0000000  0  1G31
   2308933.601 9   1799161.049 8  27715056.460    27715066.987    27715056.612  
 02  1 11 10  9 43.0000000  0  1G31
   2340046.793 9   1823404.904 8  27720977.165    27720988.070    27720977.239  
 02  1 11 10  9 44.0000000  0  1G31
   2371157.030 9   1847646.498 8  27726897.338    27726908.272    27726897.589  
 02  1 11 10  9 45.0000000  0  1G31
   2402264.189 9   1871885.686 8  27732817.061    27732828.155    27732817.202  
 02  1 11 10  9 46.0000000  0  1G31
   2433367.014 9   1896121.471 8  27738735.606    27738746.853    27738736.048  
 02  1 11 10  9 47.0000000  0  1G31
   2464466.956 9   1920354.996 8  27744653.862    27744665.001    27744654.261  
 02  1 11 10  9 48.0000000  0  1G31
   2495563.835 9   1944586.199 8  27750571.934    27750582.634    27750571.822  
 02  1 11 10  9 49.0000000  0  1G31
   2526657.371 9   1968814.831 8  27756488.869    27756499.745    27756488.866  
 02  1 11 10  9 50.0000000  0  1G31
   2557747.649 9   1993040.893 8  27762405.014    27762416.076    27762405.453  
 02  1 11 10  9 51.0000000  0  1G31
   2588833.980 9   2017263.875 8  27768320.659    27768331.694    27768320.859  
 02  1 11 10  9 52.0000000  0  1G31
   2619917.333 9   2041484.554 8  27774235.730    27774246.981    27774235.965  
 02  1 11 10  9 53.0000000  0  1G31
   2650997.317 9   2065702.624 8  27780150.217    27780161.230    27780150.573  
 02  1 11 10  9 54.0000000  0  1G31
   2682073.241 9   2089917.503 8  27786063.984    27786075.077    27786064.202  
 02  1 11 10  9 55.0000000  0  1G31
   2713145.393 9   2114129.418 8  27791976.971    27791988.042    27791976.950  
 02  1 11 10  9 56.0000000  0  1G31
   2744213.313 9   2138338.044 8  27797889.015    27797900.059    27797888.933  
 02  1 11 10  9 57.0000000  0  1G31
   2775278.249 9   2162544.436 8  27803800.362    27803811.702    27803800.535  
 02  1 11 10  9 58.0000000  0  1G31
   2806339.746 9   2186748.095 8  27809711.081    27809722.554    27809711.417  
 02  1 11 10  9 59.0000000  0  1G31
   2837397.449 9   2210948.809 8  27815621.461    27815632.751    27815621.513  
 02  1 11 10 10  0.0000000  0  1G31
   2868451.884 9   2235147.118 8  27821531.001    27821542.331    27821531.180  
 02  1 11 10 10  1.0000000  0  1G31
   2899502.177 9   2259342.157 8  27827439.832    27827450.786    27827439.743  
 02  1 11 10 10  2.0000000  0  1G31
   2930548.509 9   2283534.006 8  27833347.766    27833358.833    27833347.908  
 02  1 11 10 10  3.0000000  0  1G31
   2961590.375 9   2307722.310 8  27839254.762    27839266.052    27839254.858  
 02  1 11 10 10  4.0000000  0  1G31
   2992627.934 9   2331907.344 8  27845161.179    27845172.224    27845161.224  
 02  1 11 10 10 25.0000000  0  1G31
     30949.997 9     24117.041 8  27969007.378    27969017.931    27969007.240  
 02  1 11 10 10 26.0000000  0  1G31
     61895.656 9     48230.600 8  27974895.870    27974906.819    27974895.960  
 02  1 11 10 10 27.0000000  0  1G31
     92837.257 9     72341.068 8  27980783.841    27980794.380    27980783.941  
 02  1 11 10 10 28.0000000  0  1G31
    123774.081 9     96447.732 8  27986670.818    27986681.396    27986671.038  
 02  1 11 10 10 29.0000000  0  1G31
    154706.224 9    120550.714 8  27992557.110    27992567.574    27992557.216  
 02  1 11 10 10 30.0000000  0  1G31
    185633.635 9    144649.979 8  27998442.462    27998453.140    27998442.433  
 02  1 11 10 10 31.0000000  0  1G31
    216555.970 9    168745.354 8  28004326.862    28004337.227    28004327.038  
 02  1 11 10 10 32.0000000  0  1G31
    247474.390 9    192837.706 8  28010210.193    28010220.857    28010209.971  
 02  1 11 10 10 33.0000000  0  1G31
    278387.767 9    216926.120 8  28016092.845    28016103.451    28016093.072  
 02  1 11 10 10 34.0000000  0  1G31
    309296.354 9    241010.745 8  28021974.660    28021985.031    28021974.501  
 02  1 11 10 10 35.0000000  0  1G31
    340200.124 9    265091.641 8  28027855.088    28027865.835    28027855.219  
 02  1 11 10 10 36.0000000  0  1G31
    371097.846 9    289167.821 8  28033734.892    28033745.347    28033734.985  
 02  1 11 10 10 37.0000000  0  1G31
    401979.168 9    313231.234 8  28039611.518    28039621.923    28039611.584  
 02  1 11 10 10 38.0000000  0  1G31
    432850.703 9    337287.061 8  28045486.037    28045496.474    28045486.055  
 02  1 11 10 10 39.0000000  0  1G31
    463716.503 9    361338.437 8  28051359.462    28051369.718    28051359.483  
 02  1 11 10 10 40.0000000  0  1G31
    494577.733 9    385386.319 8  28057232.076    28057242.687    28057232.042  
 02  1 11 10 10 41.0000000  0  1G31
    525433.439 9    409429.796 8  28063103.656    28063113.999    28063103.809  
 02  1 11 10 10 42.0000000  0  1G31
    556284.463 9    433469.649 8  28068974.434    28068984.671    28068974.302  
 02  1 11 10 10 43.0000000  0  1G31
    587130.345 9    457505.479 8  28074843.822    28074854.547    28074844.139  
 02  1 11 10 10 44.0000000  0  1G31
    617971.301 9    481537.406 8  28080712.785    28080723.293    28080712.936  
 02  1 11 10 10 45.0000000  0  1G31
    648807.490 9    505565.707 8  28086580.757    28086591.345    28086580.872  
 02  1 11 10 10 46.0000000  0  1G31
    679638.348 9    529589.898 8  28092447.647    28092457.876    28092447.547  
 02  1 11 10 10 47.0000000  0  1G31
    710466.527 9    553612.197 8  28098313.747    28098323.937    28098313.653  
 02  1 11 10 10 48.0000000  0  1G31
    741288.501 9    577629.769 8  28104178.736    28104188.970    28104178.752  
 02  1 11 10 10 49.0000000  0  1G31
    772104.102 9    601642.385 8  28110042.489    28110052.373    28110042.250  
 02  1 11 10 10 50.0000000  0  1G31
    802914.470 9    625650.898 8  28115905.145    28115914.807    28115904.928  
 02  1 11 10 10 51.0000000  0  1G31
    833718.606 9    649654.423 8  28121766.542    28121776.509    28121766.580  
 02  1 11 10 10 52.0000000  0  1G31
    864517.803 9    673654.087 8  28127627.141    28127636.938    28127627.300  
 02  1 11 10 10 53.0000000  0  1G31
    895311.422 9    697649.372 8  28133486.745    28133496.616    28133486.957  
 02  1 11 10 10 54.0000000  0  1G31
    926099.727 9    721640.634 8  28139345.381    28139355.118    28139345.621  
 02  1 11 10 10 55.0000000  0  1G31
    956882.911 9    745628.146 8  28145202.874    28145212.317    28145202.953  
 02  1 11 10 10 56.0000000  0  1G31
    987659.644 9    769610.458 8  28151059.096    28151068.405    28151059.251  
 02  1 11 10 10 57.0000000  0  1G31
   1018431.092 9    793588.547 8  28156914.546    28156923.718    28156914.384  
 02  1 11 10 10 58.0000000  0  1G31
   1049197.555 9    817562.732 8  28162768.814    28162777.774    28162768.955  
 02  1 11 10 10 59.0000000  0  1G31
   1079961.133 9    841534.740 8  28168622.568    28168631.925    28168622.834  
 02  1 11 10 11  0.0000000  0  1G31
   1110718.746 9    865502.089 8  28174475.492    28174484.552    28174475.452  
 02  1 11 10 11  1.0000000  0  1G31
   1141469.895 9    889464.332 8  28180327.097    28180335.859    28180327.093  
 02  1 11 10 11  2.0000000  0  1G31
   1172215.707 9    913422.346 8  28186177.427    28186186.266    28186177.608  
 02  1 11 10 11  3.0000000  0  1G31
   1202955.803 9    937375.907 8  28192026.798    28192035.633    28192026.862  
 02  1 11 10 11  4.0000000  0  1G31
   1233690.227 9    961325.070 8  28197875.306    28197884.252    28197875.479  
 02  1 11 10 11  5.0000000  0  1G31
   1264419.222 9    985269.988 8  28203722.691    28203731.277    28203722.719  
 02  1 11 10 11  6.0000000  0  1G31
   1295141.936 9   1009209.962 8  28209568.785    28209577.385    28209568.896  
 02  1 11 10 11  7.0000000  0  1G31
   1325858.238 9   1033144.936 8  28215413.823    28215422.310    28215413.922  
 02  1 11 10 11  8.0000000  0  1G31
   1356569.354 9   1057075.900 8  28221257.743    28221266.207    28221257.794  
 02  1 11 10 11  9.0000000  0  1G31
   1387274.671 9   1081002.339 8  28227100.297    28227109.185    28227100.944  
 02  1 11 10 11 10.0000000  0  1G31
   1417973.637 9   1104923.792 8  28232942.048    28232950.594    28232942.431  
 02  1 11 10 11 11.0000000  0  1G31
   1448666.424 9   1128840.437 8  28238782.882    28238791.258    28238782.890  
 02  1 11 10 11 12.0000000  0  1G31
   1479353.731 9   1152752.821 8  28244622.284    28244630.486    28244622.393  
 02  1 11 10 11 13.0000000  0  1G31
   1510034.972 9   1176660.388 8  28250460.520    28250468.962    28250460.667  
 02  1 11 10 11 14.0000000  0  1G31
   1540710.332 9   1200563.392 8  28256297.638    28256306.247    28256298.019  
 02  1 11 10 11 15.0000000  0  1G31
   1571379.889 9   1224461.864 8  28262133.986    28262142.212    28262133.892  
 02  1 11 10 11 16.0000000  0  1G31
   1602042.935 9   1248355.256 8  28267968.622    28267977.112    28267968.877  
 02  1 11 10 11 17.0000000  0  1G31
   1632700.208 9   1272244.189 8  28273802.715    28273810.584    28273802.598  
 02  1 11 10 11 18.0000000  0  1G31
   1663351.832 9   1296128.756 8  28279635.106    28279643.533    28279635.454  
 02  1 11 10 11 19.0000000  0  1G31
   1693997.743 9   1320008.944 8  28285466.530    28285474.889    28285466.713  
 02  1 11 10 11 20.0000000  0  1G31
   1724637.436 9   1343884.213 8  28291297.079    28291305.355    28291297.163  
 02  1 11 10 11 21.0000000  0  1G31
   1755270.838 9   1367754.576 8  28297126.436    28297134.428    28297126.616  
 02  1 11 10 11 22.0000000  0  1G31
   1785898.838 9   1391620.722 8  28302954.631    28302962.579    28302954.682  
 02  1 11 10 11 23.0000000  0  1G31
   1816520.719 9   1415482.090 8  28308781.569    28308789.643    28308781.748  
 02  1 11 10 11 24.0000000  0  1G31
   1847136.872 9   1439338.964 8  28314607.514    28314615.420    28314607.618  
 02  1 11 10 11 25.0000000  0  1G31
   1877747.600 9   1463191.606 8  28320432.325    28320440.361    28320432.507  
 02  1 11 10 11 26.0000000  0  1G31
   1908352.313 9   1487039.517 8  28326256.333    28326264.106    28326256.213  
 02  1 11 10 11 27.0000000  0  1G31
   1938951.879 9   1510883.421 8  28332079.152    28332087.132    28332079.055  
 02  1 11 10 11 28.0000000  0  1G31
   1969546.709 8   1534723.635 8  28337900.902    28337908.913    28337901.190  
 02  1 11 10 11 29.0000000  0  1G31
   2000137.149 8   1558560.470 8  28343722.156    28343730.010    28343722.020  
 02  1 11 10 11 30.0000000  0  1G31
   2030723.550 8   1582394.162 8  28349542.481    28349550.179    28349542.550  
 02  1 11 10 11 31.0000000  0  1G31
   2061305.688 8   1606224.457 7  28355361.994    28355369.697    28355362.025  
 02  1 11 10 11 32.0000000  0  1G31
   2091884.552 8   1630052.179 7  28361180.884    28361188.663    28361180.916  
 02  1 11 10 11 33.0000000  0  1G31
   2122460.281 8   1653877.472 7  28366999.658    28367007.226    28366999.550  
 02  1 11 10 11 34.0000000  0  1G31
   2153033.837 8   1677701.073 7  28372817.432    28372825.049    28372817.256  
 02  1 11 10 11 35.0000000  0  1G31
   2183605.250 8   1701523.025 7  28378634.562    28378642.686    28378634.930  
 02  1 11 10 11 36.0000000  0  1G31
   2214174.719 8   1725343.461 7  28384452.045    28384459.163    28384451.865  
 02  1 11 10 11 37.0000000  0  1G31
   2244743.776 8   1749163.557 6  28390268.740    28390276.628    28390268.975  
 02  1 11 10 11 38.0000000  0  1G31
   2275312.516 8   1772983.353 7  28396085.883    28396093.899    28396086.195  
 02  1 11 10 11 39.0000000  0  1G31
   2305880.802 8   1796802.798 6  28401902.551    28401910.316    28401902.862  
 02  1 11 10 11 40.0000000  0  1G31
   2336448.752 8   1820622.000 6  28407720.134    28407727.334    28407719.642  
 02  1 11 10 11 41.0000000  0  1G31
   2367016.908 8   1844441.352 6  28413537.796    28413544.696    28413536.622  
 02  1 11 10 11 42.0000000  0  1G31
   2397586.159 8   1868261.589 6  28419354.389    28419361.042    28419354.291  
 02  1 11 10 11 43.0000000  0  1G31
   2428155.980 8   1892082.263 7  28425171.523    28425178.202    28425171.393  
 02  1 11 10 11 44.0000000  0  1G31
   2458724.138 8   1915901.566 7  28430987.570    28430995.507    28430988.321  
 02  1 11 10 11 45.0000000  0  1G31
   2489292.072 8   1939720.706 6  28436804.460    28436812.644    28436804.700  
 02  1 11 10 11 46.0000000  0  1G31
   2519859.817 8   1963539.662 6  28442621.555    28442630.452    28442622.039  
 02  1 11 10 11 47.0000000  0  1G31
   2550427.936 8   1987359.002 6  28448438.893    28448446.437    28448438.800  
 02  1 11 10 11 48.0000000  0  1G31
   2580996.915 8   2011178.964 6  28454256.260    28454263.062    28454255.585  
 02  1 11 10 11 49.0000000  0  1G31
   2611566.992 8   2034999.793 6  28460072.359    28460081.436    28460072.913  
 02  1 11 10 11 50.0000000  0  1G31
   2642138.118 8   2058821.489 6  28465890.345    28465898.326    28465890.223  
 02  1 11 10 11 51.0000000  0  1G31
   2672710.180 8   2082643.838 6  28471709.241    28471716.697    28471708.308  
 02  1 11 10 11 52.0000000  0  1G31
   2703284.304 8   2106467.875 6  28477525.447    28477535.069    28477526.000  
 02  1 11 10 11 53.0000000  0  1G31
   2733859.527 8   2130292.788 5  28483344.006    28483352.128    28483344.419  
 02  1 11 10 11 54.0000000  0  1G31
   2764437.050 6   2154118.972 2  28489168.688    28489173.215    28489167.766  
 02  1 11 10 11 55.0000000  0  1G31
   2795016.231 6   2177954.431 3  28494964.245    28494987.571    28494960.694  
 02  1 11 10 11 56.0000000  0  1G31
   2825597.586 6   2201899.142 2  28500809.392    28500799.236    28500861.652  
 02  1 11 10 11 57.0000000  0  1G31
   2856180.972 5   2225973.520 2  28506591.323    28506620.915    28506639.724  
 02  1 11 10 11 58.0000000  0  1G31
   2886766.280 5   2250053.185 2  28512475.030    28512435.793    28512565.715  
 02  1 11 10 11 59.0000000  0  1G31
   2917353.783 6   2274156.191 2  28518333.765    28518258.028    28518456.239  
 02  1 11 10 12  0.0000000  0  1G31
   2947943.129 5   2298374.715 3  28524218.910    28524072.573    28524342.209  
 02  1 11 10 12  1.0000000  0  1G31
   2978534.656 5   2322554.176 2  28530058.782    28529889.968    28530213.320  
