     2.10           OBSERVATION DATA    MIXED               RINEX VERSION / TYPE
RinEdit                                 20200331 180246 UTC PGM / RUN BY / DATE
txau                                                        MARKER NAME
                                                            MARKER NUMBER
                                                            OBSERVER / AGENCY
4725K06326          TRIMBLE NETR5       Nav  4.03   Boot  3.REC # / TYPE / VERS
                    TRM55971.00                             ANT # / TYPE
  -743773.7423 -5460645.9227  3200347.8234                  APPROX POSITION XYZ
        0.0000        0.0000        0.0000                  ANTENNA: DELTA H/E/N
     9    C1    P1    P2    L1    L2    S1    S2    D1    D2# / TYPES OF OBSERV
     1     1                                                WAVELENGTH FACT L1/2
    30.000                                                  INTERVAL
  2012     2    16     7    22   30.0000000     GPS         TIME OF FIRST OBS
     0                                                      RCV CLOCK OFFS APPL
                                                            END OF HEADER
 12  2 16  7 22 30.0000000  0  1G15
  25300532.273           0.000    25300534.262   132955174.868 5 103601459.06945
        40.000          20.000        1374.961        1071.398  
 12  2 16  7 23  0.0000000  0  1G15
  25292725.008           0.000    25292728.582   132914145.600 4 103569488.20046
        38.000          24.000        1360.223        1059.914  
 12  2 16  7 23 30.0000000  0  1G15
  25285001.758           0.000    25285005.879   132873563.079 1 103537865.64145
        33.000          18.000        1345.332        1048.311  
 12  2 16  7 24  0.0000000  0  1G15
  25277366.367           0.000    25277366.313   132833428.240 5 103506591.55245
        40.000          20.000        1330.379        1036.659  
 12  2 16  7 24 30.0000000  0  1G15
  25269813.523           0.000    25269815.715   132793740.083 3 103475665.59646
        36.000          22.000        1315.328        1024.931  
 12  2 16  7 25  0.0000000  0  1G15
  25262345.570           0.000    25262349.465   132754501.406 5 103445090.22946
        41.000          22.000        1300.484        1013.364  
 12  2 16  7 25 30.0000000  0  1G15
  25254965.047           0.000    25254966.305   132715712.700 5 103414865.17746
        40.000          21.000        1285.441        1001.643  
 12  2 16  7 26  0.0000000  0  1G15
  25247666.672           0.000    25247671.363   132677374.309 1 103384991.03945
        33.000          18.000        1270.094         989.683  
 12  2 16  7 26 30.0000000  0  1G15
  25240459.602           0.000    25240462.262   132639486.961 5 103355468.51346
        40.000          24.000        1255.117         978.013  
 12  2 16  7 27  0.0000000  0  1G15
  25233336.406           0.000    25233338.402   132602052.457 4 103326298.74846
        39.000          21.000        1240.262         966.438  
 12  2 16  7 27 30.0000000  0  1G15
  25226296.461           0.000    25226300.102   132565070.583 2 103297481.66045
        34.000          16.000        1225.414         954.868  
 12  2 16  7 28  0.0000000  0  1G15
  25219347.648           0.000    25219350.672   132528542.091 5 103269017.87846
        40.000          24.000        1210.074         942.915  
 12  2 16  7 28 30.0000000  0  1G15
  25212483.070           0.000    25212486.777   132492467.657 3 103240907.97446
        37.000          22.000        1194.949         931.129  
 12  2 16  7 29  0.0000000  0  1G15
  25205702.680           0.000    25205706.840   132456848.557 3 103213152.95145
        36.000          16.000        1179.688         919.237  
 12  2 16  7 29 30.0000000  0  1G15
  25199013.898           0.000    25199014.477   132421685.999 4 103185753.34645
        39.000          20.000        1164.516         907.415  
 12  2 16  7 30  0.0000000  0  1G15
  25192409.031           0.000    25192412.395   132386978.397 4 103158708.47046
        38.000          22.000        1149.004         895.328  
 12  2 16  7 30 30.0000000  0  1G15
  25185889.188           0.000    25185895.063   132352728.649 2 103132020.49445
        34.000          19.000        1134.043         883.670  
 12  2 16  7 31  0.0000000  0  1G15
  25179459.891           0.000    25179462.273   132318934.894 4 103105687.72345
        39.000          18.000        1118.844         871.826  
 12  2 16  7 31 30.0000000  0  1G15
  25173116.891           0.000    25173117.855   132285600.152 4 103079712.47945
        38.000          18.000        1103.645         859.983  
 12  2 16  7 32  0.0000000  0  1G15
  25166858.461           0.000    25166863.129   132252724.696   103054095.26645
        32.000          17.000        1087.914         847.725  
 12  2 16  7 32 30.0000000  0  1G15
  25160692.172           0.000    25160695.176   132220307.186 3 103028834.93646
        37.000          21.000        1072.918         836.040  
 12  2 16  7 33  0.0000000  0  1G15
  25154610.836           0.000    25154613.633   132188349.937 4 103003933.13745
        38.000          19.000        1057.609         824.111  
 12  2 16  7 33 30.0000000  0  1G15
  25148613.172           0.000    25148619.367   132156852.957   102979390.04745
        32.000          17.000        1042.598         812.414  
 12  2 16  7 34  0.0000000  0  1G15
  25142711.867           0.000    25142714.625   132125817.256 4 102955206.37046
        39.000          22.000        1026.891         800.174  
 12  2 16  7 34 30.0000000  0  1G15
  25136893.508           0.000    25136897.160   132095242.823 5 102931382.16246
        40.000          23.000        1011.406         788.109  
 12  2 16  7 35  0.0000000  0  1G15
  25131161.758           0.000    25131165.965   132065129.913   102907917.50945
        32.000          19.000         996.055         776.146  
 12  2 16  7 35 30.0000000  0  1G15
  25125520.125           0.000           0.000   132035478.536 3         0.00051
        36.000           0.000         980.918           0.000  
 12  2 16  7 36  0.0000000  0  1G15
  25119966.539           0.000    25119969.633   132006290.904 4 102862058.87046
        39.000          25.000         965.320         752.198  
 12  2 16  7 36 30.0000000  0  1G15
  25114501.359           0.000    25114504.586   131977565.293 3 102839675.25846
        37.000          26.000         949.750         740.065  
 12  2 16  7 37  0.0000000  0  1G15
  25109118.180           0.000    25109126.355           0.0001          0.00055
         0.000           0.000         934.449         728.142  
 12  2 16  7 37 30.0000000  0  1G15
  25103832.016           0.000    25103835.516   131921504.383 4 102795991.35145
        39.000          19.000         919.039         716.134  
 12  2 16  7 38  0.0000000  0  1G15
  25098631.328           0.000    25098631.867   131894169.936 5 102774691.55545
        40.000          20.000         903.527         704.047  
 12  2 16  7 38 30.0000000  0  1G15
  25093517.492           0.000    25093521.227   131867299.124 3 102753753.26346
        37.000          22.000         887.797         691.790  
 12  2 16  7 39  0.0000000  0  1G15
  25088489.898           0.000    25088496.738   131840892.026 2 102733176.47446
        35.000          21.000         872.594         679.943  
 12  2 16  7 39 30.0000000  0  1G15
  25083556.125           0.000    25083559.500   131814951.000 5 102712962.73746
        40.000          23.000         856.879         667.698  
 12  2 16  7 40  0.0000000  0  1G15
  25078707.922           0.000    25078710.137   131789474.287 5 102693110.69845
        40.000          20.000         841.523         655.733  
 12  2 16  7 40 30.0000000  0  1G15
  25073947.797           0.000    25073948.664   131764463.034 2 102673621.20645
        35.000          19.000         826.055         643.679  
 12  2 16  7 41  0.0000000  0  1G15
  25069275.945           0.000    25069280.535   131739917.667 4 102654495.08246
        39.000          22.000         810.320         631.418  
 12  2 16  7 41 30.0000000  0  1G15
  25064696.852           0.000    25064699.215   131715836.959 5 102635730.95146
        40.000          25.000         794.969         619.456  
 12  2 16  7 42  0.0000000  0  1G15
  25060202.164           0.000    25060205.066   131692222.959 4 102617330.40546
        39.000          21.000         779.246         607.205  
 12  2 16  7 42 30.0000000  0  1G15
  25055795.477           0.000    25055797.695   131669074.582   102599292.57245
        32.000          16.000         763.738         595.121  
 12  2 16  7 43  0.0000000  0  1G15
  25051474.242           0.000    25051480.840   131646392.3341  102581618.19055
        30.000          15.000         748.379         583.152  
 12  2 16  7 43 30.0000000  0  1G15
  25047251.805           0.000    25047255.398   131624177.024 3 102564307.53946
        37.000          21.000         732.664         570.907  
 12  2 16  7 44  0.0000000  0  1G15
  25043115.367           0.000    25043117.473   131602428.159 4 102547360.34546
        39.000          22.000         717.375         558.994  
 12  2 16  7 44 30.0000000  0  1G15
  25039064.305           0.000    25039067.098   131581145.368 4 102530776.38546
        38.000          21.000         701.793         546.852  
 12  2 16  7 45  0.0000000  0  1G15
  25035099.961           0.000    25035105.844           0.0001          0.00055
         0.000           0.000         686.266         534.752  
 12  2 16  7 45 30.0000000  0  1G15
  25031229.305           0.000    25031230.793   131539979.020 3 102498698.74745
        36.000          16.000         670.367         522.364  
 12  2 16  7 46  0.0000000  0  1G15
  25027446.789           0.000    25027447.766   131520096.072 5 102483205.47345
        40.000          20.000         655.000         510.390  
 12  2 16  7 46 30.0000000  0  1G15
  25023752.703           0.000    25023755.230   131500679.132 5 102468075.35546
        41.000          22.000         639.316         498.169  
 12  2 16  7 47  0.0000000  0  1G15
  25020145.922           0.000    25020150.234   131481729.105 2 102453309.09346
        35.000          22.000         623.711         486.009  
 12  2 16  7 47 30.0000000  0  1G15
  25016626.789           0.000    25016632.910   131463245.493 1 102438906.36645
        33.000          19.000         608.309         474.007  
 12  2 16  7 48  0.0000000  0  1G15
  25013198.930           0.000    25013203.180   131445227.795 2 102424866.66945
        35.000          19.000         592.789         461.914  
 12  2 16  7 48 30.0000000  0  1G15
  25009859.117           0.000    25009862.730   131427676.138 4 102411190.08645
        38.000          19.000         577.160         449.735  
 12  2 16  7 49  0.0000000  0  1G15
  25006608.688           0.000    25006608.418   131410590.433 4 102397876.34045
        38.000          16.000         561.750         437.727  
 12  2 16  7 49 30.0000000  0  1G15
  25003445.891           0.000    25003446.613   131393970.554 3 102384925.73145
        37.000          19.000         546.309         425.695  
 12  2 16  7 50  0.0000000  0  1G15
  25000371.492           0.000    25000374.887   131377817.014 3 102372338.52245
        36.000          20.000         530.805         413.614  
 12  2 16  7 50 30.0000000  0  1G15
  24997384.578           0.000    24997390.621   131362128.868 1 102360114.06745
        33.000          20.000         514.918         401.235  
 12  2 16  7 51  0.0000000  0  1G15
  24994489.000           0.000    24994493.613   131346906.502 3 102348252.59246
        36.000          21.000         499.727         389.397  
 12  2 16  7 51 30.0000000  0  1G15
  24991681.484           0.000    24991684.969   131332148.887 5 102336753.13646
        41.000          22.000         484.078         377.204  
 12  2 16  7 52  0.0000000  0  1G15
  24988962.406           0.000    24988964.715   131317856.413 5 102325616.14746
        41.000          23.000         468.633         365.168  
 12  2 16  7 52 30.0000000  0  1G15
  24986331.727           0.000    24986332.422   131304028.781 5 102314841.36446
        41.000          22.000         453.277         353.203  
 12  2 16  7 53  0.0000000  0  1G15
  24983788.438           0.000    24983786.563   131290665.013 4 102304427.90545
        39.000          18.000         437.945         341.256  
 12  2 16  7 53 30.0000000  0  1G15
  24981332.461           0.000    24981331.859   131277765.745 4 102294376.53045
        38.000          18.000         422.348         329.102  
 12  2 16  7 54  0.0000000  0  1G15
  24978964.875           0.000    24978966.613   131265330.377 2 102284686.67345
        35.000          18.000         406.887         317.055  
 12  2 16  7 54 30.0000000  0  1G15
  24976685.938           0.000    24976690.789   131253357.975 3 102275357.50746
        36.000          21.000         391.563         305.114  
 12  2 16  7 55  0.0000000  0  1G15
  24974497.625           0.000    24974502.477   131241849.407 5 102266389.81546
        40.000          22.000         375.902         292.911  
 12  2 16  7 55 30.0000000  0  1G15
  24972395.719           0.000    24972400.789   131230802.968 4 102257782.19246
        38.000          26.000         360.250         280.714  
 12  2 16  7 56  0.0000000  0  1G15
  24970381.781           0.000    24970386.844   131220218.614 5 102249534.62746
        41.000          26.000         345.164         268.959  
 12  2 16  7 56 30.0000000  0  1G15
  24968456.570           0.000    24968459.965   131210096.423 5 102241647.21046
        41.000          26.000         329.828         257.009  
 12  2 16  7 57  0.0000000  0  1G15
  24966618.766           0.000    24966621.770   131200435.418 4 102234119.17346
        39.000          25.000         314.316         244.922  
 12  2 16  7 57 30.0000000  0  1G15
  24964866.711           0.000    24964869.898   131191234.465 5 102226949.63646
        40.000          22.000         299.172         233.121  
 12  2 16  7 58  0.0000000  0  1G15
  24963203.039           0.000    24963205.082   131182495.149 4 102220139.75646
        39.000          21.000         283.594         220.982  
 12  2 16  7 58 30.0000000  0  1G15
  24961627.523           0.000    24961628.598   131174215.256 4 102213687.86845
        38.000          19.000         268.180         208.971  
 12  2 16  7 59  0.0000000  0  1G15
  24960138.750           0.000    24960139.418   131166394.464 4 102207593.75445
        38.000          18.000         253.020         197.158  
 12  2 16  7 59 30.0000000  0  1G15
  24958737.992           0.000    24958739.652   131159033.229 4 102201857.65645
        38.000          20.000         237.832         185.324  
 12  2 16  8  0  0.0000000  0  1G15
  24957424.695           0.000    24957426.535   131152130.000 4 102196478.51345
        39.000          20.000         222.555         173.419  
 12  2 16  8  0 30.0000000  0  1G15
  24956198.422           0.000    24956200.957   131145684.024 5 102191455.70445
        41.000          20.000         207.273         161.512  
 12  2 16  8  1  0.0000000  0  1G15
  24955059.000           0.000    24955061.684   131139695.465 5 102186789.26846
        40.000          22.000         191.879         149.516  
 12  2 16  8  1 30.0000000  0  1G15
  24954006.258           0.000    24954009.879   131134162.914 5 102182478.22446
        41.000          22.000         176.852         137.806  
 12  2 16  8  2  0.0000000  0  1G15
  24953040.203           0.000    24953043.844   131129085.983 4 102178522.15246
        39.000          22.000         161.691         125.993  
 12  2 16  8  2 30.0000000  0  1G15
  24952161.281           0.000    24952164.836   131124464.806 4 102174921.23546
        39.000          23.000         146.578         114.217  
 12  2 16  8  3  0.0000000  0  1G15
  24951366.977           0.000    24951371.219   131120297.236 4 102171673.77446
        39.000          23.000         131.348         102.349  
 12  2 16  8  3 30.0000000  0  1G15
  24950661.109           0.000    24950665.168   131116583.353 5 102168779.83846
        41.000          24.000         116.230          90.569  
 12  2 16  8  4  0.0000000  0  1G15
  24950040.805           0.000    24950043.680   131113322.236 5 102166238.68446
        41.000          22.000         101.270          78.911  
 12  2 16  8  4 30.0000000  0  1G15
  24949505.906           0.000    24949509.934   131110513.309 4 102164049.89646
        39.000          25.000          86.027          67.034  
 12  2 16  8  5  0.0000000  0  1G15
  24949057.531           0.000    24949061.934   131108155.813 4 102162212.85346
        38.000          25.000          71.004          55.328  
 12  2 16  8  5 30.0000000  0  1G15
  24948694.273           0.000    24948698.488   131106248.698 4 102160726.78946
        38.000          23.000          56.148          43.752  
 12  2 16  8  6  0.0000000  0  1G15
  24948416.789           0.000    24948421.367   131104791.725 3 102159591.47546
        37.000          22.000          40.969          31.924  
 12  2 16  8  6 30.0000000  0  1G15
  24948225.297           0.000    24948229.379   131103783.107 4 102158805.51146
        38.000          23.000          26.113          20.348  
 12  2 16  8  7  0.0000000  0  1G15
  24948118.508           0.000    24948123.332   131103223.291 3 102158369.23746
        37.000          22.000          11.113           8.660  
 12  2 16  8  7 30.0000000  0  1G15
  24948097.328           0.000    24948101.074   131103110.226 3 102158281.09846
        37.000          22.000          -3.656          -2.849  
 12  2 16  8  8  0.0000000  0  1G15
  24948159.531           0.000    24948164.563   131103443.446 2 102158540.71846
        35.000          22.000         -18.461         -14.385  
 12  2 16  8  8 30.0000000  0  1G15
  24948308.445           0.000    24948313.980   131104222.481 2 102159147.68646
        35.000          22.000         -33.367         -26.000  
 12  2 16  8  9  0.0000000  0  1G15
  24948540.953           0.000    24948545.723   131105445.656 2 102160100.82546
        34.000          22.000         -47.875         -37.305  
 12  2 16  8  9 30.0000000  0  1G15
  24948857.703           0.000    24948863.102   131107112.184 3 102161399.36146
        36.000          22.000         -63.172         -49.225  
 12  2 16  8 10  0.0000000  0  1G15
  24949260.000           0.000    24949263.535   131109221.690 3 102163043.11646
        37.000          21.000         -77.523         -60.408  
 12  2 16  8 10 30.0000000  0  1G15
  24949745.344           0.000    24949748.980   131111772.867 3 102165031.01946
        36.000          22.000         -92.277         -71.904  
 12  2 16  8 11  0.0000000  0  1G15
  24950314.609           0.000    24950318.867   131114764.163 4 102167361.81846
        38.000          22.000        -107.094         -83.450  
 12  2 16  8 11 30.0000000  0  1G15
  24950967.188           0.000    24950970.855   131118194.903 4 102170035.08146
        38.000          22.000        -121.691         -94.824  
 12  2 16  8 12  0.0000000  0  1G15
  24951704.516           0.000    24951706.742   131122063.953 3 102173049.87946
        37.000          21.000        -136.285        -106.196  
 12  2 16  8 12 30.0000000  0  1G15
  24952524.281           0.000    24952527.492   131126371.479 4 102176406.39646
        39.000          22.000        -150.953        -117.626  
 12  2 16  8 13  0.0000000  0  1G15
  24953426.227           0.000    24953430.156   131131114.514 4 102180102.19946
        39.000          22.000        -165.336        -128.833  
 12  2 16  8 13 30.0000000  0  1G15
  24954411.188           0.000    24954415.453   131136292.986 3 102184137.38146
        37.000          22.000        -179.652        -139.989  
 12  2 16  8 14  0.0000000  0  1G15
  24955478.922           0.000    24955483.086   131141905.536 3 102188510.73946
        37.000          22.000        -194.227        -151.345  
 12  2 16  8 14 30.0000000  0  1G15
  24956629.633           0.000    24956633.668   131147950.662 4 102193221.17946
        38.000          23.000        -208.770        -162.678  
 12  2 16  8 15  0.0000000  0  1G15
  24957862.281           0.000    24957867.203   131154427.473 4 102198267.97146
        39.000          24.000        -223.145        -173.879  
 12  2 16  8 15 30.0000000  0  1G15
  24959177.633           0.000    24959181.102   131161334.512 4 102203649.99446
        39.000          24.000        -237.594        -185.138  
 12  2 16  8 16  0.0000000  0  1G15
  24960574.055           0.000    24960576.742   131168671.469 5 102209367.09446
        42.000          24.000        -251.703        -196.132  
 12  2 16  8 16 30.0000000  0  1G15
  24962050.563           0.000    24962053.164   131176436.509 5 102215417.74646
        40.000          22.000        -266.035        -207.300  
 12  2 16  8 17  0.0000000  0  1G15
  24963609.461           0.000    24963612.500   131184628.110 4 102221800.78946
        38.000          22.000        -280.152        -218.301  
 12  2 16  8 17 30.0000000  0  1G15
  24965249.680           0.000    24965251.754   131193245.760 4 102228515.83846
        39.000          22.000        -294.195        -229.243  
 12  2 16  8 18  0.0000000  0  1G15
  24966969.602           0.000    24966971.883   131202287.369 4 102235561.14746
        38.000          21.000        -308.426        -240.332  
 12  2 16  8 18 30.0000000  0  1G15
  24968772.000           0.000    24968773.457   131211752.028 4 102242936.13446
        39.000          21.000        -322.461        -251.268  
 12  2 16  8 19  0.0000000  0  1G15
  24970654.055           0.000    24970655.164   131221638.704 5 102250639.99646
        40.000          22.000        -336.801        -262.442  
 12  2 16  8 19 30.0000000  0  1G15
  24972616.203           0.000    24972618.074   131231945.836 5 102258671.47146
        40.000          25.000        -350.469        -273.093  
 12  2 16  8 20  0.0000000  0  1G15
  24974657.016           0.000    24974660.715   131242671.841 5 102267029.32846
        42.000          27.000        -364.539        -284.056  
 12  2 16  8 20 30.0000000  0  1G15
  24976777.555           0.000    24976781.703   131253815.260 6 102275712.44246
        43.000          29.000        -378.363        -294.829  
 12  2 16  8 21  0.0000000  0  1G15
  24978976.883           0.000    24978981.867   131265375.026 6 102284719.85946
        43.000          31.000        -392.195        -305.607  
 12  2 16  8 21 30.0000000  0  1G15
  24981255.703           0.000    24981260.297   131277349.712 6 102294050.78146
        43.000          29.000        -406.125        -316.461  
 12  2 16  8 22  0.0000000  0  1G15
  24983612.289           0.000    24983617.539   131289737.796 5 102303703.76246
        42.000          28.000        -419.801        -327.117  
 12  2 16  8 22 30.0000000  0  1G15
  24986046.211           0.000    24986052.770   131302538.219 4 102313678.05146
        39.000          22.000        -433.770        -338.002  
 12  2 16  8 23  0.0000000  0  1G15
  24988560.320           0.000    24988566.656   131315749.608 4 102323972.49846
        38.000          22.000        -447.000        -348.312  
 12  2 16  8 23 30.0000000  0  1G15
  24991152.141           0.000    24991158.211   131329369.684 3 102334585.43546
        37.000          21.000        -460.816        -359.078  
 12  2 16  8 24  0.0000000  0  1G15
  24993823.313           0.000    24993828.172   131343398.028 4 102345516.46346
        39.000          21.000        -474.477        -369.722  
 12  2 16  8 24 30.0000000  0  1G15
  24996570.820           0.000    24996573.250   131357832.182 5 102356763.87445
        40.000          20.000        -487.855        -380.147  
 12  2 16  8 25  0.0000000  0  1G15
  24999394.977           0.000    24999393.801   131372670.966 5 102368326.56445
        41.000          19.000        -501.313        -390.633  
 12  2 16  8 25 30.0000000  0  1G15
  25002295.477           0.000    25002296.906   131387912.236 6 102380202.76346
        43.000          24.000        -514.613        -400.997  
 12  2 16  8 26  0.0000000  0  1G15
  25005272.633           0.000    25005275.277   131403556.065 5 102392392.66046
        42.000          25.000        -528.066        -411.480  
 12  2 16  8 26 30.0000000  0  1G15
  25008324.273           0.000    25008329.668   131419599.192 5 102404893.67246
        40.000          26.000        -541.398        -421.869  
 12  2 16  8 27  0.0000000  0  1G15
  25011452.648           0.000    25011459.016   131436041.157 4 102417705.44946
        39.000          25.000        -554.590        -432.148  
 12  2 16  8 27 30.0000000  0  1G15
  25014655.594           0.000    25014663.461   131452880.043 3 102430826.54846
        37.000          22.000        -567.746        -442.400  
 12  2 16  8 28  0.0000000  0  1G15
  25017936.750           0.000    25017943.445   131470113.973 4 102444255.47046
        39.000          22.000        -580.867        -452.624  
 12  2 16  8 28 30.0000000  0  1G15
  25021292.789           0.000    25021297.258   131487741.087 5 102457990.69546
        42.000          22.000        -594.121        -462.952  
 12  2 16  8 29  0.0000000  0  1G15
  25024723.398           0.000    25024724.027   131505760.371 6 102472031.53146
        45.000          22.000        -606.996        -472.984  
 12  2 16  8 29 30.0000000  0  1G15
  25028225.789           0.000    25028224.285   131524169.534 6 102486376.31846
        45.000          22.000        -620.031        -483.141  
 12  2 16  8 30  0.0000000  0  1G15
  25031801.672           0.000    25031804.766   131542966.754 5 102501023.31246
        41.000          22.000        -633.016        -493.259  
 12  2 16  8 30 30.0000000  0  1G15
  25035448.891           0.000    25035457.406   131562151.278 2 102515972.02446
        35.000          21.000        -645.887        -503.288  
 12  2 16  8 31  0.0000000  0  1G15
  25039178.766           0.000    25039182.531   131581720.943 3 102531220.73845
        36.000          19.000        -658.625        -513.214  
 12  2 16  8 31 30.0000000  0  1G15
  25042975.492           0.000    25042979.836   131601673.725 6 102546768.12846
        43.000          28.000        -671.480        -523.232  
 12  2 16  8 32  0.0000000  0  1G15
  25046844.727           0.000    25046849.832   131622008.476 5 102562613.25846
        42.000          25.000        -684.195        -533.139  
 12  2 16  8 32 30.0000000  0  1G15
  25050785.883           0.000    25050791.070   131642722.966 5 102578754.29345
        42.000          20.000        -696.883        -543.026  
 12  2 16  8 33  0.0000000  0  1G15
  25054796.875           0.000    25054800.789   131663815.201 3 102595189.85142
        37.000          14.000        -709.301        -552.702  
 12  2 16  8 33 30.0000000  0  1G15
  25058884.492           0.000    25058887.621   131685284.898 4 102611919.19545
        39.000          20.000        -721.961        -562.567  
 12  2 16  8 34  0.0000000  0  1G15
  25063041.430           0.000    25063046.637   131707129.013 5 102628940.35746
        40.000          24.000        -734.465        -572.310  
 12  2 16  8 34 30.0000000  0  1G15
  25067270.063           0.000    25067275.570   131729345.799 5 102646251.79546
        41.000          25.000        -746.723        -581.862  
 12  2 16  8 35  0.0000000  0  1G15
  25071568.539           0.000    25071573.563   131751933.054 5 102663852.03746
        40.000          24.000        -759.074        -591.486  
 12  2 16  8 35 30.0000000  0  1G15
  25075935.117           0.000    25075940.711   131774889.059 4 102681739.68146
        39.000          22.000        -771.508        -601.175  
 12  2 16  8 36  0.0000000  0  1G15
  25080374.242           0.000    25080377.406   131798212.540 3 102699913.60345
        37.000          17.000        -783.480        -610.504  
 12  2 16  8 36 30.0000000  0  1G15
  25084882.797           0.000    25084885.508   131821900.712 5 102718371.84245
        40.000          20.000        -795.781        -620.089  
 12  2 16  8 37  0.0000000  0  1G15
  25089459.977           0.000    25089463.566   131845951.975 5 102737113.01046
        42.000          22.000        -807.648        -629.336  
 12  2 16  8 37 30.0000000  0  1G15
  25094105.039           0.000    25094110.340   131870365.399 5 102756136.44246
        40.000          23.000        -819.707        -638.733  
 12  2 16  8 38  0.0000000  0  1G15
  25098817.492           0.000    25098825.625   131895138.556 3 102775440.06746
        37.000          22.000        -831.738        -648.108  
 12  2 16  8 38 30.0000000  0  1G15
  25103601.195           0.000    25103607.598   131920269.520 3 102795022.50046
        37.000          21.000        -843.508        -657.279  
 12  2 16  8 39  0.0000000  0  1G15
  25108452.125           0.000    25108455.859   131945755.648 5 102814881.66446
        41.000          21.000        -855.359        -666.514  
 12  2 16  8 39 30.0000000  0  1G15
  25113369.633           0.000    25113373.391   131971595.677 5 102835016.72146
        42.000          22.000        -867.301        -675.819  
 12  2 16  8 40  0.0000000  0  1G15
  25118352.625           0.000    25118356.965   131997786.819 5 102855425.34446
        41.000          22.000        -878.914        -684.868  
 12  2 16  8 40 30.0000000  0  1G15
  25123402.219           0.000    25123406.906   132024327.068 4 102876106.01645
        38.000          19.000        -890.496        -693.893  
 12  2 16  8 41  0.0000000  0  1G15
  25128519.352           0.000    25128524.660   132051215.774 3 102897058.15445
        36.000          20.000        -902.086        -702.924  
 12  2 16  8 41 30.0000000  0  1G15
  25133702.898           0.000    25133708.172   132078450.008 3 102918279.54746
        37.000          22.000        -913.516        -711.830  
 12  2 16  8 42  0.0000000  0  1G15
  25138950.430           0.000    25138955.480   132106027.433 4 102939768.37846
        38.000          22.000        -925.004        -720.782  
 12  2 16  8 42 30.0000000  0  1G15
  25144264.047           0.000    25144268.453   132133946.732 5 102961523.64546
        40.000          22.000        -936.332        -729.609  
 12  2 16  8 43  0.0000000  0  1G15
  25149640.508           0.000    25149644.664   132162205.887 4 102983543.74845
        39.000          19.000        -947.539        -738.342  
