     2.11           OBSERVATION DATA    G (GPS)             RINEX VERSION / TYPE
teqc  2008Feb15     IGN-E (SPG)         20080528 01:30:32UTCPGM / RUN BY / DATE
Linux 2.4.20-8|Pentium IV|gcc -static|Linux|486/DX+         COMMENT
BIT 2 OF LLI FLAGS DATA COLLECTED UNDER A/S CONDITION       COMMENT
ACOR                                                        MARKER NAME
13434M001                                                   MARKER NUMBER
Programas GeodesicosInstituto Geografico Nacional           OBSERVER / AGENCY
459187              LEICA GRX1200PRO    5.62                REC # / TYPE / VERS
103033              LEIAT504        LEIS                    ANT # / TYPE
  4594489.8901  -678368.0104  4357065.9041                  APPROX POSITION XYZ
        3.0460        0.0000        0.0000                  ANTENNA: DELTA H/E/N
     1     1                                                WAVELENGTH FACT L1/2
     6    L1    L2    C1    P2    S1    S2                  # / TYPES OF OBSERV
    30.0000                                                 INTERVAL
Forced Modulo Decimation to 30 seconds                      COMMENT
Predeterminado                                              COMMENT
Project creator:                                            COMMENT
Servicios Programas Geodesicos                              COMMENT
 SNR is mapped to RINEX snr flag value [0-9]                COMMENT
  L1 & L2: min(max(int(snr_dBHz/6), 0), 9)                  COMMENT
  2008     5    27     0     0    0.0000000     GPS         TIME OF FIRST OBS
                                                            END OF HEADER
 08  5 27  0  0  0.0000000  0 10G31G30G 6G 3G24G13G23G29G16G21
 114441509.377 8  89175215.86747  21777491.001    21777490.3494         49.500
        47.0004
 129932491.077 6 101246108.02945  24725331.990    24725334.4214         40.250
        33.2504
 113728459.890 8  88619612.18947  21641800.637    21641801.5394         48.250
        45.7504
 121421732.111 7  94614327.14546  23105783.270    23105784.4914         44.250
        37.7504
 117976394.365 7  91929710.56247  22450152.806    22450154.0364         47.000
        43.2504
 131092246.976 6 102149796.01545  24946024.296    24946025.5164         38.250
        33.2504
 129024505.619 6 100538576.66245  24552547.757    24552545.3414         38.000
        33.0004
 121346516.504 7  94555764.03447  23091456.502    23091457.5744         44.750
        42.2504
 109849479.772 8  85596995.22048  20903654.092    20903653.5424         50.250
        48.7504
 111341726.840 8  86759816.32348  21187618.173    21187617.1584         50.000
        48.0004
 08  5 27  0  0 30.0000000  0 11G18G31G30G10G 6G 3G24G13G29G16G21
 134074945.445 5 104473983.57744  25513614.750    25513614.1624         35.250
        27.7504
 114519350.482 8  89235871.27047  21792303.564    21792302.9344         49.000
        47.0004
 130034226.096 6 101325382.09145  24744692.114    24744693.4454         41.750
        32.2504
 133074777.364 6 103694633.91944  25323288.944    25323289.0854         36.000
        27.7504
 113669973.828 8  88574038.64647  21630671.092    21630671.9614         48.250
        45.7504
 121331538.003 7  94544046.07046  23088619.824    23088621.0894         43.750
        37.7504
 118042592.899 7  91981293.84647  22462749.766    22462751.1624         46.750
        43.2504
 131084160.750 6 102143495.07545  24944485.687    24944486.2434         38.250
        34.5004
 121431328.880 7  94621851.60947  23107595.666    23107596.5684         45.250
        42.7504
 109801557.955 8  85559653.55248  20894534.874    20894534.3024         50.250
        48.7504
 111320526.788 8  86743296.81648  21183583.938    21183582.9494         50.000
        48.2504
 08  5 27  0  1  0.0000000  0 12G18G31G30G10G 6G 3G24G13G23G29G16G21
 133994390.867 6 104411200.28144  25498284.392    25498282.2454         38.500
        28.0004
 114597593.892 8  89296840.15747  21807192.665    21807192.2354         49.250
        47.0004
 130136063.300 6 101404735.80245  24764071.679    24764072.0504         40.750
        30.7504
 133101795.901 5 103715687.33646  25328431.132    25328431.1784         35.500
        36.7504
 113611759.615 8  88528676.93747  21619593.295    21619594.1924         48.500
        46.0004
 121241531.739 7  94473911.35646  23071492.172    23071493.6594         43.500
        38.5004
 118109245.042 7  92033230.57047  22475433.122    22475434.6564         47.250
        42.5004
 131076649.461 6 102137642.12745  24943056.348    24943056.1614         38.000
        33.0004
 129108822.13416 100604282.54255  24568591.990    24568593.2194         36.750
        32.2504
 121516235.514 7  94688012.62647  23123752.992    23123754.0314         44.500
        43.7504
 109753926.679 8  85522538.28148  20885470.920    20885470.3744         50.250
        49.0004
 111299847.737 8  86727183.28148  21179648.809    21179647.8214         50.000
        48.0004
 08  5 27  0  1 30.0000000  0 11G18G31G30G10G 6G 3G24G13G29G16G21
 133913802.874 6 104348404.44944  25482949.334    25482946.5034         37.750
        29.7504
 114676234.184 8  89358118.30647  21822157.504    21822157.0694         49.250
        47.0004
 130237998.862 6 101484166.15144  24783469.591    24783470.3254         41.000
        29.7504
 133129355.510 5 103737162.33443  25333675.117    25333674.9354         34.000
        20.2504
 113553814.574 8  88483524.98047  21608566.632    21608567.5544         48.500
        46.0004
 121151710.915 7  94403921.15546  23054399.576    23054401.2684         43.500
        39.5004
 118176345.669 7  92085516.78247  22488201.977    22488203.6514         46.500
        43.0004
 131069709.654 6 102132234.42944  24941735.676    24941735.5464         38.750
        27.7504
 121601231.986 7  94754243.61747  23139927.515    23139928.6824         45.250
        42.5004
 109706584.269 8  85485648.10248  20876461.947    20876461.3934         50.250
        49.0004
 111279687.206 8  86711473.79048  21175812.341    21175811.3654         50.000
        48.2504
 08  5 27  0  2  0.0000000  0 11G18G31G30G10G 6G 3G24G13G29G16G21
 133833185.446 5 104285585.84345  25467607.194    25467607.3664         35.750
        33.7504
 114755265.136 8  89419700.85847  21837196.552    21837196.1344         49.000
        47.0004
 130340027.987 6 101563669.40545  24802884.898    24802885.8784         40.000
        34.5004
 133157450.897 6 103759054.80944  25339020.653    25339022.4314         36.500
        25.7504
 113496134.829 8  88438579.73647  21597590.523    21597591.4214         48.500
        46.0004
 121062072.630 7  94334073.16246  23037342.067    23037343.5144         43.000
        39.0004
 118243888.404 7  92138147.47847  22501054.837    22501056.5594         47.000
        42.5004
 131063337.305 6 102127268.96945  24940523.064    24940523.5254         40.000
        32.7504
 121686312.616 7  94820540.19147  23156118.278    23156119.2194         45.750
        42.5004
 109659528.155 8  85448981.00948  20867507.454    20867506.9294         50.500
        49.0004
 111260041.243 8  86696165.26048  21172073.749    21172072.8354         50.000
        48.2504
 08  5 27  0  2 30.0000000  0 11G18G31G30G10G 6G 3G24G13G29G16G21
 133752543.822 6 104222748.22045  25452261.210    25452262.1134         38.500
        32.2504
 114834686.584 8  89481587.69547  21852310.047    21852309.5244         49.250
        46.7504
 130442151.835 6 101643246.40645  24822318.057    24822318.6084         39.750
        31.7504
 133186084.141 6 103781366.43445  25344468.736    25344471.4634         37.000
        31.5004
 113438723.011 8  88393843.26747  21586665.388    21586666.2644         48.500
        46.2504
 120972619.616 7  94264369.55846  23020319.623    23020320.9694         43.000
        38.7504
 118311872.868 7  92191122.39047  22513991.999    22513993.3674         47.250
        42.2504
 131057534.458 6 102122747.31045  24939418.979    24939419.6334         39.000
        33.7504
 121771479.418 7  94886903.90447  23172325.338    23172325.9154         45.500
        42.2504
 109612762.000 8  85412539.85748  20858608.168    20858607.5744         50.250
        49.0004
 111240912.530 8  86681259.78848  21168433.569    21168432.6824         49.750
        48.2504
 08  5 27  0  3  0.0000000  0 11G31G30G10G 6G 3G24G13G23G29G16G21
 114914498.734 8  89543778.98147  21867497.865    21867497.2714         49.000
        46.7504
 130544371.868 6 101722898.47343  24841769.062    24841770.7004         39.750
        23.5004
 133215256.663 6 103804098.28145  25350020.576    25350021.9344         37.500
        30.0004
 113381581.712 8  88349317.60347  21575791.617    21575792.6274         48.750
        46.0004
 120883355.320 7  94194813.00646  23003333.067    23003334.4954         43.000
        40.0004
 118380299.456 7  92244441.81347  22527013.282    22527014.4234         47.000
        42.2504
 131052303.653 6 102118671.37245  24938423.418    24938423.8584         38.250
        34.5004
 129282778.074 5 100739833.97245  24601694.675    24601695.0424         35.250
        34.5004
 121856733.340 7  94953335.51447  23188549.150    23188548.8424         46.000
        42.2504
 109566289.616 8  85376327.61948  20849764.804    20849764.1534         50.250
        49.0004
 111222303.960 8  86666759.62048  21164892.375    21164891.5554         49.750
        48.5004
 08  5 27  0  3 30.0000000  0 12G18G31G30G10G 6G 3G24G13G23G29G16G21
 133591174.673 6 104097032.58743  25421556.929    25421556.2484         39.500
        22.5004
 114994683.891 8  89606260.91247  21882756.480    21882755.8984         49.000
        47.0004
 130646671.706 6 101802612.61046  24861235.444    24861238.5924         39.250
        36.0004
 133244952.030 5 103827237.44845  25355671.993    25355673.4964         35.250
        30.7504
 113324695.572 8  88304990.74947  21564966.616    21564967.5344         48.500
        46.0004
 120794265.081 7  94125392.08446  22986379.628    22986381.0744         44.500
        39.0004
 118449150.203 7  92298091.74747  22540115.209    22540116.4074         46.500
        42.7504
 131047628.934 6 102115028.73345  24937533.872    24937534.1514         39.000
        30.7504
 129327347.783 6 100774560.39146  24610176.235    24610176.2674         36.250
        36.2504
 121942057.654 7  95019821.98647  23204785.993    23204785.0144         46.000
        42.7504
 109520096.849 8  85340333.26648  20840974.523    20840973.9414         50.250
        49.0004
 111204201.253 8  86652653.63248  21161447.490    21161446.7214         50.000
        48.0004
 08  5 27  0  4  0.0000000  0 11G31G30G10G 6G 3G24G13G23G29G16G21
 115075258.379 8  89669046.22947  21898089.373    21898088.7064         49.250
        46.7504
 130749068.932 6 101882402.64045  24880720.429    24880722.8504         39.750
        30.0004
 133275188.480 6 103850798.34845  25361425.864    25361426.7354         36.750
        35.2504
 113268083.480 8  88260877.45147  21554193.788    21554194.5634         48.750
        46.2504
 120705368.370 7  94056121.95246  22969463.384    22969464.4714         44.000
        39.5004
 118518441.424 7  92352084.91247  22553300.991    22553302.2654         47.250
        42.0004
 131043528.645 6 102111833.77244  24936753.637    24936754.2834         39.000
        28.7504
 129372356.253 6 100809631.91445  24618742.453    24618741.2904         37.250
        34.0004
 122027469.788 7  95086376.88247  23221039.287    23221038.8494         44.750
        42.5004
 109474204.064 8  85304572.66248  20832241.410    20832240.7764         50.250
        49.0004
 111186622.956 8  86638956.27348  21158102.452    21158101.6864         50.000
        48.2504
 08  5 27  0  4 30.0000000  0 12G18G31G30G10G 6G 3G24G13G23G29G16G21
 133429759.651 6 103971236.05245  25390838.650    25390839.0214         41.250
        32.5004
 115156203.892 8  89732120.65247  21913492.804    21913492.2234         49.000
        46.7504
 130851547.085 6 101962255.83346  24900221.754    24900223.9914         38.000
        37.5004
 133305949.252 5 103874767.77644  25367278.963    25367279.5824         34.250
        28.0004
 113211730.177 8  88216965.80247  21543470.088    21543470.9354         48.750
        46.0004
 120616649.825 7  93986990.64846  22952580.836    22952581.6874         44.250
        38.7504
 118588155.276 7  92406407.39546  22566567.179    22566568.4544         47.500
        41.5004
 131039987.182 6 102109074.17745  24936079.677    24936080.5534         38.500
        33.7504
 129417784.880 6 100845030.83945  24627387.382    24627386.1764         37.500
        35.2504
 122112953.147 7  95152987.26146  23237305.516    23237306.3114         45.250
        41.7504
 109428596.645 8  85269034.42048  20823562.643    20823561.9824         50.250
        49.2504
 111169553.911 8  86625655.73148  21154854.338    21154853.5584         49.750
        48.2504
 08  5 27  0  5  0.0000000  0 12G18G31G30G10G 6G 3G24G13G23G29G16G21
 133349026.174 5 103908326.68144  25375475.188    25375473.6364         34.750
        27.7504
 115237532.019 8  89795493.20447  21928969.038    21928968.4484         49.250
        46.2504
 130954118.935 6 102042181.93245  24919740.599    24919743.9064         38.500
        35.5004
 133337247.743 5 103899156.20444  25373234.850    25373236.3704         35.000
        26.5004
 113155649.797 8  88173266.81947  21532798.346    21532799.1364         48.750
        46.0004
 120528124.877 7  93918010.21246  22935735.015    22935736.0284         44.500
        39.0004
 118658303.235 7  92461068.14846  22579915.821    22579916.8864         47.000
        41.5004
 131037018.515 6 102106760.97144  24935514.693    24935515.3854         38.500
        27.7504
 129463644.953 6 100880765.99645  24636114.294    24636113.0664         37.000
        31.7504
 122198520.337 7  95219662.98847  23253588.167    23253589.1814         45.000
        42.0004
 109383290.091 8  85233730.61948  20814941.092    20814940.4484         50.250
        49.2504
 111153008.193 8  86612762.97648  21151705.793    21151705.0084         49.750
        48.5004
 08  5 27  0  5 30.0000000  0 12G18G31G30G10G 6G 3G24G13G23G29G16G21
 133268269.579 6 103845398.97645  25360110.258    25360110.1234         40.750
        31.7504
 115319233.598 8  89859156.77247  21944516.510    21944515.6884         49.000
        46.2504
 131056776.415 6 102122174.90845  24939276.400    24939278.4424         40.000
        32.0004
 133369075.418 5 103923956.98345  25379291.889    25379292.4094         34.250
        33.7504
 113099835.494 8  88129775.16747  21522177.321    21522178.0384         48.750
        46.5004
 120439786.609 7  93849175.22746  22918924.903    22918925.8754         44.750
        39.5004
 118728875.818 7  92516059.77646  22593345.444    22593346.1444         47.000
        41.5004
 131034614.169 6 102104887.49945  24935057.161    24935057.4364         38.000
        34.0004
 129509926.981 6 100916829.87645  24644921.525    24644920.0814         38.000
        35.0004
 122284163.329 7  95286397.75946  23269885.105    23269886.2804         44.250
        41.7504
 109338278.553 8  85198656.70148  20806375.705    20806375.0544         50.250
        49.2504
 111136978.666 8  86600272.44748  21148655.457    21148654.7014         49.750
        48.7504
 08  5 27  0  6  0.0000000  0 12G18G31G30G10G 6G 3G24G13G23G29G16G21
 133187516.249 5 103782474.25342  25344744.350    25344743.3394         35.500
        16.2504
 115401305.491 8  89923108.88947  21960134.147    21960133.5244         48.750
        46.7504
 131159518.757 6 102202233.84745  24958828.087    24958829.9364         39.750
        34.7504
 133401431.620 5 103949169.60545  25385449.224    25385450.5744         35.750
        32.2504
 113044286.985 8  88086490.63347  21511606.791    21511607.5514         48.750
        46.5004
 120351635.302 7  93780485.93746  22902150.368    22902151.2654         44.500
        37.5004
 118799870.467 7  92571380.28647  22606855.169    22606856.2604         46.500
        42.2504
 131032774.031 6 102103453.62445  24934707.048    24934707.2854         38.750
        35.0004
 129556628.158 6 100953220.41645  24653808.380    24653807.0614         37.250
        35.5004
 122369880.608 7  95353190.46847  23286196.430    23286197.6284         45.000
        42.0004
 109293563.264 8  85163813.62848  20797866.663    20797866.0124         50.250
        49.2504
 111121466.626 8  86588185.15648  21145703.590    21145702.8304         49.750
        48.2504
 08  5 27  0  6 30.0000000  0 12G18G31G30G10G 6G 3G24G13G23G29G16G21
 133106760.845 6 103719552.13645  25329375.079    25329374.9944         38.000
        35.7504
 115483753.972 8  89987354.45047  21975823.606    21975823.0304         49.250
        46.2504
 131262352.842 6 102282364.33745  24978396.971    24978399.1084         39.250
        34.0004
 133434323.501 5 103974799.59742  25391708.359    25391710.0304         35.500
        16.7504
 112989012.815 8  88043419.86947  21501088.436    21501089.1854         48.750
        46.5004
 120263680.274 7  93711949.59146  22885413.047    22885413.9744         44.250
        39.0004
 118871292.939 7  92627034.16346  22620446.099    22620447.7494         46.500
        41.7504
 131031506.094 6 102102465.64345  24934465.697    24934466.2394         38.500
        31.7504
 129603754.500 6 100989942.20846  24662776.058    24662775.2724         36.750
        39.0004
 122455679.421 7  95420046.66947  23302523.265    23302524.1674         43.750
        42.5004
 109249154.352 8  85129209.29248  20789415.880    20789415.2954         50.250
        49.5004
 111106480.315 8  86576507.51848  21142851.749    21142850.9944         50.000
        48.2504
 08  5 27  0  7  0.0000000  0 12G18G31G30G10G 6G 3G24G13G23G29G16G21
 133026005.211 6 103656625.65645  25314007.829    25314009.1014         37.500
        31.0004
 115566566.994 8  90051884.07847  21991582.353    21991581.8174         48.750
        46.5004
 131365268.131 6 102362558.14445  24997980.719    24997981.8664         38.500
        33.2504
 133467740.722 6 104000838.97645  25398067.331    25398068.4114         36.250
        31.2504
 112934003.790 8  88000555.71247  21490620.626    21490621.2744         48.750
        46.2504
 120175912.955 7  93643559.50946  22868711.255    22868712.2804         44.500
        39.2504
 118943131.522 7  92683012.28747  22634116.479    22634117.8964         46.750
        42.2504
 131030800.756 6 102101916.06445  24934331.255    24934331.6364         38.750
        32.5004
 129651294.003 6 101026985.97946  24671822.400    24671821.5864         39.250
        37.7504
 122541549.205 7  95486958.16747  23318864.039    23318864.6694         45.000
        42.0004
 109205043.452 8  85094837.17148  20781021.825    20781021.2424         50.250
        49.5004
 111092010.059 8  86565232.00748  21140098.162    21140097.3764         50.000
        48.2504
 08  5 27  0  7 30.0000000  0 12G18G31G30G10G 6G 3G24G13G23G29G16G21
 132945248.625 5 103593698.63745  25298640.165    25298642.7954         34.750
        31.0004
 115649742.992 8  90116696.53647  22007410.011    22007409.5904         48.750
        46.0004
 131468264.752 6 102442815.21845  25017580.229    25017581.7154         38.250
        32.0004
 133501683.096 5 104027287.59344  25404526.338    25404527.8144         35.750
        26.7504
 112879261.003 8  87957899.01347  21480203.391    21480204.0504         48.750
        46.2504
 120088335.401 7  93575317.29046  22852045.962    22852046.9404         44.250
        40.2504
 119015384.850 7  92739313.58646  22647865.616    22647866.9204         46.250
        41.5004
 131030658.340 6 102101805.09445  24934304.249    24934304.7654         39.500
        32.2504
 129699245.141 6 101064350.48646  24680947.245    24680946.3424         38.750
        38.7504
 122627489.601 7  95553924.69847  23335218.660    23335219.2134         45.750
        42.2504
 109161232.882 8  85060699.07748  20772684.927    20772684.3554         50.250
        49.5004
 111078057.355 8  86554359.77948  21137443.075    21137442.2594         50.000
        48.2504
 08  5 27  0  8  0.0000000  0 12G18G31G30G10G 6G 3G24G13G23G29G16G21
 132864498.302 6 103530776.23345  25283274.371    25283274.5704         39.250
        34.0004
 115733283.975 8  90181793.40147  22023307.468    22023306.9324         49.000
        46.0004
 131571345.765 6 102523138.07144  25037194.627    25037197.7194         36.250
        27.0004
 133536154.043 5 104054148.02844  25411085.918    25411087.0484         33.750
        26.2504
 112824789.043 8  87915453.34847  21469837.716    21469838.3854         49.000
        46.5004
 120000952.212 7  93507226.55246  22835417.238    22835418.5174         44.500
        41.0004
 119088054.762 7  92795939.49047  22661694.134    22661695.6894         46.000
        42.7504
 131031082.681 6 102102135.76044  24934385.171    24934385.4264         38.250
        27.2504
 129747609.893 6 101102037.29446  24690150.650    24690149.6634         39.000
        36.2504
 122713504.100 7  95620948.96646  23351587.193    23351587.5294         46.250
        41.5004
 109117728.330 8  85026799.43548  20764406.322    20764405.7094         50.250
        49.5004
 111064626.624 8  86543894.28648  21134887.298    21134886.4634         50.000
        48.2504
 08  5 27  0  8 30.0000000  0 11G18G31G30G 6G 3G24G13G23G29G16G21
 132783752.329 5 103467857.35044  25267909.619    25267909.7094         34.500
        28.5004
 115817183.325 8  90247169.51447  22039272.978    22039272.5074         48.750
        46.5004
 131674505.866 6 102603522.57045  25056825.537    25056827.6494         39.250
        35.5004
 112770583.611 8  87873215.36647  21459522.735    21459523.4084         48.750
        46.5004
 119913759.551 7  93439284.23946  22818825.080    22818826.2114         44.500
        39.2504
 119161134.331 7  92852884.60946  22675600.820    22675602.6204         46.500
        41.7504
 131032069.138 6 102102904.42345  24934572.632    24934573.5304         37.750
        32.0004
 129796381.310 6 101140040.98645  24699431.614    24699430.8354         40.000
        33.2504
 122799587.302 7  95688026.75247  23367968.602    23367968.2974         44.000
        42.5004
 109074527.004 8  84993136.07548  20756185.341    20756184.7504         50.250
        49.5004
 111051713.798 8  86533832.35648  21132430.098    21132429.2224         50.000
        48.2504
 08  5 27  0  9  0.0000000  0 12G18G31G30G10G 6G 3G24G13G23G29G16G21
 132703015.725 6 103404945.74245  25252546.216    25252545.7614         40.500
        33.5004
 115901440.144 8  90312824.17747  22055306.565    22055306.0164         48.750
        46.0004
 131777746.015 6 102683969.32545  25076471.592    25076473.7824         38.250
        35.5004
 133606673.115 5 104109106.32445  25424504.353    25424505.9454         34.750
        34.5004
 112716646.861 8  87831186.74447  21449258.877    21449259.6044         48.750
        46.2504
 119826760.441 7  93371492.77446  22802269.640    22802270.7974         44.500
        38.5004
 119234623.146 7  92910148.62047  22689585.366    22689587.0924         46.500
        42.0004
 131033618.701 6 102104111.90845  24934867.344    24934868.3274         38.500
        33.0004
 129845558.532 6 101178360.91145  24708789.710    24708788.9754         40.000
        34.0004
 122885739.937 7  95755158.64446  23384362.779    23384362.3624         45.500
        41.2504
 109031632.402 8  84959711.71848  20748022.776    20748022.1804         50.250
        49.5004
 111039321.409 8  86524175.96248  21130071.929    21130071.0244         50.000
        48.5004
 08  5 27  0  9 30.0000000  0 12G18G31G30G10G 6G 3G24G13G23G29G16G21
 132622288.501 6 103342041.35145  25237185.073    25237183.8064         37.000
        35.2504
 115986049.628 8  90378753.64647  22071407.280    22071406.6964         48.500
        46.0004
 131881062.604 6 102764475.83244  25096133.185    25096134.5914         40.750
        29.5004
 133642706.155 6 104137170.55645  25431361.777    25431361.4634         37.000
        34.7504
 112662976.368 8  87789365.60147  21439045.704    21439046.3784         49.000
        46.2504
 119739953.069 7  93303850.70446  22785750.764    22785751.8904         44.500
        40.2504
 119308516.157 7  92967727.60046  22703646.941    22703648.2454         46.250
        41.5004
 131035728.659 6 102105756.04245  24935268.944    24935270.0014         39.000
        33.7504
 129895136.645 6 101216993.20246  24718224.242    24718223.1464         39.750
        36.5004
 122971958.135 7  95822341.66646  23400769.538    23400769.2564         45.000
        41.5004
 108989042.967 8  84926525.15348  20739918.288    20739917.6444         50.250
        49.7504
 111027446.754 8  86514922.99148  21127812.287    21127811.3324         50.000
        48.5004
 08  5 27  0 10  0.0000000  0 12G18G31G30G10G 6G 3G24G13G23G29G16G21
 132541578.064 6 103279150.20445  25221825.704    25221824.7644         39.250
        33.5004
 116071013.779 8  90444959.46447  22087575.218    22087574.8104         48.500
        46.0004
 131984459.500 6 102845044.84846  25115808.906    25115809.8564         39.000
        36.0004
 133679269.137 5 104165661.22744  25438320.374    25438319.5274         35.500
        28.2504
 112609577.022 8  87747755.74347  21428884.105    21428884.8104         49.000
        46.5004
 119653342.426 7  93236361.91646  22769269.182    22769270.2024         45.000
        38.7504
 119382815.644 7  93025623.30046  22717785.752    22717786.9294         46.500
        41.7504
 131038403.301 6 102107840.17744  24935777.870    24935778.7474         38.500
        29.0004
 129945117.705 6 101255939.46246  24727735.203    24727734.1594         38.500
        36.7504
 123058245.992 7  95889578.93946  23417189.102    23417189.3694         45.250
        41.5004
 108946764.980 8  84893581.27748  20731873.007    20731872.4284         50.250
        49.5004
 111016094.758 8  86506077.29348  21125652.116    21125651.1144         50.000
        48.2504
 08  5 27  0 10 30.0000000  0 12G18G31G30G10G 6G 3G24G13G23G29G16G21
 132460888.295 5 103216275.05045  25206470.720    25206470.0624         35.000
        30.7504
 116156331.338 8  90511440.68047  22103810.651    22103810.1184         48.750
        46.0004
 132087936.287 6 102925676.15145  25135500.455    25135501.3244         41.000
        33.2504
 133716362.90816 104194575.98053  25445377.906    25445380.5994         37.250
        19.2504
 112556449.762 8  87706357.89347  21418774.305    21418775.0254         49.000
        46.7504
 119566930.182 7  93169027.73146  22752825.544    22752826.5674         44.750
        38.7504
 119457520.010 7  93083834.50946  22732001.663    22732002.9754         46.750
        41.7504
 131041642.504 6 102110364.21844  24936394.252    24936395.2664         37.250
        28.5004
 129995500.100 6 101295198.45946  24737322.357    24737321.5774         39.500
        37.0004
 123144602.967 7  95956870.08447  23433622.002    23433622.6464         43.500
        42.2504
 108904800.622 8  84860881.78648  20723887.449    20723886.8714         50.250
        49.5004
 111005266.731 8  86497639.87748  21123591.587    21123590.5804         50.000
        48.2504
 08  5 27  0 11  0.0000000  0 12G18G31G30G10G 6G 3G24G13G23G29G16G21
 132380215.184 6 103153412.89146  25191118.251    25191118.3364         38.000
        38.0004
 116241993.136 8  90578190.12747  22120111.496    22120111.0454         48.500
        46.0004
 132191486.452 6 103006364.66845  25155205.313    25155206.7884         37.750
        34.7504
 133753966.322 6 104223877.26045  25452532.236    25452534.6384         37.250
        30.7504
 112503588.637 8  87665167.42847  21408715.192    21408715.8544         49.000
        46.5004
 119480711.080 7  93101844.05946  22736418.577    22736419.5064         45.250
        39.7504
 119532620.451 7  93142354.33746  22746292.718    22746294.2524         46.250
        41.7504
 131045439.664 6 102113323.03144  24937116.988    24937117.4114         38.500
        29.5004
 130046275.097 6 101334763.42446  24746984.535    24746983.6314         39.250
        36.5004
 123231021.898 7  96024209.46646  23450066.276    23450068.0304         44.250
        41.2504
 108863145.217 8  84828423.03948  20715960.748    20715960.0914         50.250
        49.5004
 110994955.623 8  86489605.26248  21121629.413    21121628.3924         49.750
        48.5004
 08  5 27  0 11 30.0000000  0 12G18G31G30G10G 6G 3G24G13G23G29G16G21
 132299567.462 6 103090570.47745  25175771.607    25175771.8744         38.500
        34.5004
 116328002.397 8  90645210.32047  22136478.544    22136478.1374         48.500
        45.7504
 132295113.463 6 103087112.98545  25174924.313    25174925.5964         39.750
        33.7504
 133792089.954 5 104253575.99044  25459787.327    25459788.2114         35.000
        27.2504
 112450999.374 8  87624188.79747  21398707.776    21398708.4314         49.000
        46.7504
 119394691.326 7  93034815.68746  22720049.526    22720050.1954         44.250
        40.0004
 119608120.093 7  93201185.21446  22760659.727    22760660.9724         46.000
        40.7504
 131049799.764 6 102116720.49045  24937946.551    24937947.8224         38.000
        32.5004
 130097445.436 6 101374636.43845  24756721.844    24756721.0894         40.500
        34.0004
 123317507.264 7  96091600.65846  23466523.989    23466525.3954         45.250
        40.2504
 108821805.833 8  84796210.53648  20708094.125    20708093.4384         50.250
        49.7504
 110985168.128 8  86481978.65548  21119766.867    21119765.8894         49.750
        48.5004
 08  5 27  0 12  0.0000000  0 11G18G31G30G 6G 3G24G13G23G29G16G21
 132218947.141 6 103027749.49445  25160430.004    25160430.3414         36.750
        32.2504
 116414356.266 8  90712499.04947  22152911.240    22152910.7324         48.250
        45.7504
 132398816.556 6 103167920.58445  25194657.273    25194658.6224         36.750
        30.0004
 112398681.673 8  87583421.77747  21388752.013    21388752.6704         49.000
        46.5004
 119308871.637 7  92967943.24546  22703718.481    22703719.4534         45.000
        39.7504
 119684016.394 7  93260325.21846  22775102.450    22775103.1834         46.250
        41.7504
 131054721.683 6 102120555.80644  24938883.286    24938884.2324         38.750
        28.2504
 130149007.898 6 101414814.95846  24766533.967    24766532.8354         39.750
        36.5004
 123404057.733 7  96159042.58847  23482993.966    23482994.6794         44.000
        42.0004
 108780783.341 8  84764244.96748  20700287.775    20700287.1354         50.250
        49.5004
 110975903.507 8  86474759.48248  21118003.838    21118002.8934         49.750
        48.5004
 08  5 27  0 12 30.0000000  0 11G18G31G30G 6G 3G24G13G23G29G16G21
 132138350.435 6 102964946.79944  25145093.205    25145093.2284         39.750
        29.5004
 116501045.005 8  90780048.70547  22169407.517    22169407.0334         48.500
        45.5004
 132502587.640 6 103248781.19745  25214404.503    25214406.0834         39.500
        35.2504
 112346628.850 8  87542861.15647  21378846.583    21378847.3754         49.000
        46.7504
 119223245.296 7  92901221.45246  22687424.336    22687425.3024         45.250
        39.7504
 119760299.754 7  93319766.79547  22789618.447    22789619.7294         45.000
        42.0004
 131060197.719 6 102124822.80145  24939925.603    24939926.1614         38.000
        32.5004
 130200953.484 6 101455292.05646  24776419.044    24776417.9314         40.000
        37.7504
 123490665.194 7  96226528.89946  23499475.038    23499475.4494         44.750
        40.7504
 108740072.134 8  84732521.95348  20692540.678    20692540.0434         50.250
        49.5004
 110967155.092 8  86467942.54948  21116339.058    21116338.1674         50.000
        48.2504
 08  5 27  0 13  0.0000000  0 11G18G31G30G 6G 3G24G13G23G29G16G21
 132057787.519 5 102902170.56445  25129762.527    25129762.8364         34.750
        34.7504
 116588073.695 8  90847863.25747  22185968.597    22185968.1544         48.500
        45.5004
 132606433.324 6 103329699.87345  25234165.490    25234166.5634         37.750
        32.5004
 112294848.340 8  87502512.72247  21368993.067    21368993.8224         49.000
        47.0004
 119137820.470 7  92834656.67646  22671168.497    22671169.4584         45.250
        41.0004
 119836975.100 7  93379513.80646  22804209.042    22804210.7044         46.000
        41.2504
 131066234.815 6 102129527.04945  24941074.120    24941074.7814         37.250
        31.2504
 130253286.783 6 101496071.25745  24786377.704    24786376.7964         41.000
        33.5004
 123577335.879 7  96294064.46846  23515968.230    23515968.7064         44.750
        40.7504
 108699680.870 8  84701048.25148  20684854.452    20684853.8514         50.250
        49.7504
 110958929.520 8  86461533.02648  21114773.808    21114772.9114         50.000
        48.5004
 08  5 27  0 13 30.0000000  0 12G18G31G30G10G 6G 3G24G13G23G29G16G21
 131977256.465 6 102839419.03144  25114438.488    25114438.4924         39.000
        29.7504
 116675435.044 8  90915937.04047  22202592.939    22202592.4064         48.250
        45.2504
 132710347.549 6 103410672.08345  25253940.137    25253941.6134         38.750
        31.0004
 133949744.233 5                  25489789.169                          32.500

 112243335.534 8  87462372.88947  21359190.548    21359191.2654         49.000
        47.0004
 119052593.104 7  92768245.77946  22654950.161    22654951.2544         44.750
        41.0004
 119914035.059 7  93439560.55546  22818873.202    22818874.3674         45.500
        40.7504
 131072827.369 6 102134664.12545  24942328.779    24942329.6354         39.750
        32.2504
 130306000.349 6 101537146.73046  24796408.893    24796407.4494         40.250
        36.2504
 123664064.426 7  96361645.13046  23532472.630    23532472.6094         45.250
        41.2504
 108659606.833 8  84669821.73648  20677228.610    20677228.0324         50.250
        49.7504
 110951223.483 8  86455528.33248  21113307.421    21113306.4884         50.000
        48.5004
 08  5 27  0 14  0.0000000  0 11G18G31G30G 6G 3G24G13G23G29G16G21
 131896762.483 6 102776696.43245  25099121.117    25099120.4674         37.500
        31.5004
 116763129.760 8  90984270.57347  22219280.677    22219280.1224         48.500
        45.7504
 132814332.295 6 103491699.14845  25273727.907    25273728.6774         38.750
        35.5004
 112192093.548 8  87422444.08247  21349439.498    21349440.2354         49.000
        47.0004
 118967567.115 7  92701991.77246  22638770.420    22638771.1204         45.250
        40.2504
 119991480.148 7  93499907.36947  22833610.262    22833611.6224         45.250
        42.2504
 131079977.711 6 102140235.82244  24943689.473    24943689.7594         38.750
        24.2504
 130359094.465 6 101578518.79545  24806512.373    24806511.1364         40.250
        35.7504
 123750852.474 7  96429272.15146  23548988.179    23548987.6054         44.750
        40.5004
 108619853.802 8  84638845.35348  20669663.830    20669663.2834         50.250
        50.0004
 110944039.188 8  86449930.19048  21111940.307    21111939.3724         50.000
        48.5004
 08  5 27  0 14 30.0000000  0 11G18G31G30G 6G 3G24G13G23G29G16G21
 131816308.553 6 102714005.12045  25083811.428    25083811.1954         38.500
        30.2504
 116851155.124 8  91052861.76547  22236031.501    22236030.9064         48.500
        45.5004
 132918386.557 6 103572780.48844  25293529.001    25293529.5994         40.500
        28.5004
 112141122.765 8  87382726.60947  21339740.033    21339740.8144         49.000
        47.0004
 118882743.074 7  92635895.15746  22622628.906    22622629.8344         45.000
        40.7504
 120069308.271 7  93560552.64946  22848420.557    22848422.3154         46.000
        41.7504
 131087685.267 6 102146241.74044  24945156.160    24945156.4124         39.000
        27.5004
 130412566.637 6 101620185.39445  24816687.682    24816686.6904         40.750
        35.7504
 123837699.208 7  96496944.93046  23565514.890    23565514.1184         45.000
        41.2504
 108580423.626 8  84608120.54648  20662160.541    20662159.9114         50.250
        50.0004
 110937376.691 8  86444738.64448  21110672.458    21110671.5444         50.000
        48.5004
 08  5 27  0 15  0.0000000  0 11G18G31G30G 6G 3G24G13G23G29G16G21
 131735896.561 6 102651346.38344  25068509.874    25068508.8874         39.250
        28.0004
 116939507.132 8  91121707.47147  22252844.276    22252843.6694         48.250
        45.2504
 133022508.157 6 103653914.21745  25313342.998    25313344.3154         37.500
        34.0004
 112090421.910 8  87343219.46347  21330091.993    21330092.7514         49.000
        46.7504
 118798120.329 7  92569955.37346  22606525.757    22606526.7124         45.500
        40.7504
 120147515.348 7  93621493.23246  22863303.107    22863304.7724         45.750
        41.0004
 131095947.653 6 102152679.95244  24946728.690    24946729.0934         38.000
        28.0004
 130466412.593 6 101662143.26246  24826934.238    24826933.2534         41.500
        38.2504
 123924602.488 7  96564661.73346  23582051.684    23582051.5354         42.750
        41.5004
 108541316.210 8  84577647.24148  20654718.647    20654718.0264         50.250
        50.0004
 110931235.118 8  86439953.01548  21109503.732    21109502.8754         50.000
        48.2504
 08  5 27  0 15 30.0000000  0 11G18G31G30G 6G 3G24G13G23G29G16G21
 131655532.267 6 102588724.86745  25053216.730    25053216.0354         38.000
        33.5004
 117028186.670 8  91190808.40747  22269719.508    22269718.7474         48.500
        45.5004
 133126699.392 6 103735102.22645  25333169.919    25333171.0504         38.750
        31.5004
 112039994.438 8  87303925.34547  21320495.982    21320496.7414         49.250
        47.0004
 118713702.947 7  92504175.62846  22590461.657    22590462.4354         45.750
        40.0004
 120226102.096 7  93682729.65446  22878257.632    22878258.9124         45.750
        41.0004
 131104767.417 6 102159552.51245  24948406.655    24948407.1374         38.500
        35.2504
 130520633.224 7 101704393.11246  24837252.046    24837251.0674         43.000
        37.2504
 124011564.394 7  96632424.20246  23598599.663    23598599.8234         45.250
        39.5004
 108502536.496 8  84547429.28848  20647339.089    20647338.4704         50.250
        49.7504
 110925617.599 8  86435575.73648  21108434.760    21108433.9144         50.000
        48.2504
 08  5 27  0 16  0.0000000  0 11G18G31G30G 6G 3G24G13G23G29G16G21
 131575214.015 6 102526139.25445  25037932.657    25037932.0514         38.000
        31.7504
 117117186.529 8  91260158.93347  22286655.588    22286654.9694         48.000
        45.5004
 133230954.220 6 103816339.89445  25353009.173    25353009.6074         38.500
        32.5004
 111989835.775 8  87264840.68347  21310951.124    21310951.8294         49.250
        47.0004
 118629486.942 7  92438552.79146  22574435.855    22574436.6914         45.250
        40.0004
 120305061.261 7  93744256.29546  22893283.305    22893284.3084         46.000
        41.2504
 131114139.175 6 102166855.18145  24950190.261    24950190.9054         39.000
        31.0004
 130575221.232 7 101746929.22945  24847639.775    24847638.7074         42.250
        34.5004
 124098579.405 7  96700228.11546  23615158.105    23615158.4674         44.000
        40.2504
 108464081.340 8  84517464.23548  20640021.311    20640020.6534         50.250
        49.7504
 110920519.472 8  86431603.17948  21107464.601    21107463.7604         50.000
        48.5004
 08  5 27  0 16 30.0000000  0 11G18G31G30G 6G 3G24G13G23G29G16G21
 131494948.424 6 102463594.62444  25022658.349    25022658.4414         38.750
        26.5004
 117206508.186 8  91329760.21847  22303652.946    22303652.2674         48.250
        45.2504
 133335275.823 6 103897629.47245  25372860.438    25372861.6194         37.250
        33.7504
 111939950.159 8  87225968.79147  21301458.237    21301458.9014         49.000
        46.5004
 118545476.973 7  92373090.49046  22558449.081    22558450.1294         45.750
        40.7504
 120384394.541 7  93806074.42846  22908379.873    22908381.3474         45.750
        41.2504
 131124065.989 6 102174590.37445  24952079.164    24952079.6974         37.000
        31.7504
 130630177.711 7 101789752.48546  24858097.740    24858096.4774         43.000
        36.7504
 124185650.766 7  96768075.88946  23631726.300    23631728.0064         43.000
        40.5004
 108425955.713 8  84487755.96548  20632766.239    20632765.5974         50.250
        50.0004
 110915944.602 8  86428038.35648  21106593.990    21106593.1404         50.000
        48.2504
 08  5 27  0 17  0.0000000  0 11G18G31G30G 6G 3G24G13G23G29G16G21
 131414736.341 6 102401091.71646  25007394.497    25007394.9364         39.250
        36.7504
 117296146.781 8  91399608.47547  22320710.491    22320709.7504         48.000
        45.0004
 133439661.058 6 103978968.67245  25392723.794    25392725.8644         37.000
        30.2504
 111890335.608 8  87187308.11747  21292016.878    21292017.5624         49.000
        47.0004
 118461672.252 7  92307788.13646  22542501.668    22542502.6424         45.250
        40.7504
 120464097.610 7  93868180.71246  22923546.875    22923548.3134         45.500
        41.5004
 131134545.015 6 102182755.84645  24954073.113    24954073.1634         38.500
        32.5004
 130685498.159 6 101832859.33146  24868624.752    24868623.7164         41.250
        36.2504
 124272775.319 7  96835965.13246  23648305.658    23648307.1544         43.250
        40.7504
 108388159.248 8  84458304.18148  20625573.829    20625573.2014         50.250
        50.0004
 110911890.764 8  86424879.53048  21105822.547    21105821.6924         50.000
        48.5004
 08  5 27  0 17 30.0000000  0 11G18G31G30G 6G 3G24G13G23G29G16G21
 131334580.413 6 102338632.57045  24992141.480    24992141.5454         38.000
        33.7504
 117386099.570 8  91469701.54447  22337827.795    22337827.2854         48.000
        45.2504
 133544108.838 5 104060356.53744  25412598.517    25412600.9484         33.750
        29.5004
 111840992.019 8  87148858.57747  21282627.081    21282627.7694         49.250
        47.0004
 118378072.932 7  92242645.83246  22526593.121    22526594.0734         46.000
        40.0004
 120544167.120 7  93930572.55046  22938783.715    22938784.7404         46.000
        40.5004
 131145574.749 6 102191350.49744  24956172.157    24956172.6754         37.250
        27.2504
 130741179.291 6 101876247.23045  24879220.561    24879219.5834         40.000
        34.0004
 124359951.763 7  96903894.80846  23664894.701    23664895.9164         43.500
        41.7504
 108350692.994 8  84429109.70348  20618444.232    20618443.5974         50.250
        50.2504
 110908357.191 8  86422126.10848  21105150.083    21105149.2554         50.000
        48.5004
 08  5 27  0 18  0.0000000  0 11G18G31G30G 6G 3G24G13G23G29G16G21
 131254483.177 6 102276219.11845  24976899.150    24976899.5584         39.750
        33.5004
 117476363.735 7  91540037.25947  22355004.577    22355004.0534         47.750
        44.7504
 133648617.903 6 104141792.22845  25432485.949    25432488.7264         38.750
        32.7504
 111791919.162 8  87110619.99947  21273288.833    21273289.4794         49.250
        47.2504
 118294679.535 7  92177663.98146  22510723.963    22510724.9644         45.500
        41.0004
 120624600.666 7  93993248.04346  22954089.692    22954090.8124         45.500
        40.5004
 131157154.565 6 102200373.72544  24958375.508    24958376.3694         38.250
        27.2504
 130797218.348 6 101919914.07944  24889884.409    24889883.6034         40.500
        26.0004
 124447178.964 7  96971864.01246  23681493.580    23681494.5674         43.750
        40.5004
 108313558.069 8  84400173.40548  20611377.661    20611377.0574         50.250
        50.0004
 110905344.108 8  86419778.26848  21104576.694    21104575.8814         50.000
        48.5004
 08  5 27  0 18 30.0000000  0 11G18G31G30G 6G 3G24G13G23G29G16G21
 131174446.187 6 102213852.60845  24961668.956    24961669.1344         39.250
        35.0004
 117566935.304 8  91610612.49847  22372239.720    22372239.1794         48.000
        44.5004
 133753185.594 5 104223273.54244  25452384.358    25452387.1664         35.500
        29.0004
 111743115.973 8  87072591.55547  21264001.883    21264002.4994         49.000
        47.0004
 118211491.099 7  92112841.85846  22494893.712    22494894.7934         45.750
        41.0004
 120705394.521 7  94056204.29646  22969464.096    22969465.7844         45.500
        41.0004
 131169282.202 6 102209823.82144  24960683.713    24960684.1184         38.250
        29.7504
 130853610.851 6 101963856.34545  24900615.736    24900614.6314         38.250
        32.5004
 124534454.672 7  97039871.03546  23698102.172    23698103.1494         44.750
        40.2504
 108276754.823 8  84371495.55848  20604374.218    20604373.6264         50.000
        50.2504
 110902850.229 8  86417834.99248  21104102.119    21104101.2754         50.000
        48.5004
 08  5 27  0 19  0.0000000  0 11G18G31G30G 6G 3G24G13G23G29G16G21
 131094475.744 6 102151537.99844  24946450.789    24946451.0184         40.250
        28.2504
 117657815.135 8  91681427.94947  22389533.708    22389533.1274         48.000
        44.7504
 133857814.877 6 104304803.03544  25472295.214    25472296.8674         37.250
        28.7504
 111694586.083 8  87034776.07047  21254766.922    21254767.5864         49.250
        47.2504
 118128511.983 7  92048182.82046  22479103.263    22479104.2044         45.750
        40.5004
 120786549.563 7  94119441.97646  22984907.054    22984908.8574         45.500
        40.5004
 131181959.640 6 102219702.34445  24963095.929    24963096.1884         37.500
        31.5004
 130910358.076 6 102008074.96144  24911414.207    24911412.9874         36.500
        25.2504
 124621781.491 7  97107917.87546  23714720.324    23714721.2344         43.250
        41.7504
 108240288.127 8  84343079.95848  20597434.783    20597434.1854         50.250
        50.2504
 110900878.421 8  86416298.52848  21103726.866    21103726.0324         50.000
        48.7504
 08  5 27  0 19 30.0000000  0 11G18G31G30G 6G 3G24G13G23G29G16G21
 131014571.549 6 102089275.00745  24931245.592    24931245.3244         38.500
        31.0004
 117748997.796 8  91752479.36047  22406885.179    22406884.6074         48.000
        44.5004
 133962501.030 6 104386376.61344  25492216.826    25492218.3354         36.750
        27.7504
 111646326.500 8  86997171.21447  21245583.411    21245584.0664         49.000
        47.2504
 118045740.254 7  91983685.38546  22463352.363    22463353.2574         46.000
        40.5004
 120868060.003 7  94182956.61546  23000417.981    23000419.4074         45.500
        39.5004
 131195183.104 6 102230006.36344  24965612.449    24965613.0234         37.500
        27.5004
 130967453.992 6 102052565.26745  24922279.306    24922278.4704         37.000
        32.0004
 124709155.207 7  97176001.25646  23731347.090    23731347.3114         44.750
        39.5004
 108204156.192 8  84314925.20848  20590559.092    20590558.5314         50.250
        50.2504
 110899425.773 8  86415166.60648  21103450.443    21103449.6054         50.000
        48.7504
 08  5 27  0 20  0.0000000  0 11G18G31G30G 6G 3G24G13G23G29G16G21
 130934738.931 6 102027067.78445  24916053.878    24916053.8684         39.750
        34.0004
 117840482.868 8  91823766.43347  22424294.400    22424293.5544         48.250
        44.7504
 134067246.150 6 104467996.21544  25512149.486    25512150.9194         37.500
        27.7504
 111598339.815 8  86959779.00847  21236451.771    21236452.5384         49.250
        47.2504
 117963178.429 7  91919351.51946  22447641.370    22447642.3614         45.750
        40.2504
 120949926.098 7  94246748.37946  23015996.474    23015997.9314         45.250
        40.7504
 131208954.269 6 102240737.15945  24968232.724    24968232.7844         38.250
        33.5004
 131024898.362 6 102097327.21244  24933210.553    24933208.7254         38.000
        26.0004
 124796577.641 7  97244122.61746  23747983.674    23747983.4264         46.000
        39.0004
 108168363.145 8  84287034.53048  20583747.938    20583747.3504         50.250
        50.2504
 110898494.412 8  86414440.87948  21103273.240    21103272.3604         50.000
        48.5004
 08  5 27  0 20 30.0000000  0 11G18G31G30G 6G 3G24G13G23G29G16G21
 130854977.993 6 101964916.41345  24900876.192    24900876.0604         39.250
        32.0004
 117932265.620 7  91895285.45447  22441760.208    22441759.3524         47.750
        45.0004
 134172046.708 6 104549659.11045  25532092.578    25532093.1384         38.250
        30.5004
 111550623.852 8  86922597.75247  21227371.696    21227372.4734         49.250
        47.5004
 117880825.268 7  91855180.24046  22431970.120    22431970.9354         46.000
        40.7504
 121032142.579 7  94310813.18246  23031641.804    23031643.3784         45.250
        40.7504
 131223269.373 6 102251891.78243  24970957.023    24970957.5594         38.250
        23.2504
 131082685.957 6 102142356.50544  24944207.030    24944206.0034         37.000
        29.7504
 124884045.551 7  97312279.35247  23764628.044    23764628.4094         43.000
        42.2504
 108132907.763 8  84259406.96448  20577001.033    20577000.4014         50.250
        50.2504
 110898081.221 8  86414118.92248  21103194.648    21103193.7274         50.000
        48.5004
 08  5 27  0 21  0.0000000  0 11G18G31G30G 6G 3G24G13G23G29G16G21
 130775294.627 6 101902825.47845  24885713.076    24885712.4074         38.000
        33.5004
 118024345.919 7  91967036.32547  22459282.310    22459281.7084         47.500
        44.7504
 134276904.401 6 104631366.32645  25552046.375    25552046.8064         38.500
        31.5004
 111503181.531 8  86885629.72047  21218343.692    21218344.4714         49.250
        47.5004
 117798684.192 7  91791174.22646  22416339.217    22416339.9894         46.000
        41.2504
 121114709.859 7  94375151.31446  23047353.811    23047355.4074         44.750
        40.7504
 131238130.208 6 102263471.70545  24973784.583    24973784.3884         37.750
        32.2504
 131140816.889 6 102187653.27944  24955269.061    24955267.2894         37.000
        29.0004
 124971560.712 7  97380473.01346  23781281.661    23781281.3954         44.750
        39.2504
 108097794.503 8  84232045.98948  20570319.207    20570318.5564         50.000
        50.2504
 110898189.758 8  86414203.50948  21103215.344    21103214.3694         50.000
        48.5004
 08  5 27  0 21 30.0000000  0 11G18G31G30G 6G 3G24G13G23G29G16G21
 130695690.927 6 101840796.62445  24870564.853    24870564.4194         40.000
        33.0004
 118116720.192 7  92039016.27747  22476860.353    22476859.8644         47.500
        44.2504
 134381816.944 6 104713116.42543  25572010.366    25572011.5644         36.750
        23.2504
 111456011.913 8  86848874.19247  21209367.589    21209368.3654         49.250
        47.2504
 117716754.688 7  91727333.06846  22400748.545    22400749.4414         46.500
        40.7504
 121197624.296 7  94439759.98346  23063132.124    23063133.3364         45.750
        40.2504
 131253534.970 6 102275475.39745  24976716.197    24976716.1634         37.750
        30.5004
 131199287.267 6 102233214.60145  24966395.551    24966394.2494         38.500
        31.0004
 125059121.420 7  97448702.08846  23797943.625    23797943.3574         43.750
        39.5004
 108063023.542 8  84204951.74348  20563702.454    20563701.8424         50.250
        50.2504
 110898818.463 8  86414693.42048  21103334.971    21103333.9954         50.000
        48.5004
 08  5 27  0 22  0.0000000  0 11G18G31G30G 6G 3G24G13G23G29G16G21
 130616169.761 6 101778832.12645  24855431.961    24855432.4524         39.250
        32.7504
 118209386.188 7  92111223.53847  22494493.940    22494493.7374         47.500
        44.2504
 134486783.853 5 104794909.02144  25591984.334    25591985.8774         34.750
        29.7504
 111409115.229 8  86812331.33847  21200443.464    21200444.2044         49.250
        47.2504
 117635037.580 7  91663657.40846  22385198.266    22385198.9274         46.000
        41.7504
 121280883.808 7  94504637.54846  23078975.710    23078977.0544         44.500
        40.5004
 131269482.692 6 102287902.19645  24979750.840    24979751.1284         37.000
        32.7504
 131258094.236 6 102279038.27344  24977586.228    24977584.8274         39.750
        29.7504
 125146726.762 6  97516965.93046  23814613.814    23814614.6114         41.750
        41.7504
 108028596.435 8  84178125.43048  20557151.170    20557150.5294         50.000
        50.2504
 110899967.076 8  86415588.45448  21103553.515    21103552.5414         50.000
        48.5004
 08  5 27  0 22 30.0000000  0 10G18G31G 6G 3G24G13G23G29G16G21
 130536735.311 6 101716935.18445  24840315.957    24840316.3434         38.750
        34.2504
 118302342.700 7  92183657.18347  22512183.095    22512182.8344         47.500
        44.2504
 111362493.319 8  86776002.58547  21191571.669    21191572.2684         49.250
        47.2504
 117553535.249 7  91600149.11746  22369688.877    22369689.5694         46.500
        41.0004
 121364487.246 7  94569783.06146  23094884.897    23094886.5974         45.500
        41.5004
 131285973.441 6 102300752.20145  24982888.806    24982889.1704         37.250
        32.2504
 131317236.649 6 102325123.30944  24988840.602    24988839.4694         39.500
        28.0004
 125234377.398 7  97585265.10046  23831292.931    23831294.1724         44.500
        39.5004
 107994516.395 8  84151569.56248  20550665.954    20550665.3604         50.000
        50.2504
 110901637.096 8  86416889.77948  21103871.279    21103870.3304         50.000
        48.2504
 08  5 27  0 23  0.0000000  0  9G18G31G 6G 3G24G13G29G16G21
 130457386.403 6 101655104.92845  24825216.273    24825216.9544         40.250
        34.0004
 118395582.610 7  92256311.65947  22529926.131    22529925.6464         47.500
        44.5004
 111316141.772 8  86739884.51147  21182751.263    21182751.8884         49.250
        47.2504
 117472244.743 7  91536805.88946  22354219.754    22354220.4984         46.750
        40.7504
 121448427.919 7  94635191.39046  23110858.562    23110860.0404         45.500
        40.0004
 131303002.040 6 102314021.25644  24986129.235    24986129.9064         37.750
        28.2504
 125322068.388 6  97653595.70847  23847979.883    23847980.7464         41.500
        42.0004
 107960780.570 8  84125281.91248  20544246.287    20544245.6254         50.250
        50.5004
 110903823.690 8  86418593.63048  21104287.327    21104286.3904         50.000
        48.5004
 08  5 27  0 23 30.0000000  0 10G18G31G30G 6G 3G24G13G29G16G21
 130378125.327 6 101593343.07246  24810133.659    24810134.0934         38.000
        36.7504
 118489103.142 7  92329184.79247  22547722.425    22547722.1314         47.500
        44.5004
 134801997.50715                  25651967.170                          33.000

 111270060.416 8  86703976.97347  21173982.231    21173982.9004         49.250
        47.5004
 117391165.537 7  91473627.29646  22338790.894    22338791.6184         46.500
        40.7504
 121532702.680 7  94700860.02846  23126895.605    23126896.7864         44.750
        41.2504
 131320566.845 6 102327708.04045  24989471.986    24989472.0534         38.250
        31.5004
 125409798.273 7  97721956.61446  23864674.170    23864675.0404         42.500
        40.0004
 107927389.709 8  84099263.06748  20537892.289    20537891.5724         50.250
        50.2504
 110906526.191 8  86420699.48748  21104801.560    21104800.6384         50.000
        48.5004
 08  5 27  0 24  0.0000000  0 10G18G31G25G 6G 3G24G13G29G16G21
 130298958.498 6 101531654.66345  24795068.689    24795068.8714         39.750
        31.7504
 118582905.161 7  92402277.25947  22565572.386    22565572.1124         47.250
        43.7504
 130897959.846 6 101998414.76245  24909053.065    24909053.8674         40.250
        33.5004
 111224253.209 8  86668283.05547  21165265.397    21165266.0284         49.250
        47.5004
 117310302.294 7  91410617.00146  22323403.024    22323403.8534         46.500
        40.7504
 121617312.751 7  94766789.95946  23142996.711    23142997.5184         46.000
        40.2504
 131338670.306 6 102341814.73245  24992916.746    24992916.9524         36.500
        34.0004
 125497570.027 7  97790350.14646  23881376.770    23881378.3934         43.750
        40.0004
 107894349.038 8  84073517.09648  20531604.834    20531604.1514         50.250
        50.2504
 110909748.355 8  86423210.27548  21105414.711    21105413.7914         50.000
        48.2504
 08  5 27  0 24 30.0000000  0 11G18G31G25G 6G 3G24G13G23G29G16G21
 130219883.957 6 101470038.20445  24780021.827    24780021.4344         41.000
        33.2504
 118676980.935 7  92475583.05647  22583474.523    22583474.0754         47.500
        43.7504
 130818548.360 6 101936535.70545  24893941.716    24893942.4084         40.000
        35.5004
 111178714.914 8  86632798.68147  21156599.790    21156600.3744         49.250
        47.5004
 117229650.428 7  91347771.40746  22308055.585    22308056.2484         46.500
        41.2504
 121702250.447 7  94832975.17546  23159159.799    23159161.0064         45.250
        40.2504
 131357306.085 6 102356336.06245  24996463.046    24996463.4694         37.000
        30.2504
 131557076.557 6 102512000.78945  25034479.108    25034477.7294         36.750
        32.0004
 125585377.790 6  97858771.72846  23898086.371    23898088.0164         41.750
        40.0004
 107861654.887 8  84048041.13948  20525383.297    20525382.6164         50.000
        50.5004
 110913484.416 8  86426121.50448  21106125.672    21106124.7584         50.000
        48.5004
 08  5 27  0 25  0.0000000  0 11G18G31G25G 6G 3G24G13G23G29G16G21
 130140912.044 6 101408501.68245  24764993.603    24764993.5484         39.250
        32.0004
 118771335.405 7  92549106.01147  22601429.707    22601429.1854         47.000
        44.5004
 130739458.813 6 101874907.51945  24878891.512    24878892.1984         41.000
        35.0004
 111133453.375 8  86597529.96247  21147986.752    21147987.3924         49.250
        47.5004
 117149218.621 7  91285097.29246  22292749.838    22292750.6044         46.500
        41.5004
 121787520.836 7  94899419.61846  23175385.977    23175387.4324         45.250
        40.2504
 131376480.586 6 102371277.18945  25000111.815    25000111.6264         36.250
        32.5004
 131617839.893 6 102559348.79845  25046041.321    25046039.9024         40.750
        30.5004
 125673228.180 7  97927226.55846  23914803.934    23914804.4614         43.750
        39.7504
 107829316.200 8  84022842.16948  20519229.390    20519228.7704         50.000
        50.5004
 110917741.650 8  86429438.83648  21106935.832    21106934.8844         50.000
        48.5004
 08  5 27  0 25 30.0000000  0 11G18G31G25G 6G 3G24G13G23G29G16G21
 130062040.882 6 101347043.66445  24749984.510    24749984.3084         40.000
        31.7504
 118865961.212 7  92622840.39947  22619436.292    22619435.8004         47.250
        44.0004
 130660688.944 6 101813528.39845  24863902.211    24863902.5154         40.750
        32.2504
 111088463.865 8  86562473.22047  21139425.556    21139426.1854         49.500
        47.7504
 117069002.196 7  91222591.00246  22277485.195    22277486.0294         46.250
        41.5004
 121873116.649 7  94966117.66346  23191674.419    23191675.4184         44.750
        39.5004
 131396187.751 6 102386633.48445  25003862.089    25003862.3094         38.000
        31.2504
 131678918.470 7 102606942.48545  25057664.199    25057662.9194         42.250
        31.7504
 125761115.805 7  97995710.40346  23931528.917    23931529.3664         43.000
        39.7504
 107797329.691 8  83997917.62448  20513142.583    20513141.9344         50.000
        50.5004
 110922514.585 8  86433158.01448  21107844.080    21107843.1074         50.000
        48.2504
 08  5 27  0 26  0.0000000  0 11G18G31G25G 6G 3G24G13G23G29G16G21
 129983273.605 6 101285666.59345  24734995.607    24734995.8354         39.250
        35.2504
 118960855.841 7  92696784.26347  22637494.217    22637493.5934         47.250
        43.5004
 130582241.158 6 101752400.26745  24848974.010    24848974.4094         41.000
        35.0004
 111043746.934 8  86527628.86447  21130916.231    21130916.8534         49.500
        47.7504
 116989002.835 7  91160253.85847  22262261.704    22262262.5094         46.250
        42.0004
 121959035.643 7  95033067.52646  23208024.141    23208025.3504         45.000
        40.0004
 131416426.602 5 102402404.03042  25007713.325    25007713.1954         35.750
        16.0004
 131740309.685 7 102654779.81245  25069346.654    25069345.3284         44.250
        35.0004
 125849039.989 7  98064222.69746  23948260.677    23948261.5014         44.750
        39.7504
 107765697.125 8  83973268.87848  20507123.130    20507122.4434         50.250
        50.5004
 110927803.469 8  86437279.23448  21108850.503    21108849.4984         50.000
        48.2504
 08  5 27  0 26 30.0000000  0 11G18G31G25G 6G 3G24G13G23G29G16G21
 129904616.640 6 101224375.50945  24720026.911    24720027.5754         38.750
        31.7504
 119056019.935 7  92770938.08847  22655603.336    22655602.8674         47.000
        44.0004
 130504121.244 6 101691527.62645  24834108.244    24834108.6044         41.000
        34.2504
 110999305.889 8  86492999.48947  21122459.387    21122459.9914         49.500
        47.5004
 116909224.020 7  91098088.56547  22247080.217    22247081.1634         46.000
        42.0004
 122045278.658 7  95100269.87346  23224435.469    23224436.9794         45.250
        39.0004
 131437199.323 6 102418590.54045  25011666.402    25011666.9694         37.250
        35.5004
 131802014.271 7 102702861.33345  25081088.450    25081087.6404         43.250
        33.0004
 125937002.926 6  98132765.17846  23964999.069    23964999.4814         41.000
        39.7504
 107734422.950 8  83948899.39748  20501171.858    20501171.1824         50.250
        50.5004
 110933611.291 8  86441804.82248  21109955.653    21109954.6624         50.000
        48.5004
 08  5 27  0 27  0.0000000  0 11G18G31G25G 6G 3G24G13G23G29G16G21
 129826067.711 6 101163168.54445  24705079.892    24705080.3774         39.000
        35.0004
 119151446.121 7  92845296.15147  22673762.276    22673761.8734         47.000
        44.0004
 130426326.650 6 101630908.45145  24819304.383    24819304.7904         40.750
        34.5004
 110955136.053 8  86458581.44947  21114054.177    21114054.7844         49.500
        47.7504
 116829662.090 7  91036092.27947  22231940.020    22231941.0064         46.500
        42.2504
 122131838.202 7  95167718.87146  23240907.321    23240908.4384         45.500
        39.5004
 131458499.538 5 102435188.10745  25015719.532    25015719.8374         34.750
        31.5004
 131864024.045 6 102751180.64245  25092888.553    25092887.6474         41.500
        33.5004
 126024999.337 7  98201333.78746  23981744.497    23981744.1244         44.000
        39.2504
 107703503.948 8  83924806.67048  20495288.209    20495287.5154         50.000
        50.7504
 110939932.307 8  86446730.29748  21111158.479    21111157.4754         50.000
        48.5004
 08  5 27  0 27 30.0000000  0 11G18G31G25G 6G 3G24G13G23G29G16G21
 129747631.360 6 101102049.37345  24690153.879    24690154.4524         39.500
        35.5004
 119247133.491 7  92919857.73247  22691971.048    22691970.4964         47.000
        44.0004
 130348861.219 6 101570545.83846  24804563.225    24804563.8754         40.250
        36.5004
 110911239.188 8  86424376.10747  21105700.834    21105701.4524         49.500
        47.7504
 116750319.099 7  90974266.58847  22216841.598    22216842.5644         46.500
        42.2504
 122218713.171 7  95235413.64446  23257438.662    23257439.8654         43.750
        39.7504
 131480327.732 6 102452197.11844  25019873.228    25019874.1374         37.000
        28.2504
 131926337.962 6 102799736.98845  25104746.509    25104745.6564         40.000
        30.2504
 126113030.331 7  98269929.36746  23998495.989    23998496.7354         43.000
        38.0004
 107672943.256 8  83900993.15348  20489472.632    20489471.9964         50.000
        50.7504
 110946768.176 8  86452056.95748  21112459.248    21112458.2934         49.750
        48.0004
 08  5 27  0 28  0.0000000  0 11G18G31G25G 6G 3G24G13G23G29G16G21
 129669311.529 6 101041020.94845  24675250.688    24675250.3974         41.000
        34.5004
 119343080.153 7  92994621.34447  22710229.037    22710228.3664         47.000
        43.5004
 130271728.390 6 101510442.37346  24789885.318    24789886.3014         40.500
        38.5004
 110867616.522 8  86390384.43047  21097399.746    21097400.3154         49.500
        47.7504
 116671196.856 7  90912612.91046  22201785.095    22201786.0454         46.750
        41.7504
 122305902.352 7  95303353.25746  23274030.176    23274031.7414         44.500
        39.5004
 131502683.483 6 102469617.17343  25024127.606    25024128.9874         36.500
        20.2504
 131988954.413 6 102848529.11544  25116661.976    25116661.0244         38.750
        28.5004
 126201095.937 6  98338551.78647  24015252.948    24015255.6724         39.250
        42.0004
 107642743.397 8  83877460.80348  20483725.718    20483725.1334         50.000
        50.5004
 110954119.584 8  86457785.33548  21113858.168    21113857.2364         50.000
        48.5004
 08  5 27  0 28 30.0000000  0 11G18G31G25G 6G 3G24G13G23G29G16G21
 129591109.253 6 100980084.15546  24660369.278    24660369.7504         39.250
        36.2504
 119439281.276 7  93069583.25647  22728535.544    22728534.6704         46.750
        42.7504
 130194928.417 6 101450598.24346  24775270.799    24775271.5244         39.750
        37.7504
 110824265.896 8  86356604.73147  21089150.384    21089150.9904         49.500
        47.7504
 116592293.897 7  90851130.10947  22186770.373    22186771.3404         46.750
        42.2504
 122393400.990 7  95371534.01846  23290680.797    23290682.2634         44.250
        39.7504
 131525563.287 5 102487445.59442  25028481.351    25028482.1074         35.750
        16.2504
 132051868.376 5 102897552.90845  25128634.135    25128633.1514         35.750
        33.2504
 126289193.159 6  98407199.00146  24032017.709    24032018.7334         41.750
        39.2504
 107612903.601 8  83854209.01848  20478047.430    20478046.7794         50.000
        50.7504
 110961983.795 8  86463913.29948  21115354.642    21115353.7714         50.000
        48.5004
 08  5 27  0 29  0.0000000  0 11G18G31G25G 6G 3G24G13G23G29G16G21
 129513029.218 7 100919242.58345  24645511.712    24645511.5024         42.000
        34.5004
 119535736.085 7  93144742.84247  22746890.171    22746889.4554         46.750
        43.0004
 130118465.257 6 101391016.58645  24760720.248    24760721.0214         41.000
        34.0004
 110781189.349 8  86323038.60547  21080953.184    21080953.7924         49.500
        47.7504
 116513613.125 7  90789820.42146  22171798.009    22171798.7584         47.000
        41.7504
 122481208.698 7  95439955.59046  23307389.870    23307390.9914         44.750
        39.2504
 131548967.748 6 102505682.86445  25032934.900    25032936.1934         36.250
        32.2504
 132115078.814 6 102946807.83044  25140662.652    25140661.5154         38.750
        29.2504
 126377323.397 6  98475871.88546  24048787.800    24048788.7814         38.000
        41.2504
 107583426.972 8  83831240.22048  20472438.285    20472437.5794         50.250
        50.7504
 110970362.235 8  86470441.96148  21116948.977    21116948.1524         49.750
        48.2504
 08  5 27  0 29 30.0000000  0 11G18G31G25G 6G 3G24G13G23G29G16G21
 129435072.811 6 100858497.36144  24630677.035    24630676.6474         40.750
        29.7504
 119632440.951 7  93220097.26947  22765292.548    22765291.9814         47.500
        43.5004
 130042339.994 6 101331698.18845  24746234.146    24746234.8024         41.250
        35.5004
 110738385.788 8  86289685.18948  21072807.943    21072808.5704         49.500
        48.0004
 116435153.747 7  90728683.26347  22156867.608    22156868.4784         46.750
        42.2504
 122569321.523 7  95508614.93846  23324157.403    23324158.4274         44.500
        39.2504
 131572893.961 6 102524326.66643  25037488.335    25037489.0474         36.750
        19.7504
 132178581.470 5 102996290.57245  25152746.877    25152746.0114         35.250
        30.5004
 126465484.632 7  98544568.88846  24065564.462    24065566.8254         42.500
        38.5004
 107554313.375 8  83808554.30348  20466898.205    20466897.4314         50.000
        50.7504
 110979253.182 8  86477369.98048  21118640.814    21118640.0374         49.750
        48.5004
 08  5 27  0 30  0.0000000  0 12G18G31G19G25G 6G 3G24G13G23G29G16G21
 129357244.877 6 100797852.26645  24615866.069    24615866.4344         40.750
        33.2504
 119729395.034 7  93295645.89347  22783742.374    22783741.8644         47.000
        43.5004
 129956877.055 6 101265108.83546  24729972.249    24729972.0404         39.000
        37.2504
 129966557.095 6 101272646.61446  24731813.033    24731813.8504         40.750
        37.5004
 110695857.291 8  86256546.11247  21064715.003    21064715.6534         49.500
        47.7504
 116356918.628 7  90667720.84747  22141980.014    22141980.8184         46.750
        42.0004
 122657738.832 7  95577511.53346  23340982.789    23340984.0454         45.000
        39.2504
 131597342.847 6 102543377.80544  25042140.517    25042140.2944         36.250
        25.2504
 132242375.376 5 103045999.90845  25164886.293    25164885.7224         35.750
        33.0004
 126553677.720 7  98613290.73946  24082348.327    24082349.2654         44.750
        37.2504
 107525566.657 8  83786154.26748  20461427.881    20461427.1144         50.000
        50.7504
 110988657.650 8  86484698.14548  21120430.389    21120429.6194         49.750
        48.5004
 08  5 27  0 30 30.0000000  0 12G18G31G19G25G 6G 3G24G13G23G29G16G21
 129279543.701 6 100737305.93645  24601080.021    24601080.5394         39.000
        32.7504
 119826590.480 7  93371382.59747  22802238.071    22802237.6404         46.750
        43.2504
 129865767.274 6 101194114.28446  24712634.533    24712633.8124         38.750
        37.5004
 129891113.604 6 101213859.51046  24717456.524    24717457.4774         40.750
        37.2504
 110653598.897 8  86223617.50448  21056673.475    21056674.1824         49.500
        48.0004
 116278903.133 7  90606929.57747  22127134.010    22127134.8854         47.000
        42.0004
 122746453.114 7  95646639.54546  23357864.757    23357865.5834         45.500
        39.0004
 131622307.537 6 102562830.82042  25046891.336    25046891.6214         36.500
        15.5004
 132306452.747 6 103095930.39145  25177079.799    25177078.5234         36.500
        35.2504
 126641897.270 7  98682033.17946  24099136.615    24099135.6804         42.000
        38.5004
 107497183.172 8  83764037.27248  20456026.630    20456025.9414         50.000
        50.7504
 110998570.487 8  86492422.44348  21122316.751    21122315.9494         50.000
        48.5004
 08  5 27  0 31  0.0000000  0 12G18G31G19G25G 6G 3G24G13G23G29G16G21
 129201978.329 6 100676865.44445  24586319.043    24586320.4614         41.000
        35.0004
 119924031.242 7  93447310.45747  22820780.455    22820780.1064         46.500
        43.0004
 129774769.513 6 101123206.99045  24695318.395    24695316.8704         39.250
        34.7504
 129816018.281 6 101155343.71945  24703166.401    24703167.3084         40.750
        35.7504
 110611617.313 8  86190904.58748  21048684.621    21048685.3234         49.500
        48.0004
 116201114.687 7  90546315.22147  22112331.503    22112332.3174         46.750
        42.5004
 122835468.331 7  95716002.04046  23374803.861    23374804.7124         45.000
        39.0004
 131647793.123 5 102582689.73344  25051740.856    25051741.1874         35.250
        29.5004
 132370817.076 6 103146084.47144  25189327.966    25189327.0364         36.250
        28.2504
 126730148.762 7  98750800.47246  24115931.279    24115930.8064         44.500
        39.5004
 107469170.690 8  83742209.36848  20450695.984    20450695.3434         50.000
        50.7504
 111008997.698 8  86500547.54648  21124301.001    21124300.1444         50.000
        48.2504
 08  5 27  0 31 30.0000000  0 12G18G31G19G25G 6G 3G24G13G23G29G16G21
 129124546.258 6 100616528.73446  24571584.810    24571585.1624         41.500
        36.5004
 120021708.452 7  93523422.54947  22839367.673    22839367.2884         46.500
        43.0004
 129683878.862 6 101052383.16946  24678022.200    24678020.6194         38.500
        40.0004
 129741267.578 6 101097096.46545  24688941.887    24688942.6574         40.500
        35.7504
 110569906.736 8  86158402.85148  21040747.315    21040747.9904         49.500
        48.0004
 116123547.947 7  90485873.63147  22097570.925    22097571.8174         47.000
        42.5004
 122924775.747 7  95785592.24246  23391798.813    23391799.8994         45.500
        38.2504
 131673792.297 6 102602948.84245  25056688.465    25056688.3324         36.750
        32.5004
 132435457.644 6 103196469.32244  25201629.763    25201629.4174         38.000
        29.7504
 126818425.813 6  98819587.75546  24132730.022    24132730.1264         38.000
        39.7504
 107441524.888 8  83720667.19048  20445435.157    20445434.5394         50.000
        50.7504
 111019932.943 8  86509068.52148  21126381.951    21126381.0234         49.750
        48.2504
 08  5 27  0 32  0.0000000  0 12G18G31G19G25G 6G 3G24G13G23G29G16G21
 129047257.226 6 100556303.55645  24556877.196    24556877.4444         40.500
        31.2504
 120119626.921 7  93599722.64547  22858001.016    22858000.4374         46.500
        42.7504
 129593103.075 6 100981648.77946  24660748.249    24660746.8264         40.000
        37.5004
 129666871.181 6 101039125.27546  24674784.759    24674785.3864         41.500
        37.0004
 110528474.589 8  86126118.07147  21032863.039    21032863.6944         49.500
        47.7504
 116046211.065 7  90425611.14547  22082854.372    22082855.0804         47.000
        42.7504
 123014380.652 7  95855414.22646  23408849.744    23408851.0344         44.750
        40.0004
 131700310.931 6 102623612.68942  25061734.484    25061734.6554         36.000
        16.0004
 132500382.888 5 103247060.32345  25213984.305    25213982.2034         35.000
        33.2504
 126906735.081 6  98888400.11146  24149533.480    24149532.7684         39.750
        41.5004
 107414254.577 8  83699417.59848  20440245.872    20440245.1264         50.000
        50.7504
 111031382.751 8  86517990.45848  21128560.789    21128559.8664         49.750
        48.2504
 08  5 27  0 32 30.0000000  0 11G18G31G19G25G 6G 3G24G13G29G16G21
 128970106.262 7 100496185.93445  24542196.498    24542195.6944         42.500
        32.5004
 120217776.134 7  93676202.53447  22876678.190    22876677.8054         46.500
        43.2504
 129502434.590 6 100910998.06146  24643494.473    24643493.1374         40.250
        37.0004
 129592823.225 6 100981425.58545  24660693.860    24660694.6324         41.500
        34.5004
 110487312.995 8  86094044.10948  21025030.266    21025030.9134         49.500
        48.0004
 115969096.871 7  90365522.18747  22068179.933    22068180.7354         47.000
        42.5004
 123104272.568 7  95925459.87546  23425955.875    23425956.7524         45.000
        39.7504
 131727339.647 5 102644674.05042  25066878.062    25066876.9864         34.500
        17.5004
 126995067.776 7  98957230.81946  24166342.823    24166342.5494         42.750
        39.5004
 107387352.858 8  83678455.22348  20435126.669    20435125.8924         50.000
        50.7504
 111043338.402 8  86527306.55748  21130835.885    21130834.9524         50.000
        48.5004
 08  5 27  0 33  0.0000000  0 11G18G31G19G25G 6G 3G24G13G29G16G21
 128893101.879 7 100436182.51945  24527543.545    24527542.2254         42.000
        35.7504
 120316158.999 7  93752864.50547  22895399.785    22895399.3804         46.250
        42.7504
 129411880.147 6 100840436.21345  24626262.346    24626260.7794         39.500
        35.5004
 129519131.551 6 100924003.49045  24646670.818    24646671.3714         40.750
        34.5004
 110446427.681 8  86062185.43448  21017250.050    21017250.7304         49.750
        48.0004
 115892211.034 7  90305611.16247  22053549.087    22053549.7134         46.750
        42.7504
 123194454.162 7  95995731.24646  23443116.939    23443117.7844         45.250
        37.7504
 131754882.098 6 102666135.66744  25072119.068    25072118.9644         36.500
        27.7504
 127083429.021 6  99026083.65446  24183156.089    24183158.4114         38.500
        40.2504
 107360826.785 8  83657785.55948  20430078.890    20430078.1184         50.000
        51.0004
 111055805.083 8  86537020.85948  21133208.246    21133207.2924         50.000
        48.2504
 08  5 27  0 33 30.0000000  0 11G18G31G19G25G 6G 3G24G13G29G16G21
 128816245.397 6 100376294.41246  24512918.082    24512917.6324         40.500
        36.0004
 120414771.081 7  93829705.08347  22914164.879    22914164.7494         46.000
        43.5004
 129321438.093 6 100769961.96946  24609051.652    24609050.2564         37.750
        38.5004
 129445796.965 6 100866859.66946  24632715.615    24632715.9694         40.750
        36.5004
 110405817.063 8  86030540.80448  21009522.112    21009522.7504         49.750
        48.2504
 115815553.373 7  90245877.95047  22038961.482    22038962.3224         47.000
        42.5004
 123284921.480 7  96066225.25946  23460331.916    23460333.2644         44.000
        39.5004
 131782935.208 6 102687995.23245  25077457.421    25077458.1864         36.000
        33.5004
 127171816.434 7  99094956.91346  24199974.703    24199977.4234         42.000
        38.0004
 107334676.376 8  83637408.62148  20425102.579    20425101.8924         50.000
        50.7504
 111068780.723 8  86547131.75748  21135677.458    21135676.4614         50.000
        48.0004
 08  5 27  0 34  0.0000000  0 11G18G31G19G25G 6G 3G24G13G29G16G21
 128739537.519 6 100316522.05745  24498320.588    24498319.9564         38.750
        34.0004
 120513607.436 7  93906720.42147  22932972.706    22932972.6964         46.000
        42.5004
 129231107.057 6 100699574.18246  24591862.198    24591860.6184         39.000
        36.5004
 129372819.148 6 100809993.88246  24618828.196    24618829.0374         41.000
        38.2504
 110365479.038 8  85999108.58948  21001846.035    21001846.6664         49.500
        48.2504
 115739122.228 7  90186321.23447  22024417.161    22024417.9484         47.000
        42.7504
 123375669.820 7  96136938.23046  23477600.400    23477602.4684         44.250
        40.2504
 131811495.069 6 102710249.80244  25082892.128    25082893.3074         36.000
        24.0004
 127260226.836 6  99163848.14746  24216799.232    24216800.8544         41.750
        38.7504
 107308900.471 8  83617323.50448  20420197.540    20420196.8864         50.000
        50.7504
 111082262.057 8  86557636.70048  21138242.900    21138241.8754         50.000
        48.2504
 08  5 27  0 34 30.0000000  0 11G18G31G19G25G 6G 3G24G13G29G16G21
 128662983.456 6 100256869.58145  24483752.032    24483752.3344         40.250
        33.5004
 120612667.562 7  93983910.11847  22951823.227    22951822.8884         46.000
        42.0004
 129140890.170 6 100629275.36846  24574694.935    24574693.3574         40.500
        36.7504
 129300202.967 6 100753409.87746  24605009.731    24605010.8364         40.750
        38.2504
 110325416.099 8  85967890.72548  20994222.281    20994222.9074         49.500
        48.0004
 115662920.519 7  90126943.30947  22009916.339    22009917.1684         47.000
        43.0004
 123466698.861 7  96207869.95946  23494922.746    23494924.3774         44.250
        37.5004
 131840562.650 6 102732899.85845  25088423.677    25088424.7744         36.000
        31.0004
 127348662.129 6  99232758.66047  24233627.718    24233631.0784         40.000
        42.0004
 107283502.811 8  83597533.12548  20415364.532    20415363.8974         50.000
        51.0004
 111096250.888 8  86568537.09448  21140904.933    21140903.8784         50.000
        48.2504
 08  5 27  0 35  0.0000000  0 11G18G31G19G25G 6G 3G24G13G29G16G21
 128586582.311 6 100197336.29245  24469213.187    24469214.1934         41.750
        34.7504
 120711945.098 7  94061269.21947  22970715.274    22970714.6254         45.750
        42.5004
 129050784.200 6 100559062.95346  24557548.393    24557546.8074         41.000
        38.5004
 129227946.691 6 100697106.28746  24591259.920    24591260.8264         41.000
        36.5004
 110285624.618 8  85936884.38648  20986650.185    20986650.7974         49.750
        48.0004
 115586945.067 7  90067741.67747  21995458.792    21995459.5634         47.000
        43.2504
 123558002.525 7  96279015.65146  23512296.750    23512298.6154         43.250
        37.2504
 131870132.391 6 102755941.12942  25094050.457    25094051.6724         36.250
        16.5004
 127437117.820 7  99301685.10046  24250461.478    24250463.8174         45.000
        36.2504
 107258480.887 8  83578035.52248  20410603.065    20410602.3454         50.000
        51.0004
 111110742.569 8  86579829.31748  21143662.638    21143661.5394         50.000
        48.0004
 08  5 27  0 35 30.0000000  0 11G18G31G19G25G 6G 3G24G13G29G16G21
 128510339.177 6 100137926.06245  24454704.619    24454705.0134         40.000
        35.7504
 120811439.552 7  94138797.34547  22989648.677    22989647.9084         46.250
        42.7504
 128960791.795 6 100488939.07046  24540423.235    24540421.9764         40.500
        36.5004
 129156054.697 6 100641086.58345  24577579.358    24577580.0434         41.250
        35.0004
 110246106.774 8  85906091.27048  20979130.165    20979130.8194         49.750
        48.2504
 115511198.463 7  90008718.36247  21981044.627    21981045.3834         47.500
        42.5004
 123649580.157 7  96350374.84446  23529723.578    23529725.3504         44.000
        38.7504
 131900204.729 5 102779374.10545  25099773.057    25099772.8944         35.500
        31.5004
 127525595.385 7  99370628.67946  24267299.554    24267298.7424         42.500
        37.2504
 107233838.487 8  83558833.65548  20405913.826    20405913.0834         50.000
        50.7504
 111125739.085 8  86591514.92048  21146516.374    21146515.2524         50.000
        48.2504
 08  5 27  0 36  0.0000000  0 11G18G31G19G25G 6G 3G24G13G29G16G21
 128434260.143 7 100078643.70545  24440227.492    24440228.1754         42.000
        35.2504
 120911151.476 7  94216494.94047  23008623.416    23008622.4844         46.000
        43.2504
 128870916.635 6 100418906.52546  24523320.281    24523319.0614         40.250
        37.2504
 129084532.344 6 100585354.89345  24563968.887    24563969.3764         41.000
        35.7504
 110206865.729 8  85875513.84348  20971662.872    20971663.4534         49.750
        48.0004
 115435685.327 7  89949876.97747  21966674.991    21966675.7774         47.250
        42.0004
 123741432.646 7  96421948.22146  23547202.389    23547204.2774         43.500
        40.0004
 131930781.180 6 102803200.01745  25105591.722    25105590.4484         36.000
        31.2504
 127614097.272 7  99439591.06746  24284140.785    24284141.3514         43.250
        39.0004
 107209580.089 8  83539931.00848  20401297.642    20401296.8414         50.000
        51.0004
 111141242.569 8  86603595.56448  21149466.554    21149465.4544         50.000
        48.0004
 08  5 27  0 36 30.0000000  0 11G18G31G19G25G 6G 3G24G13G29G16G21
 128358342.646 6 100019487.26346  24425781.479    24425781.7284         41.250
        36.0004
 121011072.230 7  94294355.24446  23027637.548    23027637.0794         46.000
        41.7504
 128781154.311 6 100348961.88346  24506238.776    24506237.8504         40.000
        36.2504
 129013376.627 6 100529908.89545  24550428.291    24550428.9504         41.250
        35.5004
 110167896.569 8  85845148.27348  20964247.264    20964247.8934         49.750
        48.0004
 115360400.620 7  89891213.57747  21952348.745    21952349.4994         47.500
        43.0004
 123833552.101 7  96493729.59746  23564732.192    23564733.6864         44.500
        38.0004
 131961854.792 5 102827414.20043  25111504.454    25111506.9124         35.250
        18.7504
 127702617.429 7  99508567.78946  24300986.800    24300987.3234         42.750
        38.2504
 107185701.724 8  83521324.49448  20396753.580    20396752.9324         49.750
        50.7504
 111157247.103 8  86616066.63648  21152512.098    21152511.0014         49.750
        48.2504
 08  5 27  0 37  0.0000000  0 11G18G31G19G25G 6G 3G24G13G29G16G21
 128282595.573 7  99960463.63145  24411367.469    24411366.5164         42.750
        30.5004
 121111205.288 7  94372380.99847  23046692.081    23046691.9864         46.000
        42.7504
 128691510.871 6 100279109.88345  24489180.113    24489179.3394         40.500
        35.0004
 128942595.341 6 100474754.67746  24536959.043    24536959.7654         41.000
        36.7504
 110129204.744 8  85814998.81048  20956884.419    20956885.0254         49.500
        48.0004
 115285350.814 7  89832733.22747  21938067.147    21938067.9094         47.250
        42.7504
 123925941.479 7  96565721.32946  23582313.621    23582314.6734         44.000
        37.5004
 131993429.732 5 102852018.10343  25117513.244    25117513.2084         34.000
        18.2504
 127791161.281 6  99577563.00446  24317835.070    24317834.3014         38.750
        38.0004
 107162210.389 8  83503019.56448  20392283.268    20392282.6664         49.750
        51.0004
 111173757.303 8  86628931.73048  21155653.854    21155652.8194         50.000
        48.0004
 08  5 27  0 37 30.0000000  0 10G18G31G19G25G 6G 3G24G29G16G21
 128207015.304 6  99901569.91746  24396985.837    24396984.7724         41.500
        36.7504
 121211541.778 7  94450565.28547  23065785.409    23065785.2434         45.750
        42.2504
 128601980.509 6 100209346.02746  24472143.010    24472142.0874         40.750
        37.7504
 128872184.471 6 100419889.09646  24523560.329    24523561.1974         40.500
        37.2504
 110090784.198 8  85785060.72848  20949573.256    20949573.7714         49.750
        48.2504
 115210530.160 7  89774431.44447  21923829.203    21923830.0104         47.750
        42.7504
 124018591.991 7  96637916.52146  23599944.421    23599945.7434         43.000
        37.7504
 127879721.651 7  99646571.01046  24334687.215    24334687.2504         42.250
        38.7504
 107139101.106 8  83485012.33248  20387885.729    20387885.1244         50.000
        51.0004
 111190765.988 8  86642185.24848  21158890.440    21158889.4644         49.750
        48.2504
 08  5 27  0 38  0.0000000  0 11G18G31G19G25G 6G 3G24G13G29G16G21
 128131609.479 6  99842812.21345  24382635.937    24382635.3344         41.750
        34.5004
 121312084.095 7  94528909.92847  23084918.142    23084917.8734         46.250
        43.2504
 128512569.338 7 100139675.01946  24455128.719    24455127.7234         42.250
        38.5004
 128802151.341 6 100365317.87346  24510233.242    24510234.2184         40.000
        37.0004
 110052640.374 8  85755338.27348  20942314.715    20942315.2904         49.500
        48.2504
 115135944.908 7  89716313.07847  21909636.125    21909636.8894         47.250
        43.2504
 124111506.643 7  96710317.55046  23617625.878    23617626.9134         44.500
        37.7504
 132058054.274 5                  25129812.242                          35.250

 127968303.240 6  99715595.59046  24351544.058    24351545.5584         41.250
        37.0004
 107116380.506 8  83467307.97048  20383562.161    20383561.5154         50.000
        51.0004
 111208278.305 8  86655831.21148  21162222.840    21162221.9404         50.000
        48.0004
 08  5 27  0 38 30.0000000  0 11G18G31G19G25G 6G 3G24G13G29G16G21
 128056381.289 7  99784192.78245  24368320.857    24368319.6494         42.250
        35.0004
 121412828.259 7  94607411.84646  23104089.268    23104088.7904         46.000
        41.2504
 128423276.771 7 100070096.45346  24438137.093    24438136.0944         42.000
        38.2504
 128732497.093 6 100311041.85646  24496978.503    24496979.3454         40.500
        36.7504
 110014772.219 8  85725830.62948  20935108.651    20935109.2144         49.750
        48.2504
 115061594.672 7  89658377.84947  21895487.787    21895488.5604         47.500
        43.2504
 124204681.923 7  96782921.68146  23635357.002    23635357.2634         44.000
        38.7504
 132091112.003 5                  25136103.460                          33.500

 128056904.344 6  99784635.36146  24368402.611    24368404.1044         38.250
        40.2504
 107094048.984 8  83449906.78348  20379312.649    20379312.0134         50.000
        51.0004
 111226292.070 8  86669867.91748  21165650.722    21165649.8314         49.750
        48.0004
 08  5 27  0 39  0.0000000  0 11G18G31G19G25G 6G 3G24G13G29G16G21
 127981330.782 6  99725711.91546  24354038.204    24354038.2844         39.500
        36.2504
 121513769.823 7  94686067.60346  23123297.779    23123297.0014         46.250
        41.2504
 128334101.499 6 100000609.22846  24421167.870    24421166.3524         41.750
        38.5004
 128663222.054 6 100257061.32846  24483796.270    24483796.8714         41.750
        37.7504
 109977177.910 8  85696536.36848  20927954.680    20927955.2494         49.750
        48.2504
 114987477.814 7  89600624.47547  21881383.776    21881384.5284         47.500
        43.0004
 124298113.132 7  96855725.20446  23653136.144    23653137.0854         43.250
        39.5004
 132124659.726 5 102954298.80343  25142486.844    25142491.5434         34.000
        18.7504
 128145522.368 6  99853688.40546  24385266.625    24385266.7314         41.750
        37.5004
 107072106.040 8  83432808.38648  20375137.093    20375136.3874         50.000
        51.2504
 111244804.558 8  86684293.23748  21169173.471    21169172.6114         49.750
        48.2504
 08  5 27  0 39 30.0000000  0 11G18G31G19G25G 6G 3G24G13G29G16G21
 127906459.775 6  99667370.88545  24339790.445    24339790.2894         41.750
        35.2504
 121614904.701 7  94764873.98546  23142543.071    23142542.4314         45.750
        41.7504
 128245042.812 6  99931212.90946  24404220.459    24404218.8264         41.000
        38.2504
 128594326.893 7 100203376.80946  24470686.319    24470686.7394         42.500
        36.5004
 109939856.138 8  85667454.47348  20920852.541    20920853.1534         49.750
        48.2504
 114913593.813 7  89543052.54347  21867324.053    21867324.9354         47.500
        43.5004
 124391796.514 7  96928725.24046  23670963.636    23670964.3404         45.000
        37.5004
 132158694.312 5 102980800.21845  25148963.547    25148963.3144         33.500
        30.7504
 128234155.287 6  99922753.00346  24402132.546    24402134.3544         39.250
        37.7504
 107050551.276 8  83416012.46848  20371035.305    20371034.6604         49.750
        49.5004
 111263813.375 8  86699105.30648  21172790.711    21172789.8934         49.750
        48.2504
 08  5 27  0 40  0.0000000  0 10G18G31G19G25G 6G 3G24G29G16G21
 127831776.508 6  99609176.20946  24325577.955    24325578.7694         39.750
        38.5004
 121716235.409 7  94843832.95647  23161825.562    23161825.0344         45.500
        42.0004
 128156106.465 6  99861911.93145  24387296.322    24387294.6364         40.000
        34.7504
 128525819.154 6 100149994.19446  24457649.748    24457650.0524         41.000
        38.0004
 109902812.460 8  85638589.28148  20913803.322    20913803.9634         49.750
        48.2504
 114839948.921 7  89485666.93247  21853309.860    21853310.7294         47.500
        43.5004
 124485734.863 7  97001924.01346  23688839.842    23688839.5944         43.750
        37.0004
 128322808.110 6  99991833.04246  24419001.761    24419004.3374         40.000
        39.2504
 107029391.386 8  83399524.24648  20367008.610    20367008.0534         49.750
        51.2504
 111283323.110 8  86714307.70648  21176503.314    21176502.4594         49.750
        48.0004
 08  5 27  0 40 30.0000000  0 10G18G31G19G25G 6G 3G24G29G16G21
 127757276.656 6  99551124.36746  24311401.622    24311402.0764         41.750
        36.5004
 121817752.082 7  94922936.86047  23181143.668    23181143.1454         45.250
        43.0004
 128067285.970 6  99792701.20546  24370393.975    24370392.6394         41.000
        38.5004
 128457693.549 6 100096909.35746  24444685.656    24444686.1094         41.000
        37.0004
 109866039.537 8  85609935.06048  20906805.680    20906806.3404         49.750
        48.5004
 114766536.406 7  89428462.38947  21839339.959    21839340.7044         47.750
        43.5004
 124579918.505 7  97075313.80846  23706761.597    23706762.7734         43.000
        39.5004
 128411472.710 7 100060922.39345  24435874.977    24435875.1894         42.250
        34.5004
 107008620.699 8  83383339.29448  20363056.044    20363055.5074         49.750
        51.0004
 111303325.947 8  86729894.33648  21180309.769    21180308.8884         49.750
        48.2504
 08  5 27  0 41  0.0000000  0 11G18G31G19G25G 6G 3G24G13G29G16G21
 127682967.539 6  99493221.22745  24297261.079    24297261.0654         41.500
        35.2504
 121919456.585 7  95002187.08547  23200497.516    23200497.2104         45.500
        42.7504
 127978586.340 6  99723584.62346  24353514.973    24353513.7254         41.250
        38.2504
 128389957.014 6 100044127.65645  24431795.775    24431796.1264         41.750
        35.7504
 109829542.285 8  85581495.65348  20899860.531    20899861.1164         49.750
        48.5004
 114693361.640 7  89371443.11047  21825415.252    21825416.0824         47.500
        43.5004
 124674349.408 7  97148896.35946  23724731.581    23724732.4604         44.000
        37.5004
 132263728.11015 103062625.63555  25168950.683    25168946.2684         33.000
        32.2504
 128500153.521 6 100130024.28246  24452750.172    24452751.0804         38.750
        38.7504
 106988244.979 8  83367462.11548  20359178.733    20359178.1384         49.750
        51.2504
 111323825.716 8  86745868.18148  21184210.757    21184209.8264         50.000
        48.0004
 08  5 27  0 41 30.0000000  0 10G18G31G19G25G 6G 3G24G29G16G21
 127608849.921 7  99435467.24746  24283157.405    24283157.5414         43.000
        36.5004
 122021343.902 7  95081579.78746  23219886.176    23219885.7884         45.750
        41.7504
 127890006.046 6  99654561.04346  24336658.810    24336657.4924         41.750
        36.5004
 128322609.452 6  99991649.05646  24418979.889    24418980.3694         41.250
        36.5004
 109793318.522 8  85553269.34848  20892967.366    20892967.9804         49.750
        48.2504
 114620423.029 7  89314607.84047  21811535.543    21811536.2374         47.750
        43.2504
 124769022.717 7  97222667.76646  23742747.295    23742747.7184         44.000
        38.2504
 128588847.048 7 100199136.11945  24469628.661    24469630.3164         43.750
        35.7504
 106968263.377 8  83351892.03548  20355376.426    20355375.7884         49.750
        51.2504
 111344819.027 8  86762226.60948  21188205.675    21188204.6834         49.750
        48.0004
 08  5 27  0 42  0.0000000  0 10G18G31G19G25G 6G 3G24G29G16G21
 127534928.496 6  99377866.15246  24269091.095    24269090.2004         41.000
        36.7504
 122123413.254 7  95161114.33546  23239309.096    23239308.8454         45.250
        41.5004
 127801547.669 6  99585632.47346  24319825.877    24319824.4094         41.500
        36.7504
 128255654.850 6  99939476.67445  24406238.709    24406239.2954         41.500
        35.0004
 109757370.229 8  85525257.69748  20886126.645    20886127.3024         49.750
        48.5004
 114547723.249 7  89257958.68247  21797701.211    21797701.9574         47.750
        43.2504
 124863937.950 7  97296627.69846  23760808.742    23760809.7784         42.750
        38.0004
 128677555.221 6 100268259.40046  24486510.276    24486510.2934         40.500
        36.2504
 106948679.316 8  83336631.72548  20351649.763    20351649.0574         49.750
        51.2504
 111366307.059 8  86778970.53848  21192294.742    21192293.6994         49.750
        48.2504
 08  5 27  0 42 30.0000000  0 11G18G31G19G25G 6G 3G24G13G29G16G21
 127461206.517 7  99320420.51446  24255061.978    24255061.3744         43.250
        36.2504
 122225662.364 7  95240788.94946  23258766.288    23258766.3674         45.250
        41.5004
 127713211.708 6  99516799.25446  24303016.133    24303014.4354         40.250
        38.7504
 128189095.500 6  99887612.27345  24393572.891    24393573.3184         41.750
        35.7504
 109721697.621 8  85497460.86548  20879338.380    20879338.9704         49.750
        48.2504
 114475263.288 7  89201496.39547  21783912.539    21783913.1834         47.750
        43.5004
 124959092.935 7  97370774.42446  23778916.074    23778917.6094         44.500
        36.0004
 132373062.150 5                  25189756.301                          34.500

 128766277.929 6 100337393.92746  24503392.903    24503393.1474         39.250
        38.7504
 106929494.018 8  83321682.14648  20347998.928    20347998.2254         49.750
        51.0004
 111388288.683 8  86796099.08148  21196477.765    21196476.6644         50.000
        48.0004
 08  5 27  0 43  0.0000000  0 11G18G31G19G25G 6G 3G24G13G29G16G21
 127387684.575 6  99263130.73445  24241071.479    24241071.0444         41.750
        34.7504
 122328085.833 7  95320599.43746  23278256.612    23278256.6594         45.500
        41.5004
 127624996.648 6  99448060.32446  24286229.187    24286227.7094         40.000
        40.0004
 128122931.165 6  99836055.68846  24380982.077    24380982.6434         41.750
        36.5004
 109686298.646 8  85469877.25548  20872602.203    20872602.7254         49.750
        48.2504
 114403041.249 8  89145219.49847  21770169.130    21770169.8134         48.000
        43.7504
 125054483.179 7  97445104.49546  23797068.091    23797070.0384         42.000
        38.5004
 132410463.585 5                  25196873.117                          33.500

 128855011.874 7 100406537.24546  24520279.321    24520280.1484         43.000
        37.5004
 106910706.690 8  83307042.67148  20344423.699    20344423.0854         49.750
        51.0004
 111410760.919 8  86813609.92148  21200754.113    21200752.9834         50.000
        48.0004
 08  5 27  0 43 30.0000000  0 10G18G31G19G25G 6G 3G24G29G16G21
 127314368.710 7  99206001.50146  24227119.268    24227118.6774         42.000
        36.5004
 122430684.135 7  95400546.14547  23297780.563    23297780.3254         45.000
        42.0004
 127536906.229 6  99379418.48846  24269465.881    24269464.6414         41.250
        38.5004
 128057167.163 6  99784811.05246  24368467.425    24368467.9744         41.500
        36.2504
 109651176.423 8  85442509.29648  20865918.636    20865919.1824         49.750
        48.2504
 114331061.162 7  89089131.12647  21756471.763    21756472.4144         47.750
        43.5004
 125150109.100 7  97519618.17746  23815264.552    23815266.5604         44.000
        36.2504
 128943759.260 6 100475691.09846  24537167.494    24537168.0344         40.500
        36.7504
 106892321.435 8  83292716.50348  20340925.048    20340924.4884         49.750
        51.2504
 111433726.058 8  86831504.84447  21205124.228    21205123.1284         49.750
        47.7504
 08  5 27  0 44  0.0000000  0 10G18G31G19G25G 6G 3G24G29G16G21
 127241258.570 7  99149032.59146  24213206.811    24213206.7074         42.250
        36.0004
 122533451.262 7  95480624.41346  23317336.741    23317336.3404         45.000
        41.7504
 127448937.691 6  99310871.60146  24252726.013    24252724.7534         41.500
        37.2504
 127991802.047 7  99733877.20546  24356028.875    24356029.4844         42.000
        38.5004
 109616327.690 8  85415354.44548  20859287.107    20859287.6524         49.750
        48.2504
 114259320.462 7  89033229.30547  21742819.998    21742820.5574         47.750
        44.2504
 125245964.769 6  97594310.92946  23833505.368    23833507.4154         41.500
        39.5004
 129032516.737 6 100544852.73246  24554057.326    24554057.3174         41.500
        39.2504
 106874336.618 8  83278702.35948  20337502.734    20337502.0764         49.750
        51.2504
 111457179.892 8  86849780.56148  21209587.350    21209586.2374         49.750
        48.0004
 08  5 27  0 44 30.0000000  0 12G18G31G19G25G 6G 3G24G13G22G29G16G21
 127168357.344 6  99092226.47445  24199333.462    24199334.4934         41.500
        34.5004
 122636385.030 7  95560832.52846  23336924.528    23336923.9044         45.500
        41.5004
 127361091.912 6  99242420.37646  24236009.559    24236008.3724         40.750
        36.5004
 127926838.565 7  99683256.32346  24343666.949    24343667.2414         42.500
        36.0004
 109581753.083 8  85388413.19848  20852707.766    20852708.3254         49.750
        48.2504
 114187820.213 7  88977514.84647  21729213.869    21729214.5404         47.750
        43.7504
 125342048.277 7  97669181.13946  23851788.952    23851792.2174         42.500
        36.5004
 132525504.434 5                  25218766.197                          34.000

 132507209.736 6 103252377.80045  25215284.213    25215282.8084         38.750
        33.7504
 129121284.025 6 100614022.02846  24570949.875    24570950.5934         40.750
        39.7504
 106856753.484 8  83265001.21848  20334156.835    20334156.1174         49.750
        51.2504
 111481121.608 8  86868436.44548  21214143.260    21214142.1954         49.750
        48.0004
 08  5 27  0 45  0.0000000  0 11G18G31G19G25G 6G 3G24G22G29G16G21
 127095668.760 6  99035586.00345  24185501.225    24185501.2894         40.500
        33.7504
 122739483.423 7  95641168.93547  23356543.571    23356542.8674         44.750
        42.2504
 127273370.351 6  99174065.92146  24219316.689    24219315.2334         39.500
        36.7504
 127862279.388 7  99632950.49846  24331381.925    24331382.1904         42.500
        36.5004
 109547453.388 8  85361686.17048  20846180.751    20846181.3424         49.750
        48.5004
 114116561.711 7  88921988.75047  21715653.845    21715654.4624         47.750
        44.0004
 125438357.867 7  97744227.61246  23870116.379    23870118.3404         42.000
        37.7504
 132415989.252 6 103181296.90645  25197924.944    25197923.8834         39.250
        31.7504
 129210061.287 6 100683199.09246  24587842.205    24587844.1174         38.000
        37.0004
 106839574.275 8  83251614.81648  20330887.776    20330886.9984         49.750
        51.2504
 111505551.222 8  86887472.50947  21218792.007    21218790.9964         49.750
        47.7504
 08  5 27  0 45 30.0000000  0 11G18G31G19G25G 6G 3G24G22G29G16G21
 127023197.835 7  98979115.25146  24171710.169    24171711.2194         42.750
        36.0004
 122842745.933 7  95721633.19846  23376193.578    23376193.2304         45.000
        41.2504
 127185775.444 6  99105810.22046  24202647.522    24202646.5094         41.250
        37.5004
 127798128.648 7  99582962.96545  24319174.290    24319174.8694         42.500
        35.0004
 109513430.850 8  85335175.10648  20839706.460    20839707.0624         49.750
        48.5004
 114045548.227 7  88866653.59347  21702140.292    21702141.0294         47.750
        44.2504
 125534893.386 7  97819450.07646  23888486.495    23888488.5494         43.000
        38.2504
 132324677.171 6 103110144.68245  25180548.309    25180547.7534         38.750
        34.5004
 129298850.375 6 100752385.47646  24604738.385    24604739.2234         41.750
        37.5004
 106822802.667 8  83238546.03248  20327696.233    20327695.4524         49.750
        51.2504
 111530469.773 8  86906889.57047  21223533.820    21223532.8484         50.000
        47.5004
 08  5 27  0 46  0.0000000  0 11G18G31G19G25G 6G 3G24G22G29G16G21
 126950945.212 7  98922814.49445  24157961.362    24157962.0604         42.500
        34.0004
 122946167.825 7  95802221.69246  23395873.990    23395873.4974         45.000
        39.5004
 127098306.131 6  99037652.35546  24186002.654    24186001.5714         40.500
        38.0004
 127734386.613 7  99533293.89546  24307044.394    24307045.0454         43.000
        37.0004
 109479683.597 8  85308878.55548  20833284.571    20833285.1684         49.750
        48.5004
 113974777.903 7  88811507.89747  21688673.177    21688673.8264         47.750
        44.2504
 125631650.266 6  97894845.01846  23906898.676    23906901.1004         41.000
        37.5004
 132233273.748 6 103038921.28245  25163154.679    25163154.6074         38.000
        34.5004
 129387648.870 6 100821579.06546  24621635.457    24621637.6914         37.500
        40.0004
 106806437.768 8  83225794.16548  20324582.055    20324581.3244         49.750
        51.2504
 111555874.260 8  86926685.28047  21228368.121    21228367.1484         50.000
        47.7504
 08  5 27  0 46 30.0000000  0 12G18G31G19G25G 6G 3G24G13G22G29G16G21
 126878911.690 7  98866684.53346  24144253.696    24144253.9014         42.500
        36.2504
 123049744.038 7  95882930.41646  23415583.811    23415583.5444         44.500
        41.0004
 127010960.734 6  98969591.05245  24169381.490    24169380.1614         41.000
        35.5004
 127671053.084 7  99483943.10946  24294992.382    24294992.9954         42.750
        36.7504
 109446209.786 8  85282795.07048  20826914.699    20826915.2924         49.750
        48.5004
 113904249.727 7  88756550.89447  21675252.159    21675252.8024         47.750
        43.7504
 125728623.995 7  97970408.99746  23925352.621    23925353.7864         43.750
        37.5004
 132685410.418 6 103391240.10544  25249194.569    25249196.7824         36.750
        26.5004
 132141779.654 6 102967627.21545  25145743.807    25145743.9284         39.000
        32.0004
 129476453.876 6 100890777.72646  24638533.952    24638536.9164         40.250
        38.7504
 106790478.758 8  83213358.57448  20321545.120    20321544.4184         49.750
        51.2504
 111581761.497 8  86946857.15947  21233294.346    21233293.3044         50.000
        47.7504
 08  5 27  0 47  0.0000000  0 12G18G31G19G25G 6G 3G24G13G22G29G16G21
 126807099.303 7  98810726.83745  24130588.907    24130589.3084         43.500
        35.7504
 123153470.718 7  95963756.36946  23435322.485    23435322.1594         44.500
        41.2504
 126923738.189 6  98901625.45646  24152783.740    24152782.4894         40.750
        36.5004
 127608128.621 7  99434911.09246  24283018.404    24283018.7914         42.250
        36.7504
 109413007.917 8  85256923.48848  20820596.587    20820597.1494         49.750
        48.5004
 113833962.742 7  88701781.83447  21661876.913    21661877.4714         47.750
        43.5004
 125825810.669 7  98046138.82346  23943846.505    23943848.2874         42.000
        38.2504
 132726535.889 6 103423285.82245  25257020.967    25257020.5744         37.000
        30.2504
 132050196.257 6 102896263.56745  25128316.066    25128316.5024         38.250
        35.2504
 129565263.615 6 100959980.12345  24655434.139    24655436.1314         40.500
        34.2504
 106774925.382 8  83201239.05948  20318585.417    20318584.7014         49.750
        51.2504
 111608129.147 8  86967403.38547  21238312.003    21238310.8644         50.000
        47.5004
 08  5 27  0 47 30.0000000  0 12G18G31G19G25G 6G 3G24G13G22G29G16G21
 126735517.087 7  98754948.53946  24116967.092    24116967.4184         42.000
        36.5004
 123257351.453 7  96044702.37846  23455090.415    23455090.0014         44.500
        41.7504
 126836645.586 6  98833761.09446  24136210.444    24136209.3114         40.750
        38.0004
 127545621.647 7  99386204.38246  24271123.663    24271123.8264         42.250
        37.2504
 109380084.545 8  85231268.91848  20814331.454    20814332.0644         49.750
        48.2504
 113763924.519 7  88647206.60547  21648549.094    21648549.7654         47.750
        43.7504
 125923214.178 7  98122037.67145  23962382.347    23962383.1034         44.000
        33.7504
 132768123.757 6 103455695.70242  25264934.317    25264932.7274         36.500
        15.5004
 131958532.558 6 102824837.37545  25110873.050    25110872.9934         39.500
        33.5004
 129654083.847 6 101029190.64846  24672335.461    24672337.8734         38.250
        36.5004
 106759785.293 8  83189441.59048  20315704.372    20315703.6314         50.000
        49.7504
 111634982.630 8  86988328.18247  21243422.086    21243420.8824         50.000
        47.7504
 08  5 27  0 48  0.0000000  0 12G18G31G19G25G 6G 3G24G13G22G29G16G21
 126664162.495 7  98699347.56046  24103389.092    24103388.7324         43.250
        36.5004
 123361378.465 7  96125762.38546  23474886.192    23474885.8354         45.250
        41.0004
 126749678.388 6  98765994.50846  24119661.143    24119659.7524         40.500
        38.2504
 127483528.880 7  99337820.44046  24259307.760    24259308.1484         42.250
        38.5004
 109347434.197 8  85205827.09748  20808118.293    20808118.9114         49.750
        48.5004
 113694130.106 8  88592821.36447  21635267.653    21635268.2804         48.000
        44.0004
 126020826.934 6  98198099.55646  23980957.336    23980958.7954         41.000
        37.7504
 132810160.886 5 103488452.04443  25272933.133    25272930.8324         31.500
        20.2504
 131866786.273 6 102753346.74545  25093414.426    25093414.2434         38.500
        32.5004
 129742909.064 6 101098405.16846  24689238.332    24689241.4224         38.750
        37.5004
 106745054.253 8  83177962.85448  20312901.202    20312900.3994         50.000
        51.2504
 111662315.419 8  87009626.46147  21248623.355    21248622.1174         49.750
        47.5004
 08  5 27  0 48 30.0000000  0 12G18G31G19G25G 6G 3G24G13G22G29G16G21
 126593039.901 6  98643927.40946  24089854.799    24089855.1074         41.500
        38.2504
 123465550.283 7  96206935.19946  23494709.448    23494709.1654         44.500
        40.2504
 126662838.884 6  98698327.39446  24103135.914    24103134.6374         41.500
        38.2504
 127421853.840 7  99289761.99646  24247571.325    24247571.8164         42.750
        37.2504
 109315058.889 8  85180599.58748  20801957.447    20801958.0354         49.750
        48.5004
 113624581.648 8  88538627.77247  21622033.015    21622033.7504         48.250
        44.0004
 126118648.130 7  98274323.85546  23999572.507    23999572.9364         43.500
        36.7504
 132852643.920 5                  25281018.694                          34.500

 131774961.154 6 102681794.75746  25075940.550    25075940.1054         37.250
        38.0004
 129831739.989 6 101167624.08845  24706142.723    24706144.9844         40.750
        33.5004
 106730735.228 8  83166805.17248  20310176.536    20310175.5714         50.000
        51.2504
 111690128.012 8  87031298.61547  21253915.898    21253914.6484         49.750
        47.7504
 08  5 27  0 49  0.0000000  0 12G18G31G19G25G 6G 3G24G13G22G29G16G21
 126522152.392 6  98588690.38046  24076365.390    24076364.8674         41.750
        36.7504
 123569864.094 7  96288218.70246  23514559.682    23514559.1054         44.250
        40.0004
 126576126.784 6  98630759.56246  24086635.430    24086633.9894         41.500
        40.0004
 127360598.489 7  99242030.55446  24235914.825    24235915.2644         42.500
        38.2504
 109282958.443 8  85155586.25748  20795848.912    20795849.4864         49.750
        48.7504
 113555279.566 8  88484626.16847  21608845.274    21608845.9084         48.000
        44.0004
 126216674.975 7  98350708.38646  24018226.502    24018226.6744         44.500
        36.5004
 132895582.537 6                  25289189.469                          36.250

 131683060.229 6 102610183.68345  25058452.344    25058451.9344         39.500
        32.0004
 129920576.212 6 101236847.08345  24723047.456    24723049.1764         37.500
        34.5004
 106716829.463 8  83155969.50548  20307530.423    20307529.4214         50.000
        51.2504
 111718419.295 8  87053343.77147  21259299.484    21259298.3154         49.750
        47.7504
 08  5 27  0 49 30.0000000  0 12G18G31G19G25G 6G 3G24G13G22G29G16G21
 126451501.358 6  98533637.66646  24062920.642    24062920.7144         39.000
        40.0004
 123674316.017 7  96369609.77146  23534436.151    23534435.9034         44.250
        40.5004
 126489542.038 7  98563290.94146  24070158.889    24070157.3644         42.250
        38.7504
 127299763.470 7  99194626.69346  24224338.437    24224338.7044         43.500
        37.7504
 109251131.708 8  85130786.21048  20789792.539    20789793.0914         49.750
        48.5004
 113486223.425 8  88430816.19947  21595704.333    21595705.0634         48.250
        44.5004
 126314903.849 7  98427250.33445  24036919.085    24036919.7404         43.000
        35.7504
 132938966.626 6                  25297444.836                          36.000

 131591084.975 6 102538514.70045  25040950.332    25040949.1254         39.500
        33.2504
 130009416.082 6 101306072.92546  24739953.692    24739955.8494         40.000
        38.2504
 106703336.887 8  83145455.80948  20304962.811    20304961.8544         49.750
        51.2504
 111747186.813 8  87075760.02647  21264773.707    21264772.5784         49.750
        47.7504
 08  5 27  0 50  0.0000000  0 11G18G31G19G25G 6G 3G24G22G29G16G21
 126381092.156 7  98478773.40145  24049521.931    24049522.6364         43.500
        34.7504
 123778906.082 7  96451108.50646  23554338.955    23554338.6354         44.500
        40.0004
 126403087.751 6  98495924.00246  24053707.119    24053705.7384         41.500
        37.7504
 127239353.534 7  99147554.02846  24212842.892    24212843.0254         43.250
        37.5004
 109219581.493 8  85106201.63348  20783788.745    20783789.3024         49.750
        49.0004
 113417417.161 8  88377200.94647  21582610.984    21582611.5794         48.250
        44.5004
 126413335.284 6  98503950.16145  24055649.632    24055649.6294         41.750
        35.5004
 131499040.594 6 102466791.82745  25023435.243    25023433.6904         39.500
        34.5004
 130098261.863 6 101375303.35545  24756860.792    24756862.5894         39.750
        35.2504
 106690261.437 8  83135267.15748  20302474.398    20302473.6584         49.750
        51.2504
 111776432.255 8  87098548.68547  21270338.888    21270337.8404         49.750
        47.7504
 08  5 27  0 50 30.0000000  0 11G18G31G19G25G 6G 3G24G22G29G16G21
 126310924.687 6  98424097.44745  24036169.946    24036169.4164         41.250
        34.0004
 123883627.997 7  96532709.99646  23574266.771    23574266.4454         43.750
        41.0004
 126316760.606 6  98428656.14046  24037279.568    24037278.2164         41.250
        37.5004
 127179366.983 7  99100811.30946  24201427.521    24201427.8764         42.250
        37.5004
 109188304.484 8  85081829.94048  20777836.922    20777837.4934         49.750
        48.7504
 113348857.503 8  88323777.84647  21569564.520    21569565.1814         48.250
        44.2504
 126511963.030 7  98580802.93546  24074418.248    24074418.5484         44.000
        36.2504
 131406926.179 6 102395014.43346  25005906.441    25005904.6734         39.500
        36.5004
 130187109.443 6 101444535.28746  24773768.447    24773768.6574         41.000
        37.5004
 106677600.867 8  83125401.77548  20300065.267    20300064.4624         50.000
        51.2504
 111806150.968 8  87121706.12447  21275994.112    21275993.1384         49.750
        47.7504
 08  5 27  0 51  0.0000000  0 11G18G31G19G25G 6G 3G24G22G29G16G21
 126241006.133 7  98369615.51745  24022864.168    24022864.3734         42.750
        35.7504
 123988483.735 7  96614415.71546  23594220.167    23594220.2974         44.000
        40.5004
 126230566.246 6  98361491.72846  24020877.226    24020875.8744         41.750
        38.7504
 127119810.565 7  99054403.72546  24190094.252    24190094.7164         42.250
        39.0004
 109157305.416 8  85057674.82748  20771938.031    20771938.6144         49.750
        48.7504
 113280550.236 8  88270551.41547  21556566.050    21556566.6284         48.250
        44.5004
 126610789.505 6  98657810.54045  24093223.897    24093224.6604         41.000
        35.7504
 131314749.345 6 102323188.38245  24988365.410    24988363.7354         38.250
        35.0004
 130275963.241 6 101513772.04746  24790677.441    24790677.9354         40.750
        37.7504
 106665360.706 8  83115863.98148  20297736.291    20297735.2734         50.000
        51.5004
 111836346.399 8  87145235.03647  21281740.099    21281739.1774         49.750
        47.5004
 08  5 27  0 51 30.0000000  0 11G18G31G19G25G 6G 3G24G22G29G16G21
 126171333.865 7  98315325.45445  24009606.303    24009606.6734         43.750
        34.7504
 124093464.969 7  96696219.25946  23614197.729    23614197.4134         44.250
        39.5004
 126144499.689 7  98294426.89746  24004499.435    24004497.6974         42.500
        38.5004
 127060680.488 7  99008328.35146  24178842.310    24178842.6474         43.250
        38.0004
 109126578.680 8  85033731.91848  20766090.933    20766091.5114         49.750
        48.7504
 113212490.134 8  88217517.58247  21543614.608    21543615.2714         48.250
        44.5004
 126709806.568 7  98734966.68546  24112065.926    24112067.1474         42.500
        36.0004
 131222507.112 6 102251311.26445  24970812.350    24970810.8004         40.250
        31.5004
 130364817.120 6 101583008.79845  24807585.897    24807586.0974         41.000
        35.7504
 106653536.724 8  83106650.48548  20295486.340    20295485.2664         50.000
        51.5004
 111867011.666 8  87169130.04047  21287575.524    21287574.5814         49.750
        47.5004
 08  5 27  0 52  0.0000000  0 11G18G31G19G25G 6G 3G24G22G29G16G21
 126101913.889 7  98261232.01545  23996396.133    23996395.8924         42.500
        35.7504
 124198572.515 7  96778121.26146  23634198.869    23634198.5514         44.500
        41.2504
 126058564.658 7  98227464.57546  23988146.650    23988144.9294         43.000
        39.2504
 127001982.092 7  98962589.34646  24167672.519    24167672.7384         43.500
        38.2504
 109096127.957 8  85010004.08548  20760296.342    20760296.9164         50.000
        48.5004
 113144681.195 8  88164679.46147  21530711.019    21530711.5704         48.500
        44.5004
 126809015.176 7  98812272.03745  24130944.524    24130946.2324         43.000
        35.2504
 131130205.593 6 102179388.01445  24953247.967    24953246.5984         39.500
        32.0004
 130453673.695 6 101652247.69645  24824495.074    24824493.7074         40.250
        35.7504
 106642133.682 8  83097764.99948  20293316.407    20293315.3244         49.750
        51.5004
 111898149.362 8  87193393.18547  21293500.943    21293499.9194         49.750
        47.5004
 08  5 27  0 52 30.0000000  0 11G18G31G19G25G 6G 3G24G22G29G16G21
 126032749.365 7  98207337.58545  23983234.918    23983234.4374         43.000
        35.2504
 124303803.664 7  96860119.50146  23654223.976    23654223.6944         43.750
        40.5004
 125972761.897 7  98160605.31546  23971818.856    23971817.2004         42.500
        39.2504
 126943717.456 7  98917188.37046  24156584.854    24156585.2334         43.500
        37.0004
 109065953.326 8  84986491.39048  20754554.294    20754554.8384         49.750
        48.7504
 113077123.998 8  88112037.49547  21517855.348    21517855.8804         48.250
        44.5004
 126908413.308 7  98889725.17446  24149859.324    24149860.1254         42.000
        37.0004
 131037848.124 6 102107421.20345  24935672.931    24935671.7974         40.500
        32.5004
 130542533.008 6 101721488.66146  24841404.058    24841403.9274         39.500
        38.0004
 106631152.660 8  83089208.35248  20291226.717    20291225.6814         49.750
        51.2504
 111929758.017 8  87218023.31147  21299515.918    21299514.8174         49.750
        47.5004
 08  5 27  0 53  0.0000000  0 11G18G31G19G25G 6G 3G24G22G29G16G21
 125963841.939 6  98153643.52146  23970122.265    23970122.1644         41.500
        37.2504
 124409154.627 7  96942211.14346  23674271.455    23674270.8994         43.500
        38.2504
 125887090.471 7  98093848.41046  23955516.031    23955514.3444         42.000
        39.2504
 126885887.025 7  98872125.72346  24145579.958    24145580.2614         43.500
        38.0004
 109036053.619 8  84963192.92548  20748864.528    20748865.1154         50.000
        48.5004
 113009818.588 8  88059591.73347  21505047.560    21505048.0664         48.500
        44.5004
 127007997.577 7  98967323.25946  24168809.533    24168811.6524         42.750
        37.5004
 130945435.995 6 102035411.76745  24918087.458    24918086.5024         40.250
        34.0004
 130631393.205 6 101790730.40645  24858313.252    24858313.4924         39.500
        34.5004
 106620593.771 8  83080980.65348  20289217.142    20289216.3554         49.500
        51.2504
 111961835.514 8  87243018.76247  21305620.128    21305619.0074         49.750
        47.5004
 08  5 27  0 53 30.0000000  0 11G18G31G19G25G 6G 3G24G22G29G16G21
 125895193.917 7  98100151.57846  23957059.058    23957058.1684         44.000
        37.0004
 124514621.869 7  97024393.40546  23694341.204    23694340.6554         44.500
        39.7504
 125801550.285 7  98027193.74646  23939238.245    23939236.5494         42.250
        39.2504
 126828492.158 7  98827402.46346  24134658.215    24134658.5144         43.500
        38.5004
 109006428.342 8  84940108.29748  20743227.031    20743227.6434         50.000
        48.7504
 112942764.714 8  88007341.97447  21492287.668    21492288.0954         48.500
        44.2504
 127107764.486 6  99045063.70245  24187794.550    24187795.5714         41.750
        34.2504
 130852970.961 6 101963361.08245  24900491.947    24900490.8144         39.750
        34.0004
 130720253.516 6 101859972.18846  24875222.641    24875222.9734         39.500
        39.0004
 106610457.209 8  83073082.04148  20287288.034    20287287.4564         49.750
        51.5004
 111994379.826 8  87268377.96947  21311813.069    21311811.9394         49.750
        47.7504
 08  5 27  0 54  0.0000000  0 11G18G31G19G25G 6G 3G24G22G29G16G21
 125826809.514 6  98046865.00646  23944046.290    23944045.5164         40.750
        36.0004
 124620204.402 7  97106665.45346  23714433.041    23714432.9244         43.500
        40.5004
 125716144.002 7  97960643.41946  23922985.993    23922984.3104         42.500
        38.7504
 126771536.402 7  98783021.37746  24123819.817    24123820.3604         42.750
        38.0004
 108977079.144 8  84917238.79848  20737642.088    20737642.6634         49.750
        48.7504
 112875964.422 8  87955289.80747  21479576.025    21479576.4254         48.750
        45.0004
 127207713.343 6  99122945.93646  24206814.132    24206814.9334         41.750
        37.5004
 130760457.762 6 101891272.87545  24882887.009    24882886.3584         38.750
        31.5004
 130809114.865 6 101929214.73545  24892132.179    24892132.8864         39.250
        35.5004
 106600745.964 8  83065514.83148  20285440.420    20285439.4894         50.500
        51.2504
 112027391.312 8  87294101.20547  21318094.946    21318093.8464         49.750
        47.2504
 08  5 27  0 54 30.0000000  0 11G18G31G19G25G 6G 3G24G22G29G16G21
 125758690.080 7  97993784.99145  23931083.051    23931082.7044         43.750
        34.5004
 124725897.970 7  97189024.07646  23734545.769    23734545.4284         43.750
        39.5004
 125630870.092 7  97894196.26646  23906758.765    23906757.1294         42.000
        39.7504
 126715019.855 7  98738982.53046  24113065.005    24113065.5024         43.500
        38.0004
 108948004.471 8  84894583.21148  20732109.385    20732109.8764         50.000
        48.7504
 112809417.038 8  87903434.71347  21466912.496    21466912.8744         48.500
        45.0004
 127307840.278 7  99200966.84745  24225867.571    24225869.6724         42.500
        34.7504
 130667897.611 6 101819148.14345  24865273.517    24865272.8154         40.500
        35.5004
 130897975.284 6 101998456.65046  24909041.594    24909042.1414         39.250
        36.2504
 106591459.458 8  83058278.57448  20283673.798    20283672.3444         50.000
        51.5004
 112060867.138 8  87320186.26647  21324465.184    21324464.1074         49.750
        47.2504
 08  5 27  0 55  0.0000000  0 11G18G31G19G25G 6G 3G24G22G29G16G21
 125690837.606 7  97940912.88846  23918171.749    23918170.2244         43.250
        37.0004
 124831698.885 7  97271466.33746  23754679.109    23754678.6864         43.000
        41.7504
 125545728.464 7  97827852.18246  23890556.685    23890555.4784         42.250
        38.0004
 126658943.771 7  98695286.90846  24102394.146    24102394.5544         43.250
        37.2504
 108919203.902 8  84872141.21948  20726628.813    20726629.3354         50.000
        48.7504
 112743122.388 8  87851776.55647  21454297.020    21454297.4394         48.500
        45.0004
 127408142.238 6  99279124.30445  24244954.464    24244954.9804         41.750
        32.0004
 130575292.480 6 101746988.33245  24847651.537    24847650.7294         40.500
        34.0004
 130986833.681 6 102067696.89646  24925950.493    24925951.4464         37.750
        38.2504
 106582598.050 8  83051373.59448  20281987.165    20281986.0924         49.250
        51.7504
 112094805.611 8  87346631.83447  21330923.478    21330922.3854         49.750
        47.2504
 08  5 27  0 55 30.0000000  0 11G18G31G19G25G 6G 3G24G22G29G16G21
 125623257.105 7  97888252.82245  23905311.144    23905310.8234         42.500
        34.7504
 124937606.815 7  97353991.93446  23774832.474    23774832.6694         43.500
        40.0004
 125460721.811 7  97761613.27346  23874380.380    23874378.9934         42.750
        38.2504
 126603311.991 7  98651937.48146  24091807.824    24091807.9904         43.500
        37.5004
 108890679.484 8  84849914.40048  20721200.773    20721201.3044         50.000
        48.7504
 112677083.444 8  87800317.64747  21441730.161    21441730.6104         48.750
        45.2504
 127508618.899 7  99357417.73246  24264074.234    24264076.5774         42.750
        37.7504
 130482647.335 6 101674797.26445  24830022.240    24830020.5974         39.750
        35.0004
 131075691.917 6 102136937.03345  24942859.315    24942860.3584         39.000
        33.7504
 106574165.262 8  83044802.59148  20280382.078    20280381.3714         50.000
        51.2504
 112129207.451 8  87373438.46347  21337469.907    21337468.8684         50.000
        47.0004
 08  5 27  0 56  0.0000000  0 11G18G31G19G25G 6G 3G24G22G29G16G21
 125555949.608 7  97835805.45246  23892502.697    23892502.7474         43.000
        37.2504
 125043616.860 7  97436597.17046  23795005.592    23795005.2844         44.250
        38.5004
 125375848.537 7  97695478.26446  23858229.729    23858228.3094         42.250
        39.5004
 126548124.361 7  98608934.15346  24081305.824    24081306.2684         44.000
        38.5004
 108862429.404 8  84827901.35248  20715824.962    20715825.4774         50.000
        48.7504
 112611299.239 8  87749057.23647  21429211.808    21429212.3634         48.750
        45.2504
 127609266.000 6  99435844.04346  24283226.711    24283228.5414         40.000
        38.5004
 130389962.840 6 101602575.68345  24812384.360    24812383.3274         41.250
        34.0004
 131164547.333 6 102206175.08546  24959768.224    24959769.4024         40.250
        37.5004
 106566159.989 8  83038564.71648  20278858.743    20278857.9954         49.500
        51.5004
 112164069.279 8  87400603.52847  21344103.809    21344102.7864         49.750
        47.2504
 08  5 27  0 56 30.0000000  0 11G18G31G19G25G 6G 3G24G22G29G16G21
 125488919.109 7  97783573.89446  23879747.128    23879746.2374         42.500
        36.2504
 125149728.135 7  97519281.26346  23815197.973    23815197.7364         43.000
        39.5004
 125291110.998 7  97629449.05946  23842104.474    23842103.4024         42.750
        37.7504
 126493384.208 7  98566279.51046  24070889.191    24070889.5764         43.500
        39.2504
 108834455.281 8  84806103.34748  20710501.633    20710502.1744         50.000
        48.7504
 112545771.616 8  87697996.76747  21416742.268    21416742.8144         48.750
        45.2504
 127710082.665 6  99514402.47746  24302411.395    24302413.2374         41.000
        39.2504
 130297243.711 6 101530326.96745  24794740.389    24794739.0484         39.750
        34.5004
 131253401.229 6 102275411.77246  24976676.124    24976677.9594         38.500
        37.2504
 106558585.371 8  83032662.42048  20277417.282    20277416.6024         49.750
        51.5004
 112199391.496 8  87428127.33847  21350825.403    21350824.3974         49.750
        47.0004
 08  5 27  0 57  0.0000000  0 11G18G31G19G25G 6G 3G24G22G29G16G21
 125422166.470 6  97731558.91246  23867043.970    23867043.8914         41.500
        37.5004
 125255935.833 7  97602040.43946  23835408.704    23835408.7774         43.000
        40.5004
 125206507.341 7  97563524.17046  23826004.891    23826003.8484         42.000
        40.0004
 126439091.153 7  98523973.26846  24060557.578    24060558.0514         42.500
        39.2504
 108806755.082 8  84784518.77948  20705230.467    20705231.0414         50.000
        49.0004
 112480499.247 8  87647135.19047  21404321.361    21404321.9284         48.750
        45.2504
 127811064.098 6  99593089.25846  24321627.249    24321630.4824         40.750
        36.2504
 130204490.506 6 101458051.77746  24777089.577    24777089.0594         39.000
        36.7504
 131342251.043 6 102344645.45245  24993584.085    24993584.9214         38.750
        32.2504
 106551439.614 8  83027094.29048  20276057.692    20276056.8164         50.000
        51.5004
 112235170.586 8  87456007.14847  21357633.991    21357632.8704         49.750
        47.2504
 08  5 27  0 57 30.0000000  0 11G18G31G19G25G 6G 3G24G22G29G16G21
 125355696.166 6  97679763.87046  23854394.967    23854395.3794         41.250
        38.5004
 125362239.292 7  97684874.30146  23855637.556    23855637.0194         43.000
        37.7504
 125122039.934 7  97497705.48246  23809931.243    23809929.9774         42.000
        40.2504
 126385248.880 7  98482018.25346  24050311.752    24050312.0174         43.000
        38.0004
 108779330.710 8  84763149.13848  20700011.800    20700012.3874         50.000
        49.0004
 112415484.742 8  87596474.54847  21391949.447    21391950.0134         48.500
        45.0004
 127912210.163 6  99671904.43846  24340875.038    24340876.3434         41.500
        36.0004
 130111707.793 6 101385753.63945  24759433.900    24759433.2074         41.250
        32.0004
 131431098.302 6 102413877.07246  25010490.770    25010492.6234         36.750
        37.7504
 106544726.015 8  83021862.90948  20274780.279    20274779.2974         49.750
        51.5004
 112271406.840 8  87484243.19547  21364529.586    21364528.4554         49.750
        47.2504
 08  5 27  0 58  0.0000000  0 11G18G31G19G25G 6G 3G24G22G29G16G21
 125289510.499 7  97628190.66346  23841799.956    23841800.2174         44.250
        36.2504
 125468634.378 7  97767779.54146  23875883.837    23875883.4554         43.250
        40.0004
 125037708.949 7  97431993.06746  23793883.548    23793882.2204         42.750
        38.0004
 126331858.439 7  98440415.30246  24040151.901    24040151.9004         43.500
        37.5004
 108752181.575 8  84741993.97548  20694845.515    20694846.0424         49.750
        49.0004
 112350727.671 8  87546014.50447  21379626.521    21379627.1854         48.500
        45.2504
 128013517.781 6  99750845.35646  24360152.851    24360155.9494         38.000
        40.0004
 130018897.833 6 101313434.15046  24741772.757    24741771.5914         40.000
        37.0004
 131519941.658 6 102483105.55146  25027396.867    25027399.8174         38.250
        36.2504
 106538444.863 8  83016968.49948  20273585.004    20273584.0554         49.750
        51.5004
 112308098.737 8  87512834.28547  21371511.757    21371510.7524         49.750
        47.0004
 08  5 27  0 58 30.0000000  0 11G18G31G19G25G 6G 3G24G22G29G16G21
 125223610.149 7  97576839.73946  23829259.834    23829260.0414         42.750
        37.2504
 125575116.867 7  97850752.84846  23896146.954    23896146.9644         42.250
        38.7504
 124953512.412 7  97366385.41946  23777861.634    23777860.0934         43.000
        39.2504
 126278919.353 7  98399164.11746  24030077.731    24030078.1844         42.500
        38.5004
 108725305.673 8  84721051.72448  20689731.160    20689731.6844         50.000
        49.0004
 112286226.764 8  87495754.07147  21367352.376    21367353.0744         48.750
        45.0004
 128114982.468 6  99829908.79845  24379461.521    24379462.8204         40.000
        33.0004
 129926061.146 6 101241093.92545  24724106.743    24724105.8044         38.500
        35.7504
 131608779.064 6 102552329.57444  25044302.039    25044305.0084         37.000
        29.7504
 106532595.135 8  83012410.27148  20272471.695    20272470.8594         49.750
        51.5004
 112345242.572 8  87541777.53147  21378579.910    21378578.9734         49.750
        47.0004
 08  5 27  0 59  0.0000000  0 11G18G31G19G25G 6G 3G24G22G29G16G21
 125158000.515 7  97525715.38746  23816775.075    23816775.1204         43.250
        36.0004
 125681686.760 7  97933794.30746  23916426.304    23916425.5134         43.500
        37.5004
 124869453.704 7  97300885.15446  23761865.711    23761864.1534         43.000
        40.0004
 126226436.088 7  98358268.09446  24020090.558    24020091.1024         42.500
        40.5004
 108698705.862 8  84700324.60148  20684669.366    20684669.8864         50.000
        48.7504
 112221985.691 8  87445696.09947  21355127.653    21355128.4064         48.750
        45.0004
 128216604.819 6  99909095.01946  24398799.088    24398801.6144         39.000
        41.2504
 129833203.033 6 101168736.93345  24706436.254    24706435.1904         41.500
        30.2504
 131697612.633 6 102621550.55946  25061206.618    25061209.3354         38.500
        37.7504
 106527180.695 8  83008191.22848  20271441.260    20271440.5414         49.750
        51.5004
 112382839.602 8  87571073.92047  21385734.346    21385733.4354         49.500
        47.5004
 08  5 27  0 59 30.0000000  0 11G18G31G19G25G 6G 3G24G22G29G16G21
 125092683.222 7  97474818.80046  23804346.083    23804345.3184         42.500
        38.0004
 125788340.173 7  98016900.82646  23936722.125    23936721.6994         43.250
        40.0004
 124785532.423 7  97235491.99246  23745895.945    23745894.5434         42.750
        38.2504
 126174409.565 7  98317727.92746  24010190.299    24010190.5434         43.000
        38.7504
 108672381.289 8  84679811.95048  20679659.984    20679660.4874         50.000
        48.7504
 112158004.176 8  87395840.38447  21342952.382    21342953.0634         48.750
        45.2504
 128318381.488 7  99988401.49945  24418167.086    24418169.9064         43.000
        31.7504
 129740326.384 6 101096365.55945  24688762.314    24688761.3544         39.750
        30.2504
 131786441.193 6 102690767.56246  25078110.470    25078113.2234         37.500
        37.5004
 106522201.741 8  83004311.52248  20270493.790    20270493.1074         49.750
        51.5004
 112420887.874 8  87600721.92747  21392974.697    21392973.7204         49.750
        47.0004
 08  5 27  1  0  0.0000000  0 11G18G31G19G25G 6G 3G24G22G29G16G21
 125027659.823 7  97424151.24046  23791972.970    23791972.4314         43.750
        38.7504
 125895072.794 7  98100069.02246  23957032.441    23957032.6954         42.750
        38.0004
 124701747.050 7  97170204.74346  23729952.196    23729950.5854         43.250
        39.2504
 126122839.603 7  98277543.54746  24000376.778    24000377.0074         44.250
        37.7504
 108646330.097 8  84659512.32548  20674702.583    20674703.1274         50.000
        49.0004
 112094281.041 8  87346186.00047  21330826.278    21330826.9474         48.750
        45.2504
 128420308.085 6 100067824.85246  24437562.430    24437564.2284         37.250
        38.0004
 129647431.733 6 101023980.14445  24671085.293    24671084.3414         39.250
        34.2504
 131875262.392 6 102759978.96945  25095013.177    25095014.6154         39.750
        35.0004
 106517657.232 8  83000770.34348  20269629.005    20269628.3004         49.750
        51.5004
 112459384.004 8  87630718.91747  21400300.303    21400299.2384         49.750
        47.2504
 08  5 27  1  0 30.0000000  0 11G18G31G19G25G 6G 3G24G22G29G16G21
 124962934.821 7  97373716.21346  23779656.384    23779655.8354         44.250
        37.2504
 126001884.247 7  98183298.75746  23977358.128    23977357.1324         42.000
        39.7504
 124618100.653 7  97105025.74046  23714034.923    23714033.2234         43.250
        39.5004
 126071730.016 7  98237717.92046  23990651.078    23990651.3584         43.500
        40.2504
 108620554.804 8  84639427.68648  20669797.726    20669798.2154         50.000
        48.7504
 112030818.906 8  87296734.99847  21318749.847    21318750.4544         49.000
        45.2504
 128522384.590 7 100147364.96645  24456988.043    24456990.5154         43.250
        35.0004
 129554523.576 6 100951584.17846  24653405.263    24653403.7134         39.750
        36.0004
 131964078.169 6 102829186.04246  25111913.984    25111915.8804         37.250
        37.0004
 106513550.660 8  82997570.41548  20268847.580    20268846.8524         49.750
        51.7504
 112498328.856 8  87661065.56047  21407711.262    21407710.1984         49.750
        47.0004
 08  5 27  1  1  0.0000000  0 11G18G31G19G25G 6G 3G24G22G29G16G21
 124898511.170 7  97323515.95646  23767397.387    23767395.6794         44.500
        36.2504
 126108772.014 7  98266587.82446  23997697.866    23997698.3034         43.000
        38.7504
 124534593.732 7  97039955.44046  23698144.054    23698142.2764         42.750
        39.5004
 126021082.697 7  98198252.51646  23981013.107    23981013.6414         43.000
        40.2504
 108595055.623 8  84619558.20348  20664945.387    20664945.8464         50.000
        48.7504
 111967618.991 8  87247488.31547  21306723.357    21306723.8814         48.750
        45.5004
 128624609.022 6 100227020.41746  24476440.123    24476441.4114         39.000
        36.2504
 129461605.783 6 100879180.79945  24635723.482    24635722.5944         38.500
        33.7504
 132052888.335 6 102898388.74345  25128814.258    25128815.9324         41.500
        35.0004
 106509883.141 8  82994712.60648  20268149.639    20268148.9694         49.750
        51.5004
 112537721.269 8  87691760.94047  21415207.347    21415206.3084         49.750
        46.7504
 08  5 27  1  1 30.0000000  0 11G18G31G19G25G 6G 3G24G22G29G16G21
 124834389.852 7  97273551.29446  23755195.851    23755193.8834         44.750
        36.5004
 126215731.652 7  98349933.00546  24018051.859    24018051.7654         42.250
        38.0004
 124451225.205 7  96974992.98846  23682279.384    23682277.5764         43.500
        38.5004
 125970897.546 7  98159147.20646  23971463.178    23971463.5264         44.250
        37.0004
 108569830.854 8  84599902.54848  20660145.244    20660145.7424         50.000
        49.0004
 111904680.158 8  87198445.07847  21294746.477    21294747.0214         48.750
        45.5004
 128726977.252 7 100306787.88145  24495920.833    24495922.4334         43.250
        35.0004
 129368679.269 6 100806770.53345  24618040.035    24618038.7494         39.750
        30.2504
 132141690.472 6 102967585.34945  25145712.898    25145714.3894         36.500
        35.2504
 106506653.804 8  82992196.23848  20267535.134    20267534.4694         49.750
        51.5004
 112577558.023 8  87722802.57847  21422788.059    21422787.0854         49.500
        47.0004
 08  5 27  1  2  0.0000000  0 11G18G31G19G25G 6G 3G24G22G29G16G21
 124770577.027 7  97223827.02745  23743052.614    23743051.1514         44.750
        34.5004
 126322763.938 7  98433334.73846  24038419.538    24038419.0984         42.750
        39.5004
 124367998.939 7  96910141.36146  23666442.054    23666440.1694         43.250
        40.0004
 125921179.702 7  98120406.00446  23962002.270    23962002.4374         44.000
        38.5004
 108544884.106 8  84580463.52648  20655397.988    20655398.5574         49.750
        48.7504
 111842006.522 8  87149608.49147  21282820.016    21282820.6354         49.000
        45.2504
 128829490.658 6 100386668.38145  24515427.647    24515430.8534         40.250
        34.7504
 129275750.056 6 100734358.22346  24600356.099    24600354.7404         39.750
        37.0004
 132230488.617 6 103036778.56446  25162609.885    25162612.1174         40.500
        36.7504
 106503867.217 8  82990024.86948  20267004.841    20267004.1764         49.750
        51.2504
 112617841.090 8  87754191.98547  21430453.678    21430452.7374         49.750
        46.7504
 08  5 27  1  2 30.0000000  0 11G18G31G19G25G 6G 3G24G22G29G16G21
 124707067.830 7  97174339.35646  23730966.972    23730965.3834         44.500
        36.2504
 126429858.041 7  98516784.66046  24058798.952    24058799.0094         43.000
        39.2504
 124284907.436 7  96845394.75846  23650630.148    23650628.5094         42.750
        40.0004
 125871922.790 7  98082024.02446  23952628.861    23952629.2964         44.250
        39.5004
 108520207.465 8  84561234.98148  20650702.197    20650702.7124         50.000
        48.7504
 111779590.561 8  87100972.68547  21270942.617    21270943.2444         48.750
        45.5004
 128932138.728 6 100466653.99945  24534961.847    24534962.1884         40.500
        33.5004
 129182813.554 6 100661940.24945  24582671.072    24582670.4244         41.500
        32.0004
 132319273.557 6 103105961.71844  25179505.811    25179507.1904         39.750
        28.7504
 106501516.596 8  82988193.21448  20266557.509    20266556.8214         49.750
        51.5004
 112658561.396 8  87785922.09147  21438202.429    21438201.5534         49.500
        47.0004
 08  5 27  1  3  0.0000000  0 10G18G31G19G25G 6G 3G24G22G16G21
 124643874.288 7  97125097.62745  23718941.397    23718939.8284         43.500
        35.7504
 126537020.866 6  98600288.11246  24079191.151    24079191.1534         41.500
        38.5004
 124201960.530 7  96780760.82746  23634845.716    23634844.2054         44.000
        39.5004
 125823137.696 7  98044009.68446  23943345.443    23943345.7984         44.500
        38.5004
 108495810.326 8  84542224.22548  20646059.600    20646060.0984         50.000
        48.7504
 111717442.643 8  87052545.74947  21259116.238    21259116.8924         48.750
        45.7504
 129034928.758 6 100546750.04246  24554520.903    24554523.4834         38.750
        36.0004
 129089881.795 6 100589525.88445  24564987.175    24564985.1964         41.750
        34.2504
 106499611.951 8  82986709.07448  20266195.043    20266194.3794         49.500
        51.5004
 112699726.620 8  87817998.89047  21446035.803    21446035.0424         49.250
        47.0004
 08  5 27  1  3 30.0000000  0 11G18G31G19G25G 6G 3G24G22G29G16G21
 124580988.888 6  97076096.03646  23706973.484    23706973.3764         41.000
        38.7504
 126644239.922 7  98683835.42446  24099594.598    24099594.2374         43.500
        39.0004
 124119148.764 7  96716232.18146  23619087.226    23619085.4144         43.750
        39.2504
 125774816.228 7  98006356.62046  23934150.162    23934150.3214         43.750
        39.5004
 108471682.936 8  84523423.66648  20641468.316    20641468.8184         50.000
        49.0004
 111655553.330 8  87004320.31847  21247339.129    21247339.7874         48.750
        45.5004
 129137848.199 7 100626947.08745  24574107.082    24574107.8714         43.250
        32.0004
 128996947.797 6 100517109.82946  24547302.423    24547301.0134         41.750
        36.5004
 132496736.614 6 103244219.75245  25213293.606    25213292.8414         39.750
        33.2504
 106498144.538 8  82985565.63448  20265915.786    20265915.1394         49.500
        51.7504
 112741325.355 8  87850413.48147  21453951.708    21453951.0934         49.500
        47.0004
 08  5 27  1  4  0.0000000  0 11G18G31G19G25G 6G 3G24G22G29G16G21
 124518426.773 7  97027346.38646  23695067.061    23695068.0154         43.750
        38.0004
 126751524.527 6  98767433.72746  24120009.912    24120009.9724         41.250
        37.5004
 124036484.835 7  96651818.75046  23603356.785    23603355.0274         44.000
        39.7504
 125726972.152 7  97969075.51446  23925045.600    23925045.9254         43.500
        39.5004
 108447837.494 8  84504842.80348  20636930.691    20636931.1894         50.000
        49.0004
 111593935.443 8  86956306.39347  21235613.617    21235614.2744         49.000
        45.7504
 129240907.386 6 100707252.86246  24593717.880    24593719.6594         39.000
        36.5004
 128904026.525 6 100444703.61545  24529620.146    24529618.2114         41.250
        35.0004
 132585501.393 6 103313387.16745  25230183.798    25230183.7424         39.500
        33.2504
 106497127.135 8  82984772.84848  20265722.186    20265721.5484         49.500
        51.5004
 112783368.426 8  87883174.31747  21461952.358    21461951.6394         49.750
        46.5004
 08  5 27  1  4 30.0000000  0 12G18G31G19G25G 6G 3G24G 7G22G29G16G21
 124456178.647 7  96978841.37346  23683221.149    23683222.6034         42.000
        38.7504
 126858860.459 7  98851072.12246  24140435.742    24140435.0634         43.250
        38.2504
 123953957.685 7  96587511.88846  23587652.326    23587650.6884         43.500
        40.2504
 125679595.318 7  97932158.48546  23916030.302    23916030.4864         43.750
        39.2504
 108424262.448 8  84486472.63848  20632444.491    20632445.0144         50.000
        49.0004
 111532578.027 8  86908495.42547  21223937.713    21223938.3474         49.000
        46.2504
 129344092.032 6 100787656.57346  24613354.216    24613355.7614         41.000
        36.5004
 130375227.077 6 101591084.24246  24809581.766    24809581.1134         39.000
        36.5004
 128811109.186 6 100372300.58245  24511938.238    24511936.6054         41.000
        33.5004
 132674251.915 6 103382543.38246  25247072.788    25247073.6714         40.500
        37.5004
 106496549.306 8  82984322.59448  20265612.247    20265611.6304         49.500
        51.7504
 112825842.562 8  87916271.05047  21470035.024    21470034.2604         49.500
        46.7504
 08  5 27  1  5  0.0000000  0 12G18G31G19G25G 6G 3G24G 7G22G29G16G21
 124394255.774 6  96930589.83146  23671437.255    23671439.2594         39.750
        40.5004
 126966253.323 6  98934754.81746  24160871.657    24160871.3544         41.250
        39.5004
 123871576.214 7  96523318.52346  23571975.807    23571973.8984         44.000
        41.5004
 125632695.376 7  97895613.09646  23907105.463    23907105.6834         44.000
        38.5004
 108400966.265 8  84468319.77748  20628011.375    20628011.8854         50.000
        49.0004
 111471490.106 8  86860894.46347  21212313.092    21212313.7064         49.000
        45.7504
 129447408.492 6 100868162.87746  24633013.936    24633015.4144         40.250
        36.2504
 130292254.301 6 101526430.15445  24793791.275    24793791.3754         39.250
        32.5004
 128718207.245 6 100299909.53245  24494259.426    24494258.6354         41.500
        34.0004
 132762996.370 6 103451694.82245  25263960.546    25263960.3804         39.000
        30.0004
 106496420.497 8  82984222.22348  20265587.747    20265587.1564         49.500
        51.7504
 112868754.610 8  87949709.00947  21478200.921    21478200.1054         49.500
        47.0004
 08  5 27  1  5 30.0000000  0 12G18G31G19G25G 6G 3G24G 7G22G29G16G21
 124332653.761 7  96882588.31246  23659715.573    23659716.6914         42.750
        38.7504
 127073693.326 7  99018474.24846  24181316.691    24181316.8684         42.750
        37.5004
 123789333.727 7  96459233.49646  23556325.600    23556323.7184         44.000
        40.2504
 125586266.898 7  97859435.08046  23898270.310    23898270.6574         44.250
        38.7504
 108377942.094 8  84450378.86648  20623630.009    20623630.5394         50.000
        48.7504
 111410665.787 8  86813498.90047  21200738.662    21200739.1724         49.250
        45.7504
 129550847.282 6 100948764.53146  24652698.414    24652699.5354         41.000
        36.5004
 130209642.602 6 101462057.41045  24778070.756    24778070.4734         38.500
        35.0004
 128625316.436 6 100227527.05845  24476582.916    24476581.3704         41.250
        30.7504
 132851727.329 6 103520836.00646  25280845.474    25280844.6234         40.500
        36.5004
 106496734.424 8  82984466.83748  20265647.527    20265646.9164         49.500
        51.7504
 112912096.309 8  87983481.75947  21486448.489    21486447.6724         49.500
        46.5004
 08  5 27  1  6  0.0000000  0 12G18G31G19G25G 6G 3G24G 7G22G29G16G21
 124271378.739 7  96834841.54645  23648055.901    23648056.4204         44.750
        35.5004
 127181181.318 6  99102231.09146  24201771.107    24201770.5424         41.750
        37.7504
 123707233.981 7  96395259.67146  23540702.663    23540700.6414         43.750
        40.5004
 125540314.815 7  97823628.24746  23889525.997    23889526.0724         43.750
        38.7504
 108355193.248 8  84432652.49348  20619301.042    20619301.5554         50.000
        48.7504
 111350108.425 8  86766311.35247  21189215.003    21189215.4754         49.250
        45.7504
 129654410.078 6 101029462.75445  24672404.956    24672407.3314         38.250
        35.2504
 130127397.833 6 101397970.65046  24762420.180    24762420.1534         39.500
        36.2504
 128532443.138 7 100155158.33945  24458909.781    24458908.6714         43.000
        35.2504
 132940447.504 6 103589968.44946  25297728.665    25297728.6014         38.000
        38.7504
 106497495.289 8  82985059.71848  20265792.291    20265791.6964         49.500
        51.7504
 112955869.282 8  88017590.56747  21494778.221    21494777.4604         49.750
        46.5004
 08  5 27  1  6 30.0000000  0 12G18G31G19G25G 6G 3G24G 7G22G29G16G21
 124210434.077 7  96787352.19445  23636459.100    23636459.1354         46.750
        35.7504
 127288715.407 7  99186023.83046  24222234.062    24222234.0194         42.500
        38.7504
 123625278.474 7  96331398.22346  23525107.001    23525105.1304         44.000
        40.5004
 125494841.422 7  97788194.43946  23880872.644    23880872.7974         44.750
        39.2504
 108332720.554 8  84415141.30748  20615024.654    20615025.1294         50.000
        49.0004
 111289819.913 8  86719333.30147  21177742.445    21177742.9634         49.000
        46.0004
 129758094.735 6 101110256.00345  24692136.186    24692137.5544         40.750
        34.0004
 130045523.030 6 101334172.12146  24746840.012    24746839.9084         39.000
        36.2504
 128439590.870 6 100082805.93845  24441240.474    24441239.2094         41.000
        33.5004
 133029157.646 6 103659093.31145  25314609.644    25314609.7594         40.000
        31.0004
 106498704.676 8  82986002.09548  20266022.382    20266021.8124         49.500
        51.7504
 113000072.830 8  88052034.89447  21503189.995    21503189.2314         49.500
        46.5004
 08  5 27  1  7  0.0000000  0 12G18G31G19G25G 6G 3G24G 7G22G29G16G21
 124149821.021 7  96740121.19645  23624925.723    23624924.5374         46.500
        34.7504
 127396291.895 7  99269849.58646  24242705.455    24242705.0564         42.250
        36.7504
 123543466.294 7  96267648.49446  23509538.709    23509536.7114         44.000
        41.5004
 125449846.857 7  97753133.77546  23872310.540    23872310.8924         44.500
        39.2504
 108310522.883 8  84397844.42148  20610800.667    20610801.0994         50.000
        49.0004
 111229799.330 8  86672564.02647  21166320.843    21166321.3834         49.000
        45.7504
 129861898.078 6 101191141.79646  24711888.806    24711891.0884         39.000
        36.7504
 129964019.998 6 101270663.32046  24731330.406    24731330.7924         38.500
        38.5004
 128346761.214 7 100010471.16045  24423575.370    24423574.3254         42.000
        35.2504
 133117856.145 6 103728209.04245  25331487.700    25331488.8854         36.750
        35.7504
 106500362.369 8  82987293.80448  20266337.819    20266337.2454         49.500
        51.5004
 113044704.233 8  88086812.60847  21511683.033    21511682.3424         49.250
        46.5004
 08  5 27  1  7 30.0000000  0 12G18G31G19G25G 6G 3G24G 7G22G29G16G21
 124089541.512 7  96693150.15445  23613455.752    23613453.7224         45.750
        35.5004
 127503907.154 7  99353705.61446  24263183.714    24263183.4634         43.000
        38.0004
 123461797.208 7  96204010.23546  23493997.753    23493995.7134         44.000
        41.0004
 125405332.011 7  97718446.90146  23863839.558    23863839.8504         43.750
        40.0004
 108288599.603 8  84380761.35248  20606628.829    20606629.2084         50.000
        49.0004
 111170046.521 8  86626003.40747  21154950.249    21154950.8274         49.250
        46.2504
 129965816.791 6 101272117.44645  24731664.219    24731665.8184         40.500
        35.2504
 129882890.437 6 101207445.52746  24715891.815    24715892.1094         38.750
        37.0004
 128253956.803 6  99938156.08846  24405915.058    24405914.9024         40.000
        36.0004
 133206548.980 6 103797311.77046  25348363.404    25348365.9124         39.500
        39.2504
 106502468.172 8  82988934.68448  20266738.552    20266737.9874         49.500
        51.7504
 113089761.195 8  88121921.91947  21520256.939    21520256.4554         49.500
        46.5004
 08  5 27  1  8  0.0000000  0 11G18G31G19G25G 6G 3G24G 7G22G16G21
 124029599.404 7  96646442.03146  23602049.951    23602047.3804         45.750
        36.7504
 127611559.553 6  99437590.51746  24283669.540    24283669.4414         41.250
        39.0004
 123380272.707 7  96140484.64646  23478484.019    23478482.0014         44.000
        41.0004
 125361299.147 7  97684135.56146  23855460.400    23855460.5874         43.250
        40.2504
 108266951.779 8  84363892.91548  20602509.373    20602509.7334         50.000
        49.0004
 111110563.377 8  86579652.91747  21143630.918    21143631.4804         49.000
        46.0004
 130069850.139 6 101353182.37545  24751460.661    24751462.6784         39.250
        32.5004
 129802137.634 6 101144521.31145  24700524.937    24700525.4344         38.750
        35.5004
 128161181.392 7  99865863.54845  24388260.668    24388260.0814         43.000
        34.7504
 106505024.376 8  82990926.52948  20267224.975    20267224.4474         49.500
        51.7504
 113135243.003 8  88157362.29047  21528911.810    21528911.1584         49.250
        46.5004
 08  5 27  1  8 30.0000000  0 12G18G31G19G25G 6G 3G24G 7G22G29G16G21
 123969995.754 7  96599997.63346  23590708.532    23590705.2764         42.750
        38.5004
 127719245.117 7  99521501.26746  24304161.850    24304161.1894         43.250
        37.2504
 123298891.770 7  96077070.92946  23462997.688    23462995.8304         44.000
        40.0004
 125317748.344 7  97650199.88346  23847172.827    23847173.2704         44.000
        39.7504
 108245578.234 8  84347238.20848  20598442.046    20598442.4764         50.000
        49.2504
 111051349.484 8  86533512.23547  21132362.865    21132363.4704         49.000
        46.2504
 130173994.354 6 101434333.75846  24771278.991    24771281.0034         39.250
        36.0004
 129721763.077 6 101081891.82145  24685230.137    24685230.6274         39.500
        35.0004
 128068436.374 6  99793594.78645  24370612.200    24370611.7774         40.500
        35.0004
 133383885.666 6 103935496.67345  25382110.429    25382110.1304         39.000
        34.5004
 106508030.346 8  82993268.84048  20267797.004    20267796.4564         49.500
        51.5004
 113181147.000 8  88193131.64047  21537647.282    21537646.1464         49.750
        46.0004
 08  5 27  1  9  0.0000000  0 12G18G31G19G25G 6G 3G24G 7G22G29G16G21
 123910736.827 6  96553821.88546  23579431.089    23579428.4424         41.750
        39.2504
 127826964.840 6  99605438.67546  24324660.261    24324660.0644         41.500
        38.5004
 123217658.724 7  96013772.45546  23447539.411    23447537.7584         44.000
        39.5004
 125274684.677 7  97616643.79046  23838978.149    23838978.4534         44.500
        39.2504
 108224482.716 8  84330800.14848  20594427.660    20594428.1414         50.000
        49.0004
 110992408.713 8  86487584.37547  21121146.815    21121147.4174         49.000
        46.2504
 130278250.707 6 101515572.47245  24791117.940    24791119.5024         40.750
        34.7504
 129641773.077 6 101019562.00945  24670008.499    24670009.0424         39.500
        33.7504
 127975728.163 7  99721354.65646  24352970.366    24352969.6564         42.000
        36.2504
 133472535.832 5 104004574.65846  25398979.014    25398980.0384         35.750
        36.2504
 106511490.635 8  82995965.16648  20268455.481    20268454.8954         49.500
        51.7504
 113227475.390 8  88229231.68947  21546463.466    21546462.1014         49.500
        46.5004
 08  5 27  1  9 30.0000000  0 12G18G31G19G25G 6G 3G24G 7G22G29G16G21
 123851821.088 7  96507913.53146  23568219.048    23568217.1304         44.250
        39.5004
 127934712.090 7  99689397.48546  24345163.816    24345163.4734         42.250
        38.0004
 123136570.037 7  95950586.47546  23432108.604    23432106.9824         43.500
        40.7504
 125232105.376 7  97583465.11446  23830875.476    23830875.7514         43.250
        39.7504
 108203661.018 8  84314575.44948  20590465.453    20590465.9274         50.000
        49.0004
 110933738.136 8  86441867.05447  21109982.187    21109982.7884         49.250
        46.2504
 130382612.887 6 101596893.67245  24810977.611    24810979.3754         40.000
        33.5004
 129562165.923 6 100957530.49746  24654859.904    24654860.2604         39.250
        36.7504
 127883056.153 6  99649142.70645  24335335.195    24335334.1654         41.750
        34.7504
 133561169.532 6 104073647.45045  25415846.124    25415845.1754         37.750
        31.5004
 106515401.907 8  82999012.90348  20269199.754    20269199.1614         49.500
        51.7504
 113274222.366 8  88265657.90147  21555359.084    21555357.7624         49.500
        46.2504
 08  5 27  1 10  0.0000000  0 12G18G31G19G25G 6G 3G24G 7G22G29G16G21
 123793251.022 7  96462274.52946  23557072.898    23557071.5824         43.250
        37.7504
 128042484.102 6  99773375.61246  24365672.029    24365671.8584         41.000
        37.0004
 123055626.005 7  95887513.21446  23416705.437    23416703.9544         43.500
        40.7504
 125190011.829 7  97550664.95246  23822865.383    23822865.6634         44.500
        40.2504
 108183113.236 8  84298564.19348  20586555.358    20586555.8154         50.000
        49.0004
 110875337.653 8  86396360.19347  21098868.981    21098869.5784         49.250
        45.7504
 130487078.735 6 101678295.54446  24830856.396    24830857.8874         38.750
        36.2504
 129482944.140 6 100895799.28846  24639784.571    24639784.7924         39.500
        36.5004
 127790423.171 7  99576961.22645  24317707.713    24317706.7334         42.000
        34.2504
 133649790.261 6 104142702.59345  25432711.473    25432710.7034         40.500
        35.7504
 106519764.807 8  83002412.56548  20270029.980    20270029.3934         49.500
        51.5004
 113321386.096 8  88302408.85047  21564334.091    21564332.7954         49.750
        46.2504
 08  5 27  1 10 30.0000000  0 12G18G31G19G25G 6G 3G24G 7G22G29G16G21
 123735031.957 7  96416909.03846  23545993.060    23545992.8894         44.500
        37.5004
 128150281.366 6  99857373.38046  24386185.077    24386184.7954         41.000
        38.2504
 122974829.788 7  95824555.13546  23401330.363    23401328.8794         44.250
        40.5004
 125148408.133 7  97518246.51346  23814948.439    23814948.8404         43.500
        39.0004
 108162842.267 8  84282768.63548  20582697.885    20582698.3714         50.000
        49.0004
 110817211.174 8  86351066.84647  21087807.802    21087808.4274         49.500
        46.2504
 130591649.266 6 101759779.19345  24850756.090    24850757.6064         41.000
        32.5004
 129404113.446 6 100834372.79645  24624783.761    24624783.5334         39.750
        33.5004
 127697834.696 7  99504814.36245  24300088.694    24300087.2594         42.250
        34.2504
 133738398.624 5 104211747.87645  25449571.895    25449572.3744         35.000
        34.7504
 106524582.864 8  83006166.89048  20270946.861    20270946.2684         49.500
        51.7504
 113368967.873 8  88339485.55747  21573388.703    21573387.3904         49.500
        46.5004
 08  5 27  1 11  0.0000000  0 12G18G31G19G25G 6G 3G24G 7G22G29G16G21
 123677163.878 7  96371817.05145  23534980.703    23534980.9344         44.000
        34.7504
 128258097.397 7  99941385.82446  24406701.976    24406702.3084         42.250
        37.2504
 122894178.841 7  95761710.26346  23385983.075    23385981.6574         44.250
        40.2504
 125107292.556 7  97486208.41246  23807124.357    23807124.7174         43.750
        38.2504
 108142845.165 8  84267186.47348  20578892.557    20578893.0484         50.000
        49.2504
 110759356.424 8  86305985.23447  21076798.469    21076798.9914         49.250
        46.5004
 130696318.671 6 101841339.69545  24870673.611    24870675.6664         38.500
        33.7504
 129325672.825 6 100773250.24746  24609857.281    24609856.5994         40.500
        36.5004
 127605290.730 7  99432702.25146  24282478.478    24282477.8054         42.250
        36.7504
 133826991.106 6 104280781.20445  25466430.508    25466429.8724         40.750
        34.0004
 106529853.762 8  83010274.08048  20271949.916    20271949.3164         49.500
        50.7504
 113416963.138 8  88376884.46047  21582521.839    21582520.6914         49.500
        46.0004
 08  5 27  1 11 30.0000000  0 12G18G31G19G25G 6G 3G24G 7G22G29G16G21
 123619651.474 7  96327002.17646  23524036.308    23524036.8214         44.500
        36.7504
 128365932.350 6 100025413.03546  24427222.368    24427222.0474         40.500
        38.2504
 122813675.977 7  95698980.76346  23370663.943    23370662.2134         44.500
        40.7504
 125066668.757 7  97454553.50146  23799393.976    23799394.1204         43.250
        39.5004
 108123124.289 8  84251819.55748  20575139.817    20575140.2904         50.000
        49.0004
 110701775.724 8  86261117.16147  21065841.315    21065841.7424         49.500
        46.2504
 130801087.306 6 101922977.68945  24890611.073    24890611.9114         41.000
        34.0004
 129247627.220 6 100712435.49745  24595005.702    24595004.8484         40.750
        35.5004
 127512796.600 6  99360628.93145  24264877.317    24264876.6584         41.500
        34.2504
 133915569.890 5 104349803.42045  25483285.829    25483286.4594         35.750
        30.0004
 106535580.981 8  83014736.84448  20273039.793    20273039.1774         49.500
        51.5004
 113465372.516 8  88414606.04747  21591733.659    21591732.7104         49.250
        46.0004
 08  5 27  1 12  0.0000000  0 12G18G31G19G25G 6G 3G24G 7G22G29G16G21
 123562495.774 7  96282465.29946  23513159.452    23513160.4694         43.000
        38.0004
 128473781.995 6 100109451.58946  24447745.485    24447745.6084         41.750
        38.0004
 122733320.061 7  95636365.78846  23355372.679    23355371.2714         44.000
        40.7504
 125026536.459 7  97423281.60846  23791756.929    23791757.2574         44.000
        38.5004
 108103678.207 8  84236666.76748  20571439.392    20571439.8314         50.250
        49.0004
 110644468.782 8  86216462.40947  21054936.149    21054936.5044         49.250
        46.2504
 130905951.540 6 102004690.02446  24910565.378    24910568.0354         40.000
        36.0004
 129169977.682 6 100651929.39045  24580229.379    24580228.7844         41.000
        34.0004
 127420353.690 6  99288595.52746  24247286.231    24247284.7704         41.750
        37.2504
 134004133.272 6 104418813.70646  25500138.833    25500139.6444         40.500
        36.0004
 106541763.559 8  83019554.43448  20274216.322    20274215.6964         49.500
        51.7504
 113514192.893 8  88452647.89247  21601023.814    21601022.9174         49.500
        46.5004
 08  5 27  1 12 30.0000000  0 12G18G31G19G25G 6G 3G24G 7G22G29G16G21
 123505699.249 7  96238208.28246  23502351.272    23502352.2784         44.250
        37.2504
 128581644.195 6 100193500.06146  24468270.807    24468270.9434         40.000
        37.0004
 122653111.854 7  95573865.90646  23340109.636    23340107.9864         44.750
        40.5004
 124986897.157 7  97392393.83246  23784213.922    23784214.1164         43.750
        38.0004
 108084507.424 8  84221728.49848  20567791.319    20567791.7764         50.250
        49.0004
 110587436.103 8  86172021.37347  21044083.137    21044083.5644         49.500
        46.2504
 131010909.099 6 102086475.12844  24930538.720    24930539.6784         40.750
        28.5004
 129092726.904 6 100591734.03146  24565528.807    24565528.5854         40.500
        37.5004
 127327965.217 6  99216604.57746  24229704.557    24229703.9894         41.500
        36.5004
 134092681.207 5 104487812.38144  25516988.945    25516988.6424         33.000
        26.7504
 106548402.450 8  83024727.59348  20275479.691    20275479.0194         49.500
        51.7504
 113563422.978 8  88491009.00547  21610392.142    21610391.0934         49.750
        46.0004
 08  5 27  1 13  0.0000000  0 12G18G31G19G25G 6G 3G24G 7G22G29G16G21
 123449266.936 7  96194235.07046  23491612.423    23491613.6014         43.250
        39.7504
 128689518.682 6 100277557.99546  24488798.663    24488798.9784         41.500
        37.7504
 122573054.215 7  95511483.35846  23324875.162    23324873.5394         44.500
        40.7504
 124947754.557 7  97361893.11246  23776765.208    23776765.5444         43.500
        39.5004
 108065614.283 8  84207006.57048  20564196.080    20564196.5314         50.000
        49.0004
 110530681.123 8  86127796.72347  21033283.054    21033283.5064         49.250
        46.2504
 131115960.822 6 102168333.61245  24950529.065    24950531.2334         39.750
        34.7504
 129015880.011 6 100531853.37746  24550905.092    24550905.3314         39.750
        36.5004
 127235636.519 7  99144660.12945  24212134.943    24212133.3524         42.750
        35.5004
 134181211.381 6 104556792.64045  25533836.075    25533837.2644         39.250
        34.7504
 106555500.799 8  83030258.76948  20276830.480    20276829.7824         49.750
        51.7504
 113613063.446 8  88529689.89047  21619838.475    21619837.2154         49.500
        45.7504
 08  5 27  1 13 30.0000000  0 12G18G31G19G25G 6G 3G24G 7G22G29G16G21
 123393194.151 7  96150542.02746  23480941.937    23480943.3824         43.250
        38.5004
 128797395.502 6 100361617.85746  24509327.344    24509327.1644         41.000
        38.2504
 122493140.224 7  95449212.74646  23309667.910    23309666.3274         44.500
        40.2504
 124909102.467 7  97331774.61246  23769410.108    23769410.3984         44.750
        39.2504
 108046991.341 8  84192495.19248  20560652.187    20560652.7274         50.000
        49.2504
 110474197.068 8  86083783.17647  21022534.400    21022534.9334         49.250
        46.5004
 131221096.765 6 102250257.71345  24970536.454    24970537.8674         38.750
        33.0004
 128939432.033 6 100472283.56246  24536357.365    24536357.7894         39.750
        39.0004
 127143363.207 7  99072758.91846  24194575.981    24194574.9224         42.000
        37.0004
 134269725.118 5 104625764.37146  25550679.804    25550681.7424         34.750
        37.7504
 106563051.694 8  83036142.58348  20278267.367    20278266.6464         49.500
        51.5004
 113663105.078 8  88568683.36847  21629360.956    21629359.6994         49.500
        46.0004
 08  5 27  1 14  0.0000000  0 12G18G31G19G25G 6G 3G24G 7G22G29G16G21
 123337490.419 7  96107136.54446  23470342.125    23470343.1214         43.750
        39.2504
 128905278.650 6 100445682.53146  24529856.747    24529857.1504         41.250
        39.2504
 122413377.232 7  95387059.77447  23294489.548    23294487.7164         44.750
        42.0004
 124870949.161 7  97302044.78246  23762149.728    23762150.0094         44.000
        37.0004
 108028645.663 8  84178199.85848  20557161.055    20557161.6764         50.000
        49.2504
 110417991.215 8  86039986.41947  21011838.764    21011839.2574         49.500
        46.2504
 131326321.985 6 102332251.44245  24990559.428    24990560.1004         40.000
        30.5004
 128863392.084 6 100413031.70546  24521887.420    24521887.9494         39.750
        36.5004
 127051155.302 7  99000908.64446  24177029.471    24177028.5044         42.750
        36.5004
 134358230.11516 104694724.44455  25567521.406    25567522.3364         37.250
        31.0004
 106571062.839 8  83042385.02348  20279791.855    20279791.0914         49.750
        51.5004
 113713553.442 8  88607993.78147  21638961.019    21638959.8184         49.750
        45.7504
 08  5 27  1 14 30.0000000  0 12G18G31G19G25G 6G 3G24G 7G22G29G16G21
 123282154.470 7  96064017.63946  23459812.377    23459812.8384         44.500
        38.0004
 129013162.837 6 100529748.19945  24550386.556    24550386.7304         41.000
        35.7504
 122333762.990 7  95325022.72146  23279339.574    23279337.8404         45.000
        41.0004
 124833292.661 7  97272702.06046  23754983.940    23754984.2784         43.750
        40.7504
 108010574.454 8  84164118.39848  20553722.212    20553722.8394         50.000
        49.2504
 110362061.447 8  85996404.78547  21001195.653    21001196.1844         49.500
        46.2504
 131431631.013 6 102414310.48245  25010600.021    25010601.1914         40.250
        35.5004
 128787759.741 6 100354097.43545  24507494.980    24507495.3854         40.250
        35.5004
 126959012.615 7  98929109.18946  24159495.360    24159494.4884         43.000
        36.7504
 134446712.308 6 104763671.69646  25584359.156    25584360.4484         38.000
        38.5004
 106579532.191 8  83048984.51548  20281403.514    20281402.7314         49.750
        51.5004
 113764403.591 8  88647617.27847  21648637.606    21648636.4404         49.500
        45.7504
 08  5 27  1 15  0.0000000  0 11G18G31G19G25G 6G 3G24G 7G22G16G21
 123227191.761 7  96021189.55946  23449353.648    23449353.7534         44.000
        39.0004
 129121047.469 6 100613814.02746  24570916.462    24570916.7234         41.750
        37.5004
 122254299.642 7  95263103.25246  23264218.112    23264216.4044         44.500
        41.2504
 124796136.336 7  97243749.07646  23747913.327    23747913.7094         43.500
        40.0004
 107992779.945 8  84150252.54648  20550336.071    20550336.6114         50.000
        49.2504
 110306410.449 8  85953040.37647  20990605.644    20990606.1074         49.250
        46.5004
 131537024.157 7 102496434.95345  25030655.396    25030655.0624         42.000
        30.5004
 128712539.626 6 100295484.37646  24493180.860    24493181.5234         39.750
        36.2504
 126866940.526 6  98857364.75946  24141974.672    24141974.0414         40.750
        38.7504
 106588462.477 8  83055943.17548  20283102.879    20283102.1074         49.500
        51.5004
 113815656.070 8  88687554.27147  21658390.593    21658389.5084         49.500
        45.7504
 08  5 27  1 15 30.0000000  0 12G18G31G19G25G 6G 3G24G 7G22G29G16G21
 123172602.292 7  95978652.35046  23438965.939    23438965.8854         44.250
        37.7504
 129228927.632 6 100697876.47845  24591445.356    24591445.3424         40.000
        34.0004
 122174985.262 7  95201299.84646  23249125.112    23249123.2364         45.250
        40.7504
 124759479.009 7  97215184.93346  23740937.663    23740938.0084         44.500
        40.5004
 107975259.685 8  84136600.39848  20547002.142    20547002.5944         50.250
        49.2504
 110251036.439 8  85909891.80747  20980068.332    20980068.7934         49.250
        47.0004
 131642496.442 6 102578621.23446  25050726.473    25050727.5934         36.500
        39.2504
 128637731.756 6 100237192.54146  24478945.407    24478946.1834         40.250
        37.2504
 126774939.193 7  98785675.39745  24124467.038    24124465.5834         42.750
        34.7504
 134623633.490 6 104901519.79945  25618024.419    25618024.3634         39.000
        35.0004
 106597851.865 8  83063259.57848  20284889.649    20284888.8554         49.750
        51.5004
 113867306.980 8  88727801.72947  21668219.292    21668218.3484         49.000
        45.7504
 08  5 27  1 16  0.0000000  0 11G18G31G19G25G 6G 3G24G 7G22G16G21
 123118387.108 7  95936406.75746  23428649.471    23428649.1104         45.000
        37.2504
 129336799.635 6 100781932.53646  24611972.680    24611972.7824         41.250
        38.0004
 122095819.314 7  95139612.11946  23234060.339    23234058.5324         45.250
        41.5004
 124723320.701 7  97187009.62846  23734057.008    23734057.3034         44.250
        40.5004
 107958012.843 8  84123161.30248  20543720.225    20543720.6304         50.000
        49.2504
 110195938.991 8  85866958.73947  20969583.655    20969584.1074         49.500
        46.5004
 131747995.276 7 102660782.97845  25070813.865    25070810.7754         42.000
        32.5004
 128563337.570 6 100179223.06546  24464788.897    24464789.3004         40.750
        36.2504
 126683010.928 7  98714043.02845  24106973.819    24106972.2354         42.500
        35.5004
 106607700.061 8  83070933.49248  20286763.723    20286762.9114         49.750
        51.5004
 113919353.635 8  88768357.55747  21678123.435    21678122.4044         49.500
        45.7504
 08  5 27  1 16 30.0000000  0 12G18G31G19G25G 6G 3G24G 7G22G29G16G21
 123064553.950 7  95894458.84446  23418405.528    23418404.9334         45.500
        37.2504
 129444666.099 6 100865984.25945  24632498.552    24632498.9114         41.000
        31.7504
 122016807.550 7  95078044.53647  23219024.852    23219023.1384         45.000
        42.0004
 124687667.719 7  97159228.09546  23727272.405    23727272.7774         44.500
        40.0004
 107941044.521 8  84109939.23548  20540491.254    20540491.6054         50.000
        49.2504
 110141123.946 8  85824245.72547  20959152.698    20959153.1764         49.500
        46.7504
 131853623.389 6 102743090.77046  25090913.953    25090912.2474         36.500
        37.2504
 128489364.647 6 100121581.85546  24450712.460    24450712.5154         40.750
        37.5004
 126591163.698 6  98642473.80746  24089495.813    24089494.7054         41.500
        36.0004
 134800471.124 6 105039340.95345  25651676.585    25651678.2014         40.500
        31.0004
 106618012.997 8  83078969.54548  20288726.167    20288725.3824         49.750
        51.5004
 113971799.499 8  88809224.47047  21688103.735    21688102.3844         49.750
        45.7504
 08  5 27  1 17  0.0000000  0 12G18G31G19G25G 6G 3G24G 7G22G29G16G21
 123011102.494 7  95852808.37746  23408234.316    23408233.8454         45.250
        39.2504
 129552521.966 6 100950027.75346  24653023.251    24653023.2064         41.500
        39.2504
 121937947.519 7  95016595.16946  23204018.412    23204016.7204         45.250
        41.5004
 124652518.336 7  97131838.97346  23720583.807    23720583.9594         44.500
        39.7504
 107924352.158 8  84096932.20148  20537314.780    20537315.0864         50.000
        49.2504
 110086589.571 8  85781751.41647  20948775.098    20948775.6474         49.500
        47.0004
 131959325.869 6 102825456.14745  25111026.802    25111028.2024         41.000
        34.0004
 128415812.592 6 100064268.60246  24436716.005    24436716.3074         41.000
        37.5004
 126499397.766 7  98570967.89846  24072033.444    24072032.3154         42.500
        37.0004
 134888867.969 5 105108221.79443  25668496.411    25668499.4764         34.500
        23.5004
 106628788.196 8  83087365.79948  20290776.614    20290775.8634         49.750
        51.5004
 114024639.864 8  88850398.78047  21698158.833    21698157.5864         49.000
        45.7504
 08  5 27  1 17 30.0000000  0 12G18G31G19G25G 6G 3G24G 7G22G29G16G21
 122958032.320 7  95811455.00246  23398135.713    23398135.2794         44.750
        39.0004
 129660361.269 6 101034058.28846  24673544.412    24673544.6494         39.750
        36.7504
 121859237.338 7  94955262.57346  23189040.363    23189038.4524         45.000
        41.5004
 124617870.800 7  97104840.90346  23713990.547    23713990.8164         44.750
        40.2504
 107907932.813 8  84084137.90948  20534190.264    20534190.5974         50.250
        49.2504
 110032333.381 8  85739473.87047  20938450.465    20938451.0234         49.500
        46.7504
 132065097.698 5 102907875.90345  25131153.691    25131153.4604         33.000
        34.5004
 128342680.979 6 100007282.93346  24422799.635    24422799.5964         41.500
        37.0004
 126407713.231 7  98499525.49146  24054586.373    24054585.2814         43.000
        36.0004
 134977237.535 6 105177080.65446  25685314.037    25685315.5204         36.500
        36.2504
 106640023.387 8  83096120.48848  20292914.671    20292913.8784         49.750
        51.5004
 114077870.049 8  88891876.84547  21708287.986    21708286.9694         49.250
        45.7504
 08  5 27  1 18  0.0000000  0 12G18G31G19G25G 6G 3G24G 7G22G29G16G21
 122905344.617 7  95770399.66346  23388109.790    23388109.1014         45.750
        38.0004
 129768180.176 6 101118073.03545  24694061.674    24694061.4884         40.750
        35.5004
 121780675.500 7  94894045.56846  23174090.673    23174088.9014         45.500
        41.7504
 124583725.075 7  97078233.84546  23707492.873    23707493.0544         44.750
        40.5004
 107891785.689 8  84071555.73748  20531117.575    20531117.9634         50.000
        49.2504
 109978354.441 8  85697412.36447  20928178.561    20928179.1664         49.500
        46.7504
 132170935.760 7 102990359.04845  25151298.119    25151298.5254         42.750
        33.7504
 128269971.193 6  99950625.96746  24408963.476    24408963.4174         41.250
        36.5004
 126316111.908 6  98428147.87046  24037155.144    24037153.8094         41.500
        37.2504
 135065592.373 5 105245928.61144  25702128.010    25702129.4294         35.500
        29.2504
 106651718.243 8  83105233.36048  20295140.128    20295139.3584         49.750
        51.5004
 114131487.556 8  88933656.72847  21718491.136    21718489.9054         49.500
        45.0004
 08  5 27  1 18 30.0000000  0 12G18G31G19G25G 6G 3G24G 7G22G29G16G21
 122853050.762 7  95729651.20946  23378158.952    23378157.7214         46.250
        37.7504
 129875985.466 6 101202077.09646  24714576.207    24714576.8104         40.250
        36.5004
 121702271.871 7  94832951.83946  23159170.934    23159168.9294         45.250
        41.0004
 124550091.485 7  97052025.86046  23701092.483    23701092.7974         44.500
        40.2504
 107875919.968 8  84059192.84448  20528098.363    20528098.8714         50.250
        49.2504
 109924663.450 8  85655575.23347  20917961.552    20917962.1274         49.500
        47.0004
 132276847.345 5 103072887.53844  25171449.938    25171450.4444         32.500
        29.2504
 128197694.700 6  99894306.62846  24395209.770    24395209.6674         40.750
        37.7504
 126224605.888 7  98356844.53246  24019741.854    24019740.9124         43.500
        37.0004
 135153934.634 6 105314766.78145  25718938.930    25718940.6954         36.000
        34.7504
 106663882.637 8  83114712.10348  20297454.911    20297454.1714         49.750
        51.5004
 114185499.758 8  88975744.16247  21728769.346    21728768.0794         49.250
        45.5004
 08  5 27  1 19  0.0000000  0 11G18G31G19G25G 6G 3G24G 7G22G16G21
 122801147.628 7  95689207.21746  23368282.381    23368280.5804         45.750
        38.5004
 129983768.807 6 101286064.09445  24735086.832    24735086.8424         40.000
        34.7504
 121624020.909 7  94771977.08247  23144280.182    23144278.3394         45.000
        42.2504
 124516964.706 7  97026212.78146  23694788.833    23694788.9494         45.250
        40.0004
 107860329.471 8  84047044.40948  20525131.614    20525132.1304         50.000
        49.2504
 109871254.360 8  85613957.76847  20907798.134    20907798.6944         49.500
        47.0004
 132382824.213 7 103155466.95745  25191616.743    25191616.6484         42.750
        34.7504
 128125847.669 6  99838321.97546  24381537.610    24381537.5054         40.500
        38.7504
 126133192.693 7  98285613.48445  24002346.531    24002344.9604         42.500
        35.5004
 106676510.755 8  83124552.19548  20299857.974    20299857.2074         49.750
        51.2504
 114239898.659 8  89018132.91747  21739120.881    21739120.0374         48.750
        45.5004
 08  5 27  1 19 30.0000000  0 11G18G31G19G25G 6G 3G 7G22G29G16G21
 122749635.175 7  95649067.65446  23358479.757    23358477.9054         45.500
        39.0004
 130091525.647 6 101370030.37045  24755592.776    24755593.0124         41.000
        34.7504
 121545920.980 7  94711119.99146  23129418.307    23129416.1114         45.250
        41.7504
 124484343.735 7  97000793.86046  23688581.162    23688581.4654         45.000
        40.7504
 107845012.238 8  84035108.90348  20522216.835    20522217.3354         50.250
        49.2504
 109818125.776 8  85572558.87747  20897688.042    20897688.6314         49.750
        47.2504
 128054430.464 6  99782672.21446  24367947.201    24367947.4104         41.750
        39.2504
 126041872.839 7  98214455.20746  23984968.828    23984967.4734         43.250
        36.5004
 135330558.339 5 105452393.56145  25752549.529    25752550.9204         35.500
        30.2504
 106689601.022 8  83134752.39448  20302348.969    20302348.2004         49.750
        51.5004
 114294680.462 8  89060820.02647  21749545.458    21749544.8024         49.000
        45.2504
 08  5 27  1 20  0.0000000  0 12G18G31G19G25G 6G 3G24G 7G22G29G16G21
 122698513.893 7  95609232.91546  23348751.361    23348749.8094         45.750
        38.5004
 130199250.999 6 101453972.20446  24776091.955    24776091.7944         39.500
        38.7504
 121467970.739 7  94650379.57747  23114584.763    23114582.9494         45.000
        42.0004
 124452227.896 7  96975768.52246  23682469.721    23682470.0374         45.000
        41.0004
 107829966.712 8  84023385.11848  20519353.761    20519354.2364         50.250
        49.2504
 109765276.529 8  85531377.65147  20887631.236    20887631.7554         49.500
        47.0004
 132594963.570 6 103320745.68944  25231987.215    25231979.6464         41.750
        27.7504
 127983443.735 7  99727357.89946  24354438.989    24354438.9604         42.250
        36.7504
 125950647.476 7  98143370.56046  23967609.474    23967608.2054         42.750
        36.2504
 135418837.189 6 105521182.22946  25769347.990    25769350.2734         36.250
        37.0004
 106703152.406 8  83145311.91148  20304927.718    20304926.9424         49.500
        51.5004
 114349841.914 8  89103802.98047  21760042.517    21760041.4954         49.250
        45.0004
 08  5 27  1 20 30.0000000  0 11G18G31G19G25G 6G 3G 7G22G29G16G21
 122647800.456 7  95569715.96146  23339100.861    23339099.2134         46.000
        38.7504
 130306956.870 6 101537898.72446  24796587.767    24796588.3854         40.000
        38.0004
 121390184.841 7  94589767.20547  23099782.450    23099780.5904         45.000
        42.2504
 124420632.493 7  96951148.72946  23676457.327    23676457.5714         45.000
        41.2504
 107815207.144 8  84011884.16148  20516545.097    20516545.5704         50.000
        49.2504
 109712722.078 8  85490426.13747  20877630.456    20877630.9774         49.500
        47.0004
 127912904.194 7  99672392.01046  24341015.880    24341015.5764         42.250
        37.0004
 125859534.154 7  98072373.18246  23950271.108    23950269.9814         43.000
        39.0004
 135507115.611 6 105589949.71545  25786145.227    25786147.7424         37.750
        31.0004
 106717179.759 8  83156242.31348  20307597.011    20307596.2574         49.750
        51.5004
 114405395.404 8  89147091.42347  21770614.037    21770612.7844         49.000
        44.7504
 08  5 27  1 21  0.0000000  0 11G18G31G19G25G 6G 3G24G 7G22G16G21
 122597476.064 7  95530502.16446  23329524.234    23329522.8344         45.250
        39.0004
 130414619.892 6 101621791.96345  24817075.400    24817075.8104         41.750
        31.7504
 121312543.089 7  94529267.15347  23085007.639    23085005.8594         45.250
        42.2504
 124389537.372 7  96926918.77046  23670540.223    23670540.4974         45.000
        41.2504
 107800712.626 8  84000589.73548  20513786.858    20513787.3714         50.000
        49.2504
 109660441.483 8  85449688.01747  20867681.760    20867682.2594         49.500
        46.7504
 132807335.221 6 103486250.10844  25272399.542    25272394.4714         41.500
        27.5004
 127842793.203 6  99617760.05746  24327674.201    24327673.9254         41.000
        37.5004
 125768514.399 7  98001448.76246  23932950.303    23932949.6814         42.750
        37.0004
 106731662.685 8  83167527.70548  20310353.079    20310352.2814         49.750
        51.5004
 114461317.979 8  89190667.44747  21781255.618    21781254.5484         49.000
        45.0004
 08  5 27  1 21 30.0000000  0 10G18G31G19G25G 6G 3G 7G22G16G21
 122547563.965 7  95491609.63446  23320026.004    23320024.9954         46.000
        38.7504
 130522258.340 6 101705666.04146  24837558.352    24837558.7704         38.500
        38.0004
 121235066.403 7  94468895.71847  23070264.345    23070262.5994         45.250
        42.5004
 124358964.318 7  96903095.61046  23664722.377    23664722.5474         45.250
        39.5004
 107786504.162 8  83989518.21048  20511083.083    20511083.5994         50.000
        49.2504
 109608456.484 8  85409180.23247  20857789.338    20857789.8824         49.500
        47.0004
 127773133.195 6  99563479.55246  24314418.129    24314418.0644         41.000
        38.7504
 125677612.550 7  97930616.17746  23915652.280    23915651.3964         43.000
        38.2504
 106746622.050 8  83179184.34948  20313199.823    20313198.9444         49.750
        51.5004
 114517629.187 8  89234546.32147  21791971.344    21791970.4084         49.000
        45.2504
 08  5 27  1 22  0.0000000  0 11G18G31G19G25G 6G 3G24G 7G22G16G21
 122498044.114 7  95453022.75446  23310602.761    23310601.8304         45.750
        39.0004
 130629846.907 6 101789501.21846  24858031.841    24858031.9254         41.000
        36.0004
 121157732.379 7  94408635.46447  23055548.152    23055546.4224         45.500
        42.5004
 124328891.276 7  96879662.09146  23658999.667    23658999.8504         45.250
        40.7504
 107772558.974 8  83978651.83248  20508429.467    20508429.9034         50.000
        49.2504
 109556744.670 8  85368885.31447  20847948.901    20847949.4364         49.500
        47.2504
 133019938.211 6 103651915.89445  25312854.893    25312855.7094         40.000
        31.5004
 127703904.166 7  99509534.88746  24301244.229    24301244.2874         42.000
        39.5004
 125586808.493 7  97859859.82046  23898372.849    23898372.3684         42.750
        38.0004
 106762036.187 8  83191195.36048  20316133.054    20316132.1414         49.750
        51.2504
 114574303.840 8  89278708.39347  21802756.196    21802755.3744         49.000
        45.0004
 08  5 27  1 22 30.0000000  0 11G18G31G19G25G 6G 3G24G 7G22G16G21
 122448940.439 7  95414760.16746  23301258.803    23301257.6014         45.250
        39.2504
 130737404.897 6 101873312.61345  24878499.291    24878499.6224         39.750
        34.7504
 121080563.476 7  94348503.86947  23040863.356    23040861.7034         45.500
        42.2504
 124299341.152 7  96856636.02146  23653376.430    23653376.7244         45.000
        41.2504
 107758899.102 8  83968007.77548  20505830.151    20505830.5004         50.250
        49.2504
 109505328.535 8  85328820.80247  20838164.747    20838165.2434         49.750
        46.7504
 133126308.470 5 103734791.35346  25333093.840    25333099.0394         35.500
        36.5004
 127635130.274 7  99455944.85546  24288156.992    24288157.3364         42.000
        37.7504
 125496127.460 7  97789199.29046  23881117.179    23881115.9714         43.500
        36.7504
 106777927.157 8  83203577.93048  20319157.011    20319156.0914         49.750
        51.5004
 114631362.366 8  89323169.58047  21813613.989    21813613.1894         48.750
        44.7504
 08  5 27  1 23  0.0000000  0 12G18G31G19G25G 6G 3G24G 7G22G27G16G21
 122400235.939 7  95376808.61946  23291990.430    23291989.3084         45.000
        38.5004
 130844911.052 6 101957083.61945  24898957.121    24898957.3274         38.500
        32.2504
 121003541.123 7  94288486.46147  23026206.424    23026204.6334         45.250
        42.2504
 124270296.142 7  96834003.54246  23647849.336    23647849.4054         44.750
        40.5004
 107745505.897 8  83957571.51048  20503281.557    20503281.8504         50.000
        49.2504
 109454190.335 8  85288972.86447  20828433.483    20828434.0004         49.500
        47.0004
 133232724.820 6 103817713.15045  25353349.170    25353348.4504         40.250
        32.7504
 127566795.047 6  99402696.66846  24275152.963    24275153.4324         40.750
        38.2504
 125405553.451 7  97718622.17746  23863881.833    23863879.9684         43.500
        37.0004
 132798773.240 6 103479572.60045  25270765.958    25270766.7934         37.250
        33.7504
 106794276.393 8  83216317.58948  20322268.155    20322267.2764         49.750
        51.2504
 114688784.244 8  89367913.90647  21824541.069    21824539.9894         49.250
        44.7504
 08  5 27  1 23 30.0000000  0 12G18G31G19G25G 6G 3G24G 7G22G27G16G21
 122351949.631 7  95339182.94446  23282801.774    23282800.8414         45.500
        39.0004
 130952365.549 6 102040809.34346  24919408.208    24919408.9274         41.500
        36.2504
 120926682.442 7  94228596.60847  23011580.638    23011579.0264         45.250
        42.0004
 124241773.503 7  96811778.12546  23642421.599    23642421.9074         45.250
        40.5004
 107732395.674 8  83947355.75748  20500786.717    20500787.0444         50.000
        49.2504
 109403346.647 8  85249354.40747  20818758.227    20818758.7834         49.750
        47.0004
 133339188.436 6 103900661.20145  25373605.727    25373601.0294         38.500
        30.0004
 127498917.747 6  99349805.26946  24262236.337    24262236.6224         40.750
        39.0004
 125315106.062 7  97648143.73446  23846670.255    23846668.5194         43.000
        36.5004
 132729716.023 6 103425761.84545  25257625.490    25257626.5274         38.000
        33.5004
 106811101.046 8  83229427.70548  20325469.673    20325468.8854         49.750
        51.2504
 114746584.043 8  89412952.71547  21835540.111    21835538.8884         49.000
        44.7504
 08  5 27  1 24  0.0000000  0 12G18G31G19G25G 6G 3G24G 7G22G27G16G21
 122304071.091 7  95301874.99446  23273690.922    23273689.9884         45.250
        39.0004
 131059783.134 6 102124507.97445  24939847.072    24939846.7444         38.000
        34.7504
 120849975.147 7  94168824.71346  22996983.654    22996981.9204         45.250
        41.7504
 124213761.038 7  96789950.22946  23637091.016    23637091.1374         45.000
        39.2504
 107719555.861 8  83937350.70748  20498343.310    20498343.7014         50.000
        49.2504
 109352785.665 8  85209956.25247  20809136.799    20809137.3284         49.750
        47.0004
 133445698.059 6 103983655.82745  25393877.456    25393876.0634         39.500
        33.5004
 127431486.569 7  99297261.47546  24249404.712    24249404.7304         42.250
        36.2504
 125224775.366 7  97577756.18346  23829480.616    23829478.6654         43.000
        37.2504
 132660996.127 6 103372213.90045  25244548.600    25244549.5034         38.000
        33.5004
 106828388.597 8  83242898.52048  20328759.355    20328758.6194         49.500
        51.5004
 114804747.207 8  89458274.65047  21846608.045    21846607.0674         48.500
        44.7504
 08  5 27  1 24 30.0000000  0 12G18G31G19G25G 6G 3G24G 7G22G27G16G21
 122256612.394 7  95264894.21446  23264659.588    23264659.0344         44.750
        39.5004
 131167141.907 6 102208185.07346  24960281.049    24960279.8214         41.500
        36.2504
 120773429.516 7  94109178.77446  22982417.511    22982415.7584         45.250
        41.0004
 124186269.575 7  96768528.30646  23631859.612    23631859.6694         45.000
        40.0004
 107706996.329 8  83927564.06548  20495953.222    20495953.7264         50.000
        49.2504
 109302517.648 8  85170786.37047  20799571.125    20799571.6054         49.750
        47.2504
 133552246.033 6 104066714.07543  25414150.530    25414151.4484         39.750
        23.5004
 127364514.150 7  99245075.17446  24236660.450    24236660.1044         42.250
        39.0004
 125134574.468 7  97507469.82346  23812315.540    23812314.2694         44.000
        37.2504
 132592625.498 6 103318938.10445  25231538.251    25231539.1924         38.000
        32.5004
 106846149.413 8  83256738.11148  20332139.131    20332138.4264         49.750
        51.5004
 114863281.946 8  89503886.13047  21857746.728    21857745.8264         48.750
        44.7504
 08  5 27  1 25  0.0000000  0 12G18G31G19G25G 6G 3G24G 7G22G27G16G21
 122209568.791 7  95228236.89746  23255707.102    23255706.7524         45.250
        39.2504
 131274459.039 6 102291808.62846  24980699.211    24980701.0284         38.500
        37.2504
 120697038.702 7  94049653.47047  22967880.935    22967879.1094         45.750
        42.0004
 124159292.920 7  96747507.55146  23626726.084    23626726.2244         45.000
        39.2504
 107694710.326 8  83917990.55948  20493615.255    20493615.7784         50.000
        49.2504
 109252536.371 8  85131839.92547  20790059.998    20790060.5164         49.750
        47.2504
 133658840.812 6 104149775.02545  25434438.660    25434433.9724         37.250
        31.7504
 127297995.782 7  99193242.70546  24224002.527    24224002.3234         42.250
        38.7504
 125044499.211 7  97437281.31945  23795174.734    23795173.4134         44.000
        35.2504
 132524599.110 6 103265930.52545  25218593.420    25218593.3154         38.000
        31.2504
 106864377.003 8  83270941.42648  20335607.727    20335607.0364         49.750
        51.2504
 114922179.024 8  89549779.96147  21868954.541    21868953.5834         49.000
        45.0004
 08  5 27  1 25 30.0000000  0 12G18G31G19G25G 6G 3G24G 7G22G27G16G21
 122162942.713 7  95191904.90746  23246834.579    23246833.8954         45.500
        39.7504
 131381714.819 6 102375384.71545  25001111.989    25001110.1474         40.500
        33.7504
 120620803.529 7  93990249.46546  22953373.787    22953371.9674         46.000
        41.5004
 124132832.090 7  96726888.71446  23621690.761    23621690.8254         45.000
        40.0004
 107682698.253 8  83908630.50348  20491329.457    20491329.9344         50.000
        49.2504
 109202843.347 8  85093118.09247  20780603.736    20780604.2344         49.750
        47.2504
 133765472.275 6 104232864.34345  25454727.431    25454727.6134         38.750
        35.0004
 127231934.257 7  99141766.19446  24211431.437    24211431.1644         42.000
        38.2504
 124954552.944 7  97367193.35746  23778058.410    23778057.4004         42.750
        38.5004
 132456919.763 6 103213193.38745  25205714.457    25205715.1154         37.500
        33.2504
 106883072.054 8  83285508.99548  20339165.288    20339164.5784         49.750
        51.2504
 114981437.518 8  89595955.41247  21880230.951    21880230.2534         48.500
        45.0004
 08  5 27  1 26  0.0000000  0 12G18G31G19G25G 6G 3G24G 7G22G27G16G21
 122116740.670 7  95155903.33846  23238042.700    23238041.7994         45.500
        40.2504
 131488914.649 6 102458916.87246  25021511.129    25021510.9424         40.250
        36.0004
 120544728.908 7  93930970.53647  22938897.363    22938895.3794         45.750
        42.5004
 124106892.224 7  96706675.83646  23616754.605    23616754.7404         44.250
        40.2504
 107670964.232 8  83899487.11048  20489096.565    20489097.0164         50.000
        49.2504
 109153442.512 8  85054623.94347  20771203.070    20771203.5014         49.750
        47.2504
 133872142.265 6 104315983.85543  25475026.049    25475027.1474         37.250
        23.2504
 127166335.768 7  99090650.50746  24198948.435    24198948.2224         42.500
        37.0004
 124864742.900 7  97297211.56145  23760968.282    23760966.9784         44.750
        35.2504
 132389593.307 6 103160731.22045  25192902.355    25192902.9604         37.500
        33.7504
 106902238.803 8  83300444.12048  20342812.617    20342811.8804         49.750
        51.2504
 115041059.151 8  89642413.82247  21891576.433    21891576.0394         48.750
        45.0004
 08  5 27  1 26 30.0000000  0 12G18G31G19G25G 6G 3G24G 7G22G27G16G21
 122070962.311 7  95120231.92846  23229331.255    23229330.5304         45.750
        38.0004
 131596053.621 6 102542401.94944  25041898.760    25041898.0494         39.250
        28.0004
 120468812.586 7  93871814.97947  22924450.967    22924449.1634         46.000
        42.5004
 124081471.272 7  96686867.27746  23611917.218    23611917.1584         45.000
        39.0004
 107659505.997 8  83890558.61948  20486916.183    20486916.5954         50.000
        49.5004
 109104332.458 8  85016356.37247  20761857.743    20761858.1614         49.750
        47.5004
 133978846.766 6 104399130.21045  25495330.533    25495332.5574         38.250
        35.0004
 127101199.971 7  99039895.36246  24186553.422    24186553.4044         42.000
        37.5004
 124775069.759 7  97227336.39145  23743903.973    23743901.9084         43.000
        35.5004
 132322619.287 6 103108543.69746  25180157.510    25180157.8834         37.750
        36.7504
 106921875.436 8  83315745.38448  20346549.350    20346548.5904         49.500
        51.2504
 115101040.279 8  89689152.36047  21902990.611    21902989.9604         49.000
        44.5004
 08  5 27  1 27  0.0000000  0 12G18G31G19G25G 6G 3G24G 7G22G27G16G21
 122025609.021 7  95084891.71646  23220700.876    23220700.1044         46.250
        39.7504
 131703129.173 6 102625837.44246  25062274.607    25062274.3754         41.500
        36.7504
 120393053.991 7  93812782.30747  22910034.610    22910032.7054         45.750
        42.2504
 124056569.415 7  96667463.25146  23607178.474    23607178.6424         44.750
        39.2504
 107648322.858 8  83881844.48648  20484788.126    20484788.5154         50.000
        49.2504
 109055512.768 8  84978315.06547  20752567.647    20752568.1704         49.750
        47.5004
 134085583.102 5 104482301.35745  25515641.777    25515643.8544         35.500
        35.2504
 127036528.536 6  98989502.03846  24174246.756    24174246.8474         41.250
        39.0004
 124685535.831 7  97157569.73046  23726866.453    23726864.9714         44.000
        39.2504
 132255999.192 6 103056631.95845  25167480.092    25167480.4754         38.750
        33.7504
 106941981.572 8  83331412.49948  20350375.326    20350374.6594         49.500
        51.2504
 115161378.509 8  89736169.16847  21914472.672    21914471.7014         48.750
        44.5004
 08  5 27  1 27 30.0000000  0 12G18G31G19G25G 6G 3G24G 7G22G27G16G21
 121980684.103 7  95049885.29846  23212152.246    23212151.0194         46.000
        39.2504
 131810138.767 6 102709221.63445  25082637.523    25082637.5474         38.000
        32.5004
 120317455.213 7  93753874.18247  22895648.700    22895646.7324         46.000
        42.0004
 124032188.341 7  96648465.02546  23602538.970    23602538.9894         44.750
        38.2504
 107637416.118 8  83873345.72748  20482712.625    20482713.0314         50.000
        49.5004
 109006985.669 8  84940501.74747  20743333.200    20743333.7944         49.750
        47.2504
 134192350.221 6 104565496.62245  25535958.634    25535959.9954         37.250
        30.2504
 126972324.395 6  98939472.82246  24162028.978    24162029.1484         41.000
        39.2504
 124596145.242 7  97087914.74746  23709855.698    23709854.1394         44.000
        36.2504
 132189736.077 6 103004998.39245  25154870.462    25154871.0394         39.500
        34.2504
 106962558.763 8  83347446.66948  20354290.957    20354290.3834         49.500
        51.2504
 115222072.639 8  89783463.29047  21926022.339    21926021.3244         48.500
        44.5004
 08  5 27  1 28  0.0000000  0 12G18G31G19G25G 6G 3G24G 7G22G27G16G21
 121936188.416 7  95015213.36046  23203684.927    23203683.6794         46.250
        39.0004
 131917079.095 7 102792551.87845  25102987.306    25102987.2404         42.500
        35.5004
 120242014.966 7  93695089.58647  22881292.791    22881290.9334         45.750
        43.2504
 124008327.521 7  96629872.17046  23597998.353    23597998.5394         44.000
        40.0004
 107626784.385 8  83865061.25948  20480689.360    20480689.8724         50.000
        49.2504
 108958750.420 8  84902915.84947  20734154.343    20734154.8194         50.000
        47.5004
 134299144.726 6 104648713.01945  25556280.887    25556282.2674         37.000
        33.7504
 126908588.360 7  98889808.38646  24149900.586    24149900.5474         42.000
        37.7504
 124506899.470 7  97018372.60846  23692873.024    23692871.1164         44.000
        37.5004
 132123830.403 6 102953643.33745  25142329.106    25142329.4344         38.750
        32.7504
 106983605.715 8  83363846.88548  20358296.030    20358295.5134         49.500
        51.2504
 115283119.449 8  89831032.23547  21937639.268    21937638.3984         48.750
        44.5004
 08  5 27  1 28 30.0000000  0 12G18G31G19G25G 6G 3G24G 7G22G27G16G21
 121892123.972 7  94980877.45246  23195299.266    23195298.4154         45.000
        39.5004
 132023948.177 6 102875826.48645  25123324.065    25123323.9174         40.000
        31.7504
 120166734.168 7  93636429.24747  22866967.338    22866965.5634         46.000
        43.0004
 123984987.704 7  96611685.28546  23593556.856    23593557.0244         44.750
        38.5004
 107616428.264 8  83856991.55848  20478718.597    20478719.1994         50.000
        49.5004
 108910807.828 8  84865557.98947  20725031.218    20725031.6334         50.000
        47.5004
 134405965.490 6 104731950.08645  25576608.339    25576610.1054         37.250
        35.5004
 126845322.958 7  98840510.66546  24137861.776    24137861.4574         43.000
        38.5004
 124417802.245 7  96948946.29046  23675918.095    23675917.1874         43.750
        36.2504
 132058284.622 6 102902568.70945  25129856.111    25129856.6644         37.750
        34.5004
 107005122.909 8  83380613.52248  20362390.603    20362390.0974         49.500
        50.0004
 115344517.461 8  89878874.84647  21949322.992    21949322.1444         48.750
        44.7504
 08  5 27  1 29  0.0000000  0 12G18G31G19G25G 6G 3G24G 7G22G27G16G21
 121848494.077 7  94946880.16046  23186996.493    23186995.8534         45.000
        39.5004
 132130744.023 6 102959044.27345  25143646.425    25143645.8794         39.500
        34.0004
 120091613.851 7  93577893.95547  22852672.357    22852670.5254         46.000
        42.2504
 123962170.446 7  96593905.60346  23589214.722    23589214.9984         45.250
        38.7504
 107606348.338 8  83849137.07048  20476800.456    20476801.0524         50.000
        49.2504
 108863159.086 8  84828429.10647  20715963.941    20715964.4264         50.000
        47.7504
 134512811.391 6 104815206.55745  25596940.688    25596941.8654         38.500
        35.5004
 126782531.027 7  98791581.89846  24125912.964    24125912.7814         42.500
        39.7504
 124328857.117 7  96879638.36846  23658992.721    23658990.6074         44.750
        37.7504
 131993101.418 6 102851776.64645  25117452.225    25117452.6704         38.000
        34.7504
 107027111.792 8  83397747.71348  20366574.979    20366574.4344         49.500
        51.2504
 115406265.832 8  89926990.46047  21961073.263    21961072.3164         48.500
        44.2504
 08  5 27  1 29 30.0000000  0 12G18G31G19G25G 6G 3G24G 7G22G27G16G21
 121805300.330 7  94913222.70846  23178776.943    23178776.4284         45.000
        40.5004
 132237463.864 6 103042202.58245  25163954.012    25163954.2324         38.000
        34.5004
 120016653.983 7  93519483.68947  22838407.963    22838406.2714         45.750
        43.2504
 123939875.743 7  96576533.11946  23584972.252    23584972.5524         44.750
        39.5004
 107596544.455 8  83841497.67748  20474934.917    20474935.4584         50.250
        49.2504
 108815804.663 8  84791529.55947  20706952.676    20706953.2184         50.000
        47.5004
 134619679.750 6 104898480.58245  25617277.275    25617278.2024         37.750
        35.2504
 126720214.171 7  98743023.31146  24114054.354    24114054.1414         42.000
        38.5004
 124240066.819 7  96810451.19846  23642096.281    23642095.2104         43.500
        38.5004
 131928282.353 6 102801268.31645  25105117.746    25105118.1194         38.000
        35.5004
 107049571.988 8  83415249.16048  20370849.047    20370848.4894         49.500
        51.2504
 115468362.032 8  89975377.10847  21972889.741    21972888.7924         48.500
        44.2504
 08  5 27  1 30  0.0000000  0 12G18G31G19G25G 6G 3G24G 7G22G27G16G21
 121762544.702 7  94879906.66946  23170640.437    23170640.2884         44.250
        40.0004
 132344105.296 6 103125300.11845  25184247.154    25184247.0874         41.250
        30.5004
 119941855.219 7  93461198.94647  22824174.118    22824172.3364         45.750
        42.7504
 123918104.310 7  96559568.35746  23580829.376    23580829.4394         45.000
        40.0004
 107587016.758 8  83834073.49748  20473121.910    20473122.3974         50.250
        49.5004
 108768744.748 8  84754859.50447  20697997.460    20697997.9864         49.750
        47.7504
 134726568.795 6 104981770.82745  25637617.857    25637618.5304         38.500
        32.5004
 126658374.860 7  98694836.83846  24102286.463    24102286.5194         42.250
        38.5004
 124151434.038 7  96741386.69146  23625230.350    23625228.7844         45.250
        38.0004
 131863829.495 6 102751045.29945  25092852.459    25092853.0234         38.500
        32.0004
 107072504.128 8  83433118.35648  20375212.889    20375212.3374         49.500
        51.2504
 115530804.495 8  90024033.56547  21984772.111    21984771.2564         48.250
        44.2504
 08  5 27  1 30 30.0000000  0 12G18G31G19G25G 6G 3G24G 7G22G27G16G21
 121720230.610 7  94846934.68546  23162588.107    23162588.2474         45.000
        40.0004
 132450667.564 6 103208335.66946  25204524.750    25204525.8804         38.750
        39.7504
 119867219.217 7  93403041.04047  22809971.359    22809969.7184         46.250
        43.2504
 123896857.877 7  96543012.69646  23576786.403    23576786.4994         45.250
        39.7504
 107577766.406 8  83826865.43648  20471361.638    20471362.0924         50.000
        49.2504
 108721981.779 8  84718420.83547  20689098.721    20689099.2304         49.750
        47.7504
 134833477.991 6 105065076.60445  25657961.965    25657962.9044         36.000
        30.7504
 126597016.053 6  98647024.77946  24090610.335    24090610.3344         41.750
        39.7504
 124062963.486 7  96672448.61146  23608394.643    23608392.8054         42.250
        38.7504
 131799745.998 6 102701110.14245  25080657.740    25080658.5314         38.750
        34.0004
 107095909.163 8  83451356.03748  20379666.772    20379666.1734         49.750
        51.0004
 115593592.283 8  90072959.11347  21996720.212    21996719.4054         48.500
        44.0004
 08  5 27  1 31  0.0000000  0 12G18G31G19G25G 6G 3G24G 7G22G27G16G21
 121678354.511 7  94814303.96746  23154619.571    23154619.6674         46.000
        40.0004
 132557142.104 5 103291303.17443  25224786.110    25224786.1414         35.250
        22.7504
 119792740.906 7  93345005.99947  22795798.739    22795796.7094         46.500
        43.7504
 123876131.515 7  96526862.28146  23572842.331    23572842.2664         45.250
        40.0004
 107568788.069 8  83819869.33248  20469653.023    20469653.5574         50.000
        49.2504
 108675510.361 8  84682209.34747  20680255.451    20680256.0144         49.750
        47.7504
 134940400.087 6 105148392.51145  25678308.772    25678309.7514         37.000
        32.7504
 126536134.279 6  98599584.42846  24079025.032    24079024.9774         41.500
        40.7504
 123974652.596 7  96603634.95946  23591589.633    23591588.7474         45.000
        37.7504
 131736028.203 6 102651459.89145  25068532.569    25068533.0664         39.250
        34.7504
 107119781.959 8  83469958.21248  20384209.573    20384209.0064         49.500
        51.0004
 115656717.985 8  90122147.98047  22008732.729    22008731.7604         48.250
        44.2504
 08  5 27  1 31 30.0000000  0 11G18G31G19G25G 6G 3G 7G22G27G16G21
 121636924.524 7  94782020.87646  23146736.164    23146736.0284         46.000
        39.5004
 132663532.992 7 103374191.33046  25245032.087    25245032.0224         42.000
        36.5004
 119718426.690 7  93287098.83347  22781657.196    22781655.5394         46.250
        43.2504
 123855931.823 7  96511122.27246  23568998.452    23568998.5174         45.250
        40.7504
 107560088.119 8  83813090.15148  20467997.358    20467997.9584         50.000
        49.2504
 108629337.526 8  84646230.52147  20671469.046    20671469.6634         50.000
        47.5004
 126475737.763 6  98552522.23346  24067531.886    24067532.1524         41.750
        37.2504
 123886510.229 7  96534952.61146  23574816.449    23574814.9014         43.750
        36.7504
 131672684.287 6 102602101.01745  25056478.754    25056479.5984         38.500
        30.5004
 107144128.923 8  83488929.86848  20388842.545    20388842.0944         49.500
        51.2504
 115720186.412 8  90171603.89547  22020810.256    22020809.4074         48.250
        44.2504
 08  5 27  1 32  0.0000000  0 11G18G31G19G25G 6G 3G 7G22G27G16G21
 121595941.088 7  94750085.75346  23138937.389    23138937.2064         45.750
        39.7504
 132769835.657 6 103457024.65444  25265260.330    25265261.3924         38.500
        29.0004
 119644275.301 7  93229318.53947  22767546.834    22767544.7344         46.750
        43.2504
 123836257.797 7  96495791.85946  23565254.675    23565254.5594         45.000
        40.2504
 107551664.900 8  83806526.60448  20466394.443    20466395.0504         50.000
        49.2504
 108583462.403 8  84610483.67447  20662739.360    20662739.8964         50.000
        47.7504
 126415826.865 7  98505838.40446  24056131.257    24056131.3324         42.500
        38.2504
 123798538.313 7  96466403.06246  23558076.164    23558074.4774         45.250
        37.2504
 131609714.419 6 102553033.63145  25044496.058    25044496.8794         39.250
        34.5004
 107168948.722 8  83508269.96148  20393565.560    20393565.1724         49.500
        51.2504
 115783993.840 8  90221323.95347  22032952.275    22032951.5844         48.500
        43.7504
 08  5 27  1 32 30.0000000  0 12G18G31G19G25G 6G 3G24G 7G22G27G16G21
 121555403.479 7  94718498.02846  23131223.320    23131223.0694         46.000
        39.7504
 132876045.617 6 103539786.01846  25285471.110    25285470.6084         41.500
        36.7504
 119570284.583 7  93171663.44647  22753466.738    22753464.9854         46.750
        43.5004
 123817107.064 7  96480869.21046  23561610.328    23561610.4484         45.500
        40.2504
 107543515.878 8  83800176.71348  20464843.795    20464844.3574         50.000
        49.2504
 108537882.782 8  84574967.09147  20654065.888    20654066.3454         50.000
        47.5004
 135261271.832 6 105398394.52345  25739364.508    25739365.0624         36.500
        35.2504
 126356400.882 6  98459532.43946  24044822.892    24044822.6674         41.500
        39.0004
 123710736.331 7  96397985.95846  23541368.050    23541366.7874         43.750
        39.2504
 131547117.783 6 102504257.06146  25032584.445    25032585.1284         39.500
        36.2504
 107194238.725 8  83527976.45148  20398378.153    20398377.7444         49.500
        51.2504
 115848135.252 8  90271304.28347  22045158.147    22045157.1694         48.750
        43.5004
 08  5 27  1 33  0.0000000  0 12G18G31G19G25G 6G 3G24G 7G22G27G16G21
 121515315.973 7  94687261.02446  23123595.100    23123594.4374         45.750
        40.2504
 132982162.606 6 103622474.68146  25305664.204    25305664.7344         37.250
        36.5004
 119496457.508 7  93114135.86347  22739417.990    22739415.9254         46.750
        43.0004
 123798482.326 7  96466356.42646  23558066.117    23558066.2634         45.000
        40.5004
 107535643.327 8  83794042.25948  20463345.723    20463346.2684         50.000
        49.2504
 108492601.575 8  84539683.03947  20645449.149    20645449.5814         50.000
        47.7504
 135368243.293 6 105481748.89445  25759720.357    25759722.2414         36.750
        30.7504
 126297464.087 6  98413607.66246  24033607.462    24033607.4064         41.250
        39.7504
 123623110.757 7  96329706.30746  23524693.600    23524691.6504         45.000
        37.7504
 131484898.790 6 102455774.75646  25020744.665    25020744.9644         39.500
        36.0004
 107220001.475 8  83548051.31748  20403280.718    20403280.2624         49.500
        51.0004
 115912611.302 8  90321545.36847  22057427.668    22057426.5024         48.250
        43.7504
 08  5 27  1 33 30.0000000  0 12G18G31G19G25G 6G 3G24G 7G22G27G16G21
 121475679.874 7  94656375.76146  23116052.744    23116051.7354         45.250
        39.7504
 133088183.513 6 103705088.66546  25325839.503    25325839.5474         39.750
        37.0004
 119422793.281 7  93056735.17747  22725400.088    22725398.1454         46.500
        43.5004
 123780383.501 7  96452253.45046  23554622.048    23554622.0654         45.250
        41.5004
 107528046.636 8  83788122.75648  20461900.215    20461900.6654         50.250
        49.2504
 108447618.732 8  84504631.47747  20636889.187    20636889.7004         50.000
        47.7504
 135475222.004 5 105565108.88144  25780077.931    25780079.6474         35.500
        28.0004
 126239017.661 7  98368065.01146  24022485.459    24022485.6624         42.500
        39.0004
 123535663.330 7  96261565.48346  23508053.045    23508051.2704         43.250
        40.0004
 131423058.366 6 102407587.40745  25008976.717    25008977.3654         39.250
        34.7504
 107246236.265 8  83568494.00748  20408273.092    20408272.6144         49.750
        51.0004
 115977419.689 8  90372045.40647  22069760.228    22069759.3564         48.250
        44.0004
 08  5 27  1 34  0.0000000  0 11G18G31G19G25G 6G 3G 7G22G27G16G21
 121436501.463 7  94625847.14246  23108597.144    23108596.2434         44.750
        39.5004
 133194112.939 6 103787612.77246  25345996.691    25345996.6914         39.750
        36.7504
 119349297.042 7  92999465.39147  22711414.183    22711412.2174         46.500
        42.2504
 123762815.190 7  96438563.87146  23551278.839    23551279.1064         45.000
        40.0004
 107520730.386 8  83782421.77848  20460508.015    20460508.4514         50.000
        49.2504
 108402939.248 8  84469816.30047  20628386.958    20628387.5554         50.000
        47.7504
 126181068.053 7  98322909.47046  24011458.312    24011458.4244         42.500
        37.7504
 123448401.373 7  96193569.17646  23491447.224    23491445.6864         44.500
        39.5004
 131361602.809 6 102359699.95045  24997281.804    24997282.7974         38.500
        34.0004
 107272947.696 8  83589308.10248  20413356.174    20413355.6514         49.500
        51.0004
 116042563.043 8  90422806.46547  22082156.573    22082156.0074         48.250
        44.0004
 08  5 27  1 34 30.0000000  0 11G18G31G19G25G 6G 3G 7G22G27G16G21
 121397774.900 7  94595670.62346  23101227.230    23101226.7444         45.250
        39.5004
 133299934.884 6 103870071.49045  25366134.187    25366133.0674         39.000
        33.2504
 119275961.662 7  92942320.95047  22697458.740    22697456.9304         46.250
        43.7504
 123745770.146 7  96425282.00946  23548035.388    23548035.3724         45.250
        40.2504
 107513686.908 8  83776933.35348  20459167.656    20459168.1224         50.000
        49.5004
 108358555.748 8  84435231.76148  20619941.005    20619941.6344         50.000
        48.0004
 126123609.423 7  98278136.52046  24000524.162    24000524.2524         42.000
        37.7504
 123361320.248 7  96125713.76046  23474876.297    23474874.4494         45.000
        39.0004
 131300526.409 6 102312108.00145  24985659.155    24985659.9534         38.750
        31.7504
 107300128.008 8  83610487.56348  20418528.392    20418527.9224         49.750
        51.2504
 116108031.544 8  90473820.88547  22094614.826    22094614.2804         48.250
        44.0004
 08  5 27  1 35  0.0000000  0 11G18G31G19G25G 6G 3G 7G22G27G16G21
 121359508.091 7  94565852.36546  23093945.144    23093944.7914         46.000
        39.7504
 133405656.123 5 103952451.87146  25386251.419    25386251.3664         35.750
        38.7504
 119202793.183 7  92885306.56247  22683535.319    22683533.4884         46.250
        43.2504
 123729254.596 7  96412412.76046  23544892.553    23544892.7074         45.750
        40.7504
 107506922.246 8  83771662.18948  20457880.294    20457880.8724         50.000
        49.2504
 108314475.118 8  84400883.22247  20611552.752    20611553.2794         50.000
        47.7504
 126066649.670 7  98233752.31346  23989684.897    23989685.0684         42.000
        39.2504
 123274428.920 7  96058006.26846  23458341.362    23458339.7404         44.250
        37.7504
 131239836.771 6 102264817.38145  24974110.432    24974111.4064         39.750
        32.5004
 107327783.343 8  83632037.17148  20423790.967    20423790.5954         49.500
        51.2504
 116173829.069 8  90525091.68747  22107135.554    22107134.9964         48.000
        43.7504
 08  5 27  1 35 30.0000000  0 11G18G31G19G25G 6G 3G 7G22G27G16G21
 121321695.443 7  94536387.97446  23086749.851    23086749.3544         46.000
        40.0004
 133511266.059 6 104034752.09245  25406349.910    25406347.8444         40.750
        32.7504
 119129784.549 7  92828416.74547  22669642.172    22669640.3224         46.750
        43.7504
 123713261.569 7  96399950.64946  23541849.277    23541849.2254         44.750
        40.5004
 107500429.116 8  83766602.60948  20456644.651    20456645.2644         50.250
        49.5004
 108270690.509 8  84366765.34947  20603220.806    20603221.2314         50.000
        47.7504
 126010183.329 7  98189752.56746  23978939.846    23978939.5454         42.500
        37.7504
 123187723.099 7  95990443.29046  23441841.810    23441839.8124         44.000
        39.0004
 131179528.266 6 102217823.74246  24962634.230    24962635.0264         39.500
        36.7504
 107355906.471 8  83653951.29448  20429142.603    20429142.2484         49.750
        51.0004
 116239946.346 8  90576611.64947  22119717.236    22119716.5604         48.000
        43.7504
 08  5 27  1 36  0.0000000  0 10G18G19G25G 6G 3G 7G22G27G16G21
 121284347.970 7  94507286.04746  23079643.053    23079642.5124         46.000
        40.5004
 119056945.575 7  92771659.10247  22655781.465    22655779.6794         46.750
        44.0004
 123697800.501 7  96387903.06646  23538907.097    23538907.1434         45.500
        41.7504
 107494216.791 8  83761761.83148  20455462.634    20455463.0964         50.250
        49.5004
 108227211.833 8  84332885.86647  20594947.113    20594947.5234         50.000
        47.7504
 125954221.287 7  98146145.78546  23968290.802    23968290.3544         42.000
        39.5004
 123101214.838 7  95923034.27646  23425379.693    23425377.9424         44.500
        37.7504
 131119612.283 6 102171136.00745  24951232.562    24951233.5414         39.750
        34.0004
 107384506.643 8  83676237.13548  20434585.130    20434584.6404         49.750
        51.0004
 116306390.718 7  90628386.49147  22132361.161    22132360.4754         47.750
        43.5004
 08  5 27  1 36 30.0000000  0 11G18G31G19G25G 6G 3G 7G22G27G16G21
 121247461.480 7  94478543.35946  23072623.763    23072623.3764         45.750
        40.7504
 133722157.330 6 104199076.57145  25446482.374    25446482.0784         38.750
        35.5004
 118984270.352 7  92715029.08247  22641951.717    22641949.8054         46.500
        43.5004
 123682865.496 7  96376265.41346  23536065.001    23536065.0644         45.250
        40.7504
 107488279.220 8  83757135.15048  20454332.781    20454333.2364         50.000
        49.5004
 108184033.492 8  84299240.41248  20586730.560    20586730.9674         50.000
        48.0004
 125898759.720 7  98102928.98346  23957736.799    23957736.4464         42.500
        39.7504
 123014901.267 7  95855776.99546  23408954.546    23408953.0964         45.000
        38.0004
 131060084.265 6 102124750.52645  24939904.792    24939905.5804         40.000
        34.5004
 107413577.498 8  83698889.74748  20440117.266    20440116.5784         49.750
        51.0004
 116373154.039 8  90680409.86247  22145065.793    22145065.0904         48.000
        44.0004
 08  5 27  1 37  0.0000000  0 11G18G31G19G25G 6G 3G 7G22G27G16G21
 121211038.940 7  94450162.18346  23065692.832    23065692.3574         45.750
        40.0004
 133827439.707 6 104281114.86545  25466517.021    25466516.4844         38.250
        32.7504
 118911760.594 7  92658527.99947  22628153.611    22628151.8084         46.750
        43.7504
 123668457.996 7  96365038.77946  23533323.446    23533323.3984         45.000
        40.5004
 107482617.556 8  83752723.46148  20453255.349    20453255.8874         50.000
        49.2504
 108141156.891 8  84265830.07748  20578571.396    20578571.8374         50.000
        48.0004
 125843800.923 7  98060103.98346  23947278.274    23947278.2284         42.500
        38.7504
 122928786.426 7  95788674.52946  23392567.449    23392565.9574         45.000
        39.5004
 131000947.044 6 102078669.55445  24928651.335    24928652.0374         40.250
        32.7504
 107443120.594 8  83721910.33948  20445739.149    20445738.3884         49.750
        50.7504
 116440236.007 8  90732681.54147  22157831.210    22157830.3914         48.000
        43.7504
 08  5 27  1 37 30.0000000  0 11G18G31G19G25G 6G 3G 7G22G27G16G21
 121175082.935 7  94422144.53146  23058850.953    23058850.1074         46.500
        40.0004
 133932607.244 6 104363063.69945  25486529.179    25486529.1814         37.750
        32.5004
 118839417.637 7  92602156.87947  22614387.204    22614385.2454         47.250
        43.5004
 123654579.137 7  96354224.10446  23530682.274    23530682.3974         45.500
        40.0004
 107477232.980 8  83748527.68948  20452230.639    20452231.2684         50.000
        49.5004
 108098583.937 8  84232656.35047  20570470.026    20570470.4294         50.000
        47.7504
 125789347.925 7  98017673.07446  23936916.272    23936916.0374         42.000
        38.5004
 122842874.132 7  95721729.90046  23376218.847    23376217.1894         45.250
        38.5004
 130942203.249 6 102032895.19945  24917472.793    24917473.8614         39.750
        35.7504
 107473136.686 8  83745299.49948  20451451.033    20451450.2144         50.000
        50.7504
 116507635.324 8  90785200.49747  22170656.897    22170656.0494         48.000
        43.2504
 08  5 27  1 38  0.0000000  0 11G18G31G19G25G 6G 3G 7G22G27G16G21
 121139594.010 7  94394490.84146  23052097.980    23052096.8084         46.000
        39.5004
 134037656.673 6 104444920.52242  25506519.748    25506518.3244         36.000
        16.0004
 118767239.987 7  92545914.57847  22600652.188    22600650.3854         46.500
        44.0004
 123641227.585 7  96343820.28246  23528141.582    23528141.5634         44.750
        41.7504
 107472123.797 8  83744546.50548  20451258.382    20451259.0064         50.000
        49.5004
 108056313.520 8  84199718.36647  20562426.257    20562426.5984         50.000
        47.7504
 125735400.704 7  97975636.25346  23926650.523    23926650.2314         42.250
        38.2504
 122757165.506 7  95654943.97646  23359909.198    23359907.8044         44.500
        38.7504
 130883853.210 6 101987427.65545  24906369.185    24906369.9104         39.500
        34.2504
 107503624.037 8  83769055.87048  20457252.577    20457251.7554         49.750
        50.7504
 116575348.261 7  90837963.82747  22183542.116    22183541.3244         47.750
        43.2504
 08  5 27  1 38 30.0000000  0 10G18G19G25G 6G 3G 7G22G27G16G21
 121104578.853 7  94367206.31546  23045434.906    23045433.6644         46.750
        39.7504
 118695233.974 7  92489806.02047  22586949.888    22586948.1474         47.000
        43.7504
 123628408.728 7  96333831.56646  23525702.217    23525702.2394         45.500
        41.0004
 107467295.473 8  83740784.17448  20450339.576    20450340.2224         50.250
        49.5004
 108014351.458 8  84167020.66348  20554441.130    20554441.4934         50.250
        48.0004
 125681966.647 7  97933999.36046  23916482.277    23916482.3974         42.500
        37.2504
 122671669.595 7  95588323.81846  23343639.784    23343638.1764         45.500
        37.2504
 130825903.999 6 101942272.42346  24895341.835    24895342.3814         40.250
        37.0004
 107534588.120 8  83793183.72148  20463144.816    20463144.0384         49.750
        50.7504
 116643378.414 7  90890974.33647  22196487.776    22196487.0624         47.750
        43.7504
 08  5 27  1 39  0.0000000  0 10G18G19G25G 6G 3G 7G22G27G16G21
 121070032.329 7  94340286.98246  23038860.731    23038859.6724         46.000
        39.7504
 118623392.365 7  92433825.56347  22573278.830    22573276.9424         47.000
        44.0004
 123616115.580 7  96324252.49946  23523362.778    23523362.9644         45.500
        40.5004
 107462740.959 8  83737235.20748  20449472.899    20449473.5364         50.250
        49.5004
 107972691.214 8  84134558.13748  20546513.432    20546513.8434         50.000
        48.0004
 125629040.098 7  97892757.92346  23906410.701    23906410.7404         43.250
        38.0004
 122586381.828 7  95521865.81346  23327410.472    23327408.2464         44.750
        37.7504
 130768350.124 6 101897425.26646  24884389.684    24884390.4994         40.500
        37.0004
 107566021.812 8  83817677.50348  20469126.336    20469125.7084         49.750
        50.7504
 116711716.676 8  90944224.92847  22209492.097    22209491.5084         48.000
        43.2504
 08  5 27  1 39 30.0000000  0 10G18G19G25G 6G 3G 7G22G27G16G21
 121035960.757 7  94313737.71946  23032377.115    23032375.9874         46.250
        41.0004
 118551720.631 7  92377977.47647  22559640.171    22559638.4604         47.000
        44.0004
 123604353.290 7  96315087.06846  23521124.667    23521124.7564         45.500
        41.0004
 107458465.225 8  83733903.46248  20448659.289    20448659.8904         50.250
        49.5004
 107931338.482 8  84102335.23848  20538644.263    20538644.7284         50.000
        48.2504
 125576628.126 7  97851917.41146  23896437.130    23896436.8724         43.250
        39.0004
 122501310.169 7  95455576.24946  23311221.511    23311220.0934         44.750
        39.0004
 130711198.334 6 101852891.40845  24873514.043    24873514.6474         41.000
        35.5004
 107597929.679 8  83842540.77448  20475198.260    20475197.6104         50.000
        51.0004
 116780366.209 7  90997718.07447  22222555.680    22222555.1034         47.750
        43.7504
 08  5 27  1 40  0.0000000  0 10G18G19G25G 6G 3G 7G22G27G16G21
 121002360.834 7  94287555.97246  23025983.405    23025982.0074         46.750
        39.5004
 118480214.022 7  92322258.05247  22546033.005    22546031.0164         47.500
        44.0004
 123593116.758 7  96306331.33446  23518986.402    23518986.4554         45.750
        39.7504
 107454463.253 8  83730785.04048  20447897.710    20447898.3164         50.000
        49.2504
 107890288.489 8  84070348.23448  20530832.703    20530833.1674         50.000
        48.0004
 125524727.050 7  97811475.00846  23886560.707    23886560.3784         42.750
        39.2504
 122416452.423 7  95389453.31346  23295073.857    23295071.6164         43.750
        39.0004
 130654445.024 6 101808668.06145  24862714.140    24862714.6714         40.000
        35.0004
 107630306.608 8  83867769.54748  20481359.564    20481358.7344         50.000
        50.7504
 116849319.514 7  91051447.93047  22235677.088    22235676.4604         47.750
        43.0004
 08  5 27  1 40 30.0000000  0 10G18G19G25G 6G 3G 7G22G27G16G21
 120969242.481 7  94261749.48046  23019681.305    23019679.6534         46.500
        39.5004
 118408880.690 7  92266673.65947  22532458.711    22532456.8164         47.250
        44.7504
 123582414.079 7  96297991.57646  23516949.774    23516949.8474         45.500
        40.5004
 107450742.946 8  83727886.09748  20447189.717    20447190.3344         50.000
        49.2504
 107849549.812 8  84038603.81348  20523080.438    20523080.8484         50.250
        48.0004
 125473346.439 7  97771438.20446  23876783.141    23876783.3104         42.500
        40.0004
 122331819.407 7  95323505.53846  23278968.176    23278966.6414         44.500
        39.0004
 130598099.999 6 101764762.85946  24851991.931    24851992.7174         40.000
        37.2504
 107663160.475 8  83893369.95748  20487611.530    20487610.6244         50.000
        50.7504
 116918583.182 7  91105419.62147  22248857.448    22248856.8374         47.500
        43.2504
 08  5 27  1 41  0.0000000  0 10G18G19G25G 6G 3G 7G22G27G16G21
 120936596.878 7  94236311.36946  23013468.928    23013467.3084         46.750
        40.0004
 118337710.901 7  92211216.69947  22518915.574    22518913.6834         47.250
        44.0004
 123572234.821 7  96290059.67946  23515012.749    23515012.6904         45.750
        41.0004
 107447294.168 8  83725198.74048  20446533.413    20446534.0244         50.000
        49.5004
 107809112.523 8  84007094.23948  20515385.525    20515385.8804         50.250
        48.0004
 125422477.546 7  97731800.11446  23867103.154    23867103.1544         43.500
        38.7504
 122247403.899 7  95257727.21146  23262904.969    23262903.4974         45.250
        39.5004
 130542154.356 6 101721168.84845  24841346.043    24841346.4844         41.250
        35.2504
 107696480.655 8  83919333.73348  20493952.096    20493951.2584         49.750
        50.7504
 116988144.463 7  91159623.21247  22262094.520    22262093.9234         47.750
        42.7504
 08  5 27  1 41 30.0000000  0 10G18G19G25G 6G 3G 7G22G27G16G21
 120904433.603 7  94211249.10146  23007348.246    23007346.8384         46.500
        39.5004
 118266713.359 7  92155893.95947  22505405.126    22505403.2214         46.750
        44.5004
 123562587.691 7  96282542.43546  23513176.931    23513176.9334         45.750
        41.0004
 107444125.325 8  83722729.50948  20445930.444    20445931.0284         50.000
        49.5004
 107768985.850 8  83975826.70548  20507749.649    20507750.0374         50.250
        48.0004
 125372130.563 7  97692568.69546  23857522.537    23857522.0894         43.500
        38.7504
 122163217.257 7  95192127.25946  23246884.397    23246882.7624         45.250
        39.0004
 130486618.252 6 101677893.98846  24830777.904    24830778.3754         40.750
        37.0004
 107730275.627 8  83945667.47248  20500382.970    20500382.2264         49.750
        50.5004
 117058009.459 7  91214063.48247  22275389.535    22275388.7704         47.750
        43.0004
 08  5 27  1 42  0.0000000  0 10G18G19G25G 6G 3G 7G22G27G16G21
 120872750.930 7  94186561.32446  23001319.109    23001317.8084         47.000
        39.7504
 118195884.579 7  92100702.71147  22491926.875    22491924.9094         47.250
        45.0004
 123553468.651 7  96275436.67146  23511441.666    23511441.6484         45.750
        41.0004
 107441232.719 8  83720475.53048  20445380.035    20445380.6214         50.000
        49.5004
 107729166.652 8  83944798.76348  20500172.290    20500172.6584         50.250
        48.0004
 125322303.351 7  97653742.30246  23848040.437    23848040.3494         43.000
        39.2504
 122079258.667 7  95126704.97346  23230908.090    23230906.3534         45.750
        39.2504
 130431489.542 6 101634936.57045  24820287.164    24820287.6814         40.250
        32.7504
 107764541.491 8  83972368.13748  20506903.529    20506902.7714         50.000
        50.5004
 117128173.299 7  91268736.59147  22288741.222    22288740.3874         47.250
        43.0004
 08  5 27  1 42 30.0000000  0 10G18G19G25G 6G 3G 7G22G27G16G21
 120841551.868 7  94162250.39146  22995382.202    22995380.8914         47.250
        39.2504
 118125226.650 7  92045644.61647  22478481.017    22478479.2214         47.000
        44.5004
 123544879.222 7  96268743.60946  23509807.050    23509807.1954         45.750
        40.5004
 107438617.904 8  83718438.01648  20444882.428    20444883.0934         50.000
        49.5004
 107689656.766 8  83914011.83748  20492653.785    20492654.1314         50.250
        48.2504
 125272999.019 7  97615323.34646  23838658.230    23838658.2464         43.750
        38.2504
 121995532.422 7  95061463.78146  23214975.123    23214973.9104         45.250
        39.0004
 130376771.560 6 101592299.20645  24809874.749    24809875.4004         40.750
        34.5004
 107799279.255 8  83999436.52148  20513513.894    20513513.1544         49.750
        50.5004
 117198635.215 7  91323641.97947  22302149.780    22302148.9124         47.750
        43.0004
 08  5 27  1 43  0.0000000  0 10G18G19G25G 6G 3G 7G22G27G16G21
 120810835.634 7  94138315.68446  22989537.228    22989535.8984         47.500
        39.7504
 118054737.582 7  91990718.08147  22465067.388    22465065.4854         47.250
        44.7504
 123536817.313 7  96262461.59946  23508272.956    23508273.0104         45.500
        41.2504
 107436278.766 8  83716615.30948  20444437.400    20444437.9614         50.000
        49.5004
 107650454.829 8  83883464.88048  20485193.898    20485194.2674         50.250
        48.2504
 125224216.920 7  97577311.34746  23829375.430    23829375.2824         43.500
        39.7504
 121912039.565 7  94996404.39246  23199087.270    23199085.2084         45.500
        38.5004
 130322463.589 6 101549981.29946  24799540.250    24799540.9734         40.500
        37.0004
 107834486.828 8  84026870.98848  20520213.577    20520212.9164         49.750
        50.7504
 117269391.206 8  91378776.51347  22315614.335    22315613.4584         48.000
        42.5004
 08  5 27  1 43 30.0000000  0 10G18G19G25G 6G 3G 7G22G27G16G21
 120780606.067 7  94114760.19146  22983784.774    22983783.3534         46.750
        39.7504
 117984420.237 7  91935925.36847  22451686.430    22451684.5684         47.500
        44.5004
 123529285.029 7  96256592.27946  23506839.509    23506839.7014         45.250
        41.0004
 107434217.534 8  83715009.15848  20444045.101    20444045.6774         50.000
        49.5004
 107611563.436 8  83853159.90448  20477793.154    20477793.5054         50.250
        48.2504
 125175960.528 7  97539708.95446  23820192.454    23820192.2404         42.750
        38.7504
 121828784.795 7  94931530.56946  23183244.087    23183242.7324         45.250
        39.5004
 130268569.347 6 101507985.80046  24789284.505    24789285.3044         40.000
        37.0004
 107870166.075 8  84054672.99748  20527003.136    20527002.4134         49.750
        50.5004
 117340441.066 7  91434140.04147  22329134.679    22329133.6604         47.750
        42.7504
 08  5 27  1 44  0.0000000  0 10G18G19G25G 6G 3G 7G22G27G16G21
 120750866.788 7  94091586.75546  22978125.316    22978124.0494         46.250
        40.2504
 117914276.495 7  91881267.92147  22438338.555    22438336.5854         47.000
        44.7504
 123522283.909 7  96251136.84246  23505507.258    23505507.3814         45.250
        41.2504
 107432436.040 8  83713620.98448  20443705.939    20443706.6634         50.000
        49.2504
 107572984.765 8  83823098.60548  20470451.865    20470452.2524         50.250
        48.2504
 125128233.310 7  97502518.88246  23811110.421    23811109.9994         43.750
        39.7504
 121745773.220 7  94866846.24346  23167447.563    23167446.1444         45.750
        39.0004
 130215091.981 6 101466315.13345  24779107.988    24779108.6734         40.750
        35.5004
 107906318.556 8  84082843.75348  20533882.754    20533881.9844         49.750
        50.5004
 117411785.116 7  91489732.80747  22342711.072    22342709.7904         47.750
        42.7504
 08  5 27  1 44 30.0000000  0 10G18G19G25G 6G 3G 7G22G27G16G21
 120721616.462 7  94068794.31046  22972558.962    22972557.8324         46.000
        41.0004
 117844303.986 7  91826743.91047  22425023.206    22425021.4404         47.500
        44.5004
 123515811.571 7  96246093.45546  23504275.666    23504275.7964         45.750
        40.5004
 107430931.871 8  83712448.90148  20443419.747    20443420.4134         50.250
        49.2504
 107534717.290 8  83793279.79948  20463169.789    20463170.2104         50.250
        48.5004
 125081034.469 7  97465740.56946  23802128.882    23802128.6504         44.000
        38.5004
 121663005.204 7  94802351.69946  23151696.940    23151695.4984         44.000
        40.2504
 130162030.734 6 101424968.71345  24769010.804    24769011.4784         40.750
        35.7504
 107942941.650 8  84111381.22248  20540851.844    20540851.1334         49.750
        50.5004
 117483418.625 7  91545551.13247  22356342.571    22356341.2034         47.250
        42.7504
 08  5 27  1 45  0.0000000  0 10G18G19G25G 6G 3G 7G22G27G16G21
 120692854.817 7  94046382.64446  22967085.619    22967084.6974         45.750
        40.7504
 117774501.608 7  91772352.46647  22411740.314    22411738.2804         47.250
        45.0004
 123509865.785 7  96241460.37746  23503144.286    23503144.3284         45.750
        41.0004
 107429703.370 8  83711491.62948  20443186.132    20443186.6224         50.250
        49.5004
 107496759.404 8  83763702.22748  20455946.620    20455947.0274         50.250
        48.2504
 125034363.545 7  97429373.63646  23793247.456    23793247.4434         43.750
        38.7504
 121580481.848 7  94738047.79546  23135993.452    23135992.1254         45.000
        40.2504
 130109385.725 6 101383946.64646  24758992.881    24758993.4704         41.000
        37.0004
 107980033.020 8  84140283.58148  20547909.996    20547909.3914         49.750
        50.7504
 117555337.687 7  91601591.95547  22370028.135    22370026.9604         47.000
        43.0004
 08  5 27  1 45 30.0000000  0 10G18G19G25G 6G 3G 7G22G27G16G21
 120664585.772 7  94024354.82546  22961706.020    22961705.2794         46.250
        40.7504
 117704872.402 7  91718095.94847  22398490.275    22398488.3234         47.750
        44.5004
 123504449.200 7  96237239.65946  23502113.634    23502113.7764         45.750
        41.0004
 107428752.946 8  83710751.03748  20443005.355    20443005.7854         50.000
        49.5004
 107459114.277 8  83734368.36448  20448782.972    20448783.4214         50.250
        48.7504
 124988224.652 7  97393421.24846  23784467.588    23784467.5944         43.500
        39.5004
 121498208.485 7  94673938.71446  23120337.346    23120335.8504         45.750
        39.5004
 130057160.452 6 101343251.61746  24749054.819    24749055.3444         40.500
        36.2504
 108017595.058 8  84169552.69448  20555057.850    20555057.1704         50.000
        50.5004
 117627543.132 7  91657855.93147  22383768.291    22383767.1514         47.250
        42.5004
 08  5 27  1 46  0.0000000  0 10G18G19G25G 6G 3G 7G22G27G16G21
 120636810.098 7  94002711.44146  22956420.265    22956419.9114         46.500
        40.0004
 117635415.593 7  91663973.78147  22385273.108    22385271.0454         47.500
        44.5004
 123499560.511 7  96233430.29046  23501183.305    23501183.3604         45.500
        41.0004
 107428079.785 8  83710226.50248  20442877.204    20442877.7114         50.000
        49.5004
 107421781.575 8  83705277.94748  20441678.795    20441679.2594         50.250
        48.7504
 124942617.970 7  97357883.56446  23775788.824    23775788.7384         43.250
        39.5004
 121416187.383 7  94610026.14746  23104729.534    23104727.8324         45.000
        40.2504
 130005355.888 6 101302884.46045  24739196.560    24739197.2334         40.500
        34.5004
 108055626.594 8  84199187.65048  20562295.111    20562294.3524         49.750
        50.5004
 117700031.554 7  91714340.41847  22397562.355    22397561.1564         47.500
        42.2504
 08  5 27  1 46 30.0000000  0 10G18G19G25G 6G 3G 7G22G27G16G21
 120609530.424 7  93981454.57446  22951228.723    22951228.8054         46.250
        41.0004
 117566133.128 7  91609987.45047  22372089.093    22372087.0554         47.500
        44.7504
 123495201.019 7  96230033.26646  23500353.740    23500353.8024         45.500
        41.0004
 107427685.361 8  83709919.15648  20442802.005    20442802.6314         50.000
        49.5004
 107384762.948 8  83676432.26848  20434634.379    20434634.8344         50.250
        48.5004
 124897546.565 7  97322763.00046  23767211.979    23767212.0064         44.000
        38.7504
 121334422.672 7  94546313.42746  23089169.811    23089168.6804         45.500
        39.2504
 129953974.877 6 101262847.32046  24729418.912    24729419.7934         40.750
        37.5004
 108094128.663 8  84229189.25848  20569621.823    20569621.1274         49.750
        50.5004
 117772802.566 7  91771045.10347  22411410.129    22411409.1344         47.000
        42.5004
 08  5 27  1 47  0.0000000  0 10G18G19G25G 6G 3G 7G22G27G16G21
 120582745.598 7  93960583.30846  22946131.258    22946131.7304         45.750
        40.5004
 117497022.589 7  91556135.09947  22358937.771    22358935.6614         47.500
        45.0004
 123491367.741 7  96227046.30546  23499624.273    23499624.3184         46.000
        41.7504
 107427567.228 8  83709827.10448  20442779.513    20442780.1514         50.000
        49.5004
 107348056.350 8  83647829.72748  20427649.346    20427649.7484         50.250
        48.2504
 124853009.158 7  97288058.53346  23758736.894    23758736.7824         44.000
        38.2504
 121252914.578 7  94482800.60146  23073659.592    23073658.0854         46.500
        39.5004
 129903016.189 6 101223139.26446  24719721.779    24719722.5054         39.250
        36.2504
 108133098.140 8  84259555.07948  20577037.355    20577036.7784         49.500
        50.5004
 117845851.672 7  91827966.46947  22425310.840    22425310.1114         47.000
        42.7504
 08  5 27  1 47 30.0000000  0 10G18G19G25G 6G 3G 7G22G27G16G21
 120556460.770 7  93940101.63746  22941129.006    22941129.7294         45.750
        40.5004
 117428087.980 7  91502419.82747  22345819.910    22345818.0044         47.500
        45.2504
 123488064.220 7  96224472.13446  23498995.682    23498995.7324         45.500
        41.0004
 107427729.082 8  83709953.22848  20442810.372    20442810.9444         50.250
        49.2504
 107311666.349 8  83619473.88748  20420724.559    20420724.9174         50.250
        48.5004
 124809011.195 7  97253774.40546  23750364.395    23750364.0964         43.250
        39.7504
 121171669.742 7  94419492.97546  23058198.881    23058197.8234         44.500
        41.0004
 129852485.112 6 101183764.37746  24710106.148    24710106.8394         40.750
        38.2504
 108172538.649 8  84290287.93948  20584542.539    20584542.0494         49.750
        50.0004
 117919180.711 7  91885105.99046  22439264.964    22439264.0744         47.250
        41.7504
 08  5 27  1 48  0.0000000  0 10G18G19G25G 6G 3G 7G22G27G16G21
 120530673.210 7  93920007.45746  22936221.523    22936222.4184         45.750
        40.0004
 117359325.869 7  91448838.98247  22332734.861    22332732.9684         47.500
        45.0004
 123485286.287 7  96222307.51046  23498467.041    23498467.1324         45.500
        41.2504
 107428166.934 8  83710294.40548  20442893.829    20442894.2024         50.250
        49.2504
 107275589.537 8  83591362.08748  20413859.411    20413859.7514         50.500
        48.5004
 124765549.835 7  97219908.41346  23742093.866    23742093.6824         43.250
        39.2504
 121090687.350 7  94356389.80646  23042788.771    23042787.3384         46.500
        39.5004
 129802379.087 6 101144720.72946  24700571.347    24700571.9514         41.500
        37.0004
 108212445.799 8  84321384.41048  20592136.629    20592136.0794         49.750
        50.2504
 117992783.558 7  91942458.84547  22453271.066    22453270.1584         47.000
        42.2504
 08  5 27  1 48 30.0000000  0 10G18G19G25G 6G 3G 7G22G27G16G21
 120505386.156 7  93900303.25847  22931409.610    22931410.3594         44.500
        42.0004
 117290738.224 7  91395394.06647  22319683.090    22319681.2424         47.750
        45.5004
 123483035.108 7  96220553.34747  23498038.590    23498038.6644         45.500
        42.2504
 107428882.480 8  83710851.97148  20443030.041    20443030.3664         50.000
        49.7504
 107239828.021 8  83563495.97848  20407054.227    20407054.5634         50.250
        48.7504
 124722627.860 7  97186462.72346  23733926.074    23733925.8724         44.000
        39.0004
 121009971.596 7  94293494.43546  23027429.086    23027427.5554         45.250
        40.5004
 129752701.112 6 101106010.61145  24691117.937    24691118.3464         41.000
        34.2504
 108252820.751 8  84352845.40548  20599819.715    20599819.1374         49.750
        50.2504
 118066659.862 7  92000024.79847  22467329.343    22467328.5284         47.250
        42.0004
 08  5 27  1 49  0.0000000  0 10G18G19G25G 6G 3G 7G22G27G16G21
 120480600.914 7  93880990.06046  22926693.391    22926693.8494         45.250
        40.7504
 117222325.673 7  91342085.59747  22306664.508    22306662.7014         47.500
        45.5004
 123481310.628 7  96219209.59246  23497710.510    23497710.6344         45.500
        40.7504
 107429876.036 8  83711626.17448  20443218.971    20443219.4724         50.000
        49.5004
 107204382.428 8  83535876.03748  20400309.167    20400309.4994         50.250
        48.7504
 124680246.759 7  97153438.50846  23725861.231    23725860.9614         43.500
        39.0004
 120929525.413 7  94230809.10546  23012120.734    23012119.2034         46.750
        40.2504
 129703452.901 6 101067635.40145  24681746.070    24681746.9804         40.250
        34.0004
 108293663.265 8  84384670.73848  20607591.847    20607591.2164         49.750
        50.0004
 118140808.085 7  92057802.62447  22481439.245    22481438.4864         47.000
        42.5004
 08  5 27  1 49 30.0000000  0 10G18G19G25G 6G 3G 7G22G27G16G21
 120456319.107 7  93862069.19346  22922073.056    22922073.1494         46.000
        40.2504
 117154088.741 7  91288913.97447  22293679.499    22293677.6104         47.750
        45.2504
 123480112.836 7  96218276.25946  23497482.494    23497482.7134         45.500
        40.5004
 107431147.953 8  83712617.28248  20443460.944    20443461.5264         50.000
        49.5004
 107169253.681 8  83508502.99448  20393624.335    20393624.6994         50.250
        48.7504
 124638408.270 7  97120837.10946  23717899.530    23717899.5724         43.500
        39.2504
 120849352.002 7  94168336.31346  22996864.283    22996862.4194         45.000
        40.5004
 129654636.138 6 101029596.34846  24672456.757    24672457.6464         40.750
        36.5004
 108334973.384 8  84416860.43948  20615452.990    20615452.3164         49.750
        50.2504
 118215226.557 7  92115791.05146  22495600.663    22495599.8374         47.000
        41.7504
 08  5 27  1 50  0.0000000  0 10G18G19G25G 6G 3G 7G22G27G16G21
 120432540.827 7  93843540.67646  22917548.479    22917548.3194         45.500
        40.2504
 117086026.964 7  91235878.83447  22280727.684    22280725.9104         47.750
        45.2504
 123479440.168 7  96217752.10246  23497354.466    23497354.7924         45.250
        40.7504
 107432697.170 8  83713824.46148  20443755.750    20443756.3014         50.000
        49.5004
 107134440.795 8  83481376.07248  20386999.597    20387000.0584         50.250
        48.7504
 124597112.602 7  97088658.63446  23710041.422    23710041.2294         43.750
        39.7504
 120769453.892 7  94106078.07646  22981660.047    22981658.5584         46.000
        39.7504
 129606251.188 6 100991893.76946  24663249.574    24663250.1614         40.750
        36.7504
 108376749.426 8  84449413.19148  20623402.796    20623402.0684         49.750
        50.2504
 118289912.225 7  92173987.66747  22509812.742    22509811.9614         46.750
        42.0004
 08  5 27  1 50 30.0000000  0 10G18G19G25G 6G 3G 7G22G27G16G21
 120409268.469 7  93825406.38146  22913120.200    22913119.7544         46.750
        39.5004
 117018141.507 7  91182981.09047  22267809.517    22267807.7564         47.500
        45.5004
 123479293.558 7  96217637.85646  23497326.650    23497326.8624         45.750
        40.2504
 107434524.729 8  83715248.53548  20444103.505    20444104.0674         50.000
        49.7504
 107099945.854 8  83454496.90448  20380435.411    20380435.8984         50.250
        48.5004
 124556362.084 7  97056905.01046  23702286.755    23702286.6094         43.750
        39.0004
 120689834.585 7  94044037.06946  22966509.115    22966507.6024         45.250
        39.2504
 129558300.426 6 100954529.52445  24654124.705    24654125.4464         40.000
        35.0004
 108418992.145 8  84482329.59048  20631441.283    20631440.6354         49.750
        50.2504
 118364864.135 7  92232391.73946  22524075.658    22524074.8854         46.750
        41.7504
 08  5 27  1 51  0.0000000  0 10G18G19G25G 6G 3G 7G22G27G16G21
 120386504.881 8  93807668.55346  22908788.724    22908788.0264         48.000
        39.5004
 116950434.613 7  91130222.48147  22254925.312    22254923.5264         47.750
        45.2504
 123479673.982 7  96217934.31946  23497398.948    23497399.2004         46.000
        40.2504
 107436632.514 8  83716890.96548  20444504.633    20444505.1954         50.000
        49.2504
 107065770.758 8  83427866.96148  20373932.118    20373932.6484         50.250
        48.7504
 124516159.524 7  97025578.36646  23694636.480    23694636.3764         43.500
        40.2504
 120610498.585 7  93982216.83846  22951411.763    22951410.0974         47.000
        39.7504
 129510787.059 6 100917506.11345  24645083.146    24645083.7304         40.750
        35.2504
 108461702.615 8  84515610.47048  20639568.749    20639568.2724         49.750
        50.2504
 118440081.669 7  92291002.80146  22538389.049    22538388.3974         47.000
        41.5004
 08  5 27  1 51 30.0000000  0 10G18G19G25G 6G 3G 7G22G27G16G21
 120364246.395 7  93790324.30746  22904553.402    22904552.3314         47.000
        40.7504
 116882901.743 8  91077599.47847  22242074.198    22242072.4824         48.000
        45.5004
 123480576.169 7  96218637.32346  23497570.557    23497570.8504         44.750
        41.0004
 107439015.700 8  83718747.99148  20444958.221    20444958.6934         50.000
        49.5004
 107031911.302 8  83401482.97248  20367488.925    20367489.4314         50.250
        48.7504
 124476501.542 6  96994676.02746  23687089.793    23687089.6794         41.750
        41.2504
 120531443.804 7  93920615.72046  22936368.346    22936366.9484         45.750
        40.5004
 129463707.237 6 100880820.52545  24636124.303    24636124.9174         41.500
        34.7504
 108504875.469 8  84549251.64848  20647784.306    20647783.9374         50.000
        50.2504
 118515558.293 7  92349815.75046  22552751.791    22552751.1424         46.750
        41.7504
 08  5 27  1 52  0.0000000  0 10G18G19G25G 6G 3G 7G22G27G16G21
 120342500.641 7  93773379.56046  22900415.721    22900414.2054         45.750
        41.5004
 116815549.026 7  91025116.84947  22229257.408    22229255.7264         47.750
        45.5004
 123482005.591 7  96219751.14546  23497842.638    23497842.9104         44.750
        41.7504
 107441680.222 8  83720824.24448  20445465.233    20445465.6894         50.000
        49.5004
 106998374.052 8  83375350.05448  20361107.023    20361107.5214         50.500
        48.7504
 124437394.740 7  96964203.19846  23679647.897    23679647.6894         44.000
        40.0004
 120452678.984 7  93859240.55446  22921379.709    22921378.3524         46.750
        40.7504
 129417068.160 6 100844478.37846  24627249.330    24627249.9624         41.500
        37.2504
 108548516.363 8  84583257.53548  20656088.981    20656088.5674         49.750
        50.0004
 118591297.756 7  92408833.49747  22567164.567    22567163.8794         46.750
        42.2504
 08  5 27  1 52 30.0000000  0 10G18G19G25G 6G 3G 7G22G27G16G21
 120321263.295 7  93756830.97146  22896375.072    22896372.8704         47.000
        40.7504
 116748371.892 7  90972771.04647  22216474.013    22216472.3014         47.750
        45.7504
 123483956.768 7  96221271.54146  23498213.851    23498213.9704         45.500
        40.0004
 107444620.806 8  83723115.60948  20446024.701    20446025.2644         50.000
        49.5004
 106965154.496 8  83349464.68948  20354785.539    20354786.0124         50.250
        48.7504
 124398835.312 7  96934156.90846  23672310.449    23672310.2004         44.000
        38.7504
 120374201.987 7  93798089.63546  22906446.140    22906444.2694         45.250
        41.0004
 129370866.205 6 100808476.87246  24618457.283    24618458.2254         40.500
        39.2504
 108592619.305 8  84617623.45848  20664481.557    20664481.0694         49.750
        50.0004
 118667292.857 7  92468050.47447  22581626.186    22581625.1474         47.000
        42.0004
 08  5 27  1 53  0.0000000  0 10G18G19G25G 6G 3G 7G22G27G16G21
 120300539.634 8  93740682.70046  22892431.901    22892429.2824         48.000
        39.2504
 116681375.118 7  90920565.77747  22203724.915    22203723.1424         47.750
        45.7504
 123486433.462 7  96223201.44446  23498685.109    23498685.4324         45.000
        40.2504
 107447842.261 8  83725625.83448  20446637.688    20446638.3014         50.000
        49.5004
 106932257.467 8  83323830.64848  20348525.354    20348525.9254         50.250
        48.7504
 124360829.001 7  96904541.62446  23665077.981    23665077.9074         42.750
        40.7504
 120296019.890 7  93737168.55846  22891568.409    22891567.1634         46.000
        40.7504
 129325107.259 6 100772820.54946  24609749.663    24609750.5714         39.750
        37.7504
 108637188.458 8  84652352.66548  20672962.785    20672962.2894         49.750
        50.0004
 118743545.750 7  92527468.29647  22596136.421    22596135.5864         46.500
        42.0004
 08  5 27  1 53 30.0000000  0 10G18G19G25G 6G 3G 7G22G27G16G21
 120280326.812 8  93724932.48346  22888585.654    22888582.8884         48.000
        40.5004
 116614555.003 7  90868498.16447  22191009.541    22191007.5924         47.750
        45.7504
 123489431.165 7  96225537.30546  23499255.690    23499255.7664         44.750
        40.0004
 107451340.294 8  83728351.57448  20447303.406    20447303.9404         50.000
        49.2504
 106899679.139 8  83298444.94048  20342325.862    20342326.4914         50.250
        48.7504
 124323372.863 7  96875354.98446  23657950.374    23657950.0104         43.250
        39.2504
 120218131.596 7  93676476.37646  22876746.885    22876745.2834         45.250
        40.7504
 129279788.497 6 100737507.20546  24601125.736    24601126.3874         40.500
        37.2504
 108682218.975 8  84687441.37948  20681531.778    20681531.3114         49.750
        50.0004
 118820050.878 7  92587082.67247  22610694.904    22610694.2554         46.750
        42.0004
 08  5 27  1 54  0.0000000  0 10G18G19G25G 6G 3G 7G22G27G16G21
 120260631.461 7  93709585.48346  22884837.587    22884835.0404         47.000
        40.5004
 116547916.911 8  90816572.39147  22178328.663    22178326.9024         48.000
        46.0004
 123492954.349 7  96228282.65846  23499926.070    23499926.1874         45.500
        41.5004
 107455120.136 8  83731296.90948  20448022.728    20448023.2364         50.000
        49.2504
 106867425.389 8  83273312.15348  20336188.154    20336188.8004         50.250
        48.7504
 124286472.991 7  96846601.86846  23650928.461    23650928.3194         43.750
        39.7504
 120140544.852 7  93616019.18846  22861982.452    22861980.6164         46.250
        40.7504
 129234916.351 7 100702541.87546  24592586.904    24592587.4734         42.000
        36.2504
 108727715.538 8  84722893.23948  20690189.456    20690189.0714         49.750
        50.0004
 118896811.390 7  92646896.05846  22625301.902    22625301.3944         46.750
        41.7504
 08  5 27  1 54 30.0000000  0 10G18G19G25G 6G 3G 7G22G27G16G21
 120241449.274 7  93694638.32546  22881186.981    22881184.8374         46.250
        41.0004
 116481456.246 8  90764784.86947  22165681.708    22165679.6704         48.000
        45.7504
 123496997.441 7  96231433.12747  23500695.278    23500695.5634         44.750
        42.2504
 107459176.997 8  83734458.10348  20448794.699    20448795.2934         50.000
        49.5004
 106835491.813 8  83248428.84648  20330111.456    20330111.9894         50.500
        49.0004
 124250125.517 7  96818279.16246  23644011.820    23644011.8014         44.000
        39.0004
 120063257.988 7  93555795.64746  22847275.702    22847273.9774         45.500
        41.2504
 129190487.001 6 100667921.61846  24584132.280    24584132.9224         40.750
        38.0004
 108773672.892 8  84758704.15948  20698934.820    20698934.4634         49.750
        50.0004
 118973819.821 7  92706902.63046  22639956.227    22639955.5734         46.500
        40.7504
 08  5 27  1 55  0.0000000  0 10G18G19G25G 6G 3G 7G22G27G16G21
 120222786.174 7  93680095.66046  22877634.988    22877633.3854         47.000
        40.2504
 116415178.242 8  90713139.67347  22153069.530    22153067.4774         48.250
        46.5004
 123501564.647 7  96234991.97546  23501564.602    23501564.7624         44.500
        39.7504
 107463515.565 8  83737838.79748  20449620.325    20449620.8704         50.000
        49.5004
 106803883.472 8  83223798.97148  20324096.654    20324097.0764         50.500
        48.7504
 124214336.029 7  96790391.24046  23637201.331    23637201.1794         43.000
        40.2504
 119986277.935 7  93495811.24146  22832626.392    22832625.1874         46.250
        41.5004
 129146506.202 6 100633650.89546  24575762.863    24575763.9364         40.250
        37.5004
 108820094.640 8  84794876.94748  20707768.579    20707768.2354         49.750
        50.0004
 119051079.587 7  92767105.03346  22654658.105    22654657.2104         46.250
        41.2504
 08  5 27  1 55 30.0000000  0 10G18G19G25G 6G 3G 7G22G27G16G21
 120204638.026 7  93665954.26946  22874180.993    22874179.9124         47.000
        40.0004
 116349077.905 8  90661632.92847  22140491.090    22140488.9424         48.000
        46.0004
 123506650.044 7  96238954.61346  23502532.286    23502532.4184         45.000
        41.2504
 107468130.709 8  83741435.01448  20450498.588    20450499.0724         50.000
        49.5004
 106772595.914 8  83199419.05748  20318142.824    20318143.2454         50.250
        49.0004
 124179100.595 7  96762935.06146  23630496.263    23630496.2064         43.750
        40.2504
 119909602.467 7  93436064.11646  22818035.785    22818033.7644         46.250
        39.7504
 129102970.151 6 100599726.68446  24567478.514    24567479.0374         41.250
        37.0004
 108866975.095 8  84831407.16448  20716689.597    20716689.2794         49.750
        49.7504
 119128583.455 7  92827497.65846  22669406.713    22669405.6154         46.250
        41.7504
 08  5 27  1 56  0.0000000  0 10G18G19G25G 6G 3G 7G22G27G16G21
 120187009.413 7  93652217.71446  22870825.803    22870825.2294         46.750
        40.2504
 116283159.349 8  90610267.82247  22127947.122    22127945.1134         48.250
        46.0004
 123512256.737 7  96243323.48246  23503599.127    23503599.4094         45.000
        41.0004
 107473026.182 8  83745249.67148  20451430.076    20451430.6504         50.000
        49.5004
 106741632.991 8  83175292.10748  20312250.740    20312251.2124         50.250
        48.7504
 124144423.863 7  96735914.23846  23623897.518    23623897.3844         43.250
        39.2504
 119833238.222 7  93376559.52546  22803504.069    22803502.4334         45.500
        41.0004
 129059883.777 6 100566152.86546  24559279.622    24559279.8004         40.750
        36.7504
 108914317.487 8  84868297.33748  20725698.496    20725698.2294         49.750
        49.7504
 119206333.126 7  92888081.80646  22684201.906    22684201.1424         46.000
        41.7504
 08  5 27  1 56 30.0000000  0 10G18G19G25G 6G 3G 7G22G27G16G21
 120169901.330 7  93638886.75746  22867569.678    22867569.6434         46.250
        41.0004
 116217422.418 8  90559044.25247  22115437.842    22115435.6794         48.250
        45.7504
 123518383.437 7  96248097.52546  23504764.898    23504765.1954         45.000
        41.0004
 107478201.250 8  83749282.19148  20452414.752    20452415.4334         50.000
        49.5004
 106710994.602 8  83151418.04248  20306420.454    20306420.9294         50.500
        49.0004
 124110306.089 7  96709328.96746  23617405.086    23617404.9904         43.250
        41.7504
 119757187.446 7  93317299.20646  22789032.088    22789030.7564         47.500
        40.7504
 129017247.500 6 100532929.81046  24551165.911    24551166.4984         40.500
        38.0004
 108962120.313 8  84905546.28148  20734795.089    20734794.7944         49.750
        49.7504
 119284325.134 7  92948854.80046  22699043.459    22699042.7724         46.500
        40.7504
 08  5 27  1 57  0.0000000  0 10G18G19G25G 6G 3G 7G22G27G16G21
 120153311.693 7  93625959.76746  22864412.245    22864412.8244         44.750
        41.7504
 116151865.390 8  90507960.86547  22102962.724    22102960.6484         48.000
        46.0004
 123525027.129 7  96253274.42646  23506029.198    23506029.5464         45.000
        40.7504
 107483653.815 8  83753530.94048  20453452.364    20453453.0134         50.000
        49.5004
 106680679.342 8  83127795.75748  20300651.670    20300652.1344         50.500
        49.0004
 124076745.966 7  96683178.20846  23611018.872    23611018.6614         43.750
        39.7504
 119681450.376 7  93258283.31146  22774619.981    22774618.1204         47.000
        41.0004
 128975060.147 6 100500056.55546  24543137.960    24543138.7804         41.000
        38.2504
 109010380.736 8  84943151.79848  20743978.772    20743978.4604         49.750
        49.7504
 119362555.477 7  93009813.50246  22713930.174    22713929.5784         46.000
        40.0004
 08  5 27  1 57 30.0000000  0 10G18G19G25G 6G 3G 7G22G27G16G21
 120137246.746 7  93613441.62446  22861354.837    22861355.6814         45.750
        40.7504
 116086493.378 8  90457021.64147  22090522.755    22090520.8074         48.000
        46.0004
 123532192.240 7  96258857.61646  23507392.727    23507392.9954         45.250
        40.7504
 107489389.144 8  83758000.02348  20454543.874    20454544.3944         50.000
        49.2504
 106650692.457 8  83104429.35848  20294945.373    20294945.7984         50.500
        49.0004
 124043749.705 7  96657466.86446  23604739.726    23604739.7574         44.500
        39.7504
 119606034.976 7  93199518.09646  22760268.640    22760267.2074         46.750
        41.5004
 128933328.029 6 100467538.03345  24535196.679    24535197.1424         41.250
        35.5004
 109059103.324 8  84981117.44648  20753250.402    20753250.0294         49.750
        49.7504
 119441027.930 7  93070960.85946  22728862.974    22728862.0364         46.000
        41.2504
 08  5 27  1 58  0.0000000  0 10G18G19G25G 6G 3G 7G22G27G16G21
 120121702.545 7  93601329.26946  22858396.725    22858397.7134         45.500
        41.5004
 116021301.930 8  90406223.12947  22078117.211    22078115.2384         48.250
        45.7504
 123539873.098 7  96264842.71146  23508854.387    23508854.5564         45.500
        41.0004
 107495402.140 8  83762685.47648  20455688.156    20455688.6444         50.000
        49.5004
 106621029.624 8  83081315.46248  20289300.712    20289301.1334         50.500
        49.0004
 124011312.698 7  96632191.26646  23598567.264    23598567.0614         42.750
        41.0004
 119530939.050 7  93141001.79046  22745978.348    22745977.2334         46.250
        40.5004
 128892047.474 6 100435371.36446  24527341.114    24527341.5684         40.000
        39.0004
 109108282.243 8  85019438.67948  20762608.821    20762608.4504         49.750
        49.7504
 119519735.273 7  93132291.24546  22743840.447    22743839.4064         46.500
        41.0004
 08  5 27  1 58 30.0000000  0 10G18G19G25G 6G 3G 7G22G27G16G21
 120106680.434 7  93589623.73046  22855538.231    22855539.0934         45.000
        41.5004
 115956291.929 8  90355565.99047  22065746.195    22065744.1334         48.000
        46.0004
 123548069.199 7  96271229.27646  23510414.196    23510414.3654         45.000
        41.5004
 107501693.170 8  83767587.58048  20456885.246    20456885.8424         50.000
        49.5004
 106591691.984 8  83058454.96348  20283717.927    20283718.3434         50.500
        48.7504
 123979436.731 7  96607352.84446  23592501.463    23592501.2724         43.500
        41.5004
 119456165.681 7  93082736.83646  22731749.336    22731747.9544         46.750
        41.2504
 128851220.022 6 100403557.75646  24519572.015    24519572.7044         40.000
        37.7504
 109157916.943 8  85058115.05948  20772053.978    20772053.6864         49.750
        49.7504
 119598675.786 7  93193803.33646  22758862.613    22758861.4704         46.750
        41.0004
 08  5 27  1 59  0.0000000  0 10G18G19G25G 6G 3G 7G22G27G16G21
 120092182.199 7  93578326.40046  22852779.820    22852780.1544         45.750
        41.5004
 115891464.640 8  90305051.22847  22053409.937    22053408.0804         48.000
        46.5004
 123556780.970 7  96278017.65446  23512072.015    23512072.0344         45.250
        41.2504
 107508263.541 8  83772707.34748  20458135.510    20458136.2024         50.000
        49.5004
 106562680.786 8  83035848.83548  20278197.273    20278197.6884         50.500
        49.0004
 123948123.607 7  96582953.00146  23586542.905    23586542.7344         44.500
        41.0004
 119381718.937 7  93024726.38746  22717582.877    22717581.0274         47.000
        41.7504
 128810847.830 6 100372098.92446  24511889.431    24511890.2654         41.000
        37.7504
 109208008.124 8  85097147.14648  20781586.061    20781585.8274         49.750
        49.7504
 119677848.648 7  93255496.46346  22773928.416    22773927.9584         46.000
        41.2504
 08  5 27  1 59 30.0000000  0 10G18G19G25G 6G 3G 7G22G27G16G21
 120078211.516 7  93567440.16846  22850121.865    22850121.5724         46.500
        40.7504
 115826822.992 8  90254681.13047  22041109.034    22041107.0274         48.250
        46.0004
 123566009.910 7  96285209.05646  23513828.194    23513828.4394         45.500
        41.0004
 107515115.863 8  83778046.81948  20459439.470    20459440.1564         50.000
        49.2504
 106533998.773 8  83013499.21648  20272739.274    20272739.6984         50.500
        49.0004
 123917376.383 7  96558994.14846  23580691.760    23580691.6304         44.750
        39.5004
 119307603.815 7  92966974.36147  22703479.102    22703477.6984         46.500
        42.0004
 128770934.325 7 100340997.49745  24504294.161    24504294.6284         42.250
        35.0004
 109258557.484 8  85136536.24648  20791205.296    20791205.0324         49.750
        49.5004
 119757254.913 7  93317371.47647  22789038.938    22789038.5454         45.500
        42.0004
 08  5 27  2  0  0.0000000  0 10G18G19G25G 6G 3G 7G22G27G16G21
 120064763.297 7  93556961.04946  22847563.348    22847562.3734         46.750
        39.5004
 115762361.727 7  90204451.58347  22028842.374    22028840.5584         47.750
        46.0004
 123575749.733 7  96292798.51546  23515681.567    23515681.7094         45.000
        41.2504
 107522244.300 8  83783601.44348  20460795.984    20460796.5754         50.000
        49.2504
 106505640.844 8  82991402.13348  20267342.892    20267343.3724         50.500
        49.2504
 123887190.663 7  96535472.80647  23574947.757    23574947.5324         43.250
        42.0004
 119233817.412 7  92909478.46546  22689438.314    22689436.4534         47.500
        40.7504
 128731474.799 6 100310249.81546  24496785.168    24496785.5554         40.750
        39.5004
 109309558.455 8  85176277.26248  20800910.518    20800910.0874         50.000
        49.5004
 119836885.936 7  93379421.61746  22804192.051    22804191.6854         45.500
        40.7504
 08  5 27  2  0 30.0000000  0 10G18G19G25G 6G 3G 7G22G27G16G21
 120051843.360 7  93546893.58846  22845105.307    22845103.7884         47.250
        39.5004
 115698085.991 8  90154366.60747  22016611.007    22016609.3034         48.250
        46.2504
 123586004.447 7  96300789.19746  23517633.117    23517633.2614         45.250
        41.0004
 107529653.908 8  83789375.16648  20462205.980    20462206.5324         50.000
        49.5004
 106477612.695 8  82969562.01448  20262009.318    20262009.7774         50.500
        49.0004
 123857571.965 7  96512393.30546  23569311.345    23569311.3664         44.250
        40.7504
 119160367.425 7  92852244.72246  22675461.109    22675459.0064         46.750
        41.0004
 128692475.496 6 100279860.78146  24489363.604    24489364.5174         40.000
        37.0004
 109361015.253 8  85216373.45948  20810702.516    20810701.9884         50.000
        49.5004
 119916744.882 7  93441649.36846  22819388.626    22819388.4834         45.250
        41.0004
 08  5 27  2  1  0.0000000  0 10G18G19G25G 6G 3G 7G22G27G16G21
 120039453.191 7  93537238.92546  22842747.964    22842745.8914         47.500
        40.5004
 115633997.280 8  90104427.37147  22004415.337    22004413.5324         48.250
        46.2504
 123596774.042 7  96309181.08046  23519682.419    23519682.5604         45.250
        41.0004
 107537345.671 8  83795368.74148  20463669.668    20463670.2164         50.000
        49.5004
 106449916.064 8  82947980.22548  20256738.896    20256739.3224         50.500
        49.0004
 123828521.705 7  96489756.71146  23563783.443    23563782.9964         44.500
        39.5004
 119087257.384 7  92795275.88346  22661548.642    22661546.8944         47.250
        41.5004
 128653938.128 6 100249831.65446  24482030.180    24482031.0904         40.000
        38.5004
 109412927.968 8  85256824.91948  20820581.159    20820580.6944         49.750
        49.5004
 119996831.514 7  93504054.50646  22834628.611    22834628.6694         46.750
        39.7504
 08  5 27  2  1 30.0000000  0 10G18G19G25G 6G 3G 7G22G27G16G21
 120027592.071 7  93527996.51646  22840491.219    22840488.7244         47.750
        40.2504
 115570093.906 8  90054632.54447  21992254.912    21992253.1814         48.000
        46.2504
 123608055.560 7  96317971.87746  23521829.066    23521829.4474         45.000
        41.0004
 107545317.462 8  83801580.52448  20465186.661    20465187.2204         50.000
        49.5004
 106422548.817 8  82926655.09948  20251531.100    20251531.5084         50.500
        49.0004
 123800038.550 7  96467562.08046  23558363.041    23558363.0464         44.750
        41.2504
 119014487.767 7  92738572.30446  22647700.729    22647699.3924         46.500
        41.7504
 128615861.810 6 100220161.77746  24474784.754    24474785.2504         41.500
        38.0004
 109465293.719 8  85297629.39648  20830545.977    20830545.5184         49.750
        49.2504
 120077141.078 7  93566633.38446  22849911.257    22849910.9174         46.250
        39.7504
 08  5 27  2  2  0.0000000  0 10G18G19G25G 6G 3G 7G22G27G16G21
 120016259.517 7  93519165.97146  22838334.801    22838332.2994         47.000
        40.7504
 115506375.704 8  90004982.01347  21980129.705    21980127.7694         48.250
        46.0004
 123619847.598 7  96327160.47046  23524073.028    23524073.4334         44.750
        40.7504
 107553568.984 8  83808010.27948  20466756.850    20466757.4624         50.000
        49.2504
 106395510.980 8  82905586.65648  20246385.977    20246386.3494         50.500
        49.0004
 123772123.205 7  96445809.85946  23553051.142    23553050.9244         43.750
        40.7504
 118942061.144 7  92682135.97846  22633918.466    22633916.6984         47.000
        41.5004
 128578247.127 6 100190851.66846  24467626.834    24467627.4994         41.250
        37.2504
 109518111.218 8  85338785.88648  20840596.759    20840596.3234         49.750
        49.5004
 120157671.299 7  93629384.19646  22865235.619    22865235.0704         45.750
        39.7504
 08  5 27  2  2 30.0000000  0 10G18G19G25G 6G 3G 7G22G27G16G21
 120005457.447 7  93510748.78846  22836279.117    22836276.8594         47.000
        40.7504
 115442843.972 8  89955476.77647  21968040.036    21968038.2074         48.000
        46.0004
 123632150.038 7  96336746.78246  23526414.063    23526414.4704         44.750
        40.5004
 107562100.951 8  83814658.56148  20468380.411    20468381.1104         50.000
        49.5004
 106368803.622 8  82884775.73048  20241303.729    20241304.1164         50.500
        49.0004
 123744776.855 7  96424501.00646  23547847.179    23547846.9024         44.500
        41.2504
 118869980.591 7  92625969.32647  22620202.040    22620200.3284         47.000
        42.2504
 128541095.570 6 100161902.44046  24460557.045    24460557.8094         40.500
        37.7504
 109571380.054 8  85380294.06148  20850733.404    20850733.0964         49.750
        49.2504
 120238420.904 7  93692305.96046  22880601.883    22880601.1614         45.750
        39.7504
 08  5 27  2  3  0.0000000  0 10G18G19G25G 6G 3G 7G22G27G16G21
 119995187.643 7  93502746.35946  22834324.410    22834322.6684         46.750
        40.5004
 115379500.037 8  89906117.87147  21955986.098    21955984.1594         48.250
        46.2504
 123644962.891 7  96346730.84146  23528852.191    23528852.6564         45.000
        39.5004
 107570914.468 8  83821526.23448  20470057.586    20470058.2434         50.000
        49.5004
 106342428.688 8  82864223.83448  20236284.752    20236285.1864         50.500
        49.0004
 123718001.151 7  96403636.82946  23542752.045    23542751.9394         45.000
        41.2504
 118798250.097 7  92570075.46147  22606552.169    22606550.7504         47.250
        42.0004
 128504409.268 6 100133315.68546  24453575.903    24453576.5784         39.500
        37.2504
 109625101.165 8  85422154.66248  20860956.257    20860955.8834         50.000
        49.0004
 120319389.167 7  93755398.10846  22896009.601    22896008.9394         45.500
        40.0004
 08  5 27  2  3 30.0000000  0 10G18G19G25G 6G 3G 7G22G27G16G21
 119985447.804 7  93495156.88446  22832470.403    22832469.2944         46.500
        40.7504
 115316341.090 8  89856903.11747  21943967.416    21943965.3764         48.250
        46.2504
 123658282.217 7  96357109.52146  23531386.786    23531387.2444         44.750
        40.2504
 107580006.652 8  83828611.05048  20471787.824    20471788.4044         50.000
        49.2504
 106316383.218 8  82843928.66648  20231328.440    20231328.9064         50.500
        49.2504
 123691793.718 7  96383215.46746  23537764.782    23537764.6354         44.500
        40.5004
 118726869.315 7  92514454.06946  22592969.292    22592967.2164         47.250
        41.5004
 128468186.111 6 100105089.85646  24446682.735    24446683.6344         40.750
        39.0004
 109679270.189 8  85464364.28548  20871264.321    20871263.8044         49.750
        49.2504
 120400570.981 7  93818656.66846  22911457.945    22911457.1194         45.000
        41.0004
 08  5 27  2  4  0.0000000  0 10G18G19G25G 6G 3G 7G22G27G16G21
 119976241.988 7  93487983.52846  22830717.994    22830717.4644         46.000
        41.5004
 115253370.923 8  89807835.46447  21931984.621    21931982.6224         48.000
        46.2504
 123672110.571 7  96367884.85546  23534018.383    23534018.7064         44.750
        39.7504
 107589381.082 8  83835915.80048  20473571.719    20473572.3144         50.000
        49.5004
 106290671.823 8  82823893.81348  20226435.796    20226436.1914         50.500
        49.2504
 123666158.537 7  96363239.98346  23532886.676    23532886.4644         44.500
        41.7504
 118655844.143 7  92459109.79947  22579453.455    22579451.4124         46.750
        42.5004
 128432430.626 6 100077228.44446  24439878.936    24439879.5934         40.750
        37.7504
 109733889.922 8  85506925.10748  20881658.147    20881657.4934         50.000
        49.0004
 120481967.820 7  93882082.78246  22926947.308    22926946.5394         46.000
        39.7504
 08  5 27  2  4 30.0000000  0 10G18G19G25G 6G 3G 7G22G27G16G21
 119967570.881 7  93481226.83246  22829067.355    22829067.3184         46.000
        41.0004
 115190590.004 8  89758915.28647  21920037.803    21920035.6934         48.250
        46.2504
 123686446.647 7  96379055.80646  23536746.471    23536746.7204         45.250
        39.5004
 107599037.582 8  83843440.33748  20475409.308    20475409.8444         50.000
        49.2504
 106265294.827 8  82804119.53248  20221606.744    20221607.0864         50.500
        49.2504
 123641096.228 7  96343710.91946  23528117.365    23528117.3974         44.750
        39.5004
 118585177.468 7  92404044.86547  22566006.088    22566004.2834         47.250
        42.5004
 128397143.533 6 100049732.00346  24433163.788    24433164.6044         40.500
        38.2504
 109788959.183 8  85549836.21948  20892137.461    20892136.7794         49.750
        49.0004
 120563578.029 7  93945675.14746  22942477.226    22942476.2454         45.250
        40.2504
 08  5 27  2  5  0.0000000  0 10G18G19G25G 6G 3G 7G22G27G16G21
 119959431.624 7  93474884.55446  22827518.154    22827518.4084         45.750
        41.2504
 115127995.874 8  89710140.64447  21908126.602    21908124.5724         48.500
        46.7504
 123701286.543 7  96390619.36346  23539570.428    23539570.6364         45.000
        40.5004
 107608973.303 8  83851182.45548  20477300.078    20477300.5264         50.000
        49.2504
 106240249.399 8  82784603.61348  20216840.769    20216841.0464         50.500
        49.2504
 123616604.232 7  96324626.24746  23523456.710    23523456.5494         45.000
        39.7504
 118514868.784 7  92349258.87347  22552626.748    22552625.0834         47.000
        42.0004
 128362322.704 7 100022598.90046  24426537.664    24426538.2864         42.000
        36.7504
 109844473.699 8  85593094.27548  20902701.516    20902700.8534         49.750
        48.7504
 120645395.739 7  94009429.20546  22958046.518    22958045.4544         45.500
        40.2504
 08  5 27  2  5 30.0000000  0 10G18G19G25G 6G 3G 7G22G27G16G21
 119951827.846 7  93468959.52246  22826071.192    22826071.4474         46.250
        40.2504
 115065591.638 8  89661513.98647  21896251.494    21896249.4314         48.750
        46.0004
 123716631.747 7  96402576.64546  23542490.511    23542490.6884         44.750
        40.5004
 107619190.585 8  83859143.96748  20479244.398    20479244.8084         50.000
        49.2504
 106215538.429 8  82765348.31548  20212138.410    20212138.6524         50.500
        49.0004
 123592686.009 7  96305988.68546  23518905.283    23518905.1664         44.500
        40.7504
 118444923.194 7  92294755.83347  22539316.295    22539314.6334         46.750
        42.2504
 128327971.471 6  99995831.73446  24420000.901    24420001.7914         40.750
        37.0004
 109900435.639 8  85636700.97748  20913350.695    20913350.0634         50.000
        49.0004
 120727422.398 7  94073346.08146  22973655.749    22973654.8224         45.250
        40.2504
 08  5 27  2  6  0.0000000  0 10G18G19G25G 6G 3G 7G22G27G16G21
 119944757.612 7  93463450.25346  22824725.967    22824725.9824         46.750
        40.5004
 115003375.047 8  89613033.53447  21884412.107    21884410.0244         48.750
        46.5004
 123732478.715 7  96414924.92346  23545506.124    23545506.2334         44.750
        40.7504
 107629687.412 8  83867323.31548  20481241.889    20481242.3424         50.000
        49.5004
 106191160.301 8  82746352.37548  20207499.347    20207499.6194         50.500
        49.0004
 123569339.592 7  96287796.67346  23514462.626    23514462.4834         45.000
        39.7504
 118375341.316 7  92240536.18446  22526075.322    22526073.4804         47.000
        41.7504
 128294088.375 6  99969429.33346  24413553.222    24413553.8424         40.750
        36.7504
 109956841.391 8  85680653.50748  20924084.341    20924083.6744         49.750
        49.0004
 120809652.993 7  94137421.86646  22989303.830    22989303.0354         45.750
        39.7504
 08  5 27  2  6 30.0000000  0 10G18G19G25G 6G 3G 7G22G27G16G21
 119938222.166 7  93458357.71446  22823482.646    22823482.3704         46.750
        40.0004
 114941347.480 8  89564700.36947  21872608.677    21872606.7014         48.750
        47.0004
 123748826.779 7  96427663.67946  23548617.111    23548617.1914         45.250
        40.7504
 107640464.316 8  83875720.89948  20483292.642    20483293.2024         50.000
        49.5004
 106167115.730 8  82727616.34848  20202923.782    20202924.0984         50.500
        49.2504
 123546565.804 7  96270050.87346  23510128.853    23510128.6404         43.750
        39.7504
 118306125.820 7  92186602.03147  22512904.051    22512902.4314         47.000
        42.5004
 128260674.753 6  99943392.68946  24407195.118    24407195.4734         41.000
        39.2504
 110013690.714 8  85724951.67348  20934902.521    20934901.7924         50.000
        49.0004
 120892086.936 7  94201656.07946  23004990.494    23004989.7774         45.250
        40.0004
 08  5 27  2  7  0.0000000  0 10G18G19G25G 6G 3G 7G22G27G16G21
 119932225.225 7  93453684.78046  22822341.829    22822341.1694         46.750
        40.7504
 114879512.096 8  89516516.96647  21860841.741    21860839.6774         48.500
        47.2504
 123765678.458 7  96440794.85046  23551823.790    23551823.9184         45.250
        40.5004
 107651524.606 8  83884339.30248  20485397.381    20485397.9194         50.000
        49.5004
 106143408.734 8  82709143.36348  20198412.491    20198412.8294         50.500
        49.2504
 123524368.818 7  96252754.52346  23505904.877    23505904.8474         44.500
        39.2504
 118237283.129 7  92132958.39447  22499803.699    22499802.0384         47.000
        42.0004
 128227734.848 6  99917725.28546  24400926.488    24400927.2464         41.250
        39.0004
 110070985.972 8  85769597.32548  20945805.535    20945804.8074         50.000
        48.7504
 120974724.930 7  94266049.34546  23020716.249    23020714.8894         45.750
        39.5004
 08  5 27  2  7 30.0000000  0 10G18G19G25G 6G 3G 7G22G27G16G21
 119926764.639 7  93449429.79046  22821302.964    22821302.0114         47.000
        40.7504
 114817867.275 8  89468482.04647  21849111.181    21849109.1744         48.750
        47.0004
 123783029.719 7  96454315.31246  23555125.607    23555125.8224         44.750
        39.5004
 107662865.968 8  83893176.72948  20487555.624    20487556.1404         50.250
        49.5004
 106120037.454 8  82690931.97848  20193965.090    20193965.4384         50.500
        49.2504
 123502746.302 7  96235905.81246  23501790.219    23501790.1364         44.000
        39.7504
 118168813.120 7  92079605.13446  22486774.248    22486772.2994         47.750
        41.7504
 128195266.943 6  99892425.61846  24394748.277    24394748.9464         41.500
        38.2504
 110128723.601 8  85814587.68748  20956792.587    20956791.8754         49.750
        48.7504
 121057562.723 7  94330598.27246  23036479.721    23036478.5564         44.750
        40.5004
 08  5 27  2  8  0.0000000  0 10G18G19G25G 6G 3G 7G22G27G16G21
 119921840.642 7  93445592.93146  22820366.107    22820364.9734         46.750
        41.0004
 114756412.367 8  89420595.12047  21837416.612    21837414.6134         48.750
        46.7504
 123800879.162 7  96468223.95646  23558522.344    23558522.5394         44.750
        40.0004
 107674487.723 8  83902232.63548  20489767.194    20489767.6544         50.000
        49.2504
 106097001.244 8  82672981.68748  20189581.469    20189581.8324         50.500
        49.0004
 123481697.818 7  96219504.41746  23497784.808    23497784.6944         44.500
        39.0004
 118100717.325 7  92026543.48447  22473816.293    22473814.2244         47.500
        42.2504
 128163271.480 6  99867494.06746  24388659.457    24388660.1174         40.250
        37.7504
 110186902.188 8  85859921.64248  20967863.449    20967862.8364         49.750
        48.5004
 121140598.013 7  94395301.08946  23052280.775    23052280.0654         44.750
        40.0004
 08  5 27  2  8 30.0000000  0 10G18G19G25G 6G 3G 7G22G27G16G21
 119917455.213 7  93442175.72446  22819531.653    22819530.4104         47.000
        41.2504
 114695149.611 8  89372857.92447  21825758.643    21825756.6424         48.750
        47.5004
 123819227.147 7  96482521.08846  23562013.820    23562014.0834         45.000
        40.7504
 107686391.579 8  83911508.36348  20492032.363    20492032.7294         50.000
        49.2504
 106074302.590 8  82655294.42648  20185262.052    20185262.4224         50.500
        49.2504
 123461225.759 7  96203552.16346  23493888.986    23493888.9834         43.250
        39.2504
 118033000.647 7  91973777.24747  22460930.136    22460928.6284         47.250
        42.5004
 128131750.646 6  99842932.38146  24382661.296    24382662.1164         41.500
        37.7504
 110245521.994 8  85905599.40448  20979018.398    20979017.8514         49.750
        48.5004
 121223830.930 7  94460157.89546  23068119.568    23068118.4694         45.500
        39.2504
 08  5 27  2  9  0.0000000  0 10G18G19G25G 6G 3G 7G22G27G16G21
 119913607.986 7  93439177.89446  22818799.473    22818798.4244         46.500
        41.2504
 114634078.419 8  89325269.98547  21814137.152    21814135.2954         48.750
        47.2504
 123838071.379 7  96497204.90546  23565599.788    23565600.1204         44.750
        40.5004
 107698576.730 8  83921003.28448  20494351.096    20494351.5474         50.000
        49.2504
 106051940.842 8  82637869.69348  20181006.741    20181007.1014         50.500
        49.2504
 123441329.621 7  96188048.66646  23490102.877    23490102.7644         44.250
        40.0004
 117965664.206 7  91921307.30647  22448116.431    22448114.8104         47.750
        42.5004
 128100704.120 6  99818740.28345  24376753.410    24376754.1054         41.750
        35.5004
 110304581.144 8  85951619.51848  20990257.105    20990256.4784         50.000
        48.5004
 121307257.926 7  94525165.94946  23083995.352    23083994.0084         44.750
        39.7504
 08  5 27  2  9 30.0000000  0 10G18G19G25G 6G 3G 7G22G27G16G21
 119910300.281 7  93436600.47246  22818169.889    22818169.1134         46.500
        40.7504
 114573200.549 8  89277832.70047  21802552.532    21802550.5034         48.750
        47.0004
 123857411.958 7  96512275.46846  23569280.249    23569280.3764         44.500
        41.2504
 107711044.434 8  83930718.37948  20496723.586    20496724.2024         50.000
        49.5004
 106029917.762 8  82620708.85048  20176815.889    20176816.2334         50.500
        49.2504
 123422010.499 7  96172994.83146  23486426.552    23486426.5784         44.000
        39.2504
 117898712.028 7  91869136.76947  22435375.897    22435373.8434         47.500
        42.5004
 128070133.922 7  99794919.35246  24370935.970    24370936.5544         42.500
        36.5004
 110364079.899 8  85997982.17748  21001579.443    21001578.6904         50.000
        48.7504
 121390878.750 7  94590325.02546  23099907.747    23099906.5434         45.750
        37.7504
 08  5 27  2 10  0.0000000  0 10G18G19G25G 6G 3G 7G22G27G16G21
 119907532.920 7  93434444.09846  22817643.075    22817642.5054         46.500
        41.2504
 114512516.751 8  89230546.62847  21791004.777    21791002.8084         48.750
        47.0004
 123877248.081 7  96527732.20046  23573054.789    23573055.1214         44.750
        40.7504
 107723795.160 8  83940654.00948  20499150.022    20499150.5464         50.250
        49.2504
 106008234.655 8  82603812.92648  20172689.707    20172690.0384         50.500
        49.2504
 123403269.519 7  96158391.46946  23482860.399    23482860.1814         43.750
        39.5004
 117832146.802 7  91817267.78947  22422708.599    22422707.1374         47.500
        43.0004
 128040041.365 6  99771470.60046  24365209.671    24365210.2294         41.000
        37.7504
 110424017.758 8  86044687.00148  21012985.262    21012984.4784         49.750
        48.5004
 121474691.402 7  94655633.57846  23115856.877    23115855.8334         45.250
        40.0004
 08  5 27  2 10 30.0000000  0 10G18G19G25G 6G 3G 7G22G27G16G21
 119905305.437 7  93432708.40346  22817218.944    22817218.6844         46.250
        40.7504
 114452026.167 8  89183411.11947  21779493.844    21779491.7514         48.750
        47.0004
 123897577.287 7  96543573.12546  23576923.272    23576923.6214         44.750
        41.0004
 107736827.839 8  83950809.35248  20501630.082    20501630.5924         50.000
        49.5004
 105986890.490 8  82587181.11248  20168628.047    20168628.3944         50.500
        49.2504
 123385106.097 7  96144238.17246  23479403.979    23479403.8324         43.500
        40.5004
 117765970.026 7  91765701.47747  22410115.470    22410114.4154         47.000
        43.2504
 128010425.811 6  99748393.54646  24359573.947    24359574.5384         40.250
        37.0004
 110484392.446 8  86091732.20948  21024474.040    21024473.4674         49.500
        48.5004
 121558692.942 7  94721089.29346  23131841.994    23131840.9484         45.750
        39.0004
 08  5 27  2 11  0.0000000  0 10G18G19G25G 6G 3G 7G22G27G16G21
 119903615.902 7  93431391.88647  22816897.198    22816897.0774         45.750
        42.0004
 114391727.622 8  89136425.24547  21768019.347    21768017.1984         48.750
        47.0004
 123918396.385 7  96559795.78446  23580885.045    23580885.2924         45.000
        41.2504
 107750140.589 8  83961182.93148  20504163.396    20504163.9944         50.250
        49.2504
 105965883.439 8  82570811.98448  20164630.562    20164630.9244         50.750
        49.2504
 123367518.278 7  96130533.37346  23476057.319    23476057.0114         44.000
        39.7504
 117700182.815 7  91714438.71347  22397596.509    22397595.1884         47.000
        43.0004
 127981286.133 6  99725687.29846  24354028.982    24354029.6244         41.250
        38.7504
 110545200.868 8  86139115.38148  21036045.350    21036045.0744         49.750
        48.5004
 121642880.162 7  94786689.73946  23147862.527    23147860.6444         45.250
        39.0004
 08  5 27  2 11 30.0000000  0 10G18G19G25G 6G 3G 7G22G27G16G21
 119902467.219 7  93430496.81546  22816678.421    22816678.3624         45.750
        41.5004
 114331623.822 8  89089591.13147  21756581.861    21756579.9364         48.750
        47.0004
 123939706.325 7  96576400.93846  23584940.251    23584940.5544         44.500
        41.0004
 107763735.702 8  83971776.52948  20506750.532    20506751.0144         50.000
        49.2504
 105945216.754 8  82554708.07548  20160697.793    20160698.1854         50.500
        49.2504
 123350508.550 7  96117279.05946  23472820.392    23472820.1344         44.500
        40.0004
 117634789.691 7  91663483.03347  22385152.760    22385151.1774         47.500
        42.7504
 127952625.342 6  99703354.21446  24348575.026    24348575.5884         41.500
        36.0004
 110606444.202 8  86186837.44948  21047699.569    21047699.3744         49.750
        48.2504
 121727252.487 7  94852434.39846  23163917.957    23163916.0014         45.500
        38.7504
 08  5 27  2 12  0.0000000  0 10G18G19G25G 6G 3G 7G22G27G16G21
 119901859.652 7  93430023.38946  22816562.674    22816562.7324         45.750
        41.2504
 114271715.074 8  89042908.99447  21745181.587    21745179.6974         48.500
        47.2504
 123961505.845 7  96593387.55146  23589088.562    23589088.7824         45.000
        39.0004
 107777613.251 8  83982590.20348  20509391.342    20509391.5254         50.250
        49.0004
 105924890.801 8  82538869.67248  20156829.845    20156830.3084         50.500
        49.2504
 123334076.883 7  96104475.17346  23469693.520    23469693.4474         43.250
        40.7504
 117569792.804 7  91612836.11047  22372784.489    22372782.9864         47.750
        42.7504
 127924443.857 6  99681394.61346  24343212.149    24343212.9894         41.250
        38.5004
 110668121.180 8  86234897.42948  21059436.396    21059435.9064         49.750
        48.2504
 121811808.467 7  94918322.16446  23180008.199    23180006.4434         45.250
        38.5004
 08  5 27  2 12 30.0000000  0 10G18G19G25G 6G 3G 7G22G27G16G21
 119901793.867 7  93429972.13346  22816550.084    22816550.1994         46.500
        41.0004
 114212002.183 8  88996379.47347  21733818.590    21733816.6524         48.750
        47.0004
 123983793.758 7  96610754.76146  23593329.727    23593330.1474         44.750
        39.7504
 107791773.673 8  83993624.29948  20512085.974    20512085.8824         50.250
        49.0004
 105904906.614 8  82523297.58248  20153026.957    20153027.4604         50.750
        49.2504
 123318224.027 7  96092122.28446  23466676.804    23466676.5624         43.750
        41.0004
 117505195.177 8  91562500.30647  22360492.178    22360490.5374         48.000
        42.7504
 127896742.535 6  99659809.16646  24337940.763    24337941.2904         41.000
        37.5004
 110730230.952 8  86283294.65248  21071255.582    21071254.8954         49.500
        48.2504
 121896546.969 7  94984352.17946  23196133.608    23196131.8994         45.500
        39.7504
 08  5 27  2 13  0.0000000  0 10G18G19G25G 6G 3G 7G22G27G16G21
 119902269.319 7  93430342.61846  22816640.643    22816640.5844         45.750
        41.5004
 114152484.572 8  88950002.12747  21722492.700    21722490.8994         48.500
        47.2504
 124006568.020 7  96628500.93846  23597663.579    23597663.7924         44.750
        40.0004
 107806216.225 8  84004878.24148  20514834.271    20514834.4314         50.000
        49.7504
 105885263.320 8  82507991.11848  20149289.022    20149289.4504         50.750
        49.5004
 123302949.715 7  96080220.23046  23463770.115    23463770.1344         44.000
        40.2504
 117440998.427 7  91512476.86247  22348275.996    22348274.0724         47.500
        43.0004
 127869521.502 6  99638597.96446  24332760.666    24332761.6264         41.500
        37.5004
 110792771.785 8  86332027.76248  21083156.701    21083156.1334         49.500
        48.5004
 121981464.628 7  95050521.77046  23212292.747    23212291.3654         44.750
        38.7504
 08  5 27  2 13 30.0000000  0 10G18G19G25G 6G 3G 7G22G27G16G21
 119903287.104 7  93431135.70846  22816834.546    22816834.2574         46.500
        40.5004
 114093163.498 8  88903777.92147  21711204.257    21711202.3234         48.750
        47.5004
 124029828.017 7  96646625.60546  23602089.738    23602089.9674         45.000
        39.2504
 107820941.581 8  84016352.56948  20517636.407    20517637.4034         50.000
        50.0004
 105865962.478 8  82492951.50048  20145616.265    20145616.6144         50.750
        49.2504
 123288254.403 7  96068769.34246  23460973.893    23460973.5434         44.750
        38.2504
 117377205.610 8  91462768.17647  22336136.531    22336134.7574         48.000
        42.7504
 127842781.847 6  99617761.87045  24327672.385    24327673.0104         41.750
        35.5004
 110855742.975 8  86381096.21948  21095139.655    21095139.2354         49.500
        48.2504
 122066560.403 7  95116830.14346  23228485.714    23228484.1654         45.500
        38.5004
 08  5 27  2 14  0.0000000  0 10G18G19G25G 6G 3G 7G22G27G16G21
 119904846.629 7  93432350.93046  22817131.594    22817130.9274         46.500
        40.7504
 114034039.299 8  88857707.12547  21699953.302    21699951.3494         48.750
        47.2504
 124053571.952 7  96665127.37146  23606608.207    23606608.3334         44.750
        40.0004
 107835949.685 8  84028047.20948  20520492.390    20520493.5604         50.250
        49.2504
 105847004.346 8  82478178.93048  20142008.658    20142008.9484         50.500
        49.5004
 123274138.120 7  96057769.66546  23458287.493    23458287.3634         44.250
        40.7504
 117313819.324 7  91413376.26347  22324074.594    22324072.9154         47.750
        43.7504
 127816524.044 6  99597301.27046  24322675.602    24322676.2614         41.750
        36.7504
 110919143.605 8  86430499.29948  21107204.310    21107203.9194         49.500
        48.2504
 122151832.399 7  95183275.85546  23244712.608    23244710.8484         44.750
        38.2504
