     2.11           Observation         G (GPS)             RINEX VERSION / TYPE
teqc  2009Mar23     gpsops              02/24/2010 11:06:33 PGM / RUN BY / DATE
AREQ                                                        MARKER NAME
GGN                 JPL                                     OBSERVER / AGENCY
ZR220010401         ASHTECH UZ-12       CQ00                REC # / TYPE / VERS
294                 AOAD/M_T        JPLA                    ANT # / TYPE
  1942826.1920 -5804070.3310 -1796894.2670                  APPROX POSITION XYZ
        0.0610        0.0000        0.0000                  ANTENNA: DELTA H/E/N
     1     1                                                WAVELENGTH FACT L1/2
     7    L1    L2    P1    P2    C1    S1    S2            # / TYPES OF OBSERV
     1.000                                                  INTERVAL
  2010     1    15    19     0    0.0000000     GPS         TIME OF FIRST OBS
42202M005                                                   MARKER NUMBER
Linux 2.4.20-8|Pentium IV|gcc -static|Linux|486/DX+         COMMENT
2.10           OBSERVATION DATA    GPS                      COMMENT
soc2rnx ver 1.20    gpsops              15-Jan-2010 19:22:09COMMENT
S1, if present, is the SNR for the C/A data stream on L1.   COMMENT
SNR is mapped to RINEX snr flag value [1,4-9]               COMMENT
SNR:   >316  >100  >31.6  >10  >3.2    >0 bad=0             COMMENT
L1 & L2:      9     8     7     6     5     4     1         COMMENT
                                                            COMMENT
This data is provided as a public service by NASA/JPL.      COMMENT
No warranty is expressed or implied regarding suitability   COMMENT
for use.  For further information, contact:                 COMMENT
Dave Stowers, NASA/JPL m/s 238-600                          COMMENT
4800 Oak Grove Drive, Pasadena CA 91109 USA                 COMMENT
                                                            COMMENT
Edited by GPSTK Rinex Editor ver 3.5 6/21/2007 on 2010/02/24COMMENT
                                                            END OF HEADER
 10  1 15 19  0  0.0000000  0 10G02G04G05G09G12G15G17G18G27G30
 124077590.99247  96683828.18347  23611186.7144   23611191.5464   23611188.2074 
        47.000          41.000  
 129268980.04247 100729070.38147  24599069.7704   24599076.4294   24599069.5044 
        46.000          38.000  
 131154893.31447 102198590.13347  24957968.2264   24957976.1824   24957967.7284 
        43.000          38.000  
 119693746.67947  93267847.86147  22776965.5544   22776971.8474   22776966.1464 
        51.000          45.000  
 116723759.52547  90953572.58447  22211795.1884   22211798.9974   22211794.6884 
        53.000          47.000  
 107904316.24247  84081285.86447  20533507.1504   20533510.3934   20533506.8364 
        56.000          51.000  
 122608494.32647  95539068.21147  23331633.1614   23331638.7854   23331632.7024 
        47.000          42.000  
 130537734.19547 101717717.44247  24840500.7954   24840508.1964   24840501.2984 
        43.000          36.000  
 111852085.43047  87157449.52847  21284760.1124   21284765.9004   21284760.1014 
        52.000          46.000  
 125991854.33547  98175441.97547  23975473.7604   23975479.7414   23975473.7594 
        46.000          40.000  
 10  1 15 19  0  1.0000000  0 10G02G04G05G09G12G15G17G18G27G30
 124075691.33247  96682347.93047  23610826.2104   23610831.2604   23610826.9354 
        47.000          41.000  
 129268126.30047 100728405.12647  24598908.0934   24598914.2664   24598907.4944 
        46.000          38.000  
 131156944.07547 102200188.12247  24958357.6004   24958365.7104   24958357.9034 
        42.000          38.000  
 119691942.57147  93266442.06347  22776622.7834   22776628.3234   22776622.8264 
        51.000          45.000  
 116723267.96447  90953189.55047  22211701.2034   22211705.7644   22211701.1894 
        53.000          47.000  
 107905317.94247  84082066.40847  20533697.8414   20533701.0674   20533697.4474 
        56.000          51.000  
 122611502.75347  95541412.43347  23332205.0064   23332212.8054   23332205.0834 
        47.000          42.000  
 130538163.34147 101718051.84747  24840583.0204   24840589.2484   24840582.6624 
        41.000          36.000  
 111850485.47947  87156202.81447  21284455.9664   21284461.2414   21284455.6394 
        52.000          46.000  
 125990669.76547  98174518.93447  23975247.8714   23975254.8794   23975248.2104 
        46.000          40.000  
 10  1 15 19  0  2.0000000  0 10G02G04G05G09G12G15G17G18G27G30
 124073791.67147  96680867.67647  23610464.3664   23610468.8824   23610465.6594 
        47.000          41.000  
 129267272.75647 100727740.02447  24598745.5484   24598752.0574   24598744.8274 
        45.000          38.000  
 131158994.56047 102201785.89747  24958747.7354   24958755.6024   24958747.8284 
        43.000          38.000  
 119690138.41547  93265036.22847  22776278.5164   22776285.0294   22776279.5104 
        51.000          46.000  
 116722776.67847  90952806.73047  22211607.5864   22211611.9204   22211607.6574 
        53.000          47.000  
 107906320.30147  84082847.46747  20533888.4024   20533891.9164   20533888.2114 
        56.000          51.000  
 122614511.54347  95543756.94047  23332778.6044   23332785.2164   23332777.8324 
        47.000          42.000  
 130538592.86347 101718386.54247  24840664.7784   24840670.3944   24840664.3454 
        42.000          36.000  
 111848885.72347  87154956.25347  21284151.2904   21284157.2884   21284151.3534 
        52.000          46.000  
 125989485.45447  98173596.09847  23975022.9514   23975028.9564   23975022.8484 
        46.000          40.000  
 10  1 15 19  0  3.0000000  0 10G02G04G05G09G12G15G17G18G27G30
 124071891.97047  96679387.38847  23610103.0924   23610107.6794   23610104.3204 
        47.000          41.000  
 129266419.37647 100727075.04847  24598582.0264   24598589.3684   24598581.9034 
        44.000          38.000  
 131161044.73447 102203383.42947  24959138.5254   24959145.2914   24959137.9844 
        42.000          38.000  
 119688334.16147  93263630.31647  22775936.3374   22775941.0954   22775936.2864 
        51.000          46.000  
 116722285.61847  90952424.08447  22211514.6424   22211518.9054   22211514.2884 
        53.000          47.000  
 107907323.27647  84083629.00447  20534079.4114   20534082.6644   20534079.0274 
        56.000          51.000  
 122617520.67147  95546101.70847  23333350.1214   23333357.2544   23333350.6454 
        47.000          42.000  
 130539022.72047 101718721.49747  24840745.3634   24840751.6184   24840745.9644 
        42.000          36.000  
 111847286.09647  87153709.79247  21283847.1024   21283852.6984   21283847.0444 
        52.000          46.000  
 125988301.37547  98172673.44247  23974797.4494   23974802.6584   23974797.4014 
        46.000          40.000  
 10  1 15 19  0  4.0000000  0 10G02G04G05G09G12G15G17G18G27G30
 124069992.28847  96677907.11847  23609742.1574   23609744.7824   23609742.4614 
        47.000          41.000  
 129265566.19247 100726410.23047  24598418.8654   24598426.5574   24598419.1204 
        45.000          38.000  
 131163094.65447 102204980.76547  24959529.6354   24959535.4264   24959528.3964 
        43.000          38.000  
 119686529.87747  93262224.38047  22775592.6944   22775597.3224   22775592.8994 
        51.000          45.000  
 116721794.84147  90952041.66247  22211420.7244   22211424.9854   22211420.8684 
        53.000          47.000  
 107908326.91547  84084411.06047  20534270.1224   20534273.7214   20534270.0524 
        56.000          51.000  
 122620530.16947  95548446.76547  23333923.8894   23333929.4824   23333923.2034 
        47.000          42.000  
 130539452.95547 101719056.74747  24840827.1214   24840833.5054   24840827.7414 
        42.000          36.000  
 111845686.66947  87152463.48547  21283542.5904   21283548.2044   21283542.7494 
        52.000          46.000  
 125987117.54547  98171750.97947  23974571.6794   23974578.1124   23974572.1984 
        47.000          40.000  
 10  1 15 19  0  5.0000000  0 10G02G04G05G09G12G15G17G18G27G30
 124068092.56747  96676426.81947  23609380.0044   23609383.4484   23609380.5724 
        46.000          41.000  
 129264713.18047 100725745.54447  24598256.8774   24598264.8104   24598257.1284 
        46.000          38.000  
 131165144.30547 102206577.89247  24959919.4414   24959925.2394   24959918.3254 
        42.000          38.000  
 119684725.50547  93260818.37947  22775249.2874   22775254.5754   22775249.4654 
        51.000          45.000  
 116721304.30847  90951659.42947  22211327.6784   22211331.7694   22211327.5024 
        53.000          47.000  
 107909331.16447  84085193.59247  20534461.4594   20534464.6344   20534461.1264 
        56.000          51.000  
 122623540.01647  95550792.09447  23334495.8914   23334501.4704   23334495.8414 
        47.000          42.000  
 130539883.50447 101719392.23947  24840909.2404   24840915.6944   24840909.8754 
        42.000          36.000  
 111844087.38647  87151217.29047  21283238.0924   21283243.5564   21283238.4164 
        52.000          46.000  
 125985933.95247  98170828.70447  23974347.4134   23974353.1564   23974346.9714 
        46.000          40.000  
 10  1 15 19  0  6.0000000  0 10G02G04G05G09G12G15G17G18G27G30
 124066192.75647  96674946.45147  23609018.5104   23609022.4504   23609018.7084 
        46.000          41.000  
 129263860.28547 100725080.94947  24598095.8954   24598102.6844   24598095.1284 
        46.000          38.000  
 131167193.53347 102208174.68847  24960309.6704   24960315.9124   24960308.5814 
        43.000          38.000  
 119682920.98647  93259412.26147  22774906.1844   22774911.5204   22774906.0554 
        51.000          45.000  
 116720813.94347  90951277.32647  22211234.6114   22211238.0644   22211234.1854 
        52.000          47.000  
 107910335.97047  84085976.55747  20534652.7814   20534656.1574   20534652.3414 
        56.000          51.000  
 122626550.13647  95553137.63747  23335068.7074   23335075.6124   23335068.5634 
        47.000          42.000  
 130540314.31647 101719727.93547  24840991.1394   24840997.7764   24840991.7844 
        42.000          36.000  
 111842488.18847  87149971.16147  21282934.2034   21282939.7774   21282934.1354 
        52.000          46.000  
 125984750.51047  98169906.54147  23974122.0904   23974127.7654   23974121.6634 
        46.000          40.000  
 10  1 15 19  0  7.0000000  0 10G02G04G05G09G12G15G17G18G27G30
 124064292.96747  96673466.09847  23608656.1414   23608660.8884   23608656.7764 
        46.000          41.000  
 129263007.60147 100724416.52047  24597934.0114   24597941.3084   24597932.9294 
        45.000          38.000  
 131169242.57347 102209771.33847  24960699.8234   24960706.3644   24960698.9964 
        43.000          38.000  
 119681116.43547  93258006.11847  22774562.3554   22774567.4094   22774562.6444 
        51.000          45.000  
 116720323.86047  90950895.44147  22211141.1224   22211145.2714   22211140.8794 
        53.000          47.000  
 107911341.43747  84086760.03847  20534843.9664   20534847.2644   20534843.6994 
        56.000          51.000  
 122629560.63947  95555483.47947  23335642.3964   23335648.0294   23335641.3714 
        47.000          42.000  
 130540745.51147 101720063.92947  24841074.1334   24841078.1314   24841073.9244 
        43.000          36.000  
 111840889.19347  87148725.19047  21282629.2864   21282635.2604   21282629.9434 
        52.000          46.000  
 125983567.35147  98168984.59947  23973897.6994   23973903.2394   23973896.3584 
        46.000          40.000  
 10  1 15 19  0  8.0000000  0 10G02G04G05G09G12G15G17G18G27G30
 124062393.09947  96671985.68647  23608294.4684   23608300.5254   23608295.0934 
        46.000          41.000  
 129262155.06147 100723752.20247  24597770.5044   24597778.2334   24597770.2074 
        45.000          38.000  
 131171291.27247 102211367.72447  24961088.7954   24961095.5224   24961088.4674 
        42.000          38.000  
 119679311.76647  93256599.88447  22774219.1074   22774225.1164   22774219.1734 
        51.000          45.000  
 116719833.98147  90950513.71647  22211048.2454   22211052.1014   22211047.6784 
        53.000          47.000  
 107912347.49147  84087543.97647  20535035.4604   20535038.7864   20535035.1884 
        56.000          51.000  
 122632571.45747  95557829.56747  23336215.2314   23336220.9044   23336214.1754 
        47.000          42.000  
 130541177.00747 101720400.15847  24841155.7344   24841162.4204   24841155.8414 
        42.000          36.000  
 111839290.30647  87147479.30647  21282324.9824   21282330.9664   21282325.7534 
        52.000          46.000  
 125982384.38747  98168062.80947  23973672.4124   23973678.4184   23973671.1574 
        46.000          40.000  
 10  1 15 19  0  9.0000000  0 10G02G04G05G09G12G15G17G18G27G30
 124060493.30047  96670505.32547  23607932.6854   23607939.2154   23607933.5604 
        47.000          41.000  
 129261302.75947 100723088.07347  24597607.7384   24597616.3044   24597607.4664 
        45.000          38.000  
 131173339.74847 102212963.93547  24961478.2674   24961485.0784   24961477.9944 
        42.000          39.000  
 119677507.09947  93255193.65047  22773875.7834   22773881.2084   22773875.6894 
        51.000          45.000  
 116719344.42947  90950132.24747  22210955.1404   22210959.2454   22210954.4684 
        53.000          47.000  
 107913354.25247  84088328.46447  20535227.0994   20535230.3684   20535226.7324 
        56.000          52.000  
 122635582.68247  95560175.97347  23336788.2664   23336793.6084   23336787.3734 
        47.000          42.000  
 130541608.90947 101720736.70347  24841237.9764   24841243.9924   24841238.0234 
        43.000          36.000  
 111837691.65047  87146233.60147  21282021.2204   21282026.9384   21282021.5384 
        52.000          46.000  
 125981201.71847  98167141.24747  23973446.9194   23973453.8794   23973446.1804 
        46.000          40.000  
 10  1 15 19  0 10.0000000  0 10G02G04G05G09G12G15G17G18G27G30
 124058593.62147  96669025.06147  23607571.5544   23607577.1024   23607572.3194 
        47.000          41.000  
 129260450.80147 100722424.21247  24597447.0674   24597453.8774   24597445.7094 
        46.000          38.000  
 131175388.08747 102214560.04047  24961869.0444   24961874.8684   24961867.9684 
        44.000          39.000  
 119675702.50747  93253787.47547  22773531.6734   22773537.1064   22773532.2614 
        51.000          45.000  
 116718855.26447  90949751.08147  22210861.4924   22210865.7104   22210861.4104 
        53.000          47.000  
 107914361.77947  84089113.55047  20535418.4684   20535422.0664   20535418.4884 
        56.000          51.000  
 122638594.41447  95562522.77747  23337361.0964   23337366.7694   23337360.5914 
        47.000          42.000  
 130542041.27847 101721073.61347  24841321.5654   24841325.9684   24841320.4804 
        43.000          36.000  
 111836093.30247  87144988.13547  21281716.8424   21281722.6654   21281717.3414 
        52.000          46.000  
 125980019.43747  98166219.98747  23973221.6784   23973228.4314   23973221.2474 
        46.000          39.000  
 10  1 15 19  0 11.0000000  0 10G02G04G05G09G12G15G17G18G27G30
 124056693.71947  96667544.62247  23607210.8434   23607215.9604   23607211.1324 
        47.000          41.000  
 129259598.82647 100721760.33747  24597284.6754   24597291.9084   24597284.1034 
        46.000          38.000  
 131177435.97147 102216155.79147  24962258.2434   24962264.3094   24962257.6514 
        43.000          39.000  
 119673897.64347  93252381.09047  22773189.6204   22773194.4714   22773188.8294 
        51.000          45.000  
 116718366.14647  90949369.95047  22210768.0674   22210772.9034   22210768.3344 
        53.000          47.000  
 107915369.73047  84089898.96547  20535610.4784   20535614.1204   20535610.3184 
        56.000          51.000  
 122641606.27547  95564869.67947  23337934.5934   23337939.9124   23337933.7954 
        47.000          42.000  
 130542473.83647 101721410.67047  24841403.1134   24841409.3624   24841402.8084 
        43.000          36.000  
 111834494.91647  87143742.64247  21281412.9404   21281418.8204   21281413.0494 
        52.000          46.000  
 125978837.20747  98165298.76847  23972996.2684   23973003.1154   23972996.2224 
        46.000          39.000  
 10  1 15 19  0 12.0000000  0 10G02G04G05G09G12G15G17G18G27G30
 124054793.75547  96666064.13447  23606849.2334   23606854.1104   23606850.0424 
        47.000          41.000  
 129258746.99747 100721096.57547  24597122.7454   24597129.1624   24597122.6364 
        46.000          38.000  
 131179483.49347 102217751.25947  24962648.0944   24962654.3834   24962647.4084 
        44.000          39.000  
 119672092.66647  93250974.61447  22772845.0164   22772850.9934   22772845.3724 
        51.000          45.000  
 116717877.25447  90948988.99647  22210674.9304   22210679.7854   22210675.2874 
        53.000          47.000  
 107916378.28047  84090684.84747  20535802.6154   20535805.8684   20535802.2594 
        56.000          51.000  
 122644618.46647  95567216.84047  23338507.0794   23338513.6604   23338507.0524 
        47.000          42.000  
 130542906.65147 101721747.92847  24841485.7154   24841491.6154   24841485.2524 
        43.000          36.000  
 111832896.65947  87142497.25147  21281108.8104   21281114.4774   21281108.9104 
        52.000          46.000  
 125977655.16047  98164377.69247  23972771.8484   23972777.6404   23972771.1644 
        46.000          39.000  
 10  1 15 19  0 13.0000000  0 10G02G04G05G09G12G15G17G18G27G30
 124052893.89947  96664583.73047  23606487.4404   23606492.1414   23606488.8274 
        47.000          41.000  
 129257895.45047 100720433.02947  24596961.9304   24596965.5164   24596961.0844 
        46.000          39.000  
 131181530.88847 102219346.63047  24963037.7574   24963044.3924   24963037.2604 
        43.000          39.000  
 119670287.73047  93249568.17347  22772502.1014   22772506.6194   22772501.8954 
        51.000          45.000  
 116717388.70247  90948608.30547  22210582.7734   22210586.6294   22210582.2834 
        53.000          47.000  
 107917387.55247  84091471.29347  20535994.4044   20535997.8244   20535994.3054 
        56.000          51.000  
 122647631.09247  95569564.33847  23339080.3364   23339086.4314   23339080.3674 
        47.000          42.000  
 130543339.92247 101722085.54347  24841566.6544   24841574.0704   24841567.6524 
        43.000          36.000  
 111831298.66547  87141252.06247  21280804.9394   21280809.8724   21280804.8684 
        52.000          46.000  
 125976473.44947  98163456.88047  23972546.0304   23972552.5104   23972546.1714 
        46.000          39.000  
 10  1 15 19  0 14.0000000  0 10G02G04G05G09G12G15G17G18G27G30
 124050993.84847  96663103.17447  23606125.0974   23606130.5824   23606127.3524 
        47.000          41.000  
 129257043.92147 100719769.49747  24596798.8114   24596803.6084   24596798.7214 
        45.000          38.000  
 131183577.81847 102220941.63847  24963427.3594   24963433.1624   24963426.8204 
        43.000          39.000  
 119668482.56947  93248161.55647  22772158.0234   22772163.6224   22772158.4164 
        51.000          45.000  
 116716900.25847  90948227.69947  22210489.0634   22210493.8514   22210489.3414 
        53.000          47.000  
 107918397.31847  84092258.12347  20536186.6394   20536190.0154   20536186.4164 
        56.000          51.000  
 122650643.93847  95571912.00947  23339653.5954   23339660.3874   23339653.8994 
        48.000          42.000  
 130543773.37847 101722423.30247  24841648.6954   24841656.7054   24841650.5484 
        43.000          36.000  
 111829700.68347  87140006.88547  21280500.3564   21280506.1744   21280500.8144 
        52.000          46.000  
 125975291.84447  98162536.14947  23972321.8734   23972329.1274   23972321.3024 
        47.000          39.000  
 10  1 15 19  0 15.0000000  0 10G02G04G05G09G12G15G17G18G27G30
 124049093.82647  96661622.63647  23605764.3434   23605768.1884   23605765.5494 
        47.000          41.000  
 129256192.61447 100719106.13647  24596636.1654   24596641.7334   24596636.0074 
        44.000          38.000  
 131185624.50447 102222536.45647  24963817.1154   24963822.7164   24963816.6444 
        43.000          39.000  
 119666677.37447  93246754.91147  22771814.3444   22771820.4844   22771814.9154 
        51.000          45.000  
 116716412.09847  90947847.31447  22210396.6644   22210400.7864   22210396.4254 
        53.000          47.000  
 107919407.74747  84093045.46947  20536378.7984   20536382.2084   20536378.6694 
        56.000          51.000  
 122653657.16247  95574259.97447  23340227.5804   23340233.4634   23340227.1774 
        48.000          42.000  
 130544207.21447 101722761.35747  24841732.2754   24841739.4434   24841733.1674 
        43.000          36.000  
 111828102.89447  87138761.85547  21280196.3074   21280202.5274   21280196.7734 
        52.000          46.000  
 125974110.51247  98161615.63147  23972098.3744   23972103.3454   23972096.4774 
        46.000          40.000  
 10  1 15 19  0 16.0000000  0 10G02G04G05G09G12G15G17G18G27G30
 124047193.89147  96660142.16947  23605401.9624   23605406.8824   23605403.7734 
        46.000          41.000  
 129255341.57547 100718442.98547  24596472.0704   24596479.5754   24596473.2164 
        44.000          38.000  
 131187671.03047 102224131.14947  24964206.8214   24964211.7544   24964206.0594 
        43.000          39.000  
 119664872.21547  93245348.29347  22771471.0574   22771476.6324   22771471.4204 
        51.000          45.000  
 116715924.29647  90947467.21047  22210303.3494   22210307.8044   22210303.6194 
        52.000          47.000  
 107920418.91447  84093833.39247  20536571.4944   20536574.7564   20536571.0984 
        56.000          51.000  
 122656670.83647  95576608.28647  23340800.6914   23340806.0284   23340800.9134 
        48.000          42.000  
 130544641.50547 101723099.76647  24841815.2244   24841821.9414   24841815.9464 
        43.000          36.000  
 111826505.37647  87137517.03747  21279892.2174   21279898.4134   21279892.8094 
        52.000          46.000  
 125972929.50347  98160695.36747  23971872.8774   23971879.5144   23971871.6584 
        46.000          39.000  
 10  1 15 19  0 17.0000000  0 10G02G04G05G09G12G15G17G18G27G30
 124045293.82147  96658661.59547  23605041.1374   23605046.1164   23605042.0354 
        47.000          41.000  
 129254490.65447 100717779.92847  24596310.2414   24596318.6014   24596310.7334 
        45.000          38.000  
 131189717.15347 102225725.52947  24964596.3174   24964601.7394   24964595.4854 
        43.000          39.000  
 119663066.87247  93243941.53347  22771128.1574   22771133.1734   22771127.8884 
        51.000          45.000  
 116715436.64147  90947087.21847  22210211.0504   22210215.2924   22210210.7794 
        53.000          47.000  
 107921430.60347  84094621.72047  20536763.8774   20536767.2604   20536763.6054 
        56.000          51.000  
 122659684.74247  95578956.78247  23341373.9894   23341379.7244   23341374.3584 
        47.000          42.000  
 130545076.00447 101723438.33547  24841897.1864   24841903.9744   24841898.5474 
        43.000          36.000  
 111824907.91447  87136272.26047  21279588.8154   21279594.2294   21279588.8114 
        52.000          46.000  
 125971748.64747  98159775.22247  23971646.6314   23971654.1114   23971646.9074 
        46.000          39.000  
 10  1 15 19  0 18.0000000  0 10G02G04G05G09G12G15G17G18G27G30
 124043393.67347  96657180.96147  23604679.5384   23604684.3274   23604680.3684 
        47.000          41.000  
 129253639.84647 100717116.95947  24596149.9194   24596157.0854   24596148.5684 
        45.000          38.000  
 131191762.91147 102227319.62347  24964985.7904   24964991.3154   24964984.8294 
        44.000          39.000  
 119661261.38947  93242534.66547  22770784.2844   22770789.6744   22770784.3044 
        51.000          46.000  
 116714949.16847  90946707.36647  22210118.0304   22210122.4384   22210117.9654 
        52.000          47.000  
 107922442.85147  84095410.48447  20536956.3114   20536959.7554   20536956.2244 
        56.000          51.000  
 122662698.93347  95581305.49647  23341947.7284   23341954.5224   23341947.8164 
        47.000          42.000  
 130545510.76847 101723777.11147  24841980.1464   24841986.1054   24841980.8314 
        43.000          36.000  
 111823310.54747  87135027.55947  21279284.7094   21279290.2774   21279284.8624 
        52.000          46.000  
 125970567.94347  98158855.19447  23971422.7464   23971429.5254   23971422.4264 
        46.000          39.000  
 10  1 15 19  0 19.0000000  0 10G02G04G05G09G12G15G17G18G27G30
 124041493.64347  96655700.41847  23604318.0984   23604322.6644   23604318.7674 
        46.000          41.000  
 129252789.34147 100716454.22547  24595988.6154   24595996.3814   24595986.8104 
        45.000          38.000  
 131193808.52447 102228913.60547  24965374.8694   24965381.5184   24965374.3594 
        44.000          39.000  
 119659455.97047  93241127.84547  22770440.7724   22770445.9334   22770440.7804 
        51.000          45.000  
 116714462.06847  90946327.80747  22210025.4324   22210029.9614   22210025.3104 
        53.000          47.000  
 107923455.85447  84096199.83547  20537149.1004   20537152.6494   20537148.9924 
        56.000          51.000  
 122665713.61647  95583654.59547  23342521.5524   23342527.2284   23342521.1914 
        47.000          42.000  
 130545945.99647 101724116.24847  24842063.2074   24842068.8194   24842063.6754 
        43.000          36.000  
 111821713.47147  87133783.08547  21278980.2174   21278986.3354   21278980.8674 
        52.000          46.000  
 125969387.60147  98157935.44647  23971199.1884   23971204.5064   23971197.8544 
        46.000          39.000  
 10  1 15 19  0 20.0000000  0 10G02G04G05G09G12G15G17G18G27G30
 124039593.57147  96654219.84647  23603955.7014   23603960.4794   23603956.9974 
        47.000          41.000  
 129251938.97047 100715791.59847  24595828.1034   24595835.5314   24595825.2484 
        45.000          38.000  
 131195853.87747 102230507.38547  24965763.3404   24965770.0974   24965763.1224 
        43.000          39.000  
 119657650.44647  93239720.94347  22770096.5624   22770102.6004   22770097.2214 
        51.000          46.000  
 116713975.19547  90945948.42647  22209932.3504   22209937.2844   22209932.6044 
        52.000          47.000  
 107924469.46647  84096989.66247  20537341.9284   20537345.3934   20537341.8584 
        56.000          51.000  
 122668728.60347  95586003.93147  23343095.2224   23343100.3564   23343094.6714 
        47.000          42.000  
 130546381.56247 101724455.64947  24842147.2074   24842151.3134   24842146.6124 
        42.000          36.000  
 111820116.52647  87132538.71247  21278676.2444   21278682.0194   21278676.9584 
        52.000          46.000  
 125968207.48447  98157015.87447  23970974.4234   23970979.8194   23970973.4264 
        46.000          39.000  
 10  1 15 19  0 21.0000000  0 10G02G04G05G09G12G15G17G18G27G30
 124037693.38147  96652739.18247  23603594.9524   23603599.4614   23603595.1404 
        46.000          41.000  
 129251088.73147 100715129.07747  24595665.6254   24595673.3344   24595663.7004 
        45.000          38.000  
 131197898.80647 102232100.83447  24966152.3744   24966158.9184   24966152.1444 
        43.000          39.000  
 119655844.76747  93238313.92247  22769753.8224   22769759.0284   22769753.5354 
        52.000          45.000  
 116713488.48147  90945569.16847  22209839.9834   22209844.5374   22209839.9364 
        52.000          47.000  
 107925483.62547  84097779.91447  20537535.0864   20537538.5654   20537534.8584 
        56.000          51.000  
 122671743.85447  95588353.47247  23343669.9044   23343675.0304   23343668.5294 
        47.000          42.000  
 130546817.36447 101724795.23247  24842227.8934   24842235.0184   24842229.1834 
        43.000          36.000  
 111818519.66847  87131294.40847  21278372.8644   21278378.5864   21278373.1394 
        52.000          46.000  
 125967027.51447  98156096.41547  23970749.2354   23970754.7744   23970749.1334 
        46.000          39.000  
 10  1 15 19  0 22.0000000  0 10G02G04G05G09G12G15G17G18G27G30
 124035793.19447  96651258.51847  23603233.2764   23603238.2574   23603233.3084 
        47.000          41.000  
 129250238.65847 100714466.68447  24595504.2124   24595510.4264   24595502.3064 
        45.000          38.000  
 131199943.44647 102233694.05847  24966541.5044   24966548.5044   24966541.8174 
        44.000          39.000  
 119654039.01947  93236906.84447  22769409.3554   22769415.5214   22769409.8834 
        51.000          45.000  
 116713002.01647  90945190.10347  22209747.5654   22209752.0494   22209747.3244 
        53.000          47.000  
 107926498.41047  84098570.65547  20537728.2274   20537731.5804   20537727.9104 
        56.000          51.000  
 122674759.45647  95590703.28747  23344243.8094   23344249.2914   23344242.6594 
        48.000          42.000  
 130547253.51947 101725135.09347  24842310.4914   24842318.7594   24842312.1244 
        43.000          36.000  
 111816922.96447  87130050.22247  21278069.0734   21278074.8474   21278069.3424 
        52.000          46.000  
 125965847.78347  98155177.14447  23970523.6394   23970530.6254   23970524.5074 
        46.000          39.000  
 10  1 15 19  0 23.0000000  0 10G02G04G05G09G12G15G17G18G27G30
 124033892.99347  96649777.84647  23602871.7344   23602875.4764   23602871.4424 
        47.000          41.000  
 129249388.78847 100713804.44747  24595341.0224   24595348.0684   24595340.5334 
        45.000          38.000  
 131201987.83047 102235287.08347  24966930.4574   24966937.5954   24966931.0854 
        43.000          38.000  
 119652233.21747  93235499.72747  22769066.1474   22769071.6254   22769066.2114 
        51.000          45.000  
 116712515.82147  90944811.25047  22209655.1124   22209659.5534   22209654.7644 
        52.000          47.000  
 107927513.83947  84099361.89847  20537921.5724   20537925.0664   20537921.1164 
        56.000          51.000  
 122677775.42147  95593053.38647  23344816.2354   23344822.3404   23344816.7134 
        47.000          42.000  
 130547690.00447 101725475.21147  24842392.9984   24842401.3234   24842395.0014 
        42.000          36.000  
 111815326.44347  87128806.18347  21277764.9204   21277770.3314   21277765.5584 
        52.000          46.000  
 125964668.29047  98154258.05547  23970299.1274   23970306.6794   23970299.8894 
        46.000          39.000  
 10  1 15 19  0 24.0000000  0 10G02G04G05G09G12G15G17G18G27G30
 124031992.83147  96648297.20147  23602510.1694   23602514.7744   23602509.5664 
        47.000          41.000  
 129248539.13847 100713142.38447  24595179.4394   24595186.5294   24595178.5424 
        44.000          38.000  
 131204032.03247 102236879.96547  24967318.5494   24967326.1404   24967320.1484 
        43.000          38.000  
 119650427.39247  93234092.59247  22768721.9054   22768728.0704   22768722.7114 
        51.000          45.000  
 116712029.91447  90944432.62047  22209562.7424   22209567.4314   22209562.2994 
        52.000          47.000  
 107928529.93747  84100153.66147  20538114.8934   20538118.1744   20538114.5294 
        56.000          51.000  
 122680791.76747  95595403.78347  23345391.6954   23345396.2284   23345390.8764 
        48.000          42.000  
 130548126.89747 101725815.64947  24842476.8424   24842483.2364   24842478.1524 
        43.000          36.000  
 111813730.12647  87127562.30147  21277461.3894   21277466.9494   21277461.7564 
        52.000          46.000  
 125963489.09247  98153339.19747  23970074.9634   23970081.6734   23970075.4294 
        46.000          39.000  
 10  1 15 19  0 25.0000000  0 10G02G04G05G09G12G15G17G18G27G30
 124030092.72547  96646816.60447  23602148.9164   23602152.7624   23602147.9984 
        47.000          41.000  
 129247689.73647 100712480.51347  24595017.3294   24595024.7344   24595016.7294 
        44.000          38.000  
 131206075.96647 102238472.63847  24967708.0344   24967714.7524   24967709.4274 
        43.000          38.000  
 119648621.57647  93232685.46447  22768378.5984   22768383.5734   22768379.1204 
        51.000          45.000  
 116711544.33847  90944054.25047  22209469.9804   22209474.1294   22209469.8474 
        52.000          47.000  
 107929546.75047  84100945.98447  20538308.4084   20538311.5354   20538308.0174 
        56.000          51.000  
 122683808.54647  95597754.52047  23345964.7704   23345970.1494   23345965.1064 
        47.000          42.000  
 130548564.18947 101726156.40047  24842559.8874   24842566.9684   24842561.3884 
        43.000          36.000  
 111812134.05947  87126318.61647  21277157.2374   21277163.4174   21277158.0434 
        52.000          46.000  
 125962310.21147  98152420.58847  23969850.6264   23969857.5874   23969851.0814 
        46.000          39.000  
 10  1 15 19  0 26.0000000  0 10G02G04G05G09G12G15G17G18G27G30
 124028192.49247  96645335.90647  23601787.0464   23601791.7094   23601786.6034 
        47.000          41.000  
 129246840.43347 100711818.72047  24594854.9564   24594863.2294   24594855.2264 
        45.000          38.000  
 131208119.51247 102240065.00847  24968097.3744   24968104.0604   24968098.3914 
        44.000          39.000  
 119646815.57147  93231278.18847  22768035.1474   22768040.7744   22768035.4084 
        52.000          45.000  
 116711058.89247  90943675.98047  22209377.8344   22209382.3154   22209377.4194 
        53.000          47.000  
 107930564.06847  84101738.69847  20538501.7184   20538505.0924   20538501.6034 
        56.000          51.000  
 122686825.55647  95600105.43547  23346539.5894   23346543.7404   23346539.3464 
        48.000          42.000  
 130549001.73047 101726497.34547  24842644.0504   24842650.2574   24842644.8064 
        42.000          36.000  
 111810538.02747  87125074.95647  21276854.0434   21276859.5894   21276854.2994 
        52.000          46.000  
 125961131.44047  98151502.06847  23969626.6874   23969631.8864   23969626.5774 
        46.000          39.000  
 10  1 15 19  0 27.0000000  0 10G02G04G05G09G12G15G17G18G27G30
 124026292.08447  96643855.07147  23601425.9014   23601429.9724   23601425.1524 
        47.000          41.000  
 129245991.12147 100711156.91847  24594693.3004   24594701.7854   24594693.8114 
        45.000          38.000  
 131210162.62147 102241657.03847  24968486.2154   24968492.7854   24968487.2664 
        43.000          39.000  
 119645009.34147  93229870.73447  22767691.9024   22767697.4924   22767691.6684 
        51.000          45.000  
 116710573.53747  90943297.78047  22209285.1694   22209289.7904   22209285.0424 
        53.000          47.000  
 107931581.86747  84102531.78747  20538695.6944   20538698.9664   20538695.2744 
        56.000          51.000  
 122689842.75247  95602456.49447  23347113.2764   23347118.0544   23347113.5784 
        48.000          42.000  
 130549439.43847 101726838.41947  24842727.7004   24842733.3364   24842728.0474 
        42.000          36.000  
 111808942.00347  87123831.30347  21276549.9404   21276556.0594   21276550.6104 
        52.000          46.000  
 125959952.74947  98150583.60947  23969403.8584   23969407.9244   23969402.4104 
        46.000          39.000  
 10  1 15 19  0 28.0000000  0 10G02G04G05G09G12G15G17G18G27G30
 124024391.80047  96642374.33347  23601065.0064   23601068.3534   23601063.9414 
        47.000          41.000  
 129245142.15047 100710495.38247  24594532.4184   24594540.2484   24594532.7654 
        46.000          38.000  
 131212205.59347 102243248.96147  24968874.9684   24968881.3214   24968875.8864 
        44.000          39.000  
 119643203.18047  93228463.34147  22767348.0824   22767353.0294   22767347.9344 
        51.000          45.000  
 116710088.57947  90942919.89247  22209193.0604   22209197.1484   22209192.7964 
        53.000          47.000  
 107932600.42447  84103325.46847  20538889.3884   20538892.5944   20538889.0974 
        56.000          51.000  
 122692860.45147  95604807.94647  23347687.2084   23347693.1834   23347687.8054 
        47.000          42.000  
 130549877.61347 101727179.85747  24842811.2434   24842816.0194   24842811.3554 
        42.000          36.000  
 111807346.28547  87122587.88747  21276246.4404   21276252.4074   21276246.9834 
        52.000          46.000  
 125958774.42647  98149665.44047  23969179.2054   23969183.8654   23969178.1504 
        46.000          39.000  
 10  1 15 19  0 29.0000000  0 10G02G04G05G09G12G15G17G18G27G30
 124022491.40947  96640893.50947  23600702.7404   23600707.6184   23600702.5424 
        47.000          41.000  
 129244293.28447 100709833.92547  24594372.5924   24594379.0154   24594371.8294 
        46.000          38.000  
 131214248.17947 102244840.58347  24969263.2864   24969270.4054   24969264.4524 
        43.000          39.000  
 119641396.85747  93227055.81847  22767004.0054   22767009.4194   22767004.3314 
        51.000          45.000  
 116709603.77847  90942542.12447  22209101.2374   22209105.0864   22209100.5644 
        53.000          47.000  
 107933619.52647  84104119.57247  20539083.3524   20539086.7064   20539083.0514 
        56.000          51.000  
 122695878.38147  95607159.57547  23348261.8364   23348266.9254   23348262.2474 
        47.000          42.000  
 130550316.05647 101727521.50447  24842895.1004   24842902.3054   24842894.8484 
        43.000          36.000  
 111805750.63847  87121344.52647  21275943.0684   21275948.5924   21275943.3724 
        52.000          46.000  
 125957596.26347  98148747.39447  23968952.3954   23968961.2034   23968953.8384 
        46.000          39.000  
 10  1 15 19  0 30.0000000  0 10G02G04G05G09G12G15G17G18G27G30
 124020591.06447  96639412.72247  23600340.7004   23600346.0154   23600341.1814 
        46.000          41.000  
 129243444.67547 100709172.67047  24594210.8884   24594217.5894   24594210.9374 
        46.000          39.000  
 131216290.53847 102246432.02847  24969652.5304   24969658.8484   24969653.2444 
        44.000          39.000  
 119639590.54247  93225648.30147  22766660.5984   22766665.8914   22766660.5344 
        51.000          45.000  
 116709119.30247  90942164.60947  22209008.9364   22209013.2844   22209008.4124 
        52.000          47.000  
 107934639.33247  84104914.22547  20539277.3344   20539280.7204   20539277.1594 
        56.000          51.000  
 122698896.76147  95609511.55847  23348836.2174   23348841.6244   23348836.7694 
        48.000          42.000  
 130550754.89847 101727863.45947  24842979.5354   24842985.9994   24842978.1334 
        43.000          36.000  
 111804155.23447  87120101.35547  21275639.0824   21275645.2574   21275639.8004 
        52.000          46.000  
 125956418.41447  98147829.59047  23968729.2174   23968735.9794   23968729.6664 
        46.000          39.000  
 10  1 15 19  0 31.0000000  0 10G02G04G05G09G12G15G17G18G27G30
 124018690.78147  96637931.98447  23599979.0024   23599983.7684   23599979.6754 
        47.000          41.000  
 129242596.30347 100708511.59847  24594050.0934   24594056.9334   24594049.9704 
        45.000          39.000  
 131218332.74447 102248023.35547  24970041.2134   24970047.3984   24970041.8794 
        43.000          39.000  
 119637784.23547  93224240.78947  22766316.6834   22766321.8754   22766316.8064 
        51.000          45.000  
 116708635.14647  90941787.34547  22208916.4494   22208921.2084   22208916.3554 
        52.000          47.000  
 107935659.84147  84105709.42747  20539471.5974   20539475.1864   20539471.3924 
        56.000          51.000  
 122701915.55147  95611863.86247  23349411.5304   23349416.2894   23349411.1084 
        47.000          42.000  
 130551194.17747 101728205.75747  24843063.2084   24843068.2194   24843061.6704 
        42.000          36.000  
 111802560.06747  87118858.36747  21275335.6344   21275341.2744   21275336.2414 
        52.000          46.000  
 125955240.86647  98146912.02347  23968506.5154   23968512.1454   23968505.5344 
        46.000          40.000  
 10  1 15 19  0 32.0000000  0 10G02G04G05G09G12G15G17G18G27G30
 124016790.47247  96636451.22647  23599617.3654   23599621.9724   23599618.1384 
        47.000          41.000  
 129241748.12647 100707850.67847  24593888.1944   24593894.2084   24593888.3124 
        44.000          39.000  
 131220374.57247 102249614.38847  24970430.2394   24970436.2334   24970430.4824 
        43.000          39.000  
 119635977.82547  93222833.19747  22765972.4794   22765978.6894   22765973.1024 
        51.000          46.000  
 116708151.21947  90941410.25747  22208824.7094   22208829.3814   22208824.2554 
        52.000          47.000  
 107936680.95447  84106505.09947  20539665.9754   20539669.2624   20539665.7224 
        56.000          51.000  
 122704934.67647  95614216.42847  23349985.1994   23349990.4424   23349985.3744 
        47.000          42.000  
 130551633.74347 101728548.27647  24843146.0814   24843151.4814   24843145.2674 
        42.000          36.000  
 111800965.03647  87117615.48547  21275032.5894   21275038.1744   21275032.7604 
        52.000          46.000  
 125954063.52947  98145994.62047  23968282.7054   23968288.5924   23968281.7394 
        45.000          39.000  
 10  1 15 19  0 33.0000000  0 10G02G04G05G09G12G15G17G18G27G30
 124014890.01447  96634970.35447  23599255.3354   23599260.1814   23599256.4434 
        47.000          41.000  
 129240899.98847 100707189.78747  24593726.1104   24593731.9914   24593726.2054 
        45.000          38.000  
 131222416.02347 102251205.12747  24970818.6464   24970824.5154   24970818.2414 
        42.000          39.000  
 119634171.22347  93221425.45947  22765628.7074   22765634.6204   22765629.1784 
        51.000          46.000  
 116707667.41447  90941033.26547  22208732.3844   22208737.0304   22208732.2294 
        53.000          47.000  
 107937702.57447  84107301.16647  20539860.3104   20539863.6404   20539860.1514 
        56.000          51.000  
 122707954.00947  95616569.15647  23350559.4764   23350564.4764   23350559.8474 
        47.000          42.000  
 130552073.54247 101728890.97847  24843229.6124   24843235.9234   24843228.9384 
        43.000          36.000  
 111799370.04847  87116372.63747  21274728.5894   21274734.2594   21274729.1994 
        52.000          46.000  
 125952886.31147  98145077.30447  23968059.1324   23968064.3554   23968057.7674 
        46.000          39.000  
 10  1 15 19  0 34.0000000  0 10G02G04G05G09G12G15G17G18G27G30
 124012989.58847  96633489.50547  23598893.7254   23598898.9174   23598894.6974 
        47.000          41.000  
 129240052.05047 100706529.05547  24593564.1464   24593570.1774   24593564.3194 
        45.000          39.000  
 131224457.25947 102252795.69947  24971206.2684   24971212.5964   24971206.3884 
        43.000          39.000  
 119632364.58147  93220017.68847  22765285.0404   22765290.9664   22765285.2714 
        52.000          46.000  
 116707183.88047  90940656.48647  22208640.4624   22208644.7124   22208640.1974 
        52.000          47.000  
 107938724.85247  84108097.74547  20540054.8204   20540058.3734   20540054.6564 
        56.000          51.000  
 122710973.72347  95618922.17847  23351134.9864   23351139.7424   23351134.4424 
        47.000          42.000  
 130552513.68347 101729233.94647  24843313.4984   24843320.0794   24843312.7484 
        42.000          36.000  
 111797775.24347  87115129.93347  21274425.0814   21274430.0864   21274425.7024 
        52.000          46.000  
 125951709.35847  98144160.19747  23967834.0844   23967839.5094   23967833.8204 
        46.000          39.000  
 10  1 15 19  0 35.0000000  0 10G02G04G05G09G12G15G17G18G27G30
 124011089.05847  96632008.57347  23598531.9924   23598536.5624   23598532.8944 
        47.000          41.000  
 129239204.26047 100705868.43947  24593402.5114   24593408.7794   24593403.0444 
        46.000          39.000  
 131226498.12847 102254385.98447  24971594.5054   24971601.5514   24971594.4754 
        43.000          39.000  
 119630557.80947  93218609.81547  22764941.6684   22764946.8904   22764941.4104 
        52.000          46.000  
 116706700.54347  90940279.86047  22208548.5544   22208552.6904   22208548.2034 
        53.000          47.000  
 107939747.69647  84108894.76747  20540249.6934   20540253.0464   20540249.3364 
        56.000          51.000  
 122713993.72947  95621275.42647  23351710.0994   23351714.4624   23351709.0874 
        48.000          42.000  
 130552954.12547 101729577.14747  24843397.2024   24843403.5034   24843396.4504 
        42.000          36.000  
 111796180.54547  87113887.31247  21274121.8774   21274127.2614   21274122.1794 
        52.000          46.000  
 125950532.57847  98143243.22347  23967610.1304   23967616.3284   23967610.1254 
        46.000          39.000  
 10  1 15 19  0 36.0000000  0 10G02G04G05G09G12G15G17G18G27G30
 124009188.59247  96630527.69147  23598170.2974   23598175.2414   23598171.1794 
        47.000          41.000  
 129238356.69947 100705208.00247  24593241.5094   24593248.9304   24593242.1564 
        45.000          39.000  
 131228538.74247 102255976.07047  24971982.5494   24971990.1094   24971982.9444 
        43.000          39.000  
 119628751.02847  93217201.93447  22764597.6424   22764602.4464   22764597.6464 
        51.000          46.000  
 116706217.51547  90939903.47347  22208456.2674   22208460.5924   22208456.2474 
        52.000          47.000  
 107940771.22847  84109692.32447  20540444.3274   20540447.6384   20540444.0824 
        56.000          51.000  
 122717014.13747  95623628.98647  23352283.4994   23352289.8304   23352284.1034 
        47.000          42.000  
 130553394.96747 101729920.66247  24843480.4654   24843487.7854   24843480.5164 
        43.000          36.000  
 111794586.07147  87112644.86747  21273818.4374   21273824.1014   21273818.7304 
        52.000          46.000  
 125949356.09147  98142326.47747  23967386.3734   23967393.9744   23967386.2184 
        46.000          39.000  
 10  1 15 19  0 37.0000000  0 10G02G04G05G09G12G15G17G18G27G30
 124007288.11347  96629046.79847  23597808.0994   23597812.9704   23597809.4344 
        47.000          41.000  
 129237509.33847 100704547.72147  24593080.6754   24593087.7184   24593081.0334 
        46.000          39.000  
 131230579.10447 102257565.96147  24972370.7044   24972378.6844   24972371.1704 
        43.000          39.000  
 119626944.17947  93215794.00047  22764254.3304   22764259.4094   22764253.8604 
        51.000          46.000  
 116705734.73747  90939527.28247  22208364.9994   22208369.5144   22208364.3974 
        52.000          47.000  
 107941795.40647  84110490.38347  20540639.2724   20540642.4984   20540638.9864 
        56.000          51.000  
 122720034.89547  95625982.82247  23352858.7544   23352864.0714   23352859.0454 
        47.000          42.000  
 130553836.13447 101730264.43247  24843564.1144   24843570.5444   24843564.6684 
        43.000          36.000  
 111792991.77347  87111402.55947  21273515.0474   21273520.7084   21273515.3854 
        52.000          46.000  
 125948179.85147  98141409.92547  23967163.6004   23967168.6644   23967162.5914 
        46.000          39.000  
 10  1 15 19  0 38.0000000  0 10G02G04G05G09G12G15G17G18G27G30
 124005387.71047  96627565.96447  23597447.6364   23597451.0674   23597447.9204 
        47.000          41.000  
 129236662.25747 100703887.65847  24592920.4674   24592926.5084   24592920.3014 
        46.000          39.000  
 131232619.30847 102259155.72947  24972758.3964   24972766.8544   24972758.8564 
        44.000          39.000  
 119625137.35947  93214386.09247  22763909.5244   22763915.3434   22763910.0084 
        51.000          46.000  
 116705252.30947  90939151.36447  22208272.7074   22208277.1224   22208272.5984 
        52.000          47.000  
 107942820.30347  84111289.00447  20540834.3204   20540837.4344   20540834.0074 
        56.000          51.000  
 122723056.10647  95628337.01047  23353434.3414   23353439.0214   23353434.0194 
        47.000          42.000  
 130554277.74947 101730608.54847  24843648.3674   24843655.3484   24843648.6184 
        43.000          36.000  
 111791397.73447  87110160.45447  21273212.0254   21273217.6764   21273212.0304 
        52.000          46.000  
 125947003.93447  98140493.62847  23966939.6584   23966944.2084   23966938.6424 
        46.000          39.000  
 10  1 15 19  0 39.0000000  0 10G02G04G05G09G12G15G17G18G27G30
 124003487.13647  96626084.99747  23597086.0754   23597089.8504   23597086.3164 
        47.000          41.000  
 129235815.16947 100703227.58747  24592759.2214   24592766.6504   24592759.5844 
        46.000          39.000  
 131234659.01047 102260745.10447  24973147.4594   24973154.8414   24973147.4084 
        43.000          39.000  
 119623330.30647  93212978.00047  22763566.1944   22763571.6234   22763566.1824 
        51.000          46.000  
 116704769.96247  90938775.51047  22208181.2844   22208185.4344   22208180.8214 
        52.000          47.000  
 107943845.66647  84112087.98847  20541029.4034   20541032.5814   20541029.1094 
        56.000          51.000  
 122726077.47747  95630691.32047  23354009.2114   23354013.7194   23354009.0184 
        48.000          42.000  
 130554719.54447 101730952.80547  24843732.6344   24843739.6074   24843732.8594 
        43.000          36.000  
 111789803.68647  87108918.33947  21272908.1424   21272913.8494   21272908.7534 
        52.000          46.000  
 125945828.09947  98139577.39147  23966714.7744   23966720.8314   23966714.9134 
        46.000          39.000  
 10  1 15 19  0 40.0000000  0 10G02G04G05G09G12G15G17G18G27G30
 124001586.54347  96624604.01247  23596724.4574   23596728.3354   23596724.5304 
        47.000          41.000  
 129234968.31047 100702567.69747  24592597.8514   24592605.7244   24592598.6654 
        46.000          39.000  
 131236698.46947 102262334.29047  24973534.9564   24973542.9624   24973535.4474 
        44.000          39.000  
 119621523.19447  93211569.86147  22763222.4964   22763227.5264   22763222.3964 
        51.000          46.000  
 116704287.88347  90938399.86447  22208089.4134   22208093.2724   22208089.0734 
        52.000          47.000  
 107944871.67347  84112887.47447  20541224.6754   20541227.9494   20541224.2774 
        56.000          51.000  
 122729099.21847  95633045.92147  23354584.1424   23354587.8544   23354583.9794 
        47.000          42.000  
 130555161.67647 101731297.32447  24843817.4584   24843823.5814   24843816.7354 
        43.000          36.000  
 111788209.82047  87107676.36747  21272604.8224   21272610.7734   21272605.4064 
        52.000          46.000  
 125944652.51447  98138661.35347  23966491.8864   23966497.5714   23966491.2544 
        46.000          39.000  
 10  1 15 19  0 41.0000000  0 10G02G04G05G09G12G15G17G18G27G30
 123999685.90847  96623122.99847  23596362.4874   23596366.0664   23596362.8354 
        47.000          41.000  
 129234121.57347 100701907.89747  24592435.4554   24592443.3554   24592437.1194 
        45.000          39.000  
 131238737.56947 102263923.19747  24973923.2154   24973931.5174   24973923.7144 
        42.000          39.000  
 119619715.97647  93210161.64047  22762877.7204   22762883.4254   22762878.5404 
        51.000          45.000  
 116703806.00247  90938024.37147  22207998.0054   22208002.1604   22207997.4214 
        53.000          47.000  
 107945898.26147  84113687.41147  20541419.9364   20541423.2434   20541419.6514 
        56.000          51.000  
 122732121.27547  95635400.76847  23355158.8674   23355163.7274   23355158.9514 
        47.000          42.000  
 130555604.11747 101731642.08447  24843899.6744   24843907.2694   24843900.7584 
        43.000          36.000  
 111786616.07847  87106434.49247  21272302.1044   21272306.8834   21272302.1184 
        52.000          46.000  
 125943477.12347  98137745.46747  23966269.1474   23966273.1214   23966267.7284 
        46.000          39.000  
 10  1 15 19  0 42.0000000  0 10G02G04G05G09G12G15G17G18G27G30
 123997785.33647  96621642.03447  23595999.9914   23596004.0994   23596000.9184 
        47.000          41.000  
 129233275.12547 100701248.32347  24592274.1954   24592281.1344   24592275.4444 
        45.000          38.000  
 131240776.55047 102265512.01047  24974311.2904   24974319.2404   24974311.3384 
        43.000          39.000  
 119617908.77647  93208753.43547  22762534.0414   22762539.7064   22762534.5774 
        51.000          46.000  
 116703324.46947  90937649.15147  22207906.3004   22207910.2794   22207905.7994 
        53.000          47.000  
 107946925.58047  84114487.91947  20541615.5284   20541618.6944   20541615.1874 
        56.000          51.000  
 122735143.74547  95637755.93747  23355734.1914   23355739.2174   23355733.9494 
        47.000          42.000  
 130556047.00747 101731987.19547  24843984.9384   24843991.2884   24843985.0334 
        43.000          36.000  
 111785022.59447  87105192.81747  21271998.8394   21272003.8254   21271998.9284 
        52.000          46.000  
 125942302.06047  98136829.83647  23966044.6464   23966050.9504   23966044.2864 
        46.000          39.000  
 10  1 15 19  0 43.0000000  0 10G02G04G05G09G12G15G17G18G27G30
 123995884.70247  96620161.02347  23595636.6554   23595643.2254   23595639.0164 
        47.000          41.000  
 129232428.80847 100700588.85047  24592112.9754   24592120.9474   24592114.1554 
        45.000          39.000  
 131242815.10347 102267100.49047  24974699.1874   24974707.6534   24974699.3114 
        42.000          39.000  
 119616101.43647  93207345.11847  22762190.2854   22762196.6864   22762190.6714 
        52.000          46.000  
 116702843.11047  90937274.06447  22207814.6354   22207818.6484   22207814.2604 
        53.000          47.000  
 107947953.44747  84115288.85447  20541811.1934   20541814.4244   20541810.8024 
        56.000          51.000  
 122738166.49347  95640111.32447  23356308.4514   23356314.6594   23356309.1844 
        48.000          42.000  
 130556490.12947 101732332.48647  24844070.5944   24844076.8074   24844069.5224 
        43.000          36.000  
 111783429.20047  87103951.21047  21271695.3864   21271700.7844   21271695.6194 
        52.000          46.000  
 125941127.16047  98135914.33247  23965820.5564   23965827.4544   23965820.9164 
        46.000          39.000  
 10  1 15 19  0 44.0000000  0 10G02G04G05G09G12G15G17G18G27G30
 123993983.98547  96618679.94947  23595275.7054   23595282.1754   23595276.9854 
        46.000          41.000  
 129231582.60247 100699929.46747  24591952.7964   24591960.5784   24591953.1444 
        45.000          39.000  
 131244853.38347 102268688.75647  24975087.2914   24975095.5124   24975087.4724 
        44.000          39.000  
 119614293.98347  93205936.71547  22761846.5684   22761852.2044   22761846.7294 
        52.000          46.000  
 116702361.96647  90936899.14547  22207722.8544   22207727.0244   22207722.8044 
        53.000          47.000  
 107948981.90147  84116090.24647  20542006.8154   20542010.0184   20542006.5174 
        56.000          51.000  
 122741189.56747  95642466.96447  23356884.0524   23356890.3624   23356884.4664 
        48.000          42.000  
 130556933.55947 101732678.01747  24844155.1874   24844160.3524   24844154.0554 
        43.000          36.000  
 111781835.93347  87102709.70347  21271392.2134   21271397.9624   21271392.4584 
        52.000          46.000  
 125939952.45747  98134998.98247  23965597.0704   23965603.3004   23965597.4354 
        46.000          39.000  
 10  1 15 19  0 45.0000000  0 10G02G04G05G09G12G15G17G18G27G30
 123992083.34647  96617198.93647  23594915.3354   23594921.9544   23594915.3994 
        47.000          41.000  
 129230736.68647 100699270.31047  24591792.1414   24591800.0614   24591792.3514 
        45.000          39.000  
 131246891.41947 102270276.83347  24975475.0104   24975483.1524   24975475.5284 
        43.000          39.000  
 119612486.54147  93204528.32247  22761502.0944   22761508.7734   22761502.7864 
        52.000          46.000  
 116701881.13347  90936524.47047  22207631.3084   22207635.6924   22207631.3214 
        53.000          47.000  
 107950011.05647  84116892.18447  20542202.7764   20542206.0134   20542202.3454 
        56.000          51.000  
 122744213.03147  95644822.91047  23357459.5834   23357464.8424   23357459.8194 
        47.000          42.000  
 130557377.37547 101733023.84847  24844239.7024   24844244.4944   24844238.5154 
        43.000          36.000  
 111780242.89247  87101468.37147  21271089.4694   21271094.7334   21271089.2794 
        52.000          46.000  
 125938778.04047  98134083.85247  23965373.0464   23965379.5844   23965373.9354 
        46.000          39.000  
 10  1 15 19  0 46.0000000  0 10G02G04G05G09G12G15G17G18G27G30
 123990182.61747  96615717.85247  23594553.8744   23594559.5794   23594553.7014 
        47.000          41.000  
 129229890.87347 100698611.23647  24591630.8794   24591639.2044   24591631.7544 
        45.000          39.000  
 131248929.13947 102271864.66347  24975861.6844   24975870.8024   24975862.6094 
        43.000          39.000  
 119610678.94647  93203119.80647  22761158.7194   22761164.6824   22761158.7674 
        52.000          46.000  
 116701400.48147  90936149.93647  22207539.8464   22207544.7774   22207539.8464 
        53.000          47.000  
 107951040.76647  84117694.55647  20542398.7624   20542401.7914   20542398.2734 
        56.000          51.000  
 122747236.81147  95647179.10247  23358034.5544   23358040.8624   23358035.0724 
        47.000          42.000  
 130557821.49647 101733369.91847  24844324.1664   24844328.4554   24844323.2764 
        42.000          36.000  
 111778649.95347  87100227.12147  21270786.2254   21270790.9724   21270786.1134 
        52.000          46.000  
 125937603.81647  98133168.87447  23965151.2034   23965155.1234   23965150.3954 
        46.000          39.000  
 10  1 15 19  0 47.0000000  0 10G02G04G05G09G12G15G17G18G27G30
 123988281.90947  96614236.78647  23594192.3004   23594198.2374   23594192.0324 
        47.000          41.000  
 129229045.27347 100697952.32947  24591470.5964   24591477.6124   24591471.0734 
        46.000          39.000  
 131250966.56947 102273452.26747  24976250.1184   24976258.7354   24976250.1854 
        44.000          39.000  
 119608871.32847  93201711.27347  22760814.2254   22760820.3264   22760814.8004 
        52.000          46.000  
 116700920.11847  90935775.62747  22207448.1614   22207452.6044   22207448.3394 
        53.000          47.000  
 107952071.15247  84118497.45347  20542594.4604   20542597.9594   20542594.3164 
        56.000          51.000  
 122750260.94847  95649535.57047  23358611.0674   23358615.7404   23358610.3634 
        47.000          42.000  
 130558265.96947 101733716.26447  24844408.9734   24844412.8914   24844407.9514 
        43.000          36.000  
 111777057.21147  87098986.02447  21270483.2794   21270488.3244   21270482.9794 
        52.000          46.000  
 125936429.86247  98132254.10447  23964927.3094   23964931.6644   23964927.0764 
        46.000          39.000  
 10  1 15 19  0 48.0000000  0 10G02G04G05G09G12G15G17G18G27G30
 123986381.19247  96612755.71447  23593831.5044   23593836.1754   23593830.6234 
        48.000          41.000  
 129228199.87747 100697293.58247  24591310.6184   24591317.2094   24591310.2334 
        45.000          39.000  
 131253003.71347 102275039.64947  24976637.2444   24976646.6324   24976637.8014 
        43.000          39.000  
 119607063.64447  93200302.68947  22760470.2714   22760476.0264   22760470.8224 
        52.000          46.000  
 116700440.00047  90935401.50747  22207357.0394   22207361.2784   22207356.9654 
        53.000          47.000  
 107953102.17447  84119300.84647  20542790.8574   20542794.2674   20542790.5844 
        56.000          51.000  
 122753285.42347  95651892.30247  23359185.7914   23359191.0824   23359185.7294 
        47.000          42.000  
 130558710.79147 101734062.88047  24844492.6544   24844498.6644   24844492.6694 
        43.000          36.000  
 111775464.63947  87097745.05847  21270179.5864   21270184.8654   21270179.9604 
        52.000          46.000  
 125935256.14747  98131339.52347  23964703.2774   23964710.1324   23964703.9784 
        46.000          40.000  
 10  1 15 19  0 49.0000000  0 10G02G04G05G09G12G15G17G18G27G30
 123984480.46447  96611274.62747  23593469.5484   23593473.3454   23593469.3674 
        48.000          41.000  
 129227354.63647 100696634.95647  24591149.0094   24591155.4354   24591149.5194 
        46.000          39.000  
 131255040.56847 102276626.80547  24977024.8514   24977034.2854   24977025.3534 
        42.000          39.000  
 119605255.86447  93198894.03147  22760126.8314   22760132.2374   22760126.7874 
        52.000          46.000  
 116699960.11247  90935027.56847  22207265.5364   22207269.9094   22207265.6424 
        53.000          47.000  
 107954133.78947  84120104.70247  20542987.1044   20542990.6874   20542986.9194 
        56.000          51.000  
 122756310.24047  95654249.29647  23359762.1014   23359766.8054   23359761.2434 
        47.000          42.000  
 130559155.92647 101734409.73947  24844577.7184   24844583.5924   24844577.4404 
        43.000          36.000  
 111773872.21447  87096504.20747  21269877.1974   21269882.2424   21269876.9074 
        52.000          46.000  
 125934082.64147  98130425.10347  23964480.4464   23964484.8964   23964480.6954 
        46.000          40.000  
 10  1 15 19  0 50.0000000  0 10G02G04G05G09G12G15G17G18G27G30
 123982579.65647  96609793.47647  23593106.8874   23593111.6224   23593107.9284 
        47.000          41.000  
 129226509.57147 100695976.46647  24590988.1744   24590993.8794   24590989.0364 
        46.000          39.000  
 131257077.10747 102278213.71747  24977413.0234   24977421.7664   24977412.6064 
        42.000          39.000  
 119603447.99047  93197485.29947  22759782.7794   22759788.5164   22759782.7934 
        51.000          46.000  
 116699480.43547  90934653.79347  22207174.8974   22207179.2724   22207174.4404 
        53.000          47.000  
 107955166.01747  84120909.03547  20543183.4124   20543186.7754   20543183.3194 
        56.000          51.000  
 122759335.35447  95656606.52347  23360336.9764   23360343.3124   23360336.7324 
        47.000          42.000  
 130559601.36647 101734756.83647  24844662.5514   24844669.8244   24844662.1564 
        43.000          36.000  
 111772279.91647  87095263.45647  21269573.5634   21269579.1824   21269573.8314 
        52.000          46.000  
 125932909.34447  98129510.84747  23964256.1944   23964262.3564   23964257.3484 
        46.000          39.000  
 10  1 15 19  0 51.0000000  0 10G02G04G05G09G12G15G17G18G27G30
 123980678.91747  96608312.37747  23592746.2144   23592749.6764   23592746.3834 
        47.000          41.000  
 129225664.71947 100695318.14147  24590827.1624   24590833.5014   24590828.3874 
        46.000          39.000  
 131259113.41447 102279800.44847  24977801.2744   24977808.8434   24977800.4764 
        43.000          39.000  
 119601640.09847  93196076.55347  22759438.8734   22759444.9224   22759438.7444 
        51.000          46.000  
 116699001.06647  90934280.25947  22207083.4284   22207087.1324   22207083.2234 
        53.000          47.000  
 107956198.92647  84121713.89847  20543380.1414   20543383.4114   20543379.8954 
        56.000          51.000  
 122762360.89047  95658964.07947  23360912.5594   23360918.6184   23360912.4164 
        47.000          42.000  
 130560047.20047 101735104.24047  24844746.3074   24844754.6074   24844747.0384 
        43.000          36.000  
 111770687.84547  87094022.88447  21269270.7704   21269276.5474   21269270.8594 
        52.000          46.000  
 125931736.33647  98128596.81647  23964033.3864   23964040.4154   23964034.2904 
        46.000          39.000  
 10  1 15 19  0 52.0000000  0 10G02G04G05G09G12G15G17G18G27G30
 123978778.13347  96606831.24347  23592384.1964   23592386.7494   23592384.6424 
        47.000          41.000  
 129224820.01447 100694659.92847  24590666.2744   24590672.6274   24590667.1974 
        45.000          39.000  
 131261149.42247 102281386.94647  24978188.7574   24978196.3304   24978187.9654 
        43.000          39.000  
 119599832.10447  93194667.72947  22759093.5154   22759100.2944   22759094.6854 
        51.000          46.000  
 116698521.91847  90933906.89747  22206992.3114   22206996.2944   22206992.0534 
        53.000          47.000  
 107957232.42947  84122519.22547  20543576.8064   20543579.9744   20543576.5684 
        56.000          51.000  
 122765386.70447  95661321.85347  23361487.5824   23361494.7064   23361488.2294 
        47.000          42.000  
 130560493.34547 101735451.88747  24844831.5024   24844839.1584   24844831.8544 
        43.000          36.000  
 111769095.89947  87092782.40847  21268967.7634   21268973.4794   21268967.8614 
        52.000          46.000  
 125930563.54047  98127682.95147  23963810.9904   23963816.0094   23963810.9754 
        47.000          39.000  
 10  1 15 19  0 53.0000000  0 10G02G04G05G09G12G15G17G18G27G30
 123976877.31747  96605350.08247  23592021.0344   23592024.9684   23592022.6994 
        47.000          41.000  
 129223975.50047 100694001.86647  24590504.8154   24590511.8064   24590505.9344 
        45.000          39.000  
 131263185.13247 102282973.21247  24978575.1164   24978582.9794   24978574.6274 
        44.000          39.000  
 119598024.04747  93193258.85547  22758750.4404   22758755.9844   22758750.6434 
        52.000          46.000  
 116698043.02847  90933533.73447  22206901.4684   22206905.3844   22206900.8494 
        53.000          47.000  
 107958266.57347  84123325.05047  20543773.6314   20543777.0054   20543773.4014 
        56.000          51.000  
 122768412.92147  95663679.94147  23362064.6354   23362070.7694   23362064.1244 
        47.000          42.000  
 130560939.84047 101735799.80547  24844915.6354   24844923.2914   24844916.6494 
        43.000          36.000  
 111767504.12847  87091542.06847  21268665.6544   21268669.9194   21268664.9744 
        52.000          46.000  
 125929390.98447  98126769.27247  23963587.5484   23963591.9314   23963587.6734 
        46.000          39.000  
 10  1 15 19  0 54.0000000  0 10G02G04G05G09G12G15G17G18G27G30
 123974976.46747  96603868.89747  23591659.5934   23591662.8934   23591660.4904 
        46.000          41.000  
 129223131.17047 100693343.94547  24590344.5134   24590351.8554   24590345.1054 
        45.000          39.000  
 131265220.53647 102284559.23947  24978962.5694   24978969.8894   24978961.6024 
        42.000          39.000  
 119596215.90247  93191849.91047  22758406.4434   22758412.8234   22758406.5844 
        52.000          46.000  
 116697564.35647  90933160.74247  22206810.0604   22206814.1134   22206809.8414 
        53.000          47.000  
 107959301.31847  84124131.34547  20543970.5604   20543973.7044   20543970.2894 
        56.000          51.000  
 122771439.43647  95666038.26047  23362640.7874   23362646.5634   23362639.9724 
        47.000          42.000  
 130561386.63947 101736147.95847  24845000.4284   24845008.5614   24845001.8554 
        43.000          36.000  
 111765912.49447  87090301.83547  21268362.2814   21268367.1014   21268362.1184 
        52.000          46.000  
 125928218.62947  98125855.74947  23963364.7104   23963370.0994   23963364.5074 
        46.000          39.000  
 10  1 15 19  0 55.0000000  0 10G02G04G05G09G12G15G17G18G27G30
 123973075.54847  96602387.65847  23591297.9714   23591301.6244   23591298.2284 
        46.000          41.000  
 129222286.95847 100692686.11647  24590183.4954   24590191.7084   24590184.4144 
        46.000          39.000  
 131267255.61347 102286145.01147  24979349.6154   24979357.2414   24979348.9414 
        42.000          39.000  
 119594407.63247  93190440.86947  22758062.3584   22758068.3244   22758062.5484 
        52.000          46.000  
 116697085.88647  90932787.90947  22206718.5984   22206723.2094   22206718.7984 
        53.000          47.000  
 107960336.64047  84124938.08847  20544167.5414   20544170.6724   20544167.2944 
        56.000          51.000  
 122774466.24947  95668396.81447  23363216.4054   23363221.8364   23363215.8094 
        46.000          42.000  
 130561833.70747 101736496.32147  24845085.3984   24845092.4424   24845087.0814 
        43.000          36.000  
 111764320.98347  87089061.69747  21268059.5484   21268064.8424   21268059.3624 
        52.000          46.000  
 125927046.47547  98124942.38347  23963141.0424   23963147.3704   23963141.4924 
        46.000          39.000  
 10  1 15 19  0 56.0000000  0 10G02G04G05G09G12G15G17G18G27G30
 123971174.58747  96600906.39147  23590936.3184   23590940.2354   23590936.2634 
        47.000          41.000  
 129221442.91847 100692028.42247  24590022.9094   24590030.0754   24590023.7904 
        45.000          39.000  
 131269290.37647 102287730.53947  24979736.6294   24979743.9984   24979735.5584 
        43.000          39.000  
 119592599.27147  93189031.75647  22757717.9084   22757724.0434   22757718.4534 
        52.000          46.000  
 116696607.62947  90932415.24247  22206627.5054   22206632.0274   22206627.7494 
        53.000          47.000  
 107961372.56447  84125745.30247  20544364.7064   20544367.9934   20544364.4364 
        56.000          51.000  
 122777493.37947  95670755.61547  23363792.4454   23363798.7474   23363791.6994 
        47.000          42.000  
 130562281.11747 101736844.95247  24845170.9084   24845178.6364   24845171.8584 
        43.000          36.000  
 111762729.60347  87087821.66247  21267756.0704   21267761.7864   21267756.5184 
        52.000          46.000  
 125925874.51647  98124029.17047  23962917.2814   23962925.4384   23962918.4884 
        46.000          39.000  
 10  1 15 19  0 57.0000000  0 10G02G04G05G09G12G15G17G18G27G30
 123969273.59347  96599425.10147  23590574.9474   23590579.1784   23590574.1784 
        47.000          41.000  
 129220599.03947 100691370.85347  24589862.0554   24589869.1034   24589863.1934 
        45.000          39.000  
 131271324.85147 102289315.84147  24980124.5384   24980132.1254   24980123.3304 
        43.000          39.000  
 119590790.81247  93187622.56847  22757373.9884   22757380.2784   22757374.3244 
        52.000          46.000  
 116696129.60647  90932042.75547  22206536.9124   22206541.2274   22206536.8054 
        53.000          47.000  
 107962409.09247  84126552.98547  20544561.9854   20544565.2194   20544561.6724 
        56.000          51.000  
 122780520.82547  95673114.66147  23364368.8624   23364374.2024   23364368.0404 
        48.000          42.000  
 130562728.81947 101737193.81147  24845257.7384   24845263.2574   24845256.9564 
        44.000          36.000  
 111761138.36247  87086581.73547  21267453.7094   21267458.9924   21267453.7384 
        52.000          46.000  
 125924702.76747  98123116.12347  23962694.7394   23962701.8994   23962695.5534 
        47.000          40.000  
 10  1 15 19  0 58.0000000  0 10G02G04G05G09G12G15G17G18G27G30
 123967372.56447  96597943.78647  23590213.2644   23590216.4304   23590212.4974 
        47.000          41.000  
 129219755.32747 100690713.41547  24589701.5284   24589708.6694   24589702.2904 
        46.000          39.000  
 131273358.98647 102290900.87847  24980511.6324   24980519.2674   24980510.4154 
        42.000          39.000  
 119588982.27647  93186213.31847  22757030.2524   22757035.3294   22757030.1654 
        52.000          46.000  
 116695651.81547  90931670.44947  22206445.9004   22206450.1794   22206445.7994 
        53.000          47.000  
 107963446.23547  84127361.14847  20544759.2334   20544762.7034   20544759.0134 
        56.000          51.000  
 122783548.58047  95675473.94847  23364945.1314   23364951.0944   23364944.5044 
        47.000          42.000  
 130563176.83347 101737542.91347  24845342.9894   24845348.8924   24845342.2374 
        43.000          36.000  
 111759547.27647  87085341.93047  21267150.7364   21267156.3574   21267151.0084 
        52.000          46.000  
 125923531.24447  98122203.25047  23962470.8284   23962479.1044   23962472.5804 
        46.000          39.000  
 10  1 15 19  0 59.0000000  0 10G02G04G05G09G12G15G17G18G27G30
 123965471.64047  96596462.55647  23589851.6864   23589855.6904   23589851.2864 
        48.000          41.000  
 129218911.93047 100690056.22347  24589541.9954   24589548.4924   24589542.0874 
        46.000          39.000  
 131275392.97747 102292485.80347  24980897.9304   24980906.2864   24980897.2714 
        42.000          39.000  
 119587173.77847  93184804.10047  22756685.7634   22756691.4204   22756686.0604 
        52.000          46.000  
 116695174.38147  90931298.42247  22206355.0754   22206359.3294   22206354.9304 
        53.000          47.000  
 107964484.10747  84128169.87847  20544956.7734   20544960.0424   20544956.5144 
        56.000          51.000  
 122786576.78847  95677833.59047  23365521.1034   23365527.6464   23365521.0454 
        48.000          42.000  
 130563625.30347 101737892.37247  24845428.5924   24845433.4954   24845427.7834 
        43.000          36.000  
 111757956.46147  87084102.33347  21266848.3684   21266853.7994   21266848.2584 
        52.000          46.000  
 125922360.06447  98121290.64447  23962250.1894   23962256.6194   23962249.7094 
        46.000          39.000  
 10  1 15 19  1  0.0000000  0 10G02G04G05G09G12G15G17G18G27G30
 123963570.78447  96594981.37747  23589489.6214   23589494.1664   23589490.1434 
        48.000          41.000  
 129218068.77247 100689399.21847  24589380.8994   24589388.3414   24589381.7534 
        46.000          39.000  
 131277426.74447 102294070.55547  24981284.9134   24981292.1224   24981283.8024 
        41.000          39.000  
 119585365.29047  93183394.89147  22756341.6064   22756346.9574   22756341.9204 
        52.000          46.000  
 116694697.26947  90930926.64747  22206264.3204   22206269.0874   22206264.1264 
        53.000          47.000  
 107965522.68247  84128979.15747  20545154.4704   20545157.7304   20545154.2544 
        56.000          51.000  
 122789605.44647  95680193.58247  23366097.0184   23366104.1104   23366097.4524 
        47.000          42.000  
 130564074.17547 101738242.14347  24845513.2904   24845519.8524   24845513.4154 
        43.000          36.000  
 111756365.88747  87082862.92547  21266546.1014   21266550.8984   21266545.5934 
        52.000          46.000  
 125921189.18847  98120378.27547  23962027.0144   23962032.6314   23962026.7774 
        46.000          39.000  
 10  1 15 19  1  1.0000000  0 10G02G04G05G09G12G15G17G18G27G30
 123961669.74847  96593500.05547  23589127.7264   23589132.2234   23589128.9064 
        48.000          41.000  
 129217225.65347 100688742.24347  24589219.7284   24589227.0914   24589220.9604 
        45.000          39.000  
 131279460.05247 102295654.94747  24981671.8084   24981678.6674   24981670.5534 
        42.000          39.000  
 119583556.55347  93181985.48847  22755997.3674   22756003.0364   22755997.7794 
        52.000          46.000  
 116694220.22847  90930554.92747  22206173.8984   22206177.8844   22206173.4774 
        53.000          47.000  
 107966561.71547  84129788.79447  20545352.0854   20545355.3974   20545352.0214 
        56.000          51.000  
 122792634.22947  95682553.67247  23366673.4374   23366679.2484   23366673.6234 
        47.000          42.000  
 130564523.21547 101738592.04647  24845599.1004   24845605.6194   24845598.9354 
        43.000          36.000  
 111754775.30547  87081623.51047  21266242.9534   21266248.5474   21266243.0144 
        52.000          46.000  
 125920018.37447  98119465.95147  23961804.1944   23961810.1704   23961804.0224 
        46.000          40.000  
 10  1 15 19  1  2.0000000  0 10G02G04G05G09G12G15G17G18G27G30
 123959768.69047  96592018.71647  23588767.4594   23588771.1784   23588767.6144 
        48.000          41.000  
 129216382.69947 100688085.39847  24589060.5904   24589068.0184   24589060.7544 
        45.000          39.000  
 131281493.07547 102297239.11747  24982058.7964   24982066.1644   24982057.4024 
        42.000          39.000  
 119581747.75347  93180576.03647  22755653.2154   22755658.4954   22755653.6074 
        52.000          46.000  
 116693743.42647  90930183.39347  22206083.1804   22206087.2884   22206082.7574 
        53.000          47.000  
 107967601.36547  84130598.91147  20545550.0404   20545553.1184   20545549.8204 
        56.000          51.000  
 122795663.38347  95684914.05047  23367249.8024   23367256.4704   23367249.8254 
        47.000          42.000  
 130564972.56647 101738942.19147  24845685.1004   24845691.7764   24845684.6524 
        43.000          36.000  
 111753184.88747  87080384.22347  21265939.9524   21265945.0174   21265940.3654 
        52.000          46.000  
 125918847.78147  98118553.79947  23961581.4794   23961588.8824   23961581.3834 
        46.000          40.000  
 10  1 15 19  1  3.0000000  0 10G02G04G05G09G12G15G17G18G27G30
 123957867.67747  96590537.40547  23588405.7024   23588409.5534   23588406.2724 
        48.000          41.000  
 129215539.97947 100687428.73447  24588901.0394   24588907.4554   24588900.3974 
        46.000          39.000  
 131283525.87447 102298823.11247  24982445.1234   24982453.0234   24982444.1564 
        42.000          39.000  
 119579938.92447  93179166.55947  22755309.3104   22755314.5984   22755309.4404 
        52.000          46.000  
 116693266.92447  90929812.09147  22205991.9334   22205996.6934   22205992.1684 
        53.000          47.000  
 107968641.69247  84131409.55547  20545747.9644   20545751.4584   20545747.7854 
        56.000          51.000  
 122798692.93047  95687274.73447  23367826.1394   23367832.4724   23367826.2924 
        47.000          42.000  
 130565422.32447 101739292.65347  24845770.5714   24845776.6934   24845770.4224 
        43.000          36.000  
 111751594.68147  87079145.10447  21265637.4774   21265642.8114   21265637.6634 
        52.000          46.000  
 125917677.47547  98117641.87247  23961357.8584   23961366.1604   23961358.5964 
        46.000          40.000  
 10  1 15 19  1  4.0000000  0 10G02G04G05G09G12G15G17G18G27G30
 123955966.65347  96589056.08147  23588044.0834   23588047.8864   23588044.6614 
        47.000          41.000  
 129214697.43847 100686772.20947  24588740.8754   24588747.1694   24588740.3224 
        46.000          39.000  
 131285558.37847 102300406.87947  24982831.9194   24982839.6614   24982830.5994 
        42.000          39.000  
 119578130.04947  93177757.04847  22754964.2774   22754970.3504   22754965.2194 
        52.000          46.000  
 116692790.68347  90929440.99447  22205901.1294   22205905.6584   22205901.4904 
        53.000          47.000  
 107969682.67347  84132220.70847  20545946.0364   20545949.4084   20545945.9234 
        56.000          51.000  
 122801722.82847  95689635.68947  23368403.3054   23368408.7554   23368402.8444 
        47.000          42.000  
 130565872.43147 101739643.38447  24845856.1024   24845862.0664   24845855.9994 
        44.000          36.000  
 111750004.65647  87077906.12447  21265334.7444   21265340.6134   21265335.1194 
        52.000          46.000  
 125916507.43847  98116730.15447  23961136.2264   23961143.5354   23961135.8194 
        46.000          40.000  
 10  1 15 19  1  5.0000000  0 10G02G04G05G09G12G15G17G18G27G30
 123954065.54147  96587574.68647  23587681.3594   23587686.3114   23587682.8154 
        47.000          41.000  
 129213855.04047 100686115.79547  24588581.8024   24588587.4424   24588580.4534 
        46.000          39.000  
 131287590.53047 102301990.37147  24983218.3894   24983226.4104   24983217.2674 
        42.000          39.000  
 119576321.03847  93176347.42947  22754620.2854   22754626.2254   22754620.9454 
        52.000          46.000  
 116692314.63247  90929070.04247  22205811.1924   22205815.3414   22205810.8864 
        53.000          47.000  
 107970724.22147  84133032.30347  20546144.3274   20546147.5504   20546144.0574 
        56.000          51.000  
 122804753.02647  95691996.87647  23368980.5904   23368986.6594   23368979.6404 
        47.000          42.000  
 130566322.81447 101739994.33247  24845942.3314   24845946.9214   24845941.7384 
        43.000          36.000  
 111748414.73547  87076667.22847  21265032.4454   21265038.0154   21265032.5224 
        52.000          46.000  
 125915337.54547  98115818.54547  23960914.4314   23960921.1104   23960913.0974 
        46.000          39.000  
 10  1 15 19  1  6.0000000  0 10G02G04G05G09G12G15G17G18G27G30
 123952164.36647  96586093.24247  23587319.0854   23587323.5454   23587320.6794 
        47.000          41.000  
 129213012.76047 100685459.47047  24588420.8604   24588426.2484   24588420.6064 
        46.000          39.000  
 131289622.34247 102303573.59847  24983604.7264   24983613.3124   24983603.9634 
        42.000          39.000  
 119574511.90147  93174937.71647  22754276.6164   22754282.0454   22754276.6714 
        52.000          46.000  
 116691838.76347  90928699.23647  22205720.5994   22205724.6134   22205720.3604 
        53.000          47.000  
 107971766.32647  84133844.33347  20546342.6774   20546345.9594   20546342.3604 
        56.000          51.000  
 122807783.48147  95694358.26547  23369556.0484   23369563.4364   23369556.5374 
        48.000          42.000  
 130566773.47647 101740345.49747  24846028.0024   24846032.8074   24846027.6894 
        43.000          36.000  
 111746824.91447  87075428.40647  21264729.4884   21264735.8124   21264729.9914 
        52.000          46.000  
 125914167.84347  98114907.08947  23960692.3154   23960697.2464   23960690.5554 
        46.000          39.000  
 10  1 15 19  1  7.0000000  0 10G02G04G05G09G12G15G17G18G27G30
 123950263.27047  96584611.86247  23586957.3674   23586961.6034   23586958.3544 
        46.000          41.000  
 129212170.78647 100684803.38447  24588260.3634   24588264.7744   24588260.6534 
        45.000          39.000  
 131291654.01047 102305156.71447  24983990.6874   24983999.4934   24983989.8354 
        40.000          39.000  
 119572702.81747  93173528.04047  22753932.2174   22753937.7874   22753932.4564 
        52.000          46.000  
 116691363.25647  90928328.71247  22205629.8644   22205634.1274   22205629.8724 
        53.000          47.000  
 107972809.18047  84134656.94547  20546541.0434   20546544.2964   20546540.7694 
        56.000          51.000  
 122810814.42247  95696720.03347  23370133.3354   23370138.9154   23370133.4144 
        47.000          42.000  
 130567224.56647 101740696.99647  24846113.7624   24846118.4164   24846113.7614 
        43.000          36.000  
 111745235.37847  87074189.80847  21264427.4014   21264432.5224   21264427.5554 
        52.000          46.000  
 125912998.50147  98113995.91447  23960468.6644   23960473.0784   23960467.8634 
        46.000          39.000  
 10  1 15 19  1  8.0000000  0 10G02G04G05G09G12G15G17G18G27G30
 123948362.09447  96583130.42647  23586595.7904   23586598.9274   23586596.0934 
        46.000          41.000  
 129211328.92047 100684147.38047  24588097.6064   24588104.5814   24588100.0814 
        45.000          39.000  
 131293685.27347 102306739.51447  24984377.5964   24984387.0884   24984376.3534 
        42.000          39.000  
 119570893.57347  93172118.23947  22753587.4904   22753593.3524   22753588.1474 
        52.000          46.000  
 116690887.91747  90927958.31747  22205539.5634   22205543.8024   22205539.4204 
        53.000          47.000  
 107973852.58247  84135469.98547  20546739.5704   20546742.7314   20546739.2894 
        56.000          51.000  
 122813845.59447  95699081.98047  23370709.6064   23370715.6234   23370710.1184 
        47.000          42.000  
 130567675.94647 101741048.72147  24846199.8204   24846205.0444   24846199.8544 
        43.000          36.000  
 111743645.93347  87072951.28147  21264125.4094   21264130.3544   21264125.1104 
        52.000          46.000  
 125911829.28747  98113084.83947  23960245.9544   23960251.0784   23960245.3044 
        46.000          40.000  
 10  1 15 19  1  9.0000000  0 10G02G04G05G09G12G15G17G18G27G30
 123946461.04547  96581649.09047  23586233.5344   23586237.6064   23586233.7714 
        47.000          41.000  
 129210487.36447 100683491.61947  24587938.4404   24587945.0024   24587939.5184 
        46.000          39.000  
 131295716.41147 102308322.21747  24984764.1784   24984774.1864   24984763.0624 
        42.000          39.000  
 119569084.39847  93170708.49247  22753243.7634   22753249.7624   22753243.8304 
        52.000          46.000  
 116690412.95747  90927588.21847  22205449.4544   22205453.3604   22205449.0534 
        53.000          47.000  
 107974896.73747  84136283.60947  20546938.2194   20546941.6184   20546937.9534 
        56.000          51.000  
 122816877.26647  95701444.32047  23371287.5414   23371293.1864   23371286.7704 
        47.000          42.000  
 130568127.77947 101741400.80147  24846284.5794   24846290.7754   24846285.9624 
        43.000          36.000  
 111742056.76747  87071712.97247  21263821.9884   21263827.6524   21263822.7044 
        52.000          46.000  
 125910660.45047  98112174.06047  23960022.9464   23960029.0204   23960022.8054 
        46.000          39.000  
 10  1 15 19  1 10.0000000  0 10G02G04G05G09G12G15G17G18G27G30
 123944559.88447  96580167.67147  23585870.9554   23585876.5484   23585871.7144 
        46.000          41.000  
 129209645.89547 100682835.92647  24587778.6884   24587786.5974   24587779.1534 
        45.000          39.000  
 131297747.15647 102309904.61347  24985150.9724   24985160.0884   24985149.2894 
        43.000          39.000  
 119567275.05347  93169298.61547  22752899.0794   22752904.6514   22752899.4134 
        51.000          46.000  
 116689938.14047  90927218.22947  22205358.7464   22205363.2644   22205358.7974 
        53.000          47.000  
 107975941.42847  84137097.65447  20547136.8714   20547140.3634   20547136.7814 
        56.000          51.000  
 122819909.19147  95703806.85547  23371864.5184   23371869.9924   23371863.6394 
        48.000          42.000  
 130568579.85147 101741753.06547  24846369.9244   24846377.5934   24846371.9384 
        43.000          36.000  
 111740467.68147  87070474.72447  21263520.2184   21263525.8934   21263520.2814 
        52.000          46.000  
 125909491.75447  98111263.39047  23959800.5274   23959806.9844   23959800.4494 
        46.000          39.000  
 10  1 15 19  1 11.0000000  0 10G02G04G05G09G12G15G17G18G27G30
 123942658.65847  96578686.20747  23585509.3624   23585514.4674   23585509.7894 
        47.000          41.000  
 129208804.55747 100682180.33547  24587618.1224   24587626.0124   24587618.9094 
        45.000          39.000  
 131299777.57947 102311486.75847  24985538.0524   24985546.4914   24985536.1714 
        42.000          39.000  
 119565465.59447  93167888.64747  22752554.3554   22752560.6854   22752555.0884 
        52.000          46.000  
 116689463.52347  90926848.39947  22205268.5794   22205272.6514   22205268.5344 
        53.000          47.000  
 107976986.69647  84137912.14847  20547335.9644   20547339.0304   20547335.7024 
        56.000          51.000  
 122822941.37747  95706169.59347  23372442.2264   23372447.9454   23372440.8584 
        47.000          42.000  
 130569032.20247 101742105.54947  24846455.1254   24846463.0014   24846457.9694 
        44.000          36.000  
 111738878.70847  87069236.56447  21263217.3654   21263222.9004   21263217.7984 
        52.000          46.000  
 125908323.24647  98110352.86447  23959578.4364   23959584.2104   23959577.9894 
        46.000          39.000  
 10  1 15 19  1 12.0000000  0 10G02G04G05G09G12G15G17G18G27G30
 123940757.43247  96577204.74447  23585148.5614   23585152.9644   23585148.3324 
        47.000          41.000  
 129207963.41247 100681524.89747  24587458.0894   24587465.6914   24587458.6844 
        45.000          39.000  
 131301807.73447 102313068.69347  24985924.7804   24985932.1704   24985922.6414 
        41.000          39.000  
 119563656.07647  93166478.63447  22752210.7204   22752216.2254   22752210.7234 
        51.000          46.000  
 116688989.15947  90926478.76447  22205178.2174   22205181.8224   22205178.3054 
        53.000          47.000  
 107978032.59947  84138727.13847  20547534.9114   20547538.0974   20547534.7224 
        56.000          51.000  
 122825973.92247  95708532.61347  23373018.6104   23373024.7574   23373018.1464 
        47.000          42.000  
 130569484.92547 101742458.32347  24846542.3214   24846548.7404   24846544.2594 
        43.000          36.000  
 111737289.90247  87067998.53447  21262915.1944   21262920.6294   21262915.5214 
        52.000          46.000  
 125907154.97447  98109442.52347  23959355.9794   23959362.9504   23959355.6404 
        46.000          39.000  
 10  1 15 19  1 13.0000000  0 10G02G04G05G09G12G15G17G18G27G30
 123938856.26647  96575723.32647  23584787.0084   23584791.5074   23584786.7944 
        47.000          41.000  
 129207122.50547 100680869.64747  24587297.1704   24587305.5814   24587298.6674 
        45.000          39.000  
 131303837.65347 102314650.44547  24986311.3734   24986318.3834   24986308.7344 
        42.000          39.000  
 119561846.55047  93165068.61647  22751866.2814   22751871.0124   22751866.3104 
        52.000          46.000  
 116688515.09247  90926109.35947  22205087.9684   22205092.5174   22205088.0194 
        53.000          47.000  
 107979079.18047  84139542.65547  20547734.2904   20547737.3604   20547733.9234 
        56.000          51.000  
 122829006.86747  95710895.94547  23373595.0824   23373601.4964   23373595.4974 
        47.000          42.000  
 130569937.98747 101742811.36147  24846629.3874   24846634.7024   24846630.3234 
        44.000          36.000  
 111735701.33047  87066760.68847  21262612.4644   21262618.4044   21262613.1594 
        52.000          46.000  
 125905986.99947  98108532.41447  23959134.7614   23959140.1104   23959133.3634 
        46.000          39.000  
 10  1 15 19  1 14.0000000  0 10G02G04G05G09G12G15G17G18G27G30
 123936955.03247  96574241.85347  23584426.2584   23584429.5944   23584425.4844 
        47.000          41.000  
 129206281.75947 100680214.52247  24587138.0334   24587145.5794   24587138.8544 
        46.000          39.000  
 131305867.20447 102316231.91147  24986697.2764   24986704.6394   24986695.2604 
        42.000          39.000  
 119560036.89947  93163658.50147  22751521.5904   22751527.2674   22751521.9394 
        52.000          46.000  
 116688041.23047  90925740.11647  22204998.0154   22205002.0584   22204997.8744 
        53.000          47.000  
 107980126.34947  84140358.63247  20547933.3314   20547936.7034   20547933.2044 
        56.000          51.000  
 122832040.10047  95713259.50147  23374171.9264   23374178.5834   23374172.6574 
        47.000          42.000  
 130570391.37047 101743164.64847  24846715.9804   24846720.8634   24846716.7234 
        43.000          36.000  
 111734112.86647  87065522.92547  21262310.6204   21262316.3674   21262310.9464 
        52.000          46.000  
 125904819.20547  98107622.44747  23958912.3264   23958917.5424   23958911.1984 
        46.000          39.000  
 10  1 15 19  1 15.0000000  0 10G02G04G05G09G12G15G17G18G27G30
 123935053.72747  96572760.31847  23584064.0314   23584067.3654   23584063.9214 
        47.000          41.000  
 129205441.14747 100679559.50347  24586977.5434   24586985.3414   24586979.1994 
        46.000          39.000  
 131307896.45347 102317813.14047  24987082.6334   24987090.4074   24987081.2104 
        41.000          39.000  
 119558227.12747  93162248.28947  22751177.4584   22751183.2964   22751177.6014 
        52.000          46.000  
 116687567.56047  90925371.02147  22204907.3054   22204911.6784   22204907.7384 
        53.000          47.000  
 107981174.07947  84141175.04547  20548132.8314   20548136.2334   20548132.6204 
        56.000          51.000  
 122835073.63547  95715623.29547  23374748.9984   23374756.3384   23374749.6854 
        47.000          42.000  
 130570845.03547 101743518.15747  24846802.7224   24846808.6904   24846803.0604 
        43.000          36.000  
 111732524.52447  87064285.25647  21262007.9954   21262013.4234   21262008.6704 
        52.000          46.000  
 125903651.58047  98106712.60847  23958688.8804   23958696.6124   23958689.0314 
        46.000          39.000  
 10  1 15 19  1 16.0000000  0 10G02G04G05G09G12G15G17G18G27G30
 123933152.43947  96571278.79547  23583701.6774   23583705.6364   23583702.3894 
        47.000          41.000  
 129204600.73147 100678904.63447  24586818.7374   24586825.8364   24586819.6834 
        47.000          39.000  
 131309925.44547 102319394.17047  24987468.7854   24987476.6724   24987467.0924 
        41.000          39.000  
 119556417.32147  93160838.05347  22750832.9294   22750837.9814   22750833.1474 
        52.000          46.000  
 116687094.16047  90925002.13747  22204817.2564   22204821.6454   22204817.6634 
        53.000          47.000  
 107982222.47747  84141991.97847  20548332.3864   20548335.4584   20548332.1654 
        56.000          51.000  
 122838107.52947  95717987.36447  23375327.4964   23375333.1094   23375326.9434 
        46.000          42.000  
 130571299.06047 101743871.94347  24846888.4224   24846896.0714   24846889.6784 
        42.000          36.000  
 111730936.37847  87063047.73947  21261706.5454   21261712.2754   21261706.4644 
        52.000          46.000  
 125902484.22847  98105802.98347  23958466.8424   23958474.0714   23958466.9734 
        46.000          40.000  
 10  1 15 19  1 17.0000000  0 10G02G04G05G09G12G15G17G18G27G30
 123931251.07847  96569797.21047  23583339.0594   23583343.7194   23583340.2324 
        46.000          41.000  
 129203760.48047 100678249.89247  24586659.6824   24586665.9964   24586660.4144 
        46.000          39.000  
 131311954.07747 102320974.91947  24987855.3304   24987862.9184   24987853.5444 
        42.000          39.000  
 119554607.40147  93159427.73047  22750488.9504   22750494.2224   22750488.6974 
        52.000          46.000  
 116686620.96247  90924633.41047  22204727.7154   22204731.5074   22204727.5524 
        53.000          47.000  
 107983271.44647  84142809.35447  20548531.6594   20548535.1434   20548531.8054 
        56.000          51.000  
 122841141.75747  95720351.69547  23375904.2204   23375910.5714   23375904.3754 
        47.000          42.000  
 130571753.37047 101744225.94947  24846975.0034   24846981.5534   24846975.9814 
        43.000          36.000  
 111729348.35147  87061810.31647  21261403.8074   21261409.9564   21261404.2634 
        52.000          46.000  
 125901317.06147  98104893.50147  23958244.9964   23958252.0494   23958244.8304 
        46.000          39.000  
 10  1 15 19  1 18.0000000  0 10G02G04G05G09G12G15G17G18G27G30
 123929349.76547  96568315.66347  23582977.3264   23582982.7244   23582978.1944 
        46.000          41.000  
 129202920.45047 100677595.32247  24586499.0264   24586506.4144   24586500.6024 
        45.000          39.000  
 131313982.47347 102322555.48447  24988241.0384   24988248.9144   24988239.7864 
        42.000          39.000  
 119552797.46147  93158017.38847  22750143.5824   22750149.4114   22750144.2364 
        52.000          46.000  
 116686148.05747  90924264.91347  22204637.8894   22204641.9744   22204637.5274 
        53.000          47.000  
 107984321.09647  84143627.26447  20548731.5104   20548734.9714   20548731.4974 
        56.000          51.000  
 122844176.33547  95722716.29747  23376482.4194   23376488.2874   23376481.9164 
        47.000          42.000  
 130572208.07547 101744580.26547  24847062.2694   24847067.8424   24847062.5104 
        43.000          36.000  
 111727760.53547  87060573.05947  21261102.0944   21261107.4134   21261102.1704 
        52.000          46.000  
 125900150.17147  98103984.23547  23958023.0784   23958030.2964   23958022.8314 
        46.000          40.000  
 10  1 15 19  1 19.0000000  0 10G02G04G05G09G12G15G17G18G27G30
 123927448.39747  96566834.07147  23582615.0044   23582620.3614   23582615.8044 
        46.000          41.000  
 129202080.56147 100676940.86047  24586338.5024   24586345.1944   24586339.9784 
        45.000          39.000  
 131316010.55547 102324135.80547  24988626.3504   24988634.8364   24988626.0204 
        42.000          39.000  
 119550987.42247  93156606.97147  22749799.8674   22749804.2704   22749799.8174 
        51.000          46.000  
 116685675.36747  90923896.58147  22204547.8444   22204552.0444   22204547.6304 
        53.000          47.000  
 107985371.33147  84144445.62847  20548931.1184   20548934.7364   20548931.3094 
        56.000          51.000  
 122847211.23447  95725081.15047  23377059.6924   23377065.3414   23377059.4704 
        47.000          42.000  
 130572663.05647 101744934.79547  24847148.0334   24847153.7514   24847148.9364 
        43.000          36.000  
 111726172.85747  87059335.90947  21260799.8014   21260805.5764   21260799.9974 
        52.000          46.000  
 125898983.49347  98103075.13647  23957801.7084   23957807.6704   23957800.6424 
        46.000          39.000  
 10  1 15 19  1 20.0000000  0 10G02G04G05G09G12G15G17G18G27G30
 123925547.04247  96565352.49347  23582254.2024   23582257.8784   23582253.4954 
        46.000          41.000  
 129201240.89547 100676286.57447  24586178.6694   24586185.6114   24586179.6604 
        46.000          39.000  
 131318038.36847 102325715.91647  24989012.3484   24989020.6244   24989011.8444 
        42.000          39.000  
 119549177.33047  93155196.51147  22749454.9834   22749460.3694   22749455.3064 
        52.000          46.000  
 116685202.93847  90923528.45547  22204457.9094   22204462.1424   22204457.7664 
        53.000          47.000  
 107986422.21147  84145264.49447  20549131.4694   20549134.7394   20549131.2884 
        56.000          51.000  
 122850246.49447  95727446.28347  23377637.0604   23377642.3454   23377637.2024 
        47.000          42.000  
 130573118.39047 101745289.60147  24847234.3674   24847240.7484   24847235.3354 
        43.000          36.000  
 111724585.35947  87058098.89747  21260497.9514   21260503.3984   21260497.9034 
        52.000          46.000  
 125897817.06247  98102166.22647  23957579.8694   23957585.3624   23957578.6744 
        46.000          39.000  
 10  1 15 19  1 21.0000000  0 10G02G04G05G09G12G15G17G18G27G30
 123923645.63547  96563870.87747  23581892.0804   23581896.5064   23581891.3894 
        46.000          41.000  
 129200401.38247 100675632.40747  24586019.6864   24586025.4264   24586020.0164 
        46.000          39.000  
 131320065.86347 102327295.78047  24989398.3144   24989406.1254   24989397.5354 
        43.000          39.000  
 119547367.12747  93153785.96447  22749110.6474   22749116.3424   22749110.7724 
        51.000          46.000  
 116684730.71747  90923160.49147  22204367.9114   22204372.1634   22204367.9224 
        53.000          47.000  
 107987473.67747  84146083.81747  20549331.7844   20549334.8024   20549331.4124 
        56.000          51.000  
 122853282.05447  95729811.64747  23378214.8214   23378220.0944   23378214.9674 
        47.000          42.000  
 130573574.03147 101745644.64647  24847321.9094   24847327.1794   24847322.0744 
        43.000          36.000  
 111722997.98147  87056861.98147  21260195.3504   21260201.5384   21260195.7154 
        52.000          46.000  
 125896650.81547  98101257.46047  23957357.3144   23957363.9404   23957356.6554 
        46.000          40.000  
 10  1 15 19  1 22.0000000  0 10G02G04G05G09G12G15G17G18G27G30
 123921744.27647  96562389.30047  23581530.0284   23581534.6084   23581529.4564 
        47.000          41.000  
 129199562.11547 100674978.43047  24585860.2184   24585867.3104   24585860.9074 
        47.000          39.000  
 131322093.12847 102328875.46547  24989783.9944   24989792.4434   24989783.6914 
        42.000          39.000  
 119545556.91247  93152375.40847  22748766.0004   22748771.7884   22748766.3804 
        52.000          46.000  
 116684258.79847  90922792.76347  22204277.6544   22204281.7944   22204278.0734 
        53.000          47.000  
 107988525.82847  84146903.67547  20549531.5964   20549535.1034   20549531.5994 
        56.000          51.000  
 122856317.99647  95732177.31247  23378791.9634   23378798.4064   23378792.6144 
        46.000          42.000  
 130574030.05747 101745999.99147  24847409.1664   24847414.1414   24847408.7824 
        43.000          36.000  
 111721410.83547  87055625.24547  21259893.8134   21259899.1474   21259893.7644 
        52.000          46.000  
 125895484.87247  98100348.93147  23957134.7554   23957141.5284   23957134.6074 
        46.000          40.000  
 10  1 15 19  1 23.0000000  0 10G02G04G05G09G12G15G17G18G27G30
 123919842.81547  96560907.64447  23581169.1284   23581173.0784   23581167.8254 
        47.000          41.000  
 129198722.94847 100674324.53247  24585700.9174   24585707.4354   24585701.5944 
        46.000          39.000  
 131324120.01447 102330454.85547  24990169.8884   24990177.6344   24990169.6214 
        43.000          39.000  
 119543746.54247  93150964.72947  22748421.3274   22748427.7424   22748421.8234 
        51.000          46.000  
 116683787.03847  90922425.15747  22204188.2824   22204192.2024   22204188.3564 
        53.000          47.000  
 107989578.52047  84147723.95447  20549732.0564   20549735.3774   20549731.8814 
        56.000          51.000  
 122859354.21947  95734543.19847  23379370.7314   23379376.2684   23379370.1514 
        47.000          42.000  
 130574486.32547 101746355.52247  24847495.7524   24847501.4924   24847495.4604 
        43.000          36.000  
 111719823.76347  87054388.56847  21259591.2824   21259597.7314   21259591.7104 
        52.000          46.000  
 125894319.06347  98099440.50747  23956912.5734   23956919.5434   23956912.9194 
        46.000          40.000  
 10  1 15 19  1 24.0000000  0 10G02G04G05G09G12G15G17G18G27G30
 123917941.45947  96559426.07147  23580806.6744   23580811.4314   23580806.2334 
        46.000          41.000  
 129197884.10447 100673670.88847  24585541.0014   24585548.3434   24585541.8464 
        45.000          39.000  
 131326146.74547 102332034.12347  24990555.5294   24990563.9194   24990555.5884 
        42.000          39.000  
 119541936.22247  93149554.09347  22748077.2034   22748082.7904   22748077.3294 
        52.000          46.000  
 116683315.64147  90922057.83647  22204098.5444   22204102.6444   22204098.6514 
        53.000          47.000  
 107990631.95147  84148544.81047  20549932.4614   20549935.8234   20549932.3184 
        56.000          51.000  
 122862390.88347  95736909.42747  23379948.9804   23379953.8614   23379947.9374 
        47.000          42.000  
 130574943.06647 101746711.42547  24847581.4254   24847588.5094   24847582.4814 
        43.000          36.000  
 111718236.97347  87053152.10847  21259289.5804   21259294.7474   21259289.7644 
        52.000          46.000  
 125893153.61747  98098532.37047  23956691.5544   23956697.6414   23956691.1214 
        46.000          40.000  
 10  1 15 19  1 25.0000000  0 10G02G04G05G09G12G15G17G18G27G30
 123916039.98347  96557944.40547  23580445.2014   23580449.9234   23580444.4234 
        46.000          41.000  
 129197045.29447 100673017.27147  24585380.9464   24585387.9264   24585381.7254 
        46.000          39.000  
 131328173.04647 102333613.05647  24990941.2844   24990949.4044   24990940.7914 
        42.000          39.000  
 119540125.71447  93148143.31147  22747732.5114   22747737.9854   22747732.8064 
        52.000          46.000  
 116682844.37647  90921690.61547  22204008.8214   22204013.5794   22204008.8474 
        53.000          47.000  
 107991685.89647  84149366.06547  20550133.1244   20550136.4114   20550132.8764 
        56.000          51.000  
 122865427.77947  95739275.83547  23380526.3324   23380531.9024   23380525.8374 
        48.000          42.000  
 130575400.00047 101747067.47847  24847667.9174   24847675.4404   24847669.4044 
        43.000          36.000  
 111716650.24047  87051915.69447  21258987.7684   21258993.3194   21258987.7354 
        52.000          46.000  
 125891988.28747  98097624.32347  23956470.4024   23956475.4444   23956469.3554 
        46.000          40.000  
 10  1 15 19  1 26.0000000  0 10G02G04G05G09G12G15G17G18G27G30
 123914138.47047  96556462.71147  23580083.1694   23580088.6174   23580082.4954 
        46.000          41.000  
 129196206.68847 100672363.81647  24585220.3244   24585227.8194   24585221.9234 
        46.000          39.000  
 131330199.07747 102335191.77847  24991327.7114   24991334.9434   24991326.7124 
        43.000          39.000  
 119538315.12347  93146732.46247  22747388.6194   22747393.6364   22747388.3154 
        52.000          46.000  
 116682373.33847  90921323.57347  22203919.3764   22203923.2554   22203919.2174 
        53.000          47.000  
 107992740.44747  84150187.79347  20550333.7434   20550336.9864   20550333.5134 
        56.000          51.000  
 122868464.99447  95741642.49247  23381102.6414   23381110.2054   23381103.7874 
        47.000          42.000  
 130575857.25747 101747423.78247  24847754.4784   24847762.7604   24847756.4184 
        42.000          36.000  
 111715063.65647  87050679.39647  21258685.2744   21258691.6064   21258685.8014 
        52.000          46.000  
 125890823.17647  98096716.44747  23956248.4024   23956255.7514   23956247.6844 
        46.000          39.000  
 10  1 15 19  1 27.0000000  0 10G02G04G05G09G12G15G17G18G27G30
 123912236.88147  96554980.95747  23579721.2984   23579726.5704   23579720.5934 
        46.000          41.000  
 129195368.21147 100671710.46147  24585061.2934   24585068.3794   24585062.3344 
        45.000          39.000  
 131332224.74147 102336770.21547  24991713.0544   24991720.9994   24991712.8894 
        42.000          39.000  
 119536504.40447  93145321.51247  22747043.4014   22747048.7934   22747043.7534 
        52.000          46.000  
 116681902.48547  90920956.67347  22203829.8474   22203833.4974   22203829.6014 
        53.000          47.000  
 107993795.56147  84151009.95847  20550534.6584   20550537.8214   20550534.3234 
        56.000          51.000  
 122871502.48547  95744009.36647  23381680.9784   23381688.4344   23381681.8624 
        47.000          42.000  
 130576314.79147 101747780.30147  24847841.6004   24847850.1164   24847843.5084 
        43.000          36.000  
 111713477.16947  87049443.17547  21258384.2124   21258389.9634   21258383.9754 
        52.000          46.000  
 125889658.23847  98095808.70647  23956026.2894   23956033.8154   23956025.9384 
        45.000          40.000  
 10  1 15 19  1 28.0000000  0 10G02G04G05G09G12G15G17G18G27G30
 123910335.39947  96553499.28847  23579358.7384   23579363.9154   23579358.5244 
        46.000          41.000  
 129194530.03447 100671057.33847  24584902.5664   24584909.3654   24584902.8504 
        46.000          39.000  
 131334250.22747 102338348.51347  24992098.4454   24992106.3934   24992098.0554 
        42.000          39.000  
 119534693.72247  93143910.59047  22746698.5834   22746704.1654   22746699.1964 
        52.000          46.000  
 116681431.99047  90920590.05447  22203740.2184   22203743.9674   22203740.0944 
        53.000          47.000  
 107994851.40647  84151832.69447  20550735.3554   20550738.8614   20550735.2304 
        56.000          51.000  
 122874540.44347  95746376.60547  23382260.4134   23382266.0654   23382260.0984 
        47.000          42.000  
 130576772.76947 101748137.16747  24847928.7614   24847936.0144   24847930.6254 
        43.000          36.000  
 111711890.96147  87048207.17247  21258081.9604   21258087.4544   21258082.1434 
        52.000          46.000  
 125888493.63647  98094901.22547  23955803.7174   23955812.6034   23955804.2834 
        46.000          39.000  
 10  1 15 19  1 29.0000000  0 10G02G04G05G09G12G15G17G18G27G30
 123908433.92247  96552017.62247  23578996.0704   23579003.1684   23578996.5624 
        46.000          41.000  
 129193692.04247 100670404.35847  24584743.3324   24584749.0134   24584743.0924 
        45.000          39.000  
 131336275.43147 102339926.59147  24992484.5974   24992491.3384   24992483.7034 
        43.000          39.000  
 119532882.99847  93142499.63847  22746354.1674   22746359.8934   22746354.6094 
        52.000          46.000  
 116680961.76447  90920223.64247  22203650.9704   22203655.5354   22203650.6464 
        53.000          47.000  
 107995907.90347  84152655.93947  20550936.5514   20550939.8334   20550936.2354 
        56.000          51.000  
 122877578.74147  95748744.10947  23382837.4434   23382843.8534   23382838.0564 
        47.000          42.000  
 130577231.10047 101748494.30847  24848016.4144   24848023.4484   24848017.9834 
        42.000          36.000  
 111710304.94947  87046971.31947  21257779.7594   21257786.1774   21257780.3204 
        52.000          46.000  
 125887329.29847  98093993.95147  23955581.6654   23955590.5834   23955582.8354 
        46.000          39.000  
 10  1 15 19  1 30.0000000  0 10G02G04G05G09G12G15G17G18G27G30
 123906532.38047  96550535.90647  23578634.9344   23578641.1364   23578634.5124 
        47.000          41.000  
 129192854.18547 100669751.48347  24584583.5294   24584589.9604   24584583.5334 
        45.000          39.000  
 131338300.30447 102341504.41347  24992870.0044   24992876.3764   24992869.3914 
        42.000          39.000  
 119531072.16247  93141088.60047  22746009.6224   22746015.3434   22746010.0274 
        52.000          46.000  
 116680491.74147  90919857.39047  22203561.3694   22203565.2424   22203561.1984 
        53.000          47.000  
 107996964.98347  84153479.63747  20551137.6624   20551140.9204   20551137.3914 
        56.000          51.000  
 122880617.36247  95751111.86347  23383416.0194   23383423.0104   23383416.0814 
        46.000          42.000  
 130577689.73947 101748851.69047  24848103.5584   24848111.0054   24848105.2664 
        42.000          36.000  
 111708719.04747  87045735.55247  21257478.5064   21257483.8774   21257478.4964 
        52.000          46.000  
 125886165.13447  98093086.81147  23955360.1014   23955369.4214   23955361.1784 
        46.000          39.000  
 10  1 15 19  1 31.0000000  0 10G02G04G05G09G12G15G17G18G27G30
 123904630.95247  96549054.27847  23578272.5934   23578278.7194   23578272.7414 
        46.000          41.000  
 129192016.62447 100669098.83947  24584423.8714   24584430.7264   24584424.1564 
        46.000          39.000  
 131340325.03447 102343082.12147  24993254.6054   24993261.2104   24993254.1824 
        43.000          39.000  
 119529261.36047  93139677.58747  22745664.9884   22745670.6694   22745665.4424 
        52.000          46.000  
 116680022.05347  90919491.39947  22203471.8224   22203475.9234   22203471.8024 
        53.000          47.000  
 107998022.77847  84154303.89347  20551338.7354   20551342.2914   20551338.6334 
        56.000          51.000  
 122883656.41347  95753479.94947  23383994.8444   23384000.5154   23383994.2494 
        47.000          42.000  
 130578148.79147 101749209.39247  24848189.5074   24848198.9854   24848192.4904 
        42.000          36.000  
 111707133.41847  87044499.99847  21257177.0024   21257182.3054   21257176.7584 
        52.000          46.000  
 125885001.31447  98092179.93747  23955140.1014   23955147.1454   23955139.9224 
        46.000          39.000  
 10  1 15 19  1 32.0000000  0 10G02G04G05G09G12G15G17G18G27G30
 123902729.39447  96547572.54747  23577911.9314   23577917.5524   23577910.9914 
        47.000          41.000  
 129191179.16647 100668446.27447  24584266.1864   24584271.9874   24584265.3894 
        46.000          39.000  
 131342349.32747 102344659.48847  24993640.5404   24993646.8584   24993639.3544 
        42.000          39.000  
 119527450.37647  93138266.43147  22745320.3614   22745325.4904   22745320.8244 
        52.000          46.000  
 116679552.50147  90919125.51347  22203382.5144   22203386.5914   22203382.4274 
        53.000          47.000  
 107999081.10147  84155128.55947  20551540.1904   20551543.6024   20551540.0054 
        56.000          51.000  
 122886695.66447  95755848.19247  23384572.8204   23384578.4014   23384572.6274 
        47.000          42.000  
 130578608.04847 101749567.25347  24848278.5774   24848286.1614   24848279.8844 
        43.000          36.000  
 111705547.85147  87043264.49247  21256874.8934   21256880.7064   21256875.0304 
        52.000          46.000  
 125883837.62147  98091273.15947  23954919.1774   23954925.0614   23954918.5184 
        46.000          39.000  
 10  1 15 19  1 33.0000000  0 10G02G04G05G09G12G15G17G18G27G30
 123900827.71447  96546090.72047  23577550.8184   23577555.5424   23577549.2934 
        47.000          41.000  
 129190341.79747 100667793.77647  24584107.7654   24584112.5734   24584106.6704 
        46.000          39.000  
 131344373.21047 102346236.53647  24994025.9404   24994032.0424   24994024.6344 
        44.000          39.000  
 119525639.21147  93136855.13447  22744975.6584   22744981.7714   22744976.0894 
        51.000          46.000  
 116679083.08847  90918759.73547  22203293.2664   22203297.3644   22203293.1334 
        53.000          47.000  
 108000139.93847  84155953.62647  20551742.0504   20551745.1554   20551741.4244 
        56.000          51.000  
 122889735.16147  95758216.62747  23385151.6584   23385157.1444   23385151.2594 
        47.000          42.000  
 130579067.55647 101749925.31147  24848366.0544   24848372.7644   24848367.2954 
        42.000          36.000  
 111703962.33647  87042029.02447  21256572.6404   21256578.8454   21256573.3404 
        52.000          46.000  
 125882674.04847  98090366.47847  23954697.8314   23954703.9214   23954697.2074 
        46.000          39.000  
 10  1 15 19  1 34.0000000  0 10G02G04G05G09G12G15G17G18G27G30
 123898926.12547  96544608.96447  23577189.1544   23577193.0204   23577187.8164 
        47.000          41.000  
 129189504.67647 100667141.47147  24583947.7464   24583953.0864   24583947.4724 
        45.000          39.000  
 131346396.92647 102347813.45347  24994410.8564   24994417.5024   24994409.5964 
        43.000          39.000  
 119523828.08547  93135443.87047  22744630.7634   22744636.7384   22744631.4624 
        51.000          46.000  
 116678614.01847  90918394.22747  22203203.8584   22203207.9484   22203203.8864 
        53.000          47.000  
 108001199.49747  84156779.25647  20551943.3184   20551946.7754   20551943.0604 
        56.000          51.000  
 122892775.08947  95760585.39747  23385729.6344   23385736.2284   23385729.9354 
        46.000          42.000  
 130579527.49147 101750283.70347  24848454.0584   24848460.5574   24848455.0934 
        43.000          36.000  
 111702377.08047  87040793.75947  21256271.5164   21256277.3934   21256271.7494 
        52.000          46.000  
 125881510.78947  98089460.03847  23954475.5214   23954482.1734   23954475.9764 
        46.000          39.000  
 10  1 15 19  1 35.0000000  0 10G02G04G05G09G12G15G17G18G27G30
 123897024.48947  96543127.16847  23576825.9744   23576830.7064   23576826.1924 
        47.000          41.000  
 129188667.67547 100666489.25847  24583786.6264   24583792.2524   24583787.4164 
        45.000          39.000  
 131348420.31147 102349390.11347  24994796.4274   24994803.5284   24994795.1754 
        43.000          39.000  
 119522016.85447  93134032.52247  22744286.6104   22744292.0674   22744286.8054 
        52.000          46.000  
 116678145.15747  90918028.88047  22203114.9464   22203118.7764   22203114.6814 
        53.000          47.000  
 108002259.65147  84157605.34947  20552145.0834   20552148.3544   20552144.8314 
        56.000          51.000  
 122895815.32747  95762954.40847  23386307.9994   23386314.9794   23386308.5184 
        47.000          42.000  
 130579987.71147 101750642.31647  24848540.7604   24848548.4824   24848542.7274 
        43.000          36.000  
 111700791.96447  87039558.60347  21255970.2344   21255975.6134   21255970.0954 
        52.000          46.000  
 125880347.74647  98088553.76847  23954254.9304   23954260.7684   23954254.6724 
        46.000          39.000  
 10  1 15 19  1 36.0000000  0 10G02G04G05G09G12G15G17G18G27G30
 123895122.86747  96541645.38347  23576465.7644   23576468.5084   23576464.4294 
        47.000          41.000  
 129187830.89547 100665837.22147  24583626.2254   24583632.9044   24583627.3014 
        45.000          39.000  
 131350443.43447 102350966.56847  24995180.8904   24995187.6104   24995180.3534 
        42.000          39.000  
 119520205.57447  93132621.13647  22743941.8004   22743947.3974   22743942.2124 
        51.000          46.000  
 116677676.56247  90917663.74147  22203025.3084   22203029.4934   22203025.5564 
        53.000          47.000  
 108003320.45147  84158431.94647  20552347.1534   20552350.2814   20552346.7094 
        56.000          51.000  
 122898855.94547  95765323.71747  23386887.6724   23386892.9014   23386887.1664 
        46.000          42.000  
 130580448.31347 101751001.22847  24848627.4264   24848636.1634   24848630.0584 
        42.000          36.000  
 111699207.03247  87038323.59147  21255668.1234   21255673.8304   21255668.4854 
        52.000          46.000  
 125879184.94647  98087647.68947  23954032.0064   23954040.1804   23954033.3574 
        46.000          39.000  
 10  1 15 19  1 37.0000000  0 10G02G04G05G09G12G15G17G18G27G30
 123893221.20147  96540163.56347  23576103.9484   23576107.1344   23576102.7114 
        47.000          41.000  
 129186994.29947 100665185.32747  24583467.5454   24583474.9684   24583468.0584 
        46.000          39.000  
 131352466.22847 102352542.76847  24995565.2604   24995571.8654   24995565.2834 
        43.000          39.000  
 119518394.20447  93131209.67947  22743596.8734   22743602.9334   22743597.5764 
        52.000          46.000  
 116677208.18647  90917298.77447  22202936.1794   22202940.8424   22202936.3824 
        53.000          47.000  
 108004381.85047  84159259.00847  20552548.9174   20552552.4304   20552548.7574 
        56.000          51.000  
 122901896.85847  95767693.25347  23387465.4784   23387471.2924   23387465.6764 
        47.000          42.000  
 130580909.21847 101751360.37647  24848714.8934   24848724.0214   24848717.9254 
        42.000          36.000  
 111697622.24247  87037088.69047  21255366.0764   21255372.4554   21255367.0004 
        52.000          46.000  
 125878022.36847  98086741.78647  23953812.1924   23953819.1564   23953812.1104 
        46.000          39.000  
 10  1 15 19  1 38.0000000  0 10G02G04G05G09G12G15G17G18G27G30
 123891319.46547  96538681.68847  23575740.8984   23575743.9014   23575740.8624 
        47.000          41.000  
 129186157.84547 100664533.54347  24583308.8344   24583315.3284   24583309.2694 
        46.000          39.000  
 131354488.70947 102354118.72347  24995950.0044   24995956.9944   24995950.1344 
        42.000          39.000  
 119516582.70947  93129798.12447  22743252.4304   22743257.8174   22743252.9234 
        51.000          46.000  
 116676740.01447  90916933.96547  22202847.0124   22202851.3194   22202847.2454 
        53.000          47.000  
 108005443.82847  84160086.52447  20552751.0614   20552754.4014   20552750.8404 
        56.000          51.000  
 122904938.08347  95770063.03447  23388043.6834   23388050.6364   23388044.3014 
        46.000          42.000  
 130581370.42347 101751719.75647  24848803.1354   24848810.9544   24848805.6184 
        41.000          36.000  
 111696037.56947  87035853.88247  21255065.7034   21255071.0984   21255065.4624 
        52.000          46.000  
 125876859.95447  98085836.01247  23953591.5994   23953597.7294   23953590.8794 
        46.000          39.000  
 10  1 15 19  1 39.0000000  0 10G02G04G05G09G12G15G17G18G27G30
 123889417.78047  96537199.85347  23575378.4724   23575383.1034   23575378.7714 
        46.000          41.000  
 129185321.60947 100663881.93047  24583149.6254   24583155.7874   24583150.2854 
        46.000          39.000  
 131356510.92247 102355694.47147  24996335.3024   24996341.6244   24996334.8974 
        44.000          39.000  
 119514771.19647  93128386.55947  22742907.6444   22742913.5104   22742908.1624 
        51.000          46.000  
 116676272.12047  90916569.37247  22202758.0574   22202762.1184   22202758.2974 
        53.000          47.000  
 108006506.47547  84160914.56047  20552953.3574   20552956.7804   20552953.0394 
        56.000          51.000  
 122907979.66447  95772433.09347  23388623.8174   23388628.5664   23388622.8774 
        46.000          42.000  
 130581831.94847 101752079.38947  24848890.2194   24848898.2874   24848893.5284 
        42.000          36.000  
 111694453.09347  87034619.22747  21254763.5494   21254769.0594   21254763.9114 
        52.000          46.000  
 125875697.83147  98084930.46347  23953370.2024   23953376.8844   23953369.5824 
        46.000          39.000  
 10  1 15 19  1 40.0000000  0 10G02G04G05G09G12G15G17G18G27G30
 123887516.11847  96535718.04047  23575016.2154   23575020.8844   23575016.3674 
        46.000          41.000  
 129184485.61447 100663230.50447  24582991.2164   24582996.1244   24582991.3154 
        46.000          39.000  
 131358532.88947 102357270.02847  24996719.8244   24996726.4374   24996719.5494 
        44.000          39.000  
 119512959.65347  93126974.96847  22742562.3754   22742568.3604   22742563.3744 
        52.000          46.000  
 116675804.51647  90916205.00547  22202669.1144   22202672.8584   22202669.3254 
        53.000          47.000  
 108007569.79747  84161743.12247  20553155.6224   20553159.0824   20553155.4444 
        56.000          51.000  
 122911021.62647  95774803.45147  23389202.0854   23389208.4794   23389201.7074 
        46.000          42.000  
 130582293.89347 101752439.34947  24848979.1764   24848986.7734   24848981.1064 
        42.000          36.000  
 111692868.84247  87033384.74647  21254462.6564   21254468.0604   21254462.5014 
        52.000          46.000  
 125874535.97447  98084025.12447  23953149.1134   23953155.2264   23953148.3014 
        45.000          39.000  
 10  1 15 19  1 41.0000000  0 10G02G04G05G09G12G15G17G18G27G30
 123885614.44947  96534236.22247  23574654.7374   23574659.1954   23574653.9444 
        46.000          41.000  
 129183649.84147 100662579.25147  24582833.1324   24582838.8054   24582832.5444 
        45.000          39.000  
 131360554.56647 102358845.35947  24997104.3044   24997111.5344   24997104.1584 
        43.000          39.000  
 119511148.05647  93125563.33447  22742218.4164   22742223.3644   22742218.5064 
        52.000          46.000  
 116675337.16847  90915840.83847  22202580.2134   22202584.7134   22202580.4134 
        53.000          47.000  
 108008633.75247  84162572.17747  20553358.0224   20553361.3934   20553357.9284 
        56.000          51.000  
 122914063.93847  95777174.08247  23389780.1334   23389786.7894   23389780.7614 
        46.000          42.000  
 130582756.16547 101752799.56147  24849068.3724   24849074.9994   24849068.9454 
        42.000          36.000  
 111691284.77247  87032150.41047  21254161.1834   21254166.4764   21254161.1634 
        52.000          46.000  
 125873374.36047  98083119.97247  23952927.5844   23952933.9604   23952927.2644 
        46.000          39.000  
 10  1 15 19  1 42.0000000  0 10G02G04G05G09G12G15G17G18G27G30
 123883712.68347  96532754.33047  23574292.3564   23574298.0264   23574291.7174 
        46.000          41.000  
 129182814.15247 100661928.06347  24582672.9564   24582678.8324   24582673.6624 
        45.000          39.000  
 131362575.88847 102360420.41447  24997489.1084   24997495.6184   24997488.4174 
        42.000          39.000  
 119509336.29447  93124151.57247  22741873.4464   22741879.3054   22741873.7914 
        51.000          46.000  
 116674869.97047  90915476.78647  22202491.4684   22202495.7734   22202491.5014 
        53.000          47.000  
 108009698.23747  84163401.64547  20553560.5994   20553564.1494   20553560.5314 
        56.000          51.000  
 122917106.52547  95779544.92847  23390360.1164   23390366.0464   23390359.9004 
        47.000          42.000  
 130583218.67047 101753159.95547  24849156.1164   24849163.6694   24849156.9714 
        41.000          36.000  
 111689700.77047  87030916.12547  21253859.2604   21253864.5814   21253859.8224 
        52.000          46.000  
 125872212.90847  98082214.94847  23952706.1694   23952713.0554   23952706.3554 
        46.000          39.000  
 10  1 15 19  1 43.0000000  0 10G02G04G05G09G12G15G17G18G27G30
 123881810.87547  96531272.40847  23573930.5334   23573935.6024   23573929.5694 
        46.000          41.000  
 129181978.62747 100661277.00347  24582513.8904   24582519.8324   24582514.2704 
        45.000          39.000  
 131364596.89847 102361995.22747  24997873.6474   24997879.7704   24997872.9924 
        43.000          39.000  
 119507524.45547  93122739.75347  22741528.8344   22741534.5734   22741528.9744 
        51.000          46.000  
 116674402.99747  90915112.91147  22202402.6344   22202406.5924   22202402.5444 
        53.000          47.000  
 108010763.33047  84164231.58847  20553763.4054   20553766.6854   20553763.1954 
        56.000          51.000  
 122920149.38447  95781915.98347  23390938.0124   23390944.4734   23390938.8564 
        46.000          42.000  
 130583681.51247 101753520.61447  24849243.5294   24849250.7104   24849245.1704 
        42.000          36.000  
 111688116.92347  87029681.95947  21253558.4104   21253563.2994   21253558.2854 
        52.000          46.000  
 125871051.64747  98081310.07047  23952484.2624   23952492.1404   23952485.3024 
        46.000          39.000  
 10  1 15 19  1 44.0000000  0 10G02G04G05G09G12G15G17G18G27G30
 123879909.08947  96529790.50247  23573569.6674   23573574.1864   23573567.6744 
        46.000          41.000  
 129181143.26547 100660626.06747  24582354.0994   24582360.7864   24582354.8434 
        45.000          39.000  
 131366617.61347 102363569.80947  24998258.7374   24998265.2164   24998257.8474 
        44.000          39.000  
 119505712.54247  93121327.87747  22741184.4514   22741189.1604   22741184.1274 
        52.000          46.000  
 116673936.26547  90914749.22547  22202313.7304   22202317.6634   22202313.7564 
        53.000          47.000  
 108011829.04547  84165062.01547  20553966.0734   20553969.5744   20553966.0024 
        56.000          51.000  
 122923192.60547  95784287.32147  23391517.6794   23391524.4904   23391517.8094 
        47.000          42.000  
 130584144.65947 101753881.50947  24849331.0824   24849339.6074   24849333.2024 
        41.000          36.000  
 111686533.23447  87028447.91547  21253256.2814   21253262.8174   21253256.9414 
        52.000          46.000  
 125869890.62347  98080405.37547  23952264.7464   23952269.9564   23952264.3434 
        46.000          39.000  
 10  1 15 19  1 45.0000000  0 10G02G04G05G09G12G15G17G18G27G30
 123878007.37747  96528308.65447  23573207.6854   23573213.0584   23573206.1584 
        48.000          41.000  
 129180308.22247 100659975.38047  24582195.5704   24582202.5464   24582195.5034 
        45.000          39.000  
 131368638.14947 102365144.25347  24998642.7464   24998649.6044   24998642.3314 
        42.000          39.000  
 119503900.68547  93119916.03947  22740838.9784   22740844.4484   22740839.2914 
        51.000          46.000  
 116673469.89347  90914385.81747  22202224.8274   22202229.3394   22202224.9824 
        53.000          47.000  
 108012895.49847  84165893.01647  20554169.2484   20554172.4594   20554168.9144 
        56.000          51.000  
 122926236.28347  95786659.01647  23392097.0944   23392103.5504   23392097.0464 
        47.000          42.000  
 130584608.26447 101754242.76147  24849421.0364   24849427.8454   24849421.4024 
        42.000          36.000  
 111684949.84447  87027214.10647  21252955.2604   21252961.2684   21252955.6644 
        52.000          46.000  
 125868729.93747  98079500.94147  23952043.9934   23952050.3894   23952043.4464 
        46.000          39.000  
 10  1 15 19  1 46.0000000  0 10G02G04G05G09G12G15G17G18G27G30
 123876105.58847  96526826.74647  23572846.2144   23572851.2584   23572844.8804 
        47.000          41.000  
 129179473.30647 100659324.79547  24582037.4194   24582045.2974   24582036.7674 
        46.000          39.000  
 131370658.33947 102366718.42547  24999026.5574   24999033.1654   24999026.2154 
        43.000          39.000  
 119502088.67147  93118504.08147  22740494.2924   22740500.2434   22740494.4804 
        51.000          46.000  
 116673003.68047  90914022.53447  22202136.2814   22202140.1004   22202136.3054 
        53.000          47.000  
 108013962.50047  84166724.44647  20554372.2014   20554375.3644   20554371.9494 
        56.000          51.000  
 122929280.20747  95789030.90147  23392677.6354   23392681.9694   23392676.2814 
        46.000          42.000  
 130585072.11647 101754604.20647  24849510.0214   24849515.6164   24849509.6754 
        42.000          36.000  
 111683366.52447  87025980.34847  21252654.5334   21252660.2294   21252654.3394 
        52.000          46.000  
 125867569.42447  98078596.64447  23951823.3004   23951828.9294   23951822.6634 
        46.000          40.000  
 10  1 15 19  1 47.0000000  0 10G02G04G05G09G12G15G17G18G27G30
 123874203.75847  96525344.80347  23572484.6424   23572489.8354   23572483.5204 
        48.000          41.000  
 129178638.54947 100658674.33247  24581878.8204   24581886.8234   24581878.3674 
        46.000          39.000  
 131372678.18547 102368292.33047  24999411.4654   24999418.2054   24999410.9784 
        43.000          39.000  
 119500276.55947  93117092.04747  22740149.3854   22740154.8454   22740149.6124 
        51.000          46.000  
 116672537.68047  90913659.41547  22202047.7524   22202051.7254   22202047.6304 
        53.000          47.000  
 108015030.08347  84167556.32847  20554575.1144   20554578.5484   20554575.1104 
        56.000          51.000  
 122932324.45647  95791403.03947  23393256.0954   23393262.4804   23393255.7164 
        47.000          42.000  
 130585536.26247 101754965.87847  24849597.1124   24849604.2304   24849597.7714 
        41.000          36.000  
 111681783.34847  87024746.70647  21252353.0014   21252358.4504   21252353.0254 
        52.000          46.000  
 125866409.09647  98077692.49047  23951602.6144   23951608.3594   23951601.8944 
        46.000          40.000  
 10  1 15 19  1 48.0000000  0 10G02G04G05G09G12G15G17G18G27G30
 123872301.96647  96523862.88847  23572122.4044   23572127.3614   23572122.0894 
        47.000          41.000  
 129177804.01047 100658024.03947  24581718.4844   24581728.1494   24581719.1404 
        44.000          38.000  
 131374697.77747 102369866.03647  24999795.7864   24999803.1694   24999794.9184 
        42.000          39.000  
 119498464.42147  93115679.99347  22739804.2954   22739809.6204   22739804.6914 
        52.000          46.000  
 116672071.96147  90913296.51747  22201958.8114   22201963.4764   22201959.0114 
        53.000          47.000  
 108016098.34447  84168388.73847  20554778.5734   20554782.1244   20554778.3704 
        56.000          51.000  
 122935369.05847  95793775.45047  23393836.4104   23393841.2474   23393835.3804 
        47.000          42.000  
 130586000.81247 101755327.86447  24849684.7034   24849692.1624   24849686.0684 
        41.000          36.000  
 111680200.37947  87023513.22447  21252051.5844   21252057.2334   21252051.7924 
        52.000          46.000  
 125865249.04747  98076788.55547  23951382.1344   23951387.7784   23951381.2824 
        46.000          40.000  
 10  1 15 19  1 49.0000000  0 10G02G04G05G09G12G15G17G18G27G30
 123870400.17047  96522380.96547  23571760.7974   23571764.8994   23571760.5764 
        47.000          41.000  
 129176969.62847 100657373.87447  24581559.7554   24581568.4164   24581559.6704 
        45.000          39.000  
 131376717.10247 102371439.53247  25000180.8994   25000187.9874   25000179.5134 
        43.000          39.000  
 119496652.21947  93114267.89047  22739459.7474   22739464.6734   22739459.8734 
        51.000          46.000  
 116671606.49847  90912933.81947  22201870.8004   22201874.0374   22201870.4674 
        53.000          47.000  
 108017167.22447  84169221.63247  20554981.9884   20554985.1784   20554981.7804 
        56.000          51.000  
 122938414.02547  95796148.15047  23394414.7504   23394420.3884   23394414.8334 
        46.000          42.000  
 130586465.65847 101755690.08147  24849773.6024   24849780.0354   24849774.1514 
        42.000          36.000  
 111678617.58147  87022279.87447  21251750.3604   21251755.8534   21251750.6254 
        52.000          46.000  
 125864089.22147  98075884.79447  23951160.3734   23951167.4474   23951160.3594 
        46.000          39.000  
 10  1 15 19  1 50.0000000  0 10G02G04G05G09G12G15G17G18G27G30
 123868498.27847  96520898.96347  23571398.9854   23571401.7014   23571398.7294 
        47.000          41.000  
 129176135.42247 100656723.84447  24581402.7714   24581409.6124   24581401.0724 
        46.000          39.000  
 131378736.06247 102373012.74447  25000565.0494   25000572.0534   25000563.5934 
        42.000          39.000  
 119494839.87847  93112855.67547  22739114.6534   22739120.2394   22739114.9864 
        51.000          46.000  
 116671141.20447  90912571.25247  22201781.9244   22201786.3104   22201781.8634 
        53.000          47.000  
 108018236.66447  84170054.96247  20555185.4804   20555188.8994   20555185.2734 
        56.000          51.000  
 122941459.26147  95798521.05747  23394994.7514   23395000.2544   23394994.2794 
        47.000          42.000  
 130586930.78447 101756052.51847  24849862.8874   24849868.4814   24849862.5844 
        42.000          36.000  
 111677034.88947  87021046.60947  21251449.3654   21251454.5334   21251449.4964 
        52.000          46.000  
 125862929.57547  98074981.17447  23950939.7024   23950947.0464   23950939.6354 
        46.000          39.000  
 10  1 15 19  1 51.0000000  0 10G02G04G05G09G12G15G17G18G27G30
 123866596.38147  96519416.95747  23571037.3684   23571039.6544   23571036.6834 
        46.000          41.000  
 129175301.38347 100656073.94547  24581244.9304   24581250.9364   24581242.8974 
        46.000          39.000  
 131380754.72447 102374585.72447  25000948.4054   25000956.0724   25000947.3114 
        42.000          39.000  
 119493027.46347  93111443.40347  22738769.9674   22738776.9264   22738769.9904 
        51.000          46.000  
 116670676.15047  90912208.87047  22201693.6144   22201697.2604   22201693.3244 
        53.000          47.000  
 108019306.71847  84170888.76947  20555389.1084   20555392.4734   20555388.8744 
        56.000          51.000  
 122944504.81247  95800894.21347  23395573.5504   23395579.8364   23395573.7684 
        46.000          42.000  
 130587396.22447 101756415.19547  24849950.4924   24849957.1834   24849951.0904 
        42.000          36.000  
 111675452.34347  87019813.45747  21251147.9584   21251153.5024   21251148.3654 
        52.000          46.000  
 125861770.12947  98074077.71047  23950719.2084   23950725.9194   23950719.0324 
        46.000          39.000  
 10  1 15 19  1 52.0000000  0 10G02G04G05G09G12G15G17G18G27G30
 123864694.51247  96517934.97347  23570674.3974   23570677.8814   23570674.1604 
        46.000          41.000  
 129174467.60547 100655424.24847  24581086.2444   24581092.9184   24581084.7514 
        45.000          39.000  
 131382773.14347 102376158.51447  25001331.9184   25001340.0484   25001331.1444 
        42.000          39.000  
 119491215.03147  93110031.12147  22738425.0744   22738429.9964   22738425.1394 
        51.000          46.000  
 116670211.38647  90911846.71947  22201605.2484   22201609.3304   22201604.8794 
        53.000          47.000  
 108020377.44247  84171723.09947  20555592.7794   20555596.4194   20555592.6734 
        56.000          51.000  
 122947550.76547  95803267.68247  23396153.5114   23396159.5474   23396153.2264 
        46.000          42.000  
 130587862.03047 101756778.16047  24850037.2394   24850046.5714   24850039.6174 
        42.000          36.000  
 111673870.01947  87018580.47947  21250846.9684   21250852.2874   21250847.3254 
        52.000          46.000  
 125860610.98447  98073174.48147  23950499.1104   23950505.4814   23950498.4584 
        46.000          39.000  
 10  1 15 19  1 53.0000000  0 10G02G04G05G09G12G15G17G18G27G30
 123862792.53047  96516452.90447  23570312.7384   23570316.2914   23570311.5574 
        46.000          41.000  
 129173633.92847 100654774.63147  24580926.8884   24580933.8344   24580925.9564 
        44.000          39.000  
 131384791.23647 102377731.05047  25001715.6004   25001723.4634   25001715.0974 
        43.000          39.000  
 119489402.45747  93108618.72847  22738080.3364   22738085.4894   22738080.2564 
        51.000          46.000  
 116669746.79447  90911484.69947  22201516.4214   22201520.6724   22201516.4934 
        53.000          47.000  
 108021448.72347  84172557.86347  20555796.7934   20555799.9634   20555796.5034 
        56.000          51.000  
 122950596.98047  95805641.35347  23396732.7154   23396739.2174   23396732.8074 
        46.000          42.000  
 130588328.14247 101757141.36547  24850126.8094   24850135.8824   24850128.1044 
        42.000          36.000  
 111672287.79347  87017347.57647  21250545.7464   21250551.6474   21250546.2764 
        52.000          46.000  
 125859451.99447  98072271.37347  23950277.5404   23950284.4884   23950277.7854 
        46.000          39.000  
 10  1 15 19  1 54.0000000  0 10G02G04G05G09G12G15G17G18G27G30
 123860890.64347  96514970.91747  23569949.9344   23569954.6614   23569949.2424 
        46.000          41.000  
 129172800.50147 100654125.20547  24580766.9034   24580773.1674   24580766.0744 
        44.000          39.000  
 131386809.08047 102379303.39247  25002099.1514   25002107.5484   25002098.8794 
        43.000          39.000  
 119487589.89847  93107206.34647  22737734.7384   22737740.5074   22737735.2984 
        51.000          46.000  
 116669282.52547  90911122.93147  22201428.1204   22201431.7624   22201428.1044 
        53.000          47.000  
 108022520.70947  84173393.17547  20556000.5914   20556003.9704   20556000.5154 
        56.000          51.000  
 122953643.61347  95808015.35147  23397312.5824   23397318.7144   23397312.5924 
        47.000          42.000  
 130588794.65147 101757504.88047  24850216.3764   24850224.8764   24850216.8014 
        42.000          36.000  
 111670705.80947  87016114.86347  21250244.9794   21250250.4474   21250245.2054 
        52.000          46.000  
 125858293.30947  98071368.50147  23950058.0294   23950064.3234   23950057.2274 
        46.000          39.000  
 10  1 15 19  1 55.0000000  0 10G02G04G05G09G12G15G17G18G27G30
 123858988.71647  96513488.89947  23569588.7544   23569593.6554   23569587.1094 
        47.000          41.000  
 129171967.23347 100653475.90447  24580607.3624   24580613.9384   24580606.8684 
        45.000          39.000  
 131388826.62747 102380875.50447  25002482.8694   25002490.7774   25002482.4304 
        43.000          39.000  
 119485777.23547  93105793.88547  22737390.5224   22737395.8324   22737390.3514 
        51.000          46.000  
 116668818.45747  90910761.32047  22201340.0814   22201343.6764   22201339.7654 
        53.000          47.000  
 108023593.27747  84174228.94247  20556204.8724   20556208.1704   20556204.6644 
        56.000          51.000  
 122956690.53347  95810389.57047  23397892.7934   23397898.1764   23397892.5664 
        46.000          42.000  
 130589261.44047 101757868.61447  24850304.1224   24850312.4984   24850305.5814 
        42.000          36.000  
 111669123.96447  87014882.25447  21249943.1534   21249949.0714   21249944.1864 
        52.000          46.000  
 125857134.83747  98070465.79647  23949837.3704   23949842.7004   23949836.8234 
        46.000          39.000  
 10  1 15 19  1 56.0000000  0 10G02G04G05G09G12G15G17G18G27G30
 123857086.78747  96512006.88747  23569226.5764   23569231.4224   23569225.3434 
        47.000          41.000  
 129171134.17647 100652826.76847  24580450.1674   24580456.2024   24580448.9384 
        46.000          39.000  
 131390843.89247 102382447.39647  25002866.8244   25002874.8174   25002866.5384 
        42.000          39.000  
 119483964.51247  93104381.37447  22737044.8104   22737051.7384   22737045.3734 
        51.000          46.000  
 116668354.64647  90910399.90847  22201251.1174   22201255.6514   22201251.5134 
        53.000          47.000  
 108024666.47647  84175065.20047  20556409.1094   20556412.6014   20556408.8994 
        56.000          51.000  
 122959737.82547  95812764.07947  23398473.2044   23398477.3974   23398472.5174 
        46.000          42.000  
 130589728.57747 101758232.62047  24850393.8004   24850400.4204   24850394.5964 
        42.000          36.000  
 111667542.28947  87013649.78247  21249642.5874   21249648.3164   21249643.1784 
        52.000          46.000  
 125855976.59147  98069563.26847  23949616.4974   23949622.0624   23949616.5314 
        46.000          39.000  
 10  1 15 19  1 57.0000000  0 10G02G04G05G09G12G15G17G18G27G30
 123855184.86147  96510524.87647  23568864.4494   23568869.7934   23568864.0384 
        47.000          41.000  
 129170301.33547 100652177.79847  24580292.2454   24580298.5494   24580291.2724 
        45.000          39.000  
 131392860.87347 102384019.06747  25003250.8334   25003258.3934   25003250.0504 
        42.000          39.000  
 119482151.74247  93102968.82747  22736700.4134   22736706.3604   22736700.4344 
        51.000          46.000  
 116667891.10547  90910038.70747  22201163.5984   22201167.3684   22201163.2284 
        53.000          47.000  
 108025740.33147  84175901.97047  20556613.4284   20556616.6434   20556613.2544 
        56.000          51.000  
 122962785.45647  95815138.85247  23399052.9294   23399058.4034   23399052.3884 
        46.000          42.000  
 130590196.07347 101758596.90347  24850482.1944   24850489.5564   24850483.7414 
        41.000          36.000  
 111665960.81147  87012417.46447  21249341.4714   21249346.8624   21249342.2704 
        52.000          46.000  
 125854818.60347  98068660.94147  23949396.2754   23949402.9624   23949396.3134 
        46.000          39.000  
 10  1 15 19  1 58.0000000  0 10G02G04G05G09G12G15G17G18G27G30
 123853282.81647  96509042.77747  23568502.9154   23568506.8164   23568502.3884 
        48.000          41.000  
 129169468.50747 100651528.83647  24580132.8004   24580140.8864   24580132.7854 
        45.000          39.000  
 131394877.41747 102385590.39847  25003634.6054   25003642.5124   25003633.7584 
        43.000          39.000  
 119480338.75047  93101556.11047  22736355.0654   22736360.2384   22736355.4274 
        51.000          46.000  
 116667427.65747  90909677.57847  22201075.1324   22201079.6654   22201075.0644 
        53.000          47.000  
 108026814.65047  84176739.10147  20556817.8814   20556821.3964   20556817.6664 
        56.000          51.000  
 122965833.27047  95817513.76647  23399633.1384   23399639.2764   23399632.3984 
        47.000          42.000  
 130590663.75447 101758961.33247  24850571.4754   24850579.7094   24850572.4254 
        42.000          36.000  
 111664379.34847  87011185.15447  21249040.9694   21249046.8644   21249041.2424 
        52.000          46.000  
 125853660.69947  98067758.68047  23949176.0714   23949182.1074   23949175.9474 
        46.000          39.000  
 10  1 15 19  1 59.0000000  0 10G02G04G05G09G12G15G17G18G27G30
 123851380.87147  96507560.74947  23568141.4334   23568144.7964   23568140.7724 
        47.000          41.000  
 129168636.01847 100650880.14147  24579974.5784   24579981.2444   24579973.5954 
        44.000          39.000  
 131396893.82347 102387161.62247  25004018.7774   25004026.6654   25004017.3534 
        42.000          39.000  
 119478525.83147  93100143.44547  22736010.0944   22736016.2554   22736010.5124 
        51.000          46.000  
 116666964.58047  90909316.73847  22200987.2164   22200991.1004   22200986.9684 
        53.000          47.000  
 108027889.73747  84177576.83147  20557022.3024   20557025.8104   20557022.2804 
        56.000          51.000  
 122968881.57347  95819889.06447  23400212.5254   23400219.0024   23400212.1824 
        47.000          42.000  
 130591131.89047 101759326.11847  24850660.9144   24850667.4544   24850661.3184 
        42.000          36.000  
 111662798.18947  87009953.08447  21248740.1664   21248745.4084   21248740.2674 
        52.000          46.000  
 125852503.15647  98066856.70147  23948956.4694   23948961.1514   23948955.9624 
        46.000          39.000  
 10  1 15 19  2  0.0000000  0 10G02G04G05G09G12G15G17G18G27G30
 123849478.87547  96506078.67747  23567779.3144   23567783.5434   23567779.1574 
        47.000          41.000  
 129167803.65047 100650231.54247  24579815.0214   24579823.0594   24579814.6524 
        45.000          39.000  
 131398909.88147 102388732.57547  25004402.6084   25004410.2524   25004400.7394 
        42.000          39.000  
 119476712.79847  93098730.69447  22735665.2534   22735670.4924   22735665.5844 
        52.000          46.000  
 116666501.69347  90908956.04647  22200899.2884   22200903.2904   22200898.9114 
        53.000          47.000  
 108028965.38747  84178414.99847  20557227.0344   20557230.7444   20557226.9464 
        56.000          51.000  
 122971930.15347  95822264.57547  23400792.8774   23400798.6304   23400792.1664 
        46.000          42.000  
 130591600.29347 101759691.11047  24850749.4914   24850755.3784   24850750.5814 
        42.000          36.000  
 111661217.14347  87008721.10147  21248438.5544   21248444.1294   21248439.2894 
        52.000          46.000  
 125851345.78947  98065954.85847  23948735.3934   23948741.9964   23948735.6964 
        46.000          39.000  
 10  1 15 19  2  1.0000000  0 10G02G04G05G09G12G15G17G18G27G30
 123847576.85147  96504596.57847  23567417.8784   23567422.0494   23567417.5054 
        47.000          41.000  
 129166971.45147 100649583.07847  24579657.0934   24579664.5364   24579656.4744 
        45.000          39.000  
 131400925.62847 102390303.28547  25004786.2524   25004793.7944   25004784.3124 
        43.000          39.000  
 119474899.65547  93097317.85747  22735320.1304   22735326.4624   22735320.5434 
        52.000          46.000  
 116666039.02647  90908595.52647  22200810.8254   22200815.4604   22200810.8664 
        53.000          47.000  
 108030041.63447  84179253.63247  20557431.8354   20557435.1594   20557431.7184 
        56.000          51.000  
 122974979.03647  95824640.32447  23401373.5934   23401377.7064   23401372.3854 
        47.000          42.000  
 130592069.01547 101760056.34847  24850839.0904   24850844.6754   24850839.8084 
        42.000          36.000  
 111659636.23647  87007489.22747  21248138.3214   21248143.7684   21248138.3884 
        52.000          46.000  
 125850188.63447  98065053.17447  23948515.7964   23948520.9474   23948515.5624 
        46.000          39.000  
 10  1 15 19  2  2.0000000  0 10G02G04G05G09G12G15G17G18G27G30
 123845674.66747  96503114.35047  23567054.9174   23567060.2414   23567055.4834 
        47.000          41.000  
 129166139.35047 100648934.69147  24579500.0454   24579507.2174   24579498.6604 
        45.000          39.000  
 131402940.95047 102391873.66447  25005170.4454   25005176.6934   25005167.8324 
        43.000          39.000  
 119473086.33647  93095904.88347  22734974.8724   22734981.3394   22734975.4034 
        52.000          46.000  
 116665576.48047  90908235.10047  22200722.6694   22200727.0114   22200722.8464 
        53.000          47.000  
 108031118.37847  84180092.65147  20557636.7944   20557640.3504   20557636.6284 
        56.000          51.000  
 122978028.13247  95827016.23947  23401953.1824   23401958.8344   23401953.0034 
        47.000          42.000  
 130592537.94447 101760421.74747  24850927.5674   24850934.2714   24850928.8884 
        43.000          36.000  
 111658055.38147  87006257.39147  21247836.9384   21247843.0784   21247837.5254 
        52.000          46.000  
 125849031.59147  98064151.58247  23948296.6294   23948301.1914   23948295.3764 
        46.000          39.000  
 10  1 15 19  2  3.0000000  0 10G02G04G05G09G12G15G17G18G27G30
 123843772.67847  96501632.27447  23566693.2874   23566697.5984   23566693.3484 
        46.000          42.000  
 129165307.60947 100648286.58447  24579341.3354   24579348.7954   24579340.7204 
        45.000          39.000  
 131404956.17547 102393443.96747  25005553.6014   25005560.5214   25005551.4324 
        43.000          39.000  
 119471273.12847  93094491.99447  22734630.5814   22734636.4174   22734630.4274 
        52.000          46.000  
 116665114.36147  90907875.00547  22200635.0244   22200639.1324   22200634.8734 
        53.000          47.000  
 108032195.92847  84180932.30047  20557842.1184   20557845.2434   20557841.7134 
        56.000          51.000  
 122981077.76147  95829392.57247  23402533.0154   23402539.2004   23402533.3924 
        47.000          42.000  
 130593007.40847 101760787.56347  24851018.2654   24851025.4594   24851018.4604 
        43.000          36.000  
 111656474.87947  87005025.83247  21247536.6234   21247542.0784   21247536.7524 
        52.000          46.000  
 125847874.95847  98063250.30747  23948075.7214   23948081.6274   23948075.2164 
        46.000          39.000  
 10  1 15 19  2  4.0000000  0 10G02G04G05G09G12G15G17G18G27G30
 123841870.60547  96500150.13147  23566331.0504   23566335.2284   23566331.0594 
        47.000          41.000  
 129164475.99747 100647638.57847  24579182.3824   24579189.5414   24579182.3784 
        44.000          39.000  
 131406971.05247 102395013.99847  25005936.2684   25005944.7224   25005934.9044 
        43.000          39.000  
 119469459.79347  93093079.00747  22734285.1324   22734290.9324   22734285.3764 
        52.000          46.000  
 116664652.43247  90907515.05947  22200547.2384   22200551.5254   22200546.9474 
        53.000          47.000  
 108033274.04747  84181772.39247  20558046.9464   20558050.3724   20558046.9554 
        56.000          51.000  
 122984127.65847  95831769.11447  23403113.4754   23403118.3644   23403113.8114 
        47.000          42.000  
 130593477.10647 101761153.56147  24851108.5794   24851114.5734   24851107.8314 
        43.000          36.000  
 111654894.48647  87003794.35647  21247235.5254   21247241.7744   21247235.9724 
        52.000          46.000  
 125846718.50147  98062349.16947  23947854.3184   23947860.9974   23947854.9854 
        45.000          39.000  
 10  1 15 19  2  5.0000000  0 10G02G04G05G09G12G15G17G18G27G30
 123839968.55247  96498668.00647  23565968.2144   23565973.6704   23565968.6474 
        47.000          41.000  
 129163644.59147 100646990.73247  24579025.1524   24579031.6184   24579023.8354 
        44.000          39.000  
 131408985.64147 102396583.80647  25006320.0064   25006328.3394   25006318.4644 
        43.000          39.000  
 119467646.40147  93091665.97347  22733939.8624   22733945.7054   22733940.3224 
        51.000          46.000  
 116664190.75247  90907155.30947  22200458.9324   22200463.0334   22200459.0644 
        53.000          47.000  
 108034352.80347  84182612.98047  20558252.2164   20558255.8724   20558252.2854 
        56.000          51.000  
 122987177.88847  95834145.91647  23403694.7614   23403699.8904   23403694.1704 
        47.000          42.000  
 130593947.17247 101761519.84547  24851198.1004   24851204.1014   24851197.3574 
        43.000          36.000  
 111653314.26747  87002563.01647  21246934.6224   21246940.4954   21246935.2734 
        52.000          46.000  
 125845562.26947  98061448.20947  23947635.1884   23947641.5114   23947634.9854 
        46.000          39.000  
 10  1 15 19  2  6.0000000  0 10G02G04G05G09G12G15G17G18G27G30
 123838066.42047  96497185.82347  23565605.8254   23565611.9224   23565606.3154 
        46.000          41.000  
 129162813.28647 100646342.96647  24578866.5474   24578873.1494   24578865.3254 
        45.000          39.000  
 131410999.89047 102398153.34847  25006702.8774   25006711.4124   25006701.8314 
        43.000          39.000  
 119465832.89547  93090252.85247  22733595.1964   22733601.5294   22733595.2394 
        51.000          46.000  
 116663729.26647  90906795.70947  22200371.6574   22200375.5484   22200371.1984 
        53.000          47.000  
 108035432.13447  84183454.01647  20558457.6124   20558461.0804   20558457.7554 
        56.000          51.000  
 122990228.44047  95836522.96847  23404274.9774   23404280.6324   23404274.6944 
        47.000          42.000  
 130594417.50147 101761886.33447  24851288.3194   24851293.4154   24851286.9084 
        43.000          36.000  
 111651734.17247  87001331.77347  21246634.4624   21246640.4674   21246634.5534 
        52.000          46.000  
 125844406.24547  98060547.40847  23947415.3354   23947422.0414   23947415.2934 
        46.000          39.000  
 10  1 15 19  2  7.0000000  0 10G02G04G05G09G12G15G17G18G27G30
 123836164.25047  96495703.61447  23565244.8774   23565248.5064   23565244.2294 
        47.000          41.000  
 129161982.15647 100645695.33547  24578708.3654   24578714.4804   24578707.4584 
        45.000          39.000  
 131413013.80947 102399722.63347  25007085.5814   25007094.7944   25007085.0994 
        43.000          39.000  
 119464019.27947  93088839.64447  22733249.9624   22733254.7104   22733250.1194 
        51.000          46.000  
 116663267.97647  90906436.26147  22200283.4784   22200287.6054   22200283.3594 
        53.000          47.000  
 108036512.03747  84184295.49847  20558663.2754   20558666.6004   20558663.2944 
        56.000          51.000  
 122993279.25247  95838900.22147  23404855.6204   23404862.0544   23404855.2164 
        46.000          42.000  
 130594888.12947 101762253.05647  24851376.9214   24851382.6124   24851376.4984 
        43.000          36.000  
 111650154.19847  87000100.62447  21246333.9654   21246339.2234   21246333.9014 
        52.000          46.000  
 125843250.38347  98059646.73547  23947194.6584   23947202.0144   23947195.3594 
        46.000          39.000  
 10  1 15 19  2  8.0000000  0 10G02G04G05G09G12G15G17G18G27G30
 123834262.12847  96494221.44547  23564883.7804   23564887.7204   23564882.4604 
        47.000          41.000  
 129161151.28747 100645047.90347  24578550.8704   24578557.0554   24578549.5184 
        46.000          39.000  
 131415027.50147 102401291.74247  25007468.5694   25007477.9974   25007468.2494 
        43.000          39.000  
 119462205.66447  93087426.43847  22732904.9034   22732910.7034   22732905.0204 
        52.000          46.000  
 116662807.00047  90906077.05847  22200195.7244   22200200.1204   22200195.5894 
        53.000          47.000  
 108037592.64347  84185137.52847  20558868.8744   20558872.4044   20558868.9024 
        56.000          51.000  
 122996330.49047  95841277.80847  23405436.2744   23405441.9764   23405435.8854 
        47.000          42.000  
 130595359.15447 101762620.08847  24851464.7854   24851472.7394   24851466.1594 
        43.000          36.000  
 111648574.45747  86998869.65847  21246033.2384   21246038.8714   21246033.3064 
        52.000          46.000  
 125842094.83847  98058746.31047  23946974.5234   23946980.7044   23946975.5384 
        46.000          39.000  
 10  1 15 19  2  9.0000000  0 10G02G04G05G09G12G15G17G18G27G30
 123832360.01547  96492739.28247  23564521.6064   23564525.9274   23564520.7204 
        47.000          41.000  
 129160320.62047 100644400.62847  24578392.3204   24578399.4094   24578391.7754 
        45.000          39.000  
 131417040.91747 102402860.63447  25007851.4914   25007861.3434   25007851.2634 
        43.000          39.000  
 119460391.97847  93086013.17947  22732560.2544   22732565.3054   22732559.8724 
        51.000          46.000  
 116662346.26247  90905718.04247  22200108.2684   22200112.1234   22200108.0114 
        53.000          47.000  
 108038673.86647  84185980.03847  20559074.8254   20559078.3314   20559074.6474 
        56.000          51.000  
 122999382.05147  95843655.64547  23406017.3384   23406021.7454   23406016.7064 
        47.000          42.000  
 130595830.50547 101762987.37647  24851554.7704   24851562.2624   24851556.0234 
        42.000          36.000  
 111646994.88447  86997638.82347  21245731.9524   21245738.0854   21245732.7364 
        52.000          46.000  
 125840939.50247  98057846.04947  23946754.8944   23946761.5934   23946755.5474 
        46.000          39.000  
 10  1 15 19  2 10.0000000  0 10G02G04G05G09G12G15G17G18G27G30
 123830457.86947  96491257.09647  23564159.5024   23564163.4554   23564158.9814 
        47.000          41.000  
 129159490.10347 100643753.46947  24578234.0994   24578241.9944   24578233.6974 
        45.000          39.000  
 131419053.99847 102404429.26547  25008235.4664   25008244.9904   25008234.7464 
        43.000          39.000  
 119458578.20647  93084599.85247  22732214.9454   22732219.8014   22732214.7834 
        52.000          46.000  
 116661885.74747  90905359.19947  22200020.4974   22200024.9804   22200020.3784 
        53.000          47.000  
 108039755.69247  84186823.01947  20559280.3774   20559283.7494   20559280.5334 
        56.000          51.000  
 123002433.92447  95846033.72847  23406597.8564   23406602.3874   23406597.5244 
        47.000          42.000  
 130596302.15747 101763354.90047  24851647.0254   24851651.5624   24851645.7604 
        43.000          36.000  
 111645415.46147  86996408.10747  21245431.7954   21245437.7934   21245432.2234 
        52.000          46.000  
 125839784.39247  98056945.96647  23946535.7974   23946541.7114   23946535.6994 
        46.000          39.000  
 10  1 15 19  2 11.0000000  0 10G02G04G05G09G12G15G17G18G27G30
 123828555.70347  96489774.89547  23563797.3864   23563801.1474   23563797.2454 
        47.000          41.000  
 129158659.79247 100643106.47047  24578076.5354   24578084.4134   24578075.6104 
        45.000          39.000  
 131421066.80147 102405997.67947  25008619.1264   25008627.5664   25008618.0014 
        44.000          39.000  
 119456764.36447  93083186.47147  22731868.8834   22731875.0564   22731869.7094 
        52.000          46.000  
 116661425.46647  90905000.53847  22199933.3904   22199937.0094   22199932.7844 
        53.000          47.000  
 108040838.13647  84187666.48147  20559486.5324   20559489.9804   20559486.5234 
        56.000          51.000  
 123005486.10747  95848412.05047  23407178.4644   23407183.2774   23407178.3594 
        47.000          42.000  
 130596774.14747 101763722.68747  24851737.1294   24851741.3954   24851735.5994 
        43.000          36.000  
 111643836.19347  86995177.51047  21245131.7254   21245137.2844   21245131.6944 
        52.000          46.000  
 125838629.50347  98056046.05947  23946315.9334   23946321.0824   23946316.0314 
        46.000          39.000  
 10  1 15 19  2 12.0000000  0 10G02G04G05G09G12G15G17G18G27G30
 123826653.63247  96488292.76847  23563435.5304   23563439.6774   23563435.3284 
        46.000          41.000  
 129157829.74747 100642459.67947  24577916.8524   24577925.1044   24577917.4704 
        45.000          39.000  
 131423079.38347 102407565.92147  25009001.9674   25009010.4834   25009001.1354 
        44.000          39.000  
 119454950.53947  93081773.10347  22731524.2744   22731528.9654   22731524.6254 
        52.000          46.000  
 116660965.52247  90904642.13947  22199845.2244   22199849.3284   22199845.2644 
        53.000          47.000  
 108041921.29547  84188510.50147  20559692.6844   20559695.9784   20559692.6134 
        56.000          51.000  
 123008538.74847  95850790.72947  23407759.4794   23407765.2594   23407759.0924 
        47.000          42.000  
 130597246.53647 101764090.78247  24851825.8724   24851831.6734   24851825.4224 
        43.000          36.000  
 111642257.19747  86993947.12547  21244830.7244   21244836.4764   21244831.2694 
        52.000          46.000  
 125837474.93647  98055146.39947  23946096.2154   23946101.8564   23946096.2654 
        46.000          39.000  
 10  1 15 19  2 13.0000000  0 10G02G04G05G09G12G15G17G18G27G30
 123824751.40147  96486810.51447  23563072.6244   23563077.6334   23563073.4474 
        46.000          41.000  
 129156999.74147 100641812.91947  24577759.5444   24577766.8894   24577759.2834 
        45.000          39.000  
 131425091.56047 102409133.84947  25009384.8404   25009392.6704   25009384.2344 
        44.000          39.000  
 119453136.52447  93080359.58547  22731179.4684   22731184.9444   22731179.4524 
        52.000          46.000  
 116660505.68547  90904283.82547  22199758.1904   22199762.1654   22199757.7224 
        53.000          47.000  
 108043004.94247  84189354.90047  20559898.6284   20559902.0544   20559898.7884 
        56.000          51.000  
 123011591.56247  95853169.54247  23408340.3654   23408345.5004   23408339.8294 
        47.000          42.000  
 130597719.14047 101764459.04647  24851914.9004   24851921.1774   24851915.3914 
        42.000          36.000  
 111640678.23447  86992716.76447  21244530.8734   21244536.1344   21244530.8494 
        52.000          46.000  
 125836320.46747  98054246.81847  23945876.7824   23945882.2034   23945876.4914 
        46.000          39.000  
 10  1 15 19  2 14.0000000  0 10G02G04G05G09G12G15G17G18G27G30
 123822849.21447  96485328.29447  23562709.9224   23562716.2654   23562711.2794 
        47.000          41.000  
 129156169.97947 100641166.34947  24577602.8414   24577610.0784   24577601.8174 
        45.000          39.000  
 131427103.46747 102410701.56647  25009768.3794   25009775.2084   25009767.7084 
        44.000          39.000  
 119451322.47247  93078946.04247  22730833.3224   22730839.8394   22730834.2464 
        52.000          46.000  
 116660046.12747  90903925.72947  22199670.6624   22199674.4334   22199670.3074 
        53.000          47.000  
 108044089.24647  84190199.81247  20560105.3734   20560108.4704   20560105.1444 
        56.000          51.000  
 123014644.76147  95855548.65647  23408919.8454   23408927.1814   23408920.6744 
        47.000          42.000  
 130598192.09547 101764827.58247  24852005.1794   24852011.0994   24852005.1604 
        44.000          36.000  
 111639099.46947  86991486.55747  21244230.4574   21244236.2244   21244230.3464 
        52.000          46.000  
 125835166.26247  98053347.44047  23945658.3214   23945663.5284   23945656.9134 
        45.000          39.000  
 10  1 15 19  2 15.0000000  0 10G02G04G05G09G12G15G17G18G27G30
 123820947.01647  96483846.06447  23562348.9784   23562354.1644   23562349.0764 
        47.000          41.000  
 129155340.41747 100640519.93547  24577446.2764   24577453.3264   24577444.5004 
        45.000          39.000  
 131429115.07047 102412269.04647  25010151.8364   25010157.8764   25010150.8694 
        44.000          39.000  
 119449508.35047  93077532.44247  22730488.8274   22730493.9494   22730489.0054 
        52.000          46.000  
 116659586.80947  90903567.81747  22199583.0554   22199587.8124   22199582.9564 
        53.000          47.000  
 108045174.18447  84191045.21647  20560311.7534   20560314.9834   20560311.6044 
        56.000          51.000  
 123017698.30647  95857928.03747  23409501.8174   23409508.3144   23409501.5624 
        46.000          42.000  
 130598665.39947 101765196.39147  24852095.5034   24852102.7464   24852095.2274 
        42.000          36.000  
 111637520.87647  86990256.48447  21243929.4054   21243935.0004   21243929.9194 
        52.000          46.000  
 125834012.27747  98052448.23247  23945437.7744   23945443.0404   23945437.2474 
        47.000          39.000  
 10  1 15 19  2 16.0000000  0 10G02G04G05G09G12G15G17G18G27G30
 123819044.83147  96482363.84247  23561988.0964   23561992.3944   23561986.9784 
        47.000          41.000  
 129154511.08347 100639873.70047  24577287.0134   24577294.1524   24577286.5654 
        45.000          39.000  
 131431126.44047 102413836.34447  25010534.9334   25010540.7794   25010533.9814 
        45.000          39.000  
 119447694.20547  93076118.82547  22730143.9004   22730148.7154   22730143.7634 
        52.000          46.000  
 116659127.77047  90903210.12547  22199495.6784   22199499.8184   22199495.6134 
        53.000          47.000  
 108046259.78247  84191891.13647  20560517.9324   20560521.4954   20560518.1894 
        56.000          51.000  
 123020752.19547  95860307.68547  23410082.8254   23410089.4534   23410082.5624 
        46.000          42.000  
 130599139.05447 101765565.47347  24852186.1164   24852191.8134   24852185.3534 
        42.000          36.000  
 111635942.49447  86989026.57847  21243629.5454   21243634.3514   21243629.6014 
        52.000          46.000  
 125832858.59047  98051549.25747  23945216.9094   23945221.9314   23945217.6154 
        46.000          39.000  
 10  1 15 19  2 17.0000000  0 10G02G04G05G09G12G15G17G18G27G30
 123817142.68647  96480881.65247  23561625.9934   23561631.2874   23561625.1784 
        47.000          41.000  
 129153681.94047 100639227.61547  24577130.0804   24577136.5044   24577128.8194 
        45.000          39.000  
 131433137.54047 102415403.43347  25010917.9754   25010923.1034   25010916.9744 
        45.000          39.000  
 119445880.00647  93074705.16547  22729798.0324   22729803.8084   22729798.5294 
        52.000          46.000  
 116658668.99047  90902852.63547  22199408.4204   22199411.9434   22199408.2524 
        53.000          47.000  
 108047346.00247  84192737.54247  20560724.6464   20560728.2234   20560724.8424 
        56.000          51.000  
 123023806.46447  95862687.63247  23410664.6434   23410670.5124   23410663.9224 
        47.000          42.000  
 130599613.04847 101765934.81747  24852275.4924   24852283.5494   24852275.4104 
        43.000          36.000  
 111634364.28647  86987796.80447  21243328.6094   21243334.5734   21243329.2824 
        52.000          46.000  
 125831705.11647  98050650.44547  23944998.1244   23945004.0684   23944998.1954 
        46.000          39.000  
 10  1 15 19  2 18.0000000  0 10G02G04G05G09G12G15G17G18G27G30
 123815240.35447  96479399.31547  23561264.0634   23561268.3744   23561263.1704 
        47.000          41.000  
 129152852.83847 100638581.56147  24576972.1054   24576979.0634   24576971.1924 
        46.000          39.000  
 131435148.18447 102416970.16547  25011300.3244   25011306.3664   25011300.0114 
        45.000          39.000  
 119444065.57947  93073291.32547  22729453.4424   22729458.1914   22729453.2794 
        52.000          46.000  
 116658210.30647  90902495.21947  22199320.9724   22199325.5344   22199321.0394 
        53.000          47.000  
 108048432.69747  84193584.31647  20560931.6134   20560934.9174   20560931.5574 
        56.000          51.000  
 123026860.90447  95865067.71147  23411245.4924   23411250.9294   23411245.2294 
        47.000          42.000  
 130600087.22747 101766304.30647  24852366.1054   24852373.6084   24852365.6484 
        43.000          36.000  
 111632786.09447  86986567.04447  21243028.7114   21243034.1354   21243028.9184 
        52.000          46.000  
 125830551.72247  98049751.69747  23944779.0294   23944785.8054   23944778.6904 
        46.000          39.000  
 10  1 15 19  2 19.0000000  0 10G02G04G05G09G12G15G17G18G27G30
 123813338.07347  96477917.01747  23560900.7744   23560906.1944   23560900.9964 
        47.000          41.000  
 129152023.96447 100637935.68447  24576813.3854   24576822.3674   24576814.0124 
        46.000          39.000  
 131437158.56247 102418536.69147  25011683.3874   25011688.7454   25011683.2144 
        45.000          39.000  
 119442251.13847  93071877.47447  22729107.8364   22729113.1044   22729108.0604 
        52.000          46.000  
 116657751.92247  90902138.03747  22199233.9664   22199238.7634   22199233.8974 
        53.000          47.000  
 108049520.05647  84194431.60947  20561138.6204   20561142.1884   20561138.4374 
        56.000          51.000  
 123029915.70247  95867448.06947  23411827.3954   23411832.6614   23411826.5604 
        47.000          42.000  
 130600561.77047 101766674.08147  24852456.8394   24852464.1064   24852456.1204 
        44.000          36.000  
 111631208.12247  86985337.45647  21242728.4384   21242733.7524   21242728.6324 
        52.000          46.000  
 125829398.61147  98048853.16847  23944560.2774   23944565.7194   23944559.2444 
        46.000          39.000  
 10  1 15 19  2 20.0000000  0 10G02G04G05G09G12G15G17G18G27G30
 123811435.75747  96476434.69347  23560539.3414   23560544.9204   23560539.0494 
        47.000          41.000  
 129151195.29947 100637289.96947  24576655.3644   24576663.9274   24576656.5694 
        45.000          38.000  
 131439168.67847 102420103.01247  25012065.8804   25012070.6844   25012065.9294 
        46.000          39.000  
 119440436.62547  93070463.56947  22728762.7084   22728767.9824   22728762.7244 
        52.000          46.000  
 116657293.78347  90901781.04447  22199146.7394   22199151.0494   22199146.6844 
        53.000          47.000  
 108050608.03947  84195279.38747  20561345.6654   20561349.0134   20561345.4394 
        56.000          51.000  
 123032970.84647  95869828.70047  23412407.9574   23412413.8684   23412407.8444 
        47.000          42.000  
 130601036.62947 101767044.10547  24852547.3834   24852554.2224   24852546.7204 
        43.000          36.000  
 111629630.30647  86984107.99247  21242428.3424   21242433.6294   21242428.4784 
        52.000          46.000  
 125828245.71947  98047954.81047  23944340.7614   23944345.5454   23944339.8804 
        46.000          39.000  
 10  1 15 19  2 21.0000000  0 10G02G04G05G09G12G15G17G18G27G30
 123809533.53647  96474952.44347  23560177.9214   23560182.4664   23560177.0084 
        47.000          41.000  
 129150366.88847 100636644.45247  24576497.4524   24576505.2724   24576498.3554 
        43.000          38.000  
 131441178.56547 102421669.15647  25012448.4054   25012453.5094   25012448.7404 
        46.000          39.000  
 119438622.12747  93069049.67547  22728418.1284   22728422.4274   22728417.4654 
        51.000          46.000  
 116656835.96947  90901424.30647  22199059.6704   22199063.8074   22199059.5394 
        53.000          47.000  
 108051696.72647  84196127.71447  20561552.8624   20561556.1614   20561552.5884 
        56.000          51.000  
 123036026.40847  95872209.65547  23412989.6904   23412995.2314   23412989.1754 
        47.000          42.000  
 130601511.91047 101767414.46047  24852637.1334   24852644.9544   24852637.3544 
        43.000          36.000  
 111628052.75247  86982878.72847  21242128.1334   21242133.8814   21242128.2984 
        52.000          46.000  
 125827093.14247  98047056.69747  23944121.6794   23944127.4694   23944120.4404 
        46.000          39.000  
 10  1 15 19  2 22.0000000  0 10G02G04G05G09G12G15G17G18G27G30
 123807631.32047  96473470.20047  23559815.4494   23559820.1414   23559815.0664 
        47.000          41.000  
 129149538.66147 100635999.08047  24576339.1264   24576346.5484   24576339.8804 
        45.000          38.000  
 131443188.19847 102423235.10147  25012830.6274   25012836.0764   25012831.5604 
        44.000          39.000  
 119436807.57947  93067635.74347  22728071.8764   22728077.0584   22728072.0924 
        52.000          46.000  
 116656378.40547  90901067.76347  22198972.4984   22198976.8584   22198972.4624 
        53.000          47.000  
 108052786.05247  84196976.53947  20561759.9664   20561763.3404   20561759.9004 
        56.000          51.000  
 123039082.31347  95874590.87847  23413571.5594   23413577.8134   23413570.7894 
        47.000          42.000  
 130601987.53647 101767785.08247  24852726.7654   24852734.9854   24852727.8714 
        43.000          36.000  
 111626475.37247  86981649.60147  21241828.1564   21241833.1874   21241828.1564 
        52.000          46.000  
 125825940.81247  98046158.78047  23943901.8264   23943906.1194   23943900.9524 
        46.000          39.000  
 10  1 15 19  2 23.0000000  0 10G02G04G05G09G12G15G17G18G27G30
 123805728.95447  96471987.83947  23559453.2024   23559457.9184   23559452.8914 
        47.000          41.000  
 129148710.52247 100635353.77747  24576181.4474   24576189.9704   24576182.4254 
        46.000          38.000  
 131445197.39047 102424800.70347  25013213.1044   25013218.7874   25013214.0584 
        45.000          39.000  
 119434992.83947  93066221.66047  22727725.7634   22727731.4224   22727726.7214 
        52.000          46.000  
 116655920.94947  90900711.30247  22198885.4654   22198889.7094   22198885.4444 
        53.000          47.000  
 108053875.87347  84197825.74947  20561967.5534   20561970.6754   20561967.2594 
        56.000          51.000  
 123042138.43247  95876972.26847  23414153.0994   23414159.4414   23414152.3274 
        47.000          42.000  
 130602463.34247 101768155.84647  24852816.7164   24852824.9194   24852818.2634 
        43.000          36.000  
 111624898.03547  86980420.50947  21241527.3194   21241533.5484   21241528.0114 
        52.000          46.000  
 125824788.58547  98045260.93847  23943682.3624   23943687.0014   23943681.6824 
        46.000          39.000  
 10  1 15 19  2 24.0000000  0 10G02G04G05G09G12G15G17G18G27G30
 123803826.60147  96470505.49047  23559091.7644   23559096.3404   23559091.1744 
        47.000          41.000  
 129147882.60347 100634708.64547  24576025.3474   24576033.1014   24576025.4034 
        46.000          38.000  
 131447206.28747 102426366.07547  25013595.8244   25013601.1444   25013596.7054 
        46.000          39.000  
 119433178.01247  93064807.51147  22727381.0934   22727386.5384   22727381.3424 
        52.000          46.000  
 116655463.71647  90900355.01747  22198798.5164   22198803.0244   22198798.3794 
        53.000          47.000  
 108054966.30447  84198675.43547  20562174.8634   20562178.2184   20562174.7274 
        56.000          51.000  
 123045194.87047  95879353.90647  23414734.5314   23414740.1594   23414734.1614 
        47.000          42.000  
 130602939.48247 101768526.86647  24852907.8664   24852917.0644   24852908.9714 
        43.000          36.000  
 111623320.85847  86979191.54247  21241227.9554   21241232.7394   21241227.9214 
        52.000          46.000  
 125823636.57347  98044363.26747  23943462.5654   23943469.0044   23943462.5444 
        46.000          39.000  
 10  1 15 19  2 25.0000000  0 10G02G04G05G09G12G15G17G18G27G30
 123801924.24947  96469023.14247  23558729.3004   23558733.8244   23558729.3984 
        47.000          41.000  
 129147054.87647 100634063.66147  24575868.4224   24575875.5624   24575868.4194 
        45.000          38.000  
 131449214.92747 102427931.24647  25013978.3414   25013983.4414   25013979.2214 
        46.000          39.000  
 119431363.15347  93063393.33647  22727035.5654   22727041.3234   22727035.9904 
        51.000          46.000  
 116655006.75247  90899998.94047  22198711.5434   22198715.7204   22198711.3634 
        53.000          47.000  
 108056057.38447  84199525.62547  20562382.5164   20562385.9484   20562382.2844 
        56.000          51.000  
 123048251.65347  95881735.81647  23415316.4724   23415321.3624   23415315.8654 
        47.000          42.000  
 130603415.95847 101768898.14947  24852998.3674   24853006.8374   24852999.4954 
        44.000          36.000  
 111621743.88847  86977962.73547  21240927.5234   21240933.3144   21240927.8894 
        52.000          46.000  
 125822484.81647  98043465.79547  23943243.4044   23943249.1714   23943243.3444 
        46.000          39.000  
 10  1 15 19  2 26.0000000  0 10G02G04G05G09G12G15G17G18G27G30
 123800021.89747  96467540.79147  23558367.5044   23558371.2934   23558367.5374 
        47.000          41.000  
 129146227.33247 100633418.81947  24575711.2924   24575717.1954   24575711.1394 
        45.000          38.000  
 131451223.25647 102429496.17547  25014360.3814   25014365.7944   25014361.6624 
        46.000          39.000  
 119429548.21647  93061979.10347  22726690.4324   22726696.1614   22726690.6024 
        52.000          46.000  
 116654550.01347  90899643.03947  22198624.7724   22198628.7734   22198624.4354 
        53.000          47.000  
 108057149.07347  84200376.29247  20562590.1944   20562593.6614   20562590.0134 
        56.000          51.000  
 123051308.76847  95884117.98147  23415897.9674   23415903.1814   23415897.4854 
        46.000          42.000  
 130603892.77647 101769269.69647  24853089.7064   24853096.3304   24853090.2174 
        43.000          36.000  
 111620167.05747  86976734.03647  21240627.7284   21240632.6974   21240627.8724 
        52.000          46.000  
 125821333.27147  98042568.48847  23943023.8024   23943030.9774   23943024.1934 
        46.000          39.000  
 10  1 15 19  2 27.0000000  0 10G02G04G05G09G12G15G17G18G27G30
 123798119.63747  96466058.51447  23558004.8814   23558009.5684   23558005.5734 
        47.000          41.000  
 129145400.09547 100632774.21747  24575553.4844   24575559.5944   24575553.3884 
        45.000          38.000  
 131453231.41347 102431060.97147  25014741.5584   25014747.1434   25014743.2084 
        45.000          39.000  
 119427733.33347  93060564.91047  22726345.2604   22726350.1954   22726345.2634 
        52.000          46.000  
 116654093.64047  90899287.42647  22198537.7144   22198542.3814   22198537.6584 
        53.000          47.000  
 108058241.51947  84201227.54747  20562798.1814   20562801.6704   20562797.8854 
        56.000          51.000  
 123054366.34347  95886500.50747  23416480.1574   23416486.1294   23416479.1884 
        46.000          42.000  
 130604370.04747 101769641.59547  24853181.3154   24853186.8134   24853181.1424 
        43.000          36.000  
 111618590.53047  86975505.57547  21240328.0774   21240333.0194   21240327.8334 
        52.000          46.000  
 125820182.08947  98041671.46447  23942804.8074   23942812.2914   23942805.1144 
        46.000          39.000  
 10  1 15 19  2 28.0000000  0 10G02G04G05G09G12G15G17G18G27G30
 123796217.32547  96464576.19647  23557643.5654   23557647.1474   23557643.4974 
        47.000          41.000  
 129144572.95947 100632129.69647  24575395.5674   24575401.7394   24575395.5844 
        44.000          38.000  
 131455239.22247 102432625.49447  25015123.9944   25015128.8194   25015125.2674 
        47.000          39.000  
 119425918.33147  93059150.62447  22725999.9864   22726005.1784   22725999.9194 
        52.000          46.000  
 116653637.45047  90898931.95247  22198451.2394   22198455.2524   22198450.8614 
        53.000          47.000  
 108059334.51847  84202079.23447  20563006.1564   20563009.5654   20563005.8734 
        56.000          51.000  
 123057424.19147  95888883.24447  23417062.0364   23417067.8694   23417060.8424 
        46.000          42.000  
 130604847.57947 101770013.69447  24853272.1944   24853276.1884   24853272.1264 
        43.000          36.000  
 111617014.11447  86974277.20047  21240027.6504   21240033.1184   21240027.9474 
        52.000          46.000  
 125819031.09347  98040774.58447  23942586.3544   23942593.6314   23942586.1854 
        46.000          39.000  
 10  1 15 19  2 29.0000000  0 10G02G04G05G09G12G15G17G18G27G30
 123794314.93047  96463093.81347  23557281.0024   23557285.2474   23557281.2444 
        46.000          41.000  
 129143745.94047 100631485.26747  24575237.1114   24575245.0724   24575237.9234 
        45.000          38.000  
 131457246.66447 102434189.73147  25015505.5154   25015510.7324   25015507.4424 
        45.000          39.000  
 119424103.19047  93057736.22947  22725654.0774   22725660.1724   22725654.6174 
        52.000          46.000  
 116653181.41947  90898576.60447  22198364.4764   22198368.6844   22198364.1134 
        53.000          47.000  
 108060428.07347  84202931.35447  20563214.2754   20563217.5954   20563213.9474 
        56.000          51.000  
 123060482.30647  95891266.18747  23417642.8914   23417649.9754   23417642.4064 
        46.000          42.000  
 130605325.38047 101770386.00447  24853362.6684   24853367.7394   24853363.1514 
        44.000          36.000  
 111615437.79647  86973048.90247  21239727.6894   21239732.8274   21239728.0414 
        52.000          46.000  
 125817880.23647  98039877.81247  23942367.8154   23942373.3394   23942367.1744 
        46.000          39.000  
 10  1 15 19  2 30.0000000  0 10G02G04G05G09G12G15G17G18G27G30
 123792412.53147  96461611.42547  23556918.5184   23556923.7264   23556919.1154 
        46.000          41.000  
 129142919.14147 100630841.00947  24575080.6774   24575088.1954   24575080.5254 
        46.000          38.000  
 131459253.84047 102435753.76147  25015887.3544   25015893.0894   25015889.1144 
        45.000          39.000  
 119422287.98347  93056321.78647  22725309.4494   22725314.5704   22725309.1634 
        52.000          46.000  
 116652725.63647  90898221.44847  22198277.5214   22198281.4484   22198277.4234 
        53.000          47.000  
 108061522.24447  84203783.95547  20563422.2604   20563425.9014   20563422.2164 
        56.000          51.000  
 123063540.74747  95893649.38247  23418225.4024   23418232.1744   23418224.4614 
        47.000          42.000  
 130605803.50747 101770758.56747  24853454.5044   24853458.8974   24853454.1964 
        43.000          36.000  
 111613861.64747  86971820.73347  21239427.4254   21239433.2174   21239428.0914 
        52.000          46.000  
 125816729.61947  98038981.23147  23942148.5174   23942153.7174   23942148.3504 
        46.000          39.000  
 10  1 15 19  2 31.0000000  0 10G02G04G05G09G12G15G17G18G27G30
 123790510.06647  96460128.98647  23556556.8114   23556562.0184   23556556.6924 
        46.000          41.000  
 129142092.49847 100630196.87147  24574922.9824   24574931.6904   24574922.9664 
        45.000          38.000  
 131461260.64147 102437317.49947  25016268.7814   25016274.3154   25016270.6194 
        45.000          39.000  
 119420472.64547  93054907.23747  22724962.8524   22724968.9454   22724963.6734 
        52.000          46.000  
 116652270.02547  90897866.42547  22198190.8864   22198194.4864   22198190.7154 
        53.000          47.000  
 108062616.97247  84204636.98947  20563630.9514   20563634.1154   20563630.5184 
        56.000          51.000  
 123066599.45647  95896032.78347  23418807.8064   23418813.7954   23418806.4994 
        46.000          42.000  
 130606281.86647 101771131.31147  24853545.4334   24853549.8604   24853545.2244 
        43.000          36.000  
 111612285.60247  86970592.64247  21239127.6374   21239133.2394   21239128.1534 
        52.000          46.000  
 125815579.15847  98038084.76747  23941929.6724   23941934.0514   23941929.5294 
        46.000          39.000  
 10  1 15 19  2 32.0000000  0 10G02G04G05G09G12G15G17G18G27G30
 123788607.66047  96458646.59247  23556195.3824   23556199.5574   23556194.4454 
        46.000          41.000  
 129141266.08347 100629552.91347  24574766.2454   24574774.5944   24574765.7394 
        46.000          38.000  
 131463267.23947 102438881.08047  25016650.2604   25016656.2904   25016652.2444 
        44.000          39.000  
 119418657.32847  93053492.70547  22724617.8144   22724624.3724   22724618.1684 
        52.000          46.000  
 116651814.73147  90897511.65047  22198104.4544   22198108.1744   22198104.1454 
        53.000          47.000  
 108063712.40047  84205490.56847  20563839.3404   20563842.7374   20563838.9774 
        55.000          51.000  
 123069658.55347  95898416.48847  23419389.0904   23419395.5764   23419388.6894 
        46.000          42.000  
 130606760.65947 101771504.39447  24853635.4324   24853641.8614   24853636.5964 
        44.000          36.000  
 111610709.80347  86969364.74847  21238827.9944   21238834.1914   21238828.3234 
        52.000          46.000  
 125814429.01847  98037188.55347  23941710.2224   23941716.6024   23941710.6094 
        46.000          39.000  
 10  1 15 19  2 33.0000000  0 10G02G04G05G09G12G15G17G18G27G30
 123786705.30247  96457164.23647  23555834.1154   23555838.6704   23555832.4454 
        46.000          41.000  
 129140439.89547 100628909.13047  24574609.0584   24574616.7424   24574608.7004 
        45.000          39.000  
 131465273.55947 102440444.44347  25017032.2044   25017038.3794   25017033.9984 
        45.000          39.000  
 119416841.98447  93052078.15247  22724272.4974   22724277.6894   22724272.6684 
        52.000          46.000  
 116651359.72147  90897157.09547  22198017.8794   22198021.8564   22198017.5354 
        53.000          47.000  
 108064808.49147  84206344.66647  20564047.7414   20564051.1484   20564047.5204 
        56.000          51.000  
 123072718.05147  95900800.50747  23419971.6554   23419978.2664   23419971.1114 
        47.000          42.000  
 130607239.82447 101771877.77047  24853727.0224   24853732.6974   24853727.8124 
        43.000          36.000  
 111609134.22547  86968137.02747  21238527.8904   21238533.7804   21238528.5834 
        52.000          46.000  
 125813279.14947  98036292.55547  23941490.9794   23941497.7284   23941491.8904 
        46.000          39.000  
 10  1 15 19  2 34.0000000  0 10G02G04G05G09G12G15G17G18G27G30
 123784802.83047  96455681.79147  23555471.4154   23555475.7624   23555470.5094 
        46.000          41.000  
 129139613.82547 100628265.43947  24574453.3204   24574459.6204   24574452.0364 
        46.000          39.000  
 131467279.51947 102442007.52647  25017413.3494   25017420.7654   25017415.5814 
        45.000          39.000  
 119415026.47347  93050663.46947  22723927.3014   22723932.7554   22723927.2084 
        51.000          46.000  
 116650904.85247  90896802.65147  22197930.5654   22197935.1454   22197930.9914 
        53.000          47.000  
 108065905.10047  84207199.16547  20564256.3654   20564259.8834   20564256.2004 
        56.000          51.000  
 123075777.78347  95903184.71047  23420554.0474   23420560.0714   23420553.3834 
        47.000          42.000  
 130607719.21647 101772251.32547  24853817.7724   24853824.3074   24853819.1024 
        44.000          36.000  
 111607558.71047  86966909.35147  21238227.8694   21238233.8034   21238228.7484 
        52.000          46.000  
 125812129.40847  98035396.65447  23941273.4534   23941278.9134   23941273.1824 
        46.000          39.000  
 10  1 15 19  2 35.0000000  0 10G02G04G05G09G12G15G17G18G27G30
 123782900.42047  96454199.39747  23555109.1134   23555114.3474   23555108.8134 
        46.000          41.000  
 129138788.04347 100627621.97147  24574296.4614   24574302.3394   24574295.5854 
        46.000          39.000  
 131469285.24247 102443570.42647  25017795.3194   25017802.0724   25017796.9164 
        45.000          39.000  
 119413210.97747  93049248.80147  22723581.5694   22723587.5114   22723581.7264 
        52.000          46.000  
 116650450.29047  90896448.44647  22197844.6884   22197848.9594   22197844.4724 
        53.000          47.000  
 108067002.41047  84208054.21147  20564465.1414   20564468.7814   20564464.9974 
        56.000          51.000  
 123078837.92047  95905569.23047  23421137.3694   23421142.4384   23421135.7564 
        46.000          42.000  
 130608198.99847 101772625.18547  24853910.0294   24853915.0664   24853910.4374 
        44.000          36.000  
 111605983.44547  86965681.87347  21237928.6454   21237934.2684   21237929.0084 
        52.000          46.000  
 125810979.97147  98034500.99147  23941054.3594   23941061.0914   23941054.4234 
        46.000          39.000  
 10  1 15 19  2 36.0000000  0 10G02G04G05G09G12G15G17G18G27G30
 123780997.86047  96452716.88847  23554747.5024   23554751.6224   23554746.9494 
        47.000          41.000  
 129137962.30647 100626978.53647  24574138.7104   24574144.7304   24574139.1904 
        46.000          39.000  
 131471290.52047 102445132.97947  25018176.9224   25018183.7764   25018178.1494 
        45.000          39.000  
 119411395.24147  93047833.94147  22723236.4144   22723242.1294   22723236.1954 
        52.000          46.000  
 116649995.81747  90896094.31047  22197758.1634   22197762.0114   22197758.0574 
        53.000          47.000  
 108068100.17947  84208909.61447  20564674.4404   20564677.7084   20564673.9074 
        56.000          51.000  
 123081898.22147  95907953.87847  23421719.2064   23421724.8184   23421717.8244 
        46.000          42.000  
 130608678.97047 101772999.19247  24854000.6794   24854006.5194   24854001.7134 
        44.000          36.000  
 111604408.18547  86964454.40047  21237628.9204   21237634.2534   21237629.2604 
        52.000          46.000  
 125809830.60247  98033605.38147  23940836.0384   23940842.6184   23940835.7794 
        47.000          39.000  
 10  1 15 19  2 37.0000000  0 10G02G04G05G09G12G15G17G18G27G30
 123779095.44847  96451234.49447  23554384.9854   23554389.8204   23554384.8594 
        46.000          41.000  
 129137136.89047 100626335.34847  24573980.3344   24573988.0034   24573982.4004 
        46.000          39.000  
 131473295.66247 102446695.42647  25018558.9534   25018566.1484   25018559.5104 
        45.000          39.000  
 119409579.61547  93046419.17047  22722890.7334   22722896.3204   22722890.6514 
        52.000          46.000  
 116649541.73347  90895740.48047  22197672.2534   22197675.7304   22197671.6394 
        53.000          47.000  
 108069198.72547  84209765.62347  20564883.3274   20564886.5524   20564882.9504 
        56.000          51.000  
 123084959.01247  95910338.90947  23422300.9944   23422307.4044   23422300.0434 
        46.000          42.000  
 130609159.40447 101773373.55947  24854090.8304   24854097.4354   24854093.3214 
        44.000          36.000  
 111602833.26347  86963227.19047  21237329.0804   21237334.8364   21237329.5094 
        52.000          46.000  
 125808681.61547  98032710.07047  23940617.1794   23940622.8614   23940617.0724 
        46.000          39.000  
 10  1 15 19  2 38.0000000  0 10G02G04G05G09G12G15G17G18G27G30
 123777193.04447  96449752.10447  23554022.8764   23554027.2714   23554022.8994 
        47.000          41.000  
 129136311.67447 100625692.31947  24573822.9114   24573829.0174   24573824.7184 
        44.000          39.000  
 131475300.52947 102448257.65747  25018940.8104   25018948.1304   25018941.2164 
        45.000          39.000  
 119407763.93147  93045004.35347  22722545.1334   22722550.4084   22722545.1434 
        52.000          46.000  
 116649087.92047  90895386.85947  22197585.4454   22197589.3884   22197585.2504 
        53.000          47.000  
 108070297.92047  84210622.13947  20565092.3344   20565095.7604   20565092.1274 
        56.000          51.000  
 123088020.17347  95912724.22847  23422883.5134   23422890.7504   23422882.5564 
        46.000          42.000  
 130609640.20047 101773748.20847  24854183.0924   24854189.1204   24854185.0754 
        43.000          36.000  
 111601258.52447  86962000.12347  21237029.4064   21237035.0424   21237029.8174 
        52.000          46.000  
 125807532.90547  98031814.97647  23940398.2944   23940403.2794   23940398.7124 
        46.000          39.000  
 10  1 15 19  2 39.0000000  0 10G02G04G05G09G12G15G17G18G27G30
 123775290.57047  96448269.66047  23553661.5974   23553664.0874   23553661.0294 
        47.000          41.000  
 129135486.57947 100625049.38447  24573666.0054   24573672.5594   24573667.4434 
        45.000          39.000  
 131477305.02747 102449819.60247  25019322.2394   25019328.9484   25019322.5164 
        44.000          39.000  
 119405948.11147  93043589.42947  22722199.9334   22722205.5504   22722199.5774 
        52.000          46.000  
 116648634.27147  90895033.36747  22197498.4574   22197503.2194   22197498.8824 
        53.000          47.000  
 108071397.66747  84211479.08447  20565301.6464   20565305.1204   20565301.4004 
        56.000          51.000  
 123091081.58947  95915109.74547  23423466.1444   23423473.0444   23423465.1624 
        46.000          42.000  
 130610121.25047 101774123.05447  24854274.5564   24854280.0414   24854276.5234 
        44.000          36.000  
 111599683.88147  86960773.13047  21236729.6954   21236735.3354   21236730.0514 
        52.000          46.000  
 125806384.33947  98030919.99047  23940179.6244   23940186.1224   23940180.0354 
        46.000          39.000  
 10  1 15 19  2 40.0000000  0 10G02G04G05G09G12G15G17G18G27G30
 123773388.12847  96446787.24147  23553298.6714   23553302.8924   23553299.1194 
        47.000          41.000  
 129134661.77147 100624406.67447  24573509.5844   24573516.5244   24573510.3594 
        45.000          39.000  
 131479309.29547 102451381.36747  25019703.4444   25019711.1334   25019703.7754 
        44.000          39.000  
 119404132.29047  93042174.50947  22721854.1144   22721859.1244   22721854.0074 
        52.000          46.000  
 116648180.91247  90894680.10147  22197412.9614   22197416.6454   22197412.5834 
        53.000          47.000  
 108072498.09547  84212336.56047  20565510.9484   20565514.5534   20565510.7754 
        56.000          51.000  
 123094143.37647  95917495.55047  23424049.2964   23424056.0424   23424047.9244 
        46.000          42.000  
 130610602.68447 101774498.19847  24854366.4304   24854373.8874   24854368.0304 
        44.000          36.000  
 111598109.47247  86959546.31847  21236430.2054   21236435.8324   21236430.4874 
        52.000          46.000  
 125805236.03947  98030025.21247  23939961.9234   23939966.6304   23939961.4504 
        46.000          39.000  
 10  1 15 19  2 41.0000000  0 10G02G04G05G09G12G15G17G18G27G30
 123771485.51947  96445304.69247  23552936.7754   23552941.0504   23552937.2214 
        47.000          41.000  
 129133836.92447 100623763.93547  24573352.7254   24573358.7724   24573353.1174 
        44.000          39.000  
 131481313.09247 102452942.76447  25020084.4994   25020091.9014   25020084.7824 
        44.000          39.000  
 119402316.21347  93040759.38647  22721507.8754   22721514.4534   22721508.4464 
        52.000          46.000  
 116647727.61947  90894326.88647  22197326.4944   22197330.7194   22197326.3254 
        53.000          47.000  
 108073598.95747  84213194.37447  20565720.6054   20565723.9284   20565720.2784 
        56.000          51.000  
 123097205.33847  95919881.48947  23424632.0124   23424638.6754   23424630.6414 
        47.000          42.000  
 130611084.26147 101774873.45147  24854457.8974   24854465.8544   24854459.4144 
        43.000          36.000  
 111596535.05047  86958319.49747  21236130.7934   21236136.0794   21236130.8474 
        52.000          46.000  
 125804087.81347  98029130.48947  23939743.9634   23939748.9274   23939742.9544 
        46.000          39.000  
 10  1 15 19  2 42.0000000  0 10G02G04G05G09G12G15G17G18G27G30
 123769583.02747  96443822.23447  23552574.5484   23552579.2434   23552575.1434 
        47.000          41.000  
 129133012.45847 100623121.49447  24573195.4844   24573201.4294   24573195.6944 
        45.000          39.000  
 131483316.73447 102454504.04147  25020465.5054   25020472.4174   25020465.3284 
        44.000          39.000  
 119400500.20047  93039344.31347  22721163.1134   22721168.5454   22721162.9214 
        52.000          46.000  
 116647274.68647  90893973.95347  22197239.9554   22197244.7164   22197240.0934 
        53.000          47.000  
 108074700.56947  84214052.77347  20565930.0264   20565933.4264   20565929.8734 
        56.000          51.000  
 123100267.73547  95922267.76847  23425215.1254   23425220.9744   23425213.5094 
        47.000          42.000  
 130611566.29847 101775249.06147  24854550.3974   24854558.0324   24854550.8764 
        44.000          36.000  
 111594960.92347  86957092.90647  21235831.4204   21235836.9624   21235831.1594 
        52.000          46.000  
 125802939.93047  98028236.03547  23939524.7304   23939529.7204   23939524.2424 
        46.000          39.000  
 10  1 15 19  2 43.0000000  0 10G02G04G05G09G12G15G17G18G27G30
 123767680.46447  96442339.71947  23552213.2114   23552218.1034   23552213.0774 
        46.000          41.000  
 129132188.06947 100622479.11447  24573039.2844   24573044.9074   24573038.6884 
        45.000          39.000  
 131485319.99947 102456065.02447  25020846.6684   25020853.9524   25020846.4524 
        44.000          39.000  
 119398684.05647  93037929.13847  22720817.2374   22720822.8604   22720817.4124 
        52.000          46.000  
 116646821.92447  90893621.14947  22197154.3684   22197158.2504   22197153.9794 
        53.000          47.000  
 108075802.73647  84214911.60447  20566139.9814   20566143.4004   20566139.5904 
        56.000          51.000  
 123103330.40947  95924654.26247  23425797.7594   23425803.7304   23425796.3774 
        46.000          42.000  
 130612048.56047 101775624.84847  24854642.3234   24854648.7314   24854642.6154 
        44.000          36.000  
 111593386.89947  86955866.39647  21235531.4644   21235536.7034   21235531.6874 
        52.000          46.000  
 125801792.21447  98027341.70847  23939307.3214   23939311.3234   23939305.7814 
        46.000          39.000  
 10  1 15 19  2 44.0000000  0 10G02G04G05G09G12G15G17G18G27G30
 123765777.98247  96440857.26547  23551849.8404   23551855.1064   23551850.8974 
        46.000          41.000  
 129131363.97847 100621836.96847  24572882.8334   24572889.9174   24572882.0244 
        45.000          39.000  
 131487323.07947 102457625.86347  25021227.4004   25021235.1184   25021227.1754 
        44.000          39.000  
 119396867.94147  93036513.98347  22720471.4584   22720477.1914   22720471.7934 
        52.000          46.000  
 116646369.50547  90893268.61547  22197067.7544   22197071.9614   22197067.8974 
        53.000          47.000  
 108076905.63147  84215771.00247  20566349.3954   20566353.1084   20566349.4154 
        55.000          51.000  
 123106393.51647  95927041.09447  23426380.1144   23426386.1434   23426379.3864 
        46.000          42.000  
 130612531.28147 101776000.99347  24854733.9954   24854740.6874   24854734.3264 
        44.000          36.000  
 111591813.14847  86954640.09647  21235232.2174   21235237.1574   21235232.2654 
        52.000          46.000  
 125800644.81947  98026447.63647  23939088.1744   23939092.4054   23939087.2544 
        46.000          39.000  
 10  1 15 19  2 45.0000000  0 10G02G04G05G09G12G15G17G18G27G30
 123763875.43947  96439374.76547  23551487.9724   23551492.6364   23551488.6514 
        46.000          41.000  
 129130540.02247 100621194.92647  24572725.8394   24572732.8884   24572725.4524 
        45.000          39.000  
 131489325.80747 102459186.42847  25021608.1894   25021616.3924   25021607.9104 
        44.000          39.000  
 119395051.70747  93035098.73647  22720126.1244   22720131.2234   22720126.2054 
        52.000          46.000  
 116645917.26647  90892916.22147  22196982.1214   22196986.1154   22196981.8484 
        53.000          47.000  
 108078009.07747  84216630.82847  20566559.9514   20566563.2054   20566559.3814 
        56.000          51.000  
 123109456.89147  95929428.13347  23426963.6714   23426969.0164   23426962.4504 
        47.000          42.000  
 130613014.25347 101776377.33447  24854826.4234   24854831.5144   24854826.0754 
        44.000          36.000  
 111590239.49947  86953413.87647  21234932.3594   21234938.2094   21234932.7714 
        52.000          46.000  
 125799497.60147  98025553.69947  23938870.1294   23938874.9684   23938868.7364 
        46.000          39.000  
 10  1 15 19  2 46.0000000  0 10G02G04G05G09G12G15G17G18G27G30
 123761972.94247  96437892.30047  23551125.6014   23551129.6274   23551126.3494 
        47.000          41.000  
 129129716.29947 100620553.06447  24572569.9034   24572577.4194   24572568.7874 
        45.000          39.000  
 131491328.25947 102460746.77847  25021989.0284   25021997.1264   25021988.7444 
        43.000          39.000  
 119393235.44547  93033683.46947  22719780.9454   22719785.9014   22719780.5764 
        52.000          46.000  
 116645465.30847  90892564.04647  22196896.0224   22196900.0664   22196895.8134 
        53.000          47.000  
 108079113.19947  84217491.18347  20566769.7134   20566773.2484   20566769.5284 
        56.000          51.000  
 123112520.62447  95931815.45247  23427546.8674   23427552.0424   23427545.4844 
        47.000          42.000  
 130613497.60047 101776753.96747  24854918.5894   24854923.9484   24854918.2314 
        44.000          36.000  
 111588666.06747  86952187.82547  21234633.1084   21234639.0194   21234633.3924 
        52.000          46.000  
 125798350.65247  98024659.97247  23938652.1004   23938656.5824   23938650.5934 
        46.000          39.000  
 10  1 15 19  2 47.0000000  0 10G02G04G05G09G12G15G17G18G27G30
 123760070.29247  96436409.71747  23550764.4174   23550769.1094   23550764.1534 
        46.000          41.000  
 129128892.61947 100619911.23747  24572411.5154   24572419.5074   24572411.4414 
        44.000          39.000  
 131493330.32047 102462306.82347  25022369.9924   25022378.1304   25022369.4014 
        44.000          39.000  
 119391418.96747  93032268.03247  22719434.4574   22719439.7644   22719435.0414 
        52.000          46.000  
 116645013.44347  90892211.94247  22196810.1184   22196814.6544   22196809.8764 
        53.000          47.000  
 108080217.78747  84218351.90047  20566980.2614   20566983.4754   20566979.7164 
        56.000          51.000  
 123115584.54847  95934202.92147  23428129.2984   23428135.3444   23428128.7064 
        47.000          42.000  
 130613981.11047 101777130.72747  24855010.4024   24855015.6214   24855010.2774 
        44.000          36.000  
 111587092.66247  86950961.79747  21234333.8064   21234339.7814   21234333.9154 
        52.000          46.000  
 125797203.78047  98023766.30447  23938433.2724   23938438.0364   23938432.3174 
        46.000          39.000  
 10  1 15 19  2 48.0000000  0 10G02G04G05G09G12G15G17G18G27G30
 123758167.72147  96434927.19847  23550402.5924   23550406.7984   23550402.3124 
        47.000          41.000  
 129128069.22947 100619269.63547  24572254.6054   24572263.3604   24572254.5974 
        45.000          39.000  
 131495332.16947 102463866.70347  25022750.8874   25022758.9574   25022749.8384 
        43.000          39.000  
 119389602.55347  93030852.64447  22719089.2614   22719094.3744   22719089.3954 
        52.000          46.000  
 116644561.93447  90891860.11647  22196724.0184   22196728.4784   22196723.8954 
        53.000          47.000  
 108081323.12447  84219213.20047  20567190.4124   20567193.7494   20567190.1064 
        56.000          51.000  
 123118648.92347  95936590.74447  23428713.0134   23428717.5084   23428711.9434 
        47.000          42.000  
 130614465.09647 101777507.86147  24855102.6344   24855106.9504   24855102.3534 
        43.000          36.000  
 111585519.54247  86949735.99147  21234034.0844   21234039.7014   21234034.4944 
        52.000          46.000  
 125796057.26347  98022872.91647  23938215.5804   23938221.1864   23938214.1474 
        46.000          39.000  
 10  1 15 19  2 49.0000000  0 10G02G04G05G09G12G15G17G18G27G30
 123756265.18747  96433444.70947  23550040.6144   23550045.1274   23550040.6474 
        47.000          41.000  
 129127246.06847 100618628.21147  24572098.1714   24572106.9794   24572098.2084 
        46.000          39.000  
 131497333.76447 102465426.38747  25023131.8084   25023139.6994   25023130.5304 
        43.000          39.000  
 119387786.08347  93029437.21547  22718743.5174   22718748.7264   22718743.7904 
        52.000          46.000  
 116644110.68647  90891508.49447  22196638.2974   22196642.2644   22196637.9984 
        53.000          47.000  
 108082429.08947  84220074.98947  20567400.6914   20567404.3434   20567400.5944 
        56.000          51.000  
 123121713.65347  95938978.84447  23429295.3174   23429300.9744   23429295.0324 
        46.000          42.000  
 130614949.41547 101777885.25547  24855194.4914   24855199.0264   24855194.3644 
        44.000          36.000  
 111583946.61247  86948510.33347  21233734.6914   21233740.7884   21233735.1964 
        52.000          46.000  
 125794910.98347  98021979.71247  23937997.1274   23938002.9594   23937996.0594 
        46.000          39.000  
 10  1 15 19  2 50.0000000  0 10G02G04G05G09G12G15G17G18G27G30
 123754362.51447  96431962.11247  23549677.7654   23549682.7954   23549679.0174 
        47.000          41.000  
 129126422.95947 100617986.82547  24571941.6344   24571949.6654   24571941.8994 
        46.000          39.000  
 131499334.90947 102466985.71947  25023512.8504   25023520.7904   25023511.1914 
        43.000          39.000  
 119385969.41247  93028021.62847  22718397.6834   22718403.2894   22718398.1284 
        52.000          46.000  
 116643659.53347  90891156.94547  22196552.4694   22196556.1884   22196552.1684 
        53.000          47.000  
 108083535.54547  84220937.16147  20567611.4684   20567615.0034   20567611.2244 
        56.000          51.000  
 123124778.57847  95941367.09447  23429878.8094   23429884.7434   23429878.1334 
        46.000          42.000  
 130615433.90747 101778262.78347  24855286.7394   24855291.8044   24855286.7374 
        44.000          36.000  
 111582373.70847  86947284.69347  21233435.7434   21233441.1454   21233435.8444 
        52.000          46.000  
 125793764.79847  98021086.58147  23937779.0764   23937784.8084   23937777.8894 
        46.000          39.000  
 10  1 15 19  2 51.0000000  0 10G02G04G05G09G12G15G17G18G27G30
 123752459.90147  96430479.55947  23549316.0684   23549321.0234   23549317.2134 
        47.000          41.000  
 129125600.08747 100617345.62547  24571785.1204   24571792.8694   24571785.2844 
        45.000          39.000  
 131501335.79147 102468544.84647  25023893.7584   25023902.4434   25023891.9644 
        44.000          39.000  
 119384152.72147  93026606.02747  22718052.8204   22718058.1134   22718052.4004 
        52.000          46.000  
 116643208.67847  90890805.62947  22196466.6924   22196470.4954   22196466.3664 
        53.000          47.000  
 108084642.67747  84221799.86047  20567822.1704   20567825.6254   20567821.9034 
        56.000          51.000  
 123127843.87847  95943755.63947  23430461.9894   23430468.1764   23430461.2974 
        47.000          42.000  
 130615918.79347 101778640.61647  24855377.9484   24855384.5244   24855378.8694 
        43.000          36.000  
 111580801.02947  86946059.23047  21233136.5884   21233141.7104   21233136.5814 
        52.000          46.000  
 125792618.89647  98020193.67147  23937559.8694   23937565.5754   23937560.0294 
        46.000          39.000  
 10  1 15 19  2 52.0000000  0 10G02G04G05G09G12G15G17G18G27G30
 123750557.27347  96428996.99647  23548955.4614   23548959.0714   23548955.2424 
        47.000          41.000  
 129124777.44047 100616704.60047  24571628.1334   24571635.7334   24571628.8744 
        46.000          39.000  
 131503336.42847 102470103.78347  25024274.5404   25024283.4634   25024272.9084 
        43.000          39.000  
 119382335.96947  93025190.37847  22717706.4214   22717711.7234   22717706.7544 
        52.000          46.000  
 116642758.06347  90890454.49947  22196380.7444   22196385.0364   22196380.6084 
        53.000          47.000  
 108085750.43047  84222663.04647  20568032.9314   20568036.3074   20568032.6744 
        56.000          51.000  
 123130909.51647  95946144.44647  23431045.0644   23431052.0074   23431044.6874 
        47.000          42.000  
 130616403.98247 101779018.68547  24855470.3524   24855477.3394   24855471.1124 
        43.000          36.000  
 111579228.52447  86944833.90347  21232837.3734   21232842.5874   21232837.4014 
        52.000          46.000  
 125791473.22847  98019300.94747  23937342.8154   23937347.3734   23937341.9314 
        46.000          39.000  
 10  1 15 19  2 53.0000000  0 10G02G04G05G09G12G15G17G18G27G30
 123748654.64247  96427514.42847  23548593.1464   23548596.9424   23548593.2124 
        47.000          41.000  
 129123955.01347 100616063.74747  24571472.9274   24571479.4304   24571472.8774 
        46.000          38.000  
 131505336.73947 102471662.46647  25024654.9414   25024663.6914   25024653.4184 
        43.000          39.000  
 119380519.17447  93023774.69347  22717360.7504   22717366.3124   22717361.0614 
        52.000          46.000  
 116642307.70147  90890103.56747  22196294.8134   22196299.2614   22196294.8514 
        53.000          47.000  
 108086858.82747  84223526.73147  20568243.8674   20568247.1974   20568243.6194 
        56.000          51.000  
 123133975.49747  95948533.52047  23431628.7114   23431635.6584   23431628.2184 
        47.000          42.000  
 130616889.56347 101779397.06447  24855562.8344   24855568.5514   24855563.6074 
        43.000          36.000  
 111577656.21447  86943608.72847  21232537.6044   21232543.5874   21232538.3314 
        52.000          46.000  
 125790327.81247  98018408.41347  23937124.0324   23937130.0304   23937123.8724 
        46.000          39.000  
 10  1 15 19  2 54.0000000  0 10G02G04G05G09G12G15G17G18G27G30
 123746752.10247  96426031.93047  23548230.9124   23548234.1924   23548230.8914 
        47.000          41.000  
 129123132.83247 100615423.08747  24571316.2324   24571321.6914   24571316.8454 
        46.000          38.000  
 131507336.87447 102473221.01147  25025034.9694   25025043.7474   25025033.6644 
        43.000          39.000  
 119378702.38247  93022359.01447  22717015.0374   22717020.5514   22717015.3674 
        52.000          46.000  
 116641857.64847  90889752.87747  22196209.2474   22196213.3254   22196209.1714 
        53.000          47.000  
 108087967.90247  84224390.94447  20568454.9094   20568458.1674   20568454.6794 
        56.000          51.000  
 123137041.87947  95950922.90547  23432212.1484   23432218.8134   23432211.8474 
        47.000          42.000  
 130617375.49047 101779775.70947  24855656.3684   24855661.2654   24855655.9934 
        43.000          36.000  
 111576084.13147  86942383.72847  21232238.7414   21232244.2724   21232239.1754 
        52.000          46.000  
 125789182.67247  98017516.09647  23936905.7994   23936912.4764   23936906.0204 
        46.000          39.000  
 10  1 15 19  2 55.0000000  0 10G02G04G05G09G12G15G17G18G27G30
 123744849.45247  96424549.34747  23547868.6474   23547871.6754   23547868.3844 
        46.000          41.000  
 129122310.74947 100614782.50247  24571159.8404   24571165.0554   24571160.5224 
        45.000          38.000  
 131509336.61147 102474779.24447  25025415.8634   25025424.8134   25025414.1114 
        43.000          39.000  
 119376885.42847  93020943.20647  22716669.2464   22716674.2584   22716669.5714 
        52.000          46.000  
 116641407.74447  90889402.30147  22196124.3114   22196128.7384   22196123.5214 
        53.000          47.000  
 108089077.52347  84225255.58447  20568666.1024   20568669.4324   20568665.9024 
        56.000          51.000  
 123140108.50547  95953312.48147  23432796.8864   23432803.2674   23432795.6654 
        47.000          42.000  
 130617861.67647 101780154.55547  24855748.4254   24855754.7534   24855748.4534 
        43.000          36.000  
 111574512.13747  86941158.79947  21231939.4944   21231945.0594   21231940.0194 
        52.000          46.000  
 125788037.68847  98016623.89847  23936688.3274   23936695.3924   23936688.2514 
        46.000          39.000  
 10  1 15 19  2 56.0000000  0 10G02G04G05G09G12G15G17G18G27G30
 123742946.72247  96423066.70047  23547506.4384   23547510.2114   23547506.1764 
        47.000          41.000  
 129121488.76347 100614141.99047  24571001.5974   24571009.0354   24571003.7374 
        45.000          39.000  
 131511335.96447 102476337.17947  25025796.3694   25025805.4144   25025795.0344 
        43.000          39.000  
 119375068.33947  93019527.29547  22716323.3334   22716329.3074   22716323.7334 
        52.000          46.000  
 116640957.99347  90889051.84647  22196038.2384   22196042.3114   22196037.9594 
        53.000          47.000  
 108090187.67647  84226120.63747  20568877.1664   20568880.8044   20568877.1544 
        56.000          51.000  
 123143175.37047  95955702.24247  23433381.2414   23433386.5354   23433379.4644 
        47.000          42.000  
 130618348.11347 101780533.59847  24855841.4784   24855845.8524   24855840.9324 
        43.000          36.000  
 111572940.23347  86939933.93947  21231640.4204   21231646.3004   21231640.9754 
        52.000          46.000  
 125786892.84147  98015731.80947  23936471.1084   23936477.6714   23936470.2604 
        46.000          39.000  
 10  1 15 19  2 57.0000000  0 10G02G04G05G09G12G15G17G18G27G30
 123741044.05247  96421584.09947  23547144.1024   23547148.9614   23547144.4804 
        48.000          41.000  
 129120667.03747 100613501.68447  24570845.4874   24570851.5814   24570846.6274 
        44.000          39.000  
 131513335.09147 102477894.93747  25026176.7274   25026185.3524   25026175.4454 
        43.000          39.000  
 119373251.24947  93018111.38347  22715977.3594   22715983.0214   22715977.9794 
        52.000          46.000  
 116640508.55047  90888701.63047  22195953.1444   22195956.8184   22195952.4504 
        53.000          47.000  
 108091298.51947  84226986.22947  20569088.7714   20569092.1414   20569088.5204 
        56.000          51.000  
 123146242.62747  95958092.30947  23433964.2034   23433968.8224   23433963.3204 
        47.000          42.000  
 130618834.94147 101780912.94647  24855933.5684   24855938.7984   24855933.6744 
        43.000          36.000  
 111571368.56947  86938709.26947  21231341.2794   21231346.8664   21231341.7664 
        52.000          46.000  
 125785748.30347  98014839.96247  23936253.5464   23936260.4874   23936252.5214 
        46.000          39.000  
 10  1 15 19  2 58.0000000  0 10G02G04G05G09G12G15G17G18G27G30
 123739141.40447  96420101.51847  23546782.8564   23546786.6424   23546782.7194 
        48.000          41.000  
 129119845.53547 100612861.55247  24570689.2014   24570696.8074   24570689.6884 
        45.000          38.000  
 131515333.96247 102479452.49647  25026557.3634   25026565.2934   25026555.6224 
        43.000          39.000  
 119371434.10147  93016695.42547  22715632.3034   22715637.3294   22715632.2244 
        52.000          46.000  
 116640059.36947  90888351.62047  22195866.8874   22195871.0514   22195866.9784 
        53.000          47.000  
 108092409.99447  84227852.31347  20569300.1994   20569303.4424   20569300.0834 
        56.000          51.000  
 123149310.22947  95960482.64647  23434548.2574   23434553.2794   23434547.2854 
        47.000          42.000  
 130619322.10747 101781292.55447  24856026.1424   24856032.6764   24856026.1984 
        43.000          36.000  
 111569797.09047  86937484.74247  21231041.9984   21231047.9534   21231042.7474 
        52.000          47.000  
 125784604.00147  98013948.29947  23936035.6804   23936043.1564   23936034.9234 
        46.000          39.000  
 10  1 15 19  2 59.0000000  0 10G02G04G05G09G12G15G17G18G27G30
 123737238.78547  96418618.96247  23546419.8244   23546423.6674   23546421.2754 
        48.000          41.000  
 129119024.26947 100612221.60447  24570534.0344   24570541.1164   24570533.5394 
        45.000          39.000  
 131517332.53747 102481009.82447  25026937.8924   25026944.9214   25026935.8154 
        43.000          39.000  
 119369616.91547  93015279.43747  22715285.8754   22715291.1524   22715286.4154 
        52.000          46.000  
 116639610.43847  90888001.80547  22195781.7454   22195786.0984   22195781.5404 
        53.000          47.000  
 108093522.10947  84228718.89547  20569511.8164   20569515.2754   20569511.7274 
        56.000          51.000  
 123152378.20747  95962873.27647  23435131.1874   23435137.8514   23435131.3124 
        47.000          42.000  
 130619809.59947 101781672.41747  24856119.4684   24856125.5384   24856118.8274 
        43.000          36.000  
 111568225.80647  86936260.36847  21230743.4374   21230748.8554   21230743.6494 
        52.000          46.000  
 125783459.95147  98013056.83247  23935817.7324   23935826.3994   23935817.3814 
        46.000          39.000  
 10  1 15 19  3  0.0000000  0 10G02G04G05G09G12G15G17G18G27G30
 123735336.01447  96417136.28747  23546058.1624   23546062.2614   23546059.6434 
        48.000          41.000  
 129118203.05047 100611581.69347  24570378.4614   24570385.2774   24570377.3944 
        45.000          39.000  
 131519330.70947 102482566.83947  25027317.4154   25027325.4604   25027315.6964 
        43.000          39.000  
 119367799.54147  93013863.30147  22714939.8704   22714945.3954   22714940.5814 
        52.000          46.000  
 116639161.62547  90887652.08047  22195696.8274   22195700.7824   22195696.0994 
        53.000          47.000  
 108094634.72447  84229585.86647  20569723.7864   20569727.0364   20569723.4584 
        56.000          51.000  
 123155446.35847  95965264.04147  23435714.4024   23435721.2884   23435715.2214 
        47.000          42.000  
 130620297.31247 101782052.45147  24856211.5224   24856219.0974   24856211.6144 
        43.000          36.000  
 111566654.56347  86935036.02447  21230444.2204   21230449.5454   21230444.5794 
        52.000          46.000  
 125782315.98747  98012165.43447  23935601.2474   23935606.6004   23935599.6654 
        46.000          39.000  
 10  1 15 19  3  1.0000000  0 10G02G04G05G09G12G15G17G18G27G30
 123733433.35347  96415653.69547  23545696.9604   23545700.4994   23545697.9384 
        48.000          41.000  
 129117382.12447 100610942.01047  24570222.5004   24570228.4414   24570221.2934 
        46.000          39.000  
 131521328.66347 102484123.68347  25027698.3044   25027706.9064   25027696.2344 
        43.000          39.000  
 119365982.19847  93012447.19047  22714594.5714   22714599.4204   22714594.7634 
        52.000          46.000  
 116638713.15347  90887302.62247  22195611.0644   22195615.3484   22195610.7514 
        53.000          47.000  
 108095748.04747  84230453.39047  20569935.4524   20569939.0384   20569935.3194 
        56.000          51.000  
 123158514.95147  95967655.15347  23436299.5404   23436304.8264   23436299.0384 
        47.000          42.000  
 130620785.43547 101782432.80547  24856304.5934   24856312.8154   24856304.6654 
        43.000          36.000  
 111565083.59547  86933811.89547  21230145.9424   21230151.5604   21230145.6114 
        52.000          46.000  
 125781172.36847  98011274.30347  23935383.4084   23935389.3224   23935382.1564 
        46.000          39.000  
 10  1 15 19  3  2.0000000  0 10G02G04G05G09G12G15G17G18G27G30
 123731530.78647  96414171.17947  23545334.6164   23545338.2504   23545336.0304 
        48.000          41.000  
 129116561.50147 100610302.56347  24570066.2004   24570072.3594   24570065.4514 
        45.000          39.000  
 131523326.42647 102485680.38047  25028078.2744   25028086.4534   25028076.5244 
        42.000          39.000  
 119364164.90247  93011031.11747  22714248.6844   22714254.1084   22714248.9984 
        52.000          46.000  
 116638265.03047  90886953.43347  22195525.9514   22195529.8144   22195525.5444 
        53.000          47.000  
 108096862.10447  84231321.48647  20570147.5274   20570150.8814   20570147.2834 
        56.000          51.000  
 123161583.98247  95970046.60447  23436882.0234   23436889.0024   23436882.9744 
        47.000          42.000  
 130621273.99847 101782813.50347  24856397.3554   24856405.7984   24856397.7954 
        43.000          36.000  
 111563512.90047  86932587.97847  21229846.4664   21229851.8664   21229846.6344 
        52.000          46.000  
 125780029.07147  98010383.42247  23935164.1244   23935170.6734   23935164.5694 
        46.000          39.000  
 10  1 15 19  3  3.0000000  0 10G02G04G05G09G12G15G17G18G27G30
 123729628.09747  96412688.56647  23544971.2524   23544976.7544   23544973.9334 
        47.000          41.000  
 129115740.93847 100609663.16247  24569909.2104   24569915.5014   24569909.0994 
        44.000          39.000  
 131525323.80747 102487236.78047  25028457.9764   25028466.7664   25028456.2464 
        43.000          39.000  
 119362347.40547  93009614.88547  22713902.4294   22713908.1704   22713903.1404 
        52.000          46.000  
 116637817.02147  90886604.33547  22195440.5794   22195444.5764   22195440.3264 
        53.000          47.000  
 108097976.66047  84232189.97047  20570359.4414   20570362.8144   20570359.3784 
        56.000          51.000  
 123164653.22447  95972438.21947  23437466.5074   23437472.1564   23437466.9634 
        47.000          42.000  
 130621762.75647 101783194.35247  24856490.1964   24856498.9774   24856490.8244 
        44.000          36.000  
 111561942.25647  86931364.10047  21229548.1924   21229553.2264   21229547.8114 
        52.000          46.000  
 125778885.88647  98009492.62647  23934946.4324   23934952.4184   23934946.9514 
        46.000          39.000  
 10  1 15 19  3  4.0000000  0 10G02G04G05G09G12G15G17G18G27G30
 123727725.31847  96411205.88247  23544609.5434   23544614.7644   23544611.5114 
        47.000          41.000  
 129114920.48147 100609023.84347  24569752.3064   24569759.3184   24569752.2134 
        44.000          39.000  
 131527320.78347 102488792.86547  25028838.2394   25028847.6054   25028836.0524 
        43.000          39.000  
 119360529.78747  93008198.55847  22713556.8234   22713562.3054   22713557.2364 
        52.000          46.000  
 116637369.18247  90886255.36847  22195355.5944   22195359.4654   22195355.1034 
        53.000          47.000  
 108099091.77247  84233058.88847  20570571.6584   20570575.1574   20570571.6164 
        56.000          51.000  
 123167722.72047  95974830.03247  23438051.3064   23438056.6534   23438050.8974 
        46.000          42.000  
 130622251.77747 101783575.40747  24856582.5094   24856591.3614   24856583.8734 
        43.000          36.000  
 111560371.71147  86930140.29947  21229248.2284   21229254.3484   21229248.9324 
        52.000          46.000  
 125777742.85347  98008601.94847  23934729.7564   23934735.3184   23934729.4174 
        46.000          39.000  
 10  1 15 19  3  5.0000000  0 10G02G04G05G09G12G15G17G18G27G30
 123725822.54747  96409723.20447  23544248.1564   23544251.9424   23544248.9104 
        47.000          41.000  
 129114100.23647 100608384.69147  24569595.9134   24569603.5374   24569595.5674 
        44.000          39.000  
 131529317.49847 102490348.74747  25029217.5784   25029227.0784   25029216.1784 
        43.000          39.000  
 119358712.10147  93006782.18147  22713210.4614   22713216.7524   22713211.2544 
        52.000          46.000  
 116636921.58847  90885906.59547  22195269.8524   22195274.1644   22195269.9374 
        53.000          47.000  
 108100207.50347  84233928.28747  20570784.2354   20570787.6074   20570783.8974 
        56.000          51.000  
 123170792.54647  95977222.10247  23438635.7264   23438641.0744   23438635.0004 
        47.000          42.000  
 130622741.10947 101783956.70447  24856676.5624   24856684.8054   24856677.3434 
        44.000          36.000  
 111558801.34247  86928916.63547  21228949.5994   21228955.5854   21228950.1054 
        52.000          46.000  
 125776600.05647  98007711.45647  23934512.0804   23934518.7094   23934511.9354 
        46.000          39.000  
 10  1 15 19  3  6.0000000  0 10G02G04G05G09G12G15G17G18G27G30
 123723919.82447  96408240.56347  23543887.0404   23543891.5574   23543886.8844 
        48.000          41.000  
 129113280.25347 100607745.74547  24569440.5614   24569447.8214   24569439.6414 
        44.000          39.000  
 131531313.96447 102491904.43547  25029597.8934   25029607.2834   25029596.2104 
        43.000          39.000  
 119356894.42047  93005365.80647  22712865.2364   22712870.2944   22712865.3964 
        52.000          46.000  
 116636474.28947  90885558.05047  22195184.8864   22195188.7884   22195184.8334 
        53.000          47.000  
 108101323.91647  84234798.22047  20570996.2404   20570999.9484   20570996.3774 
        56.000          51.000  
 123173862.76747  95979614.47747  23439219.9184   23439226.2824   23439219.1524 
        47.000          42.000  
 130623230.84947 101784338.32047  24856770.4564   24856777.8904   24856770.7054 
        44.000          36.000  
 111557231.21047  86927693.15547  21228651.6684   21228656.8424   21228651.2854 
        52.000          46.000  
 125775457.55947  98006821.19947  23934294.5574   23934301.1914   23934294.5034 
        46.000          39.000  
 10  1 15 19  3  7.0000000  0 10G02G04G05G09G12G15G17G18G27G30
 123722017.02547  96406757.86247  23543523.9874   23543528.3874   23543524.8284 
        48.000          41.000  
 129112460.39047 100607106.89247  24569283.9344   24569293.1124   24569284.0274 
        45.000          39.000  
 131533310.06847 102493459.84247  25029977.9724   25029987.0844   25029975.9344 
        44.000          39.000  
 119355076.58747  93003949.31247  22712518.8774   22712524.7714   22712519.4734 
        52.000          46.000  
 116636027.14347  90885209.62347  22195099.8314   22195103.9174   22195099.7584 
        53.000          47.000  
 108102440.86847  84235668.57047  20571209.1354   20571212.7134   20571208.9644 
        56.000          51.000  
 123176933.22947  95982007.03947  23439803.7464   23439810.3174   23439803.3744 
        47.000          42.000  
 130623720.81347 101784720.11247  24856864.0984   24856870.9734   24856864.1514 
        43.000          36.000  
 111555661.16447  86926469.74447  21228352.1844   21228357.8984   21228352.5284 
        52.000          46.000  
 125774315.19647  98005931.04647  23934076.3004   23934082.8774   23934077.0344 
        46.000          39.000  
 10  1 15 19  3  8.0000000  0 10G02G04G05G09G12G15G17G18G27G30
 123720114.28147  96405275.20847  23543161.3094   23543165.6814   23543162.8264 
        48.000          41.000  
 129111640.81547 100606468.26647  24569128.7614   24569138.0464   24569128.5734 
        46.000          39.000  
 131535305.94147 102495015.06847  25030357.9424   25030366.2934   25030355.8874 
        44.000          39.000  
 119353258.75447  93002532.82147  22712173.3874   22712178.6524   22712173.4914 
        52.000          46.000  
 116635580.30647  90884861.43947  22195014.7314   22195019.4114   22195014.7964 
        53.000          47.000  
 108103558.51447  84236539.46347  20571421.7404   20571425.0684   20571421.6584 
        56.000          51.000  
 123180004.09047  95984399.91347  23440388.8014   23440393.9274   23440387.9784 
        48.000          42.000  
 130624211.16747 101785102.20647  24856958.1984   24856965.3414   24856957.8534 
        44.000          36.000  
 111554091.35547  86925246.51947  21228053.5504   21228059.5794   21228053.8594 
        52.000          46.000  
 125773173.12447  98005041.11847  23933859.6994   23933866.3424   23933859.6084 
        46.000          39.000  
 10  1 15 19  3  9.0000000  0 10G02G04G05G09G12G15G17G18G27G30
 123718211.55047  96403792.56447  23542798.8844   23542803.5114   23542801.0474 
        48.000          41.000  
 129110821.43447 100605829.79047  24568973.9934   24568982.4274   24568973.3964 
        45.000          39.000  
 131537301.52247 102496570.06547  25030737.7144   25030745.5504   25030735.6834 
        42.000          39.000  
 119351440.86547  93001116.28847  22711827.3204   22711833.1664   22711827.5334 
        52.000          46.000  
 116635133.70747  90884513.43947  22194930.1534   22194933.8054   22194929.8404 
        53.000          47.000  
 108104676.79747  84237410.85247  20571634.5634   20571637.8574   20571634.5104 
        56.000          51.000  
 123183075.28347  95986793.04347  23440973.7984   23440979.0904   23440972.5004 
        47.000          42.000  
 130624701.86447 101785484.56847  24857051.0404   24857057.0454   24857051.2334 
        43.000          36.000  
 111552521.73547  86924023.44047  21227754.8014   21227760.3234   21227755.2144 
        52.000          46.000  
 125772031.26347  98004151.35747  23933642.3924   23933650.2124   23933642.3814 
        46.000          39.000  
 10  1 15 19  3 10.0000000  0 10G02G04G05G09G12G15G17G18G27G30
 123716308.80747  96402309.91047  23542436.8784   23542441.6194   23542439.2564 
        48.000          41.000  
 129110002.23947 100605191.45847  24568818.4364   24568825.7254   24568818.0414 
        45.000          39.000  
 131539296.81747 102498124.84047  25031117.3494   25031124.9094   25031115.2704 
        43.000          39.000  
 119349622.90847  92999699.70147  22711481.0584   22711486.2254   22711481.6054 
        52.000          46.000  
 116634687.35847  90884165.63547  22194844.7494   22194849.1204   22194844.8704 
        53.000          47.000  
 108105795.71047  84238282.73147  20571847.4944   20571850.9674   20571847.4114 
        56.000          51.000  
 123186146.81447  95989186.43947  23441558.0704   23441563.7084   23441557.2884 
        47.000          42.000  
 130625192.88647 101785867.18547  24857144.5604   24857149.7864   24857144.6664 
        44.000          36.000  
 111550952.28347  86922800.49247  21227456.3604   21227462.0154   21227456.5314 
        52.000          46.000  
 125770889.65547  98003261.79447  23933425.7104   23933432.1944   23933425.1164 
        46.000          39.000  
 10  1 15 19  3 11.0000000  0 10G02G04G05G09G12G15G17G18G27G30
 123714405.99947  96400827.20647  23542075.3044   23542079.5634   23542077.3234 
        48.000          41.000  
 129109183.15747 100604553.21347  24568661.5084   24568668.7524   24568662.1774 
        45.000          39.000  
 131541291.74147 102499679.32547  25031496.9914   25031505.9154   25031495.1784 
        43.000          39.000  
 119347804.81447  92998283.00647  22711135.2844   22711140.5194   22711135.5674 
        52.000          46.000  
 116634241.16447  90883817.95147  22194760.1274   22194764.1214   22194760.0534 
        53.000          47.000  
 108106915.15947  84239155.02747  20572060.3264   20572063.8954   20572060.4494 
        56.000          51.000  
 123189218.59047  95991580.02847  23442142.3254   23442148.7634   23442142.0374 
        47.000          42.000  
 130625684.15147 101786249.99247  24857238.2624   24857242.1464   24857238.0254 
        43.000          36.000  
 111549382.93047  86921577.62147  21227157.8454   21227162.9664   21227158.0304 
        52.000          46.000  
 125769748.19847  98002372.34747  23933209.0204   23933215.4924   23933207.8734 
        46.000          39.000  
 10  1 15 19  3 12.0000000  0 10G02G04G05G09G12G15G17G18G27G30
 123712503.26547  96399344.55647  23541713.8114   23541717.6024   23541715.4644 
        48.000          41.000  
 129108364.32447 100603915.16047  24568504.3234   24568511.3064   24568505.3314 
        43.000          39.000  
 131543286.44847 102501233.64147  25031876.6714   25031885.1864   25031874.6754 
        43.000          39.000  
 119345986.73047  92996866.31947  22710789.4924   22710794.9464   22710789.4644 
        52.000          46.000  
 116633795.28547  90883470.51147  22194675.1394   22194678.8764   22194675.2484 
        53.000          47.000  
 108108035.29847  84240027.86347  20572273.6094   20572277.0184   20572273.6104 
        56.000          51.000  
 123192290.77747  95993973.93647  23442726.8274   23442731.9594   23442726.6584 
        47.000          42.000  
 130626175.82447 101786633.11647  24857331.8954   24857336.0964   24857331.7274 
        44.000          36.000  
 111547813.81547  86920354.93647  21226858.7194   21226865.0724   21226859.4834 
        52.000          46.000  
 125768607.04547  98001483.14047  23932991.5594   23932998.2154   23932990.8324 
        46.000          39.000  
 10  1 15 19  3 13.0000000  0 10G02G04G05G09G12G15G17G18G27G30
 123710600.58047  96397861.94547  23541351.6584   23541354.6584   23541353.3414 
        48.000          41.000  
 129107545.73447 100603277.29747  24568348.1564   24568354.6554   24568348.6114 
        44.000          39.000  
 131545280.91747 102502787.77147  25032256.0734   25032264.0064   25032254.3024 
        43.000          39.000  
 119344168.63047  92995449.62147  22710443.6074   22710448.6464   22710443.4824 
        52.000          46.000  
 116633349.69547  90883123.29847  22194590.4444   22194594.4094   22194590.5234 
        53.000          47.000  
 108109156.10947  84240901.22247  20572487.0224   20572490.3694   20572486.9714 
        56.000          51.000  
 123195363.32147  95996368.12347  23443312.3104   23443317.1994   23443311.2594 
        47.000          42.000  
 130626667.87047 101787016.52747  24857424.7934   24857430.3174   24857425.3464 
        43.000          36.000  
 111546244.92747  86919132.42747  21226560.8454   21226565.8754   21226560.9064 
        52.000          46.000  
 125767466.16547  98000594.14247  23932774.4814   23932780.8844   23932773.6564 
        46.000          39.000  
 10  1 15 19  3 14.0000000  0 10G02G04G05G09G12G15G17G18G27G30
 123708697.77747  96396379.23947  23540989.4274   23540992.3664   23540991.1584 
        48.000          41.000  
 129106727.27947 100602639.53847  24568192.8144   24568199.0134   24568192.5574 
        44.000          39.000  
 131547274.97647 102504341.58247  25032635.4764   25032643.7954   25032633.7204 
        43.000          39.000  
 119342350.36047  92994032.78747  22710096.5084   22710103.3884   22710097.5594 
        52.000          46.000  
 116632904.24247  90882776.19147  22194506.0494   22194509.9294   22194505.7994 
        53.000          47.000  
 108110277.43847  84241774.98347  20572700.2024   20572703.8254   20572700.3554 
        56.000          51.000  
 123198436.12047  95998762.50947  23443896.2164   23443902.8194   23443896.0884 
        47.000          42.000  
 130627160.13547 101787400.11047  24857517.8254   24857523.7904   24857518.9044 
        43.000          36.000  
 111544676.11747  86917909.97747  21226261.9724   21226267.7444   21226262.3244 
        52.000          46.000  
 125766325.40947  97999705.24147  23932556.9694   23932562.5694   23932556.6204 
        46.000          39.000  
 10  1 15 19  3 15.0000000  0 10G02G04G05G09G12G15G17G18G27G30
 123706794.88747  96394896.46447  23540627.0304   23540630.1364   23540628.5544 
        47.000          41.000  
 129105908.92447 100602001.85947  24568036.7914   24568045.1354   24568036.8114 
        45.000          38.000  
 131549268.64147 102505895.08647  25033014.9274   25033023.7924   25033013.4954 
        43.000          39.000  
 119340531.94747  92992615.84147  22709751.6744   22709757.1284   22709751.5424 
        52.000          46.000  
 116632458.94547  90882429.20647  22194421.1904   22194424.8584   22194421.0994 
        53.000          47.000  
 108111399.30947  84242649.16847  20572913.8934   20572917.2754   20572913.8174 
        56.000          51.000  
 123201509.14447  96001157.07247  23444480.3024   23444487.1704   23444480.7694 
        47.000          42.000  
 130627652.65047 101787783.88847  24857610.8294   24857618.1924   24857612.6314 
        43.000          36.000  
 111543107.39047  86916687.59247  21225963.3644   21225969.4174   21225963.7554 
        52.000          46.000  
 125765184.80447  97998816.45847  23932340.1094   23932346.5174   23932339.6144 
        46.000          39.000  
 10  1 15 19  3 16.0000000  0 10G02G04G05G09G12G15G17G18G27G30
 123704892.08647  96393413.76147  23540265.6784   23540267.8724   23540266.0064 
        47.000          41.000  
 129105090.84947 100601364.39747  24567882.1234   24567889.8974   24567881.6854 
        45.000          38.000  
 131551262.13347 102507448.45747  25033394.3104   25033402.8914   25033393.0464 
        44.000          39.000  
 119338713.56247  92991198.92047  22709404.6484   22709410.7044   22709405.5044 
        52.000          46.000  
 116632013.96847  90882082.47047  22194336.3184   22194340.2344   22194336.5054 
        53.000          47.000  
 108112521.87947  84243523.89647  20573127.3544   20573130.8704   20573127.4744 
        56.000          51.000  
 123204582.59647  96003551.96847  23445065.4844   23445072.0424   23445065.4234 
        47.000          42.000  
 130628145.58547 101788167.99147  24857705.1004   24857713.4084   24857706.2834 
        44.000          36.000  
 111541538.92947  86915465.41447  21225665.2504   21225670.6874   21225665.2214 
        52.000          46.000  
 125764044.50447  97997927.91147  23932123.1404   23932130.3534   23932122.7384 
        46.000          39.000  
 10  1 15 19  3 17.0000000  0 10G02G04G05G09G12G15G17G18G27G30
 123702989.30147  96391931.07147  23539903.4084   23539907.1994   23539903.3704 
        46.000          41.000  
 129104273.00547 100600727.11647  24567726.8794   24567735.0394   24567726.5784 
        46.000          39.000  
 131553255.34147 102509001.60847  25033772.9704   25033780.9034   25033772.3384 
        43.000          39.000  
 119336895.12747  92989781.95947  22709058.7824   22709063.6224   22709059.4054 
        52.000          46.000  
 116631569.26247  90881735.94547  22194251.8184   22194255.6464   22194251.9114 
        53.000          47.000  
 108113645.09447  84244399.12847  20573341.2804   20573344.4894   20573341.1734 
        56.000          51.000  
 123207656.39747  96005947.13647  23445650.5764   23445656.6634   23445650.1094 
        47.000          42.000  
 130628638.85147 101788552.35247  24857798.5484   24857806.4424   24857800.2524 
        44.000          36.000  
 111539970.65447  86914243.38247  21225366.3634   21225372.3184   21225366.7704 
        52.000          46.000  
 125762904.46847  97997039.57047  23931905.3354   23931912.3194   23931905.8004 
        46.000          39.000  
 10  1 15 19  3 18.0000000  0 10G02G04G05G09G12G15G17G18G27G30
 123701086.43947  96390448.32247  23539541.3454   23539544.6534   23539540.9954 
        47.000          41.000  
 129103455.25547 100600089.90747  24567572.7264   24567579.5084   24567571.3814 
        45.000          38.000  
 131555248.18847 102510554.47747  25034152.3324   25034159.8134   25034151.2914 
        44.000          39.000  
 119335076.56447  92988364.89847  22708712.6164   22708718.2394   22708713.2664 
        52.000          46.000  
 116631124.72147  90881389.54847  22194167.2784   22194171.5124   22194167.3404 
        53.000          47.000  
 108114768.85447  84245274.78547  20573554.9444   20573558.4794   20573554.9844 
        56.000          51.000  
 123210730.45747  96008342.50547  23446235.3914   23446241.2494   23446234.9404 
        47.000          42.000  
 130629132.36647 101788936.90547  24857892.0484   24857900.7814   24857894.2684 
        43.000          36.000  
 111538402.48947  86913021.43647  21225068.1714   21225073.6244   21225068.3674 
        52.000          46.000  
 125761764.57747  97996151.34147  23931688.4914   23931695.2414   23931688.7954 
        46.000          39.000  
 10  1 15 19  3 19.0000000  0 10G02G04G05G09G12G15G17G18G27G30
 123699183.54047  96388965.54947  23539179.4064   23539183.8664   23539178.8934 
        48.000          41.000  
 129102637.72147 100599452.86547  24567416.3064   24567423.5114   24567416.2454 
        45.000          39.000  
 131557240.70047 102512107.08647  25034531.9984   25034539.3874   25034530.6954 
        44.000          39.000  
 119333257.89647  92986947.75547  22708366.8994   22708372.2684   22708367.1934 
        52.000          46.000  
 116630680.37347  90881043.30347  22194082.3964   22194086.2594   22194082.7674 
        53.000          47.000  
 108115893.18647  84246150.88747  20573769.0694   20573772.4454   20573768.9264 
        56.000          51.000  
 123213804.79147  96010738.08747  23446819.6544   23446825.7374   23446819.8884 
        48.000          42.000  
 130629626.18747 101789321.69847  24857985.7844   24857996.2464   24857988.4064 
        44.000          36.000  
 111536834.46047  86911799.59547  21224769.7124   21224775.3664   21224770.0464 
        52.000          47.000  
 125760624.87547  97995263.25847  23931473.3934   23931478.7404   23931471.8424 
        46.000          39.000  
 10  1 15 19  3 20.0000000  0 10G02G04G05G09G12G15G17G18G27G30
 123697280.74647  96387482.85847  23538816.9814   23538821.3574   23538817.3314 
        49.000          41.000  
 129101820.42847 100598816.01047  24567260.6364   24567266.6234   24567260.7754 
        44.000          39.000  
 131559233.00347 102513659.53147  25034910.8004   25034917.7374   25034909.7704 
        44.000          39.000  
 119331439.25547  92985530.63647  22708020.1844   22708026.7764   22708021.0024 
        52.000          46.000  
 116630236.37147  90880697.32947  22193998.3354   22194001.7114   22193998.3014 
        53.000          47.000  
 108117018.24147  84247027.55347  20573983.1294   20573986.5074   20573982.9864 
        56.000          51.000  
 123216879.56147  96013134.00647  23447405.2844   23447411.0524   23447404.7144 
        48.000          42.000  
 130630120.39747 101789706.79847  24858081.1994   24858088.4404   24858082.4944 
        43.000          36.000  
 111535266.70147  86910577.96747  21224471.7144   21224476.6414   21224471.7994 
        52.000          47.000  
 125759485.51147  97994375.44347  23931256.5694   23931262.6794   23931255.0014 
        46.000          39.000  
 10  1 15 19  3 21.0000000  0 10G02G04G05G09G12G15G17G18G27G30
 123695378.04947  96386000.24247  23538454.6644   23538458.7284   23538455.7964 
        48.000          41.000  
 129101003.41047 100598179.37147  24567103.7084   24567110.1464   24567104.3374 
        44.000          39.000  
 131561225.11647 102515211.82847  25035290.9684   25035297.9634   25035289.4634 
        45.000          39.000  
 119329620.65347  92984113.54647  22707674.9164   22707680.8474   22707674.8684 
        52.000          46.000  
 116629792.69747  90880351.60947  22193912.9824   22193917.5954   22193913.7664 
        53.000          47.000  
 108118144.00247  84247904.76947  20574197.2904   20574200.6724   20574197.2134 
        56.000          51.000  
 123219954.76647  96015530.26547  23447991.6164   23447996.4914   23447989.8834 
        47.000          42.000  
 130630615.04747 101790092.23947  24858176.0914   24858182.3394   24858176.5434 
        43.000          36.000  
 111533699.20347  86909356.54047  21224173.1844   21224178.8204   21224173.5754 
        52.000          46.000  
 125758346.46147  97993487.87147  23931039.7634   23931044.5134   23931038.2844 
        46.000          39.000  
 10  1 15 19  3 22.0000000  0 10G02G04G05G09G12G15G17G18G27G30
 123693475.14147  96384517.46247  23538092.0994   23538096.5584   23538094.0584 
        48.000          41.000  
 129100186.40647 100597542.74347  24566947.9464   24566953.8704   24566947.9274 
        43.000          39.000  
 131563216.73647 102516763.74047  25035670.3914   25035677.4934   25035668.7984 
        44.000          39.000  
 119327801.78547  92982696.24847  22707328.0194   22707334.3984   22707328.7554 
        52.000          46.000  
 116629349.06547  90880005.92247  22193829.0244   22193832.8364   22193829.3414 
        53.000          47.000  
 108119270.19447  84248782.32047  20574411.5254   20574414.9014   20574411.5264 
        56.000          51.000  
 123223030.08947  96017926.61547  23448576.5644   23448581.6104   23448575.1134 
        47.000          42.000  
 130631109.83347 101790477.78847  24858269.9464   24858277.5414   24858270.4824 
        44.000          36.000  
 111532131.69347  86908135.10547  21223875.0064   21223880.7254   21223875.3044 
        52.000          46.000  
 125757207.44447  97992600.32947  23930821.8424   23930826.9464   23930821.6454 
        46.000          39.000  
 10  1 15 19  3 23.0000000  0 10G02G04G05G09G12G15G17G18G27G30
 123691572.17747  96383034.63547  23537730.0884   23537734.9424   23537731.9284 
        48.000          41.000  
 129099369.52847 100596906.21447  24566792.3474   24566798.0434   24566791.5424 
        44.000          38.000  
 131565208.02747 102518315.39447  25036048.4214   25036055.8434   25036047.6524 
        45.000          39.000  
 119325982.80947  92981278.86747  22706982.3284   22706987.9454   22706982.7284 
        52.000          46.000  
 116628905.61447  90879660.37547  22193744.7644   22193748.5604   22193744.9424 
        53.000          47.000  
 108120396.94647  84249660.30947  20574626.0334   20574629.5244   20574625.9384 
        56.000          51.000  
 123226105.69047  96020323.18247  23449161.0674   23449167.5894   23449160.6504 
        47.000          42.000  
 130631604.89347 101790863.55047  24858364.8104   24858371.0334   24858364.6924 
        43.000          36.000  
 111530564.29547  86906913.75647  21223577.0244   21223581.9874   21223577.0414 
        52.000          46.000  
 125756068.59247  97991712.91347  23930604.9614   23930610.1154   23930604.9664 
        46.000          39.000  
 10  1 15 19  3 24.0000000  0 10G02G04G05G09G12G15G17G18G27G30
 123689669.38347  96381551.93847  23537368.4604   23537372.5744   23537369.7794 
        47.000          41.000  
 129098553.04947 100596269.99747  24566637.5264   24566644.7674   24566636.6194 
        45.000          39.000  
 131567199.16947 102519866.93347  25036427.1474   25036434.8964   25036426.5794 
        44.000          39.000  
 119324163.93047  92979861.56247  22706636.1484   22706642.2534   22706636.6424 
        52.000          46.000  
 116628462.57047  90879315.14647  22193660.1004   22193664.0514   22193660.5914 
        53.000          47.000  
 108121524.48947  84250538.91347  20574840.6924   20574843.9654   20574840.4404 
        56.000          51.000  
 123229181.78747  96022720.13747  23449745.9124   23449752.4054   23449746.1234 
        47.000          42.000  
 130632100.41447 101791249.67347  24858459.2744   24858465.1364   24858458.7584 
        43.000          36.000  
 111528997.23347  86905692.67147  21223278.9184   21223283.7924   21223278.8754 
        52.000          46.000  
 125754930.14147  97990825.80747  23930387.7024   23930395.0714   23930388.2094 
        46.000          39.000  
 10  1 15 19  3 25.0000000  0 10G02G04G05G09G12G15G17G18G27G30
 123687766.51047  96380069.17847  23537006.1744   23537009.9394   23537007.4424 
        48.000          41.000  
 129097736.72147 100595633.90047  24566483.4774   24566490.2814   24566482.0804 
        46.000          38.000  
 131569189.96947 102521418.20247  25036806.2384   25036814.1054   25036805.3204 
        45.000          39.000  
 119322344.92647  92978444.15647  22706290.2974   22706296.0704   22706290.5114 
        52.000          46.000  
 116628019.68147  90878970.03747  22193576.1894   22193580.8134   22193576.2394 
        53.000          47.000  
 108122652.57147  84251417.93747  20575055.4704   20575058.8184   20575055.1044 
        56.000          51.000  
 123232258.12247  96025117.27847  23450332.0804   23450337.4654   23450331.6644 
        47.000          42.000  
 130632596.19447 101791635.99747  24858554.9184   24858559.5144   24858553.2724 
        43.000          36.000  
 111527430.28047  86904471.66847  21222980.3804   21222985.4324   21222980.6144 
        52.000          47.000  
 125753791.84847  97989938.82647  23930171.7204   23930178.1384   23930171.6384 
        46.000          39.000  
 10  1 15 19  3 26.0000000  0 10G02G04G05G09G12G15G17G18G27G30
 123685863.66347  96378586.43847  23536643.1934   23536648.1454   23536644.8244 
        47.000          41.000  
 129096920.56547 100594997.93447  24566328.9484   24566333.8684   24566327.2784 
        45.000          39.000  
 131571180.45847 102522969.22847  25037185.9544   25037193.8844   25037184.7184 
        45.000          39.000  
 119320525.86747  92977026.71147  22705944.2254   22705949.9824   22705944.2824 
        52.000          46.000  
 116627577.04747  90878625.12747  22193491.6954   22193495.8424   22193491.9354 
        53.000          47.000  
 108123781.29247  84252297.45947  20575269.8954   20575273.4064   20575269.8534 
        56.000          51.000  
 123235334.81047  96027514.69547  23450917.2434   23450923.3524   23450917.1634 
        47.000          42.000  
 130633092.33047 101792022.59847  24858647.8534   24858653.9474   24858647.6264 
        43.000          36.000  
 111525863.51247  86903250.81247  21222681.9364   21222688.0684   21222682.4854 
        52.000          47.000  
 125752653.79147  97989052.02847  23929955.2314   23929961.7034   23929955.1574 
        46.000          39.000  
 10  1 15 19  3 27.0000000  0 10G02G04G05G09G12G15G17G18G27G30
 123683960.72247  96377103.62347  23536281.6174   23536286.4484   23536282.1294 
        46.000          41.000  
 129096104.57847 100594362.09847  24566172.7174   24566178.7254   24566172.3034 
        45.000          39.000  
 131573170.61547 102524519.99547  25037563.5384   25037571.9864   25037563.3414 
        45.000          39.000  
 119318706.69647  92975609.17447  22705598.3994   22705603.9934   22705598.1414 
        52.000          46.000  
 116627134.60947  90878280.37047  22193407.6934   22193411.9744   22193407.7654 
        53.000          47.000  
 108124910.58147  84253177.42447  20575484.9834   20575488.2534   20575484.7514 
        56.000          51.000  
 123238411.77847  96029912.33147  23451502.3704   23451508.6574   23451502.5424 
        46.000          42.000  
 130633588.73147 101792409.40447  24858742.4224   24858748.5694   24858741.9464 
        44.000          36.000  
 111524296.86447  86902030.04847  21222384.1014   21222389.5514   21222384.3514 
        52.000          46.000  
 125751515.90247  97988165.36147  23929738.3564   23929745.4054   23929738.7364 
        46.000          39.000  
 10  1 15 19  3 28.0000000  0 10G02G04G05G09G12G15G17G18G27G30
 123682057.76647  96375620.80047  23535919.2174   23535923.6404   23535919.6044 
        47.000          41.000  
 129095288.69247 100593726.34047  24566017.4834   24566025.0954   24566016.8854 
        44.000          39.000  
 131575160.43947 102526070.50247  25037941.6264   25037950.2994   25037941.9984 
        45.000          39.000  
 119316887.41147  92974191.55047  22705252.1214   22705257.5104   22705251.9204 
        52.000          46.000  
 116626692.35747  90877935.75647  22193323.6254   22193327.7264   22193323.5654 
        53.000          47.000  
 108126040.44347  84254057.83347  20575700.3154   20575703.5054   20575699.7734 
        56.000          51.000  
 123241489.04047  96032310.19747  23452088.2684   23452094.6604   23452088.0094 
        47.000          42.000  
 130634085.39447 101792796.41347  24858835.9094   24858843.7874   24858836.4354 
        43.000          36.000  
 111522730.35747  86900809.39347  21222086.1504   21222091.4374   21222086.2614 
        52.000          47.000  
 125750378.21247  97987278.84847  23929521.8034   23929528.7584   23929522.2374 
        46.000          39.000  
 10  1 15 19  3 29.0000000  0 10G02G04G05G09G12G15G17G18G27G30
 123680155.04347  96374138.16247  23535557.4104   23535561.6964   23535557.5364 
        47.000          41.000  
 129094473.25647 100593090.93547  24565861.5494   24565869.7264   24565861.2714 
        44.000          39.000  
 131577150.18047 102527620.94747  25038320.4964   25038328.7794   25038320.7854 
        45.000          39.000  
 119315068.30047  92972774.06347  22704905.5504   22704911.2634   22704905.7724 
        52.000          46.000  
 116626250.57247  90877591.50847  22193239.4734   22193243.6864   22193239.4374 
        53.000          47.000  
 108127171.14147  84254938.89747  20575914.9944   20575918.5104   20575914.9434 
        56.000          51.000  
 123244566.83947  96034708.48047  23452674.4744   23452680.7374   23452673.5884 
        47.000          42.000  
 130634582.62547 101793183.86647  24858929.8784   24858937.4214   24858931.0624 
        43.000          36.000  
 111521164.24547  86899589.04747  21221787.9914   21221793.0284   21221788.3014 
        52.000          46.000  
 125749240.96247  97986392.67747  23929304.1844   23929311.1684   23929305.8584 
        46.000          39.000  
 10  1 15 19  3 30.0000000  0 10G02G04G05G09G12G15G17G18G27G30
 123678252.22347  96372655.45047  23535195.5244   23535198.4184   23535195.7174 
        48.000          41.000  
 129093657.89147 100592455.58747  24565705.6344   24565714.6214   24565705.4784 
        44.000          38.000  
 131579139.55847 102529171.10847  25038699.4994   25038707.3214   25038699.3894 
        46.000          39.000  
 119313249.02847  92971356.45047  22704559.3004   22704565.3264   22704559.5634 
        52.000          46.000  
 116625808.93847  90877247.37647  22193155.1864   22193159.2294   22193155.4264 
        53.000          47.000  
 108128302.37647  84255820.37847  20576130.3854   20576133.8444   20576130.1934 
        56.000          51.000  
 123247644.88147  96037106.95247  23453260.4364   23453267.0314   23453259.2174 
        47.000          42.000  
 130635080.09547 101793571.50447  24859024.2824   24859032.5004   24859025.8654 
        44.000          36.000  
 111519598.21547  86898368.76447  21221490.2214   21221494.8984   21221490.3234 
        52.000          46.000  
 125748103.86647  97985506.62547  23929088.7994   23929094.8054   23929089.6744 
        46.000          39.000  
 10  1 15 19  3 31.0000000  0 10G02G04G05G09G12G15G17G18G27G30
 123676349.27447  96371172.63747  23534833.2964   23534836.6454   23534833.8744 
        48.000          41.000  
 129092842.66047 100591820.34047  24565550.1844   24565559.5884   24565550.1374 
        45.000          38.000  
 131581128.50647 102530720.93547  25039077.7354   25039085.8984   25039077.9534 
        45.000          39.000  
 119311429.56347  92969938.68747  22704213.1094   22704217.9654   22704213.3534 
        52.000          46.000  
 116625367.39747  90876903.31847  22193071.3664   22193075.6064   22193071.3644 
        53.000          47.000  
 108129434.09447  84256702.23647  20576345.7654   20576349.0804   20576345.5824 
        56.000          51.000  
 123250723.10947  96039505.56647  23453846.2244   23453851.8654   23453845.0334 
        47.000          42.000  
 130635577.70747 101793959.25247  24859119.4724   24859126.9574   24859120.6614 
        43.000          36.000  
 111518032.22247  86897148.51247  21221192.0804   21221197.5914   21221192.3184 
        52.000          46.000  
 125746966.85147  97984620.63947  23928872.7814   23928878.2344   23928873.2014 
        46.000          39.000  
 10  1 15 19  3 32.0000000  0 10G02G04G05G09G12G15G17G18G27G30
 123674446.27447  96369689.78447  23534471.2604   23534475.0924   23534472.0804 
        48.000          41.000  
 129092027.54747 100591185.18947  24565395.3744   24565405.1554   24565395.4044 
        46.000          39.000  
 131583117.09247 102532270.48247  25039456.1974   25039464.2584   25039456.4324 
        45.000          39.000  
 119309609.98547  92968520.83547  22703867.1894   22703872.5954   22703867.1344 
        52.000          46.000  
 116624926.05447  90876559.41547  22192987.9784   22192991.2334   22192987.3814 
        53.000          47.000  
 108130566.38047  84257584.53647  20576561.1884   20576564.6594   20576561.0324 
        56.000          51.000  
 123253801.60747  96041904.39147  23454430.9374   23454438.2864   23454431.0324 
        47.000          42.000  
 130636075.64247 101794347.25047  24859216.0454   24859221.6734   24859215.6144 
        44.000          36.000  
 111516466.36047  86895928.36147  21220894.2504   21220899.1994   21220894.3384 
        52.000          46.000  
 125745830.01047  97983734.78747  23928657.5344   23928662.9874   23928657.0324 
        46.000          39.000  
 10  1 15 19  3 33.0000000  0 10G02G04G05G09G12G15G17G18G27G30
 123672543.37847  96368207.01547  23534109.0794   23534113.0574   23534110.2914 
        48.000          41.000  
 129091212.75747 100590550.28847  24565241.5144   24565250.0874   24565240.8764 
        45.000          39.000  
 131585105.52347 102533819.90847  25039834.7474   25039842.3864   25039834.6794 
        46.000          39.000  
 119307790.46647  92967103.03047  22703520.6624   22703526.4164   22703521.0004 
        52.000          46.000  
 116624485.05947  90876215.78147  22192903.8144   22192907.9344   22192903.4624 
        53.000          47.000  
 108131699.41047  84258467.41747  20576776.7494   20576780.3964   20576776.6134 
        56.000          51.000  
 123256880.55747  96044303.56847  23455017.3814   23455023.4274   23455016.9314 
        47.000          42.000  
 130636573.99447 101794735.57347  24859310.8674   24859316.4844   24859310.4314 
        43.000          36.000  
 111514900.79747  86894708.44347  21220596.1874   21220601.5774   21220596.4094 
        52.000          46.000  
 125744693.53247  97982849.22247  23928440.5204   23928447.3534   23928440.7084 
        46.000          39.000  
 10  1 15 19  3 34.0000000  0 10G02G04G05G09G12G15G17G18G27G30
 123670640.53947  96366724.28647  23533746.4864   23533750.4754   23533748.1044 
        47.000          41.000  
 129090398.16447 100589915.54147  24565086.7614   24565094.1234   24565085.9624 
        45.000          39.000  
 131587093.67847 102535369.12047  25040213.2104   25040220.8574   25040213.1764 
        45.000          39.000  
 119305970.91747  92965685.20147  22703174.3224   22703179.8344   22703174.7694 
        52.000          46.000  
 116624044.34647  90875872.36847  22192819.7494   22192824.4494   22192819.6244 
        53.000          47.000  
 108132833.09147  84259350.80447  20576992.6374   20576995.9914   20576992.3364 
        56.000          51.000  
 123259959.87847  96046703.03347  23455602.8044   23455609.3684   23455602.8944 
        47.000          42.000  
 130637072.70047 101795124.17447  24859404.8924   24859411.7424   24859405.3684 
        43.000          36.000  
 111513335.43247  86893488.68147  21220297.7864   21220303.3134   21220298.5604 
        52.000          46.000  
 125743557.29947  97981963.84847  23928223.4184   23928231.9694   23928224.4374 
        46.000          39.000  
 10  1 15 19  3 35.0000000  0 10G02G04G05G09G12G15G17G18G27G30
 123668737.62847  96365241.50147  23533384.1784   23533389.4724   23533386.0614 
        47.000          41.000  
 129089583.70947 100589280.90247  24564931.5844   24564939.2934   24564931.0224 
        44.000          39.000  
 131589081.48647 102536918.06247  25040590.7764   25040598.6724   25040590.9954 
        45.000          39.000  
 119304151.23847  92964267.27047  22702828.2094   22702834.2094   22702828.5524 
        52.000          46.000  
 116623603.79447  90875529.07947  22192735.6644   22192739.3714   22192735.7564 
        53.000          47.000  
 108133967.31747  84260234.61647  20577208.6464   20577211.7624   20577208.2014 
        56.000          51.000  
 123263039.44147  96049102.68947  23456189.3844   23456194.4014   23456188.9384 
        47.000          42.000  
 130637571.67447 101795512.98647  24859500.7414   24859505.6904   24859500.2284 
        44.000          36.000  
 111511770.17447  86892269.00047  21220000.5144   21220005.8644   21220000.6844 
        52.000          46.000  
 125742421.23347  97981078.60447  23928007.0304   23928013.2894   23928008.2474 
        46.000          39.000  
 10  1 15 19  3 36.0000000  0 10G02G04G05G09G12G15G17G18G27G30
 123666834.64547  96363758.65747  23533022.7494   23533026.4544   23533023.8174 
        47.000          41.000  
 129088769.40947 100588646.38347  24564776.0904   24564783.9294   24564775.9184 
        45.000          39.000  
 131591068.91047 102538466.70247  25040969.4714   25040976.8774   25040969.3034 
        45.000          39.000  
 119302331.41947  92962849.23147  22702481.7904   22702487.7854   22702482.1994 
        52.000          46.000  
 116623163.40647  90875185.92147  22192652.0604   22192656.2524   22192651.9334 
        53.000          47.000  
 108135102.09647  84261118.85947  20577424.3494   20577427.7844   20577424.1524 
        56.000          51.000  
 123266119.26047  96051502.54647  23456775.3484   23456781.8744   23456774.8924 
        47.000          42.000  
 130638070.90547 101795901.99747  24859594.2654   24859600.8604   24859595.2334 
        43.000          36.000  
 111510205.01947  86891049.40147  21219702.4804   21219707.8784   21219702.8054 
        52.000          47.000  
 125741285.31447  97980193.47547  23927791.2624   23927798.2564   23927792.1514 
        46.000          39.000  
 10  1 15 19  3 37.0000000  0 10G02G04G05G09G12G15G17G18G27G30
 123664931.71047  96362275.85047  23532660.2914   23532664.4194   23532661.4494 
        47.000          41.000  
 129087955.31547 100588012.02647  24564621.2224   24564628.2664   24564621.1304 
        45.000          39.000  
 131593056.09747 102540015.15947  25041348.0544   25041355.0174   25041347.3744 
        45.000          39.000  
 119300511.59347  92961431.18647  22702136.0414   22702141.4494   22702135.9014 
        52.000          46.000  
 116622723.30547  90874842.98547  22192568.8854   22192572.4184   22192568.1324 
        53.000          47.000  
 108136237.53147  84262003.61347  20577640.4034   20577643.7734   20577640.2474 
        56.000          51.000  
 123269199.46247  96053902.70247  23457360.5694   23457367.1934   23457361.2184 
        47.000          42.000  
 130638570.48347 101796291.27747  24859689.0374   24859695.0634   24859690.4094 
        43.000          36.000  
 111508640.08947  86889829.97647  21219404.7624   21219409.9854   21219404.9154 
        52.000          46.000  
 125740149.67747  97979308.56747  23927575.0354   23927581.9904   23927576.0034 
        46.000          39.000  
 10  1 15 19  3 38.0000000  0 10G02G04G05G09G12G15G17G18G27G30
 123663028.91847  96360793.15347  23532297.8744   23532302.5284   23532298.8764 
        46.000          41.000  
 129087141.60247 100587377.96547  24564465.4444   24564473.2724   24564465.7784 
        45.000          39.000  
 131595043.13147 102541563.49547  25041725.9314   25041732.7214   25041725.0524 
        45.000          39.000  
 119298691.85747  92960013.21247  22701789.1764   22701795.2774   22701789.6534 
        52.000          46.000  
 116622283.59447  90874500.35447  22192485.1244   22192488.9514   22192484.4154 
        53.000          47.000  
 108137373.74847  84262888.97647  20577856.7704   20577860.0094   20577856.4814 
        56.000          51.000  
 123272280.13147  96056303.22447  23457947.2394   23457954.3564   23457947.5624 
        47.000          42.000  
 130639070.54847 101796680.93847  24859783.9254   24859790.9334   24859785.5054 
        42.000          36.000  
 111507075.48247  86888610.80347  21219107.1644   21219111.7974   21219107.1324 
        52.000          46.000  
 125739014.41647  97978423.95047  23927361.3174   23927365.2454   23927359.8794 
        46.000          39.000  
 10  1 15 19  3 39.0000000  0 10G02G04G05G09G12G15G17G18G27G30
 123661125.93647  96359310.30947  23531935.8644   23531939.5574   23531936.0314 
        47.000          41.000  
 129086327.85647 100586743.87747  24564310.6994   24564319.6504   24564310.8274 
        45.000          39.000  
 131597029.68447 102543111.45647  25042104.2444   25042111.7694   25042103.0434 
        45.000          39.000  
 119296871.87247  92958595.04347  22701442.2594   22701448.6024   22701443.3384 
        52.000          46.000  
 116621843.93947  90874157.76547  22192401.3394   22192405.2534   22192400.7854 
        53.000          47.000  
 108138510.40347  84263774.68147  20578072.8974   20578076.3074   20578072.7864 
        56.000          51.000  
 123275360.96047  96058703.86947  23458533.7294   23458540.1714   23458533.8534 
        47.000          42.000  
 130639570.74847 101797070.70747  24859879.6574   24859885.9664   24859880.5914 
        43.000          36.000  
 111505510.87147  86887391.62747  21218809.2694   21218814.9234   21218809.4604 
        52.000          46.000  
 125737879.19047  97977539.36147  23927144.2554   23927148.7304   23927143.6854 
        46.000          39.000  
 10  1 15 19  3 40.0000000  0 10G02G04G05G09G12G15G17G18G27G30
 123659222.96547  96357827.47447  23531573.6254   23531578.0304   23531573.6984 
        47.000          41.000  
 129085514.33947 100586109.96947  24564156.8374   24564165.0984   24564156.3044 
        45.000          39.000  
 131599015.95247 102544659.19447  25042481.4364   25042489.9234   25042480.8054 
        45.000          39.000  
 119295051.82947  92957176.82847  22701096.4834   22701102.3004   22701096.8834 
        52.000          46.000  
 116621404.51947  90873815.35947  22192317.6014   22192321.4104   22192317.1504 
        53.000          47.000  
 108139647.67647  84264660.86647  20578289.4544   20578292.8664   20578289.1414 
        56.000          51.000  
 123278442.10147  96061104.75847  23459119.3254   23459125.4824   23459120.1074 
        47.000          42.000  
 130640071.28947 101797460.73747  24859973.9004   24859982.4114   24859975.7814 
        43.000          36.000  
 111503946.43047  86886172.58347  21218511.8864   21218516.9404   21218511.7894 
        52.000          46.000  
 125736744.21147  97976654.96447  23926928.4374   23926935.1494   23926927.7664 
        46.000          39.000  
 10  1 15 19  3 41.0000000  0 10G02G04G05G09G12G15G17G18G27G30
 123657320.04547  96356344.68147  23531211.6364   23531215.9634   23531211.6774 
        48.000          41.000  
 129084701.09547 100585476.27447  24564002.7304   24564010.7974   24564002.2514 
        46.000          39.000  
 131601001.97847 102546206.74347  25042859.1824   25042867.6884   25042858.5664 
        45.000          39.000  
 119293231.77047  92955758.60247  22700750.7964   22700755.9314   22700750.5404 
        52.000          46.000  
 116620965.38947  90873473.18047  22192233.8394   22192237.5994   22192233.6484 
        53.000          47.000  
 108140785.61847  84265547.57447  20578505.8854   20578509.3344   20578505.6594 
        56.000          51.000  
 123281523.62147  96063505.93947  23459705.3994   23459712.4654   23459706.4104 
        46.000          42.000  
 130640572.19547 101797851.05547  24860069.5954   24860076.1944   24860070.9344 
        43.000          36.000  
 111502382.22747  86884953.72447  21218213.8124   21218219.3764   21218214.1694 
        52.000          46.000  
 125735609.49447  97975770.77147  23926712.0514   23926717.7824   23926711.6154 
        46.000          39.000  
 10  1 15 19  3 42.0000000  0 10G02G04G05G09G12G15G17G18G27G30
 123655417.10947  96354861.87847  23530849.9404   23530854.3684   23530849.5814 
        47.000          41.000  
 129083887.99347 100584842.68747  24563848.7004   24563855.1124   24563848.1494 
        45.000          39.000  
 131602987.66647 102547754.02847  25043237.4024   25043245.3734   25043236.5694 
        45.000          39.000  
 119291411.62147  92954340.30547  22700404.0404   22700410.2004   22700404.0784 
        52.000          46.000  
 116620526.45747  90873131.15747  22192150.4244   22192154.4484   22192150.0814 
        53.000          47.000  
 108141924.15247  84266434.74347  20578722.6324   20578725.9134   20578722.3274 
        56.000          51.000  
 123284605.43447  96065907.34947  23460293.4594   23460298.8744   23460292.7754 
        46.000          42.000  
 130641073.37347 101798241.58047  24860164.6694   24860171.3244   24860166.0974 
        43.000          36.000  
 111500818.15847  86883734.97047  21217915.8404   21217921.2374   21217916.4914 
        52.000          46.000  
 125734474.98347  97974886.73847  23926495.4144   23926501.2104   23926495.8014 
        46.000          39.000  
 10  1 15 19  3 43.0000000  0 10G02G04G05G09G12G15G17G18G27G30
 123653514.18947  96353379.08747  23530487.1234   23530491.4844   23530487.8054 
        47.000          41.000  
 129083075.12847 100584209.28247  24563694.6044   24563699.8424   24563693.3834 
        45.000          39.000  
 131604973.06547 102549301.08847  25043615.1744   25043622.3724   25043614.5084 
        45.000          39.000  
 119289591.42647  92952921.97247  22700057.9164   22700063.3874   22700057.7104 
        52.000          46.000  
 116620087.78947  90872789.33747  22192066.6564   22192070.7934   22192066.6444 
        53.000          47.000  
 108143063.31647  84267322.40347  20578939.2974   20578942.6434   20578939.0854 
        56.000          51.000  
 123287687.60447  96068309.03747  23460879.8824   23460885.1694   23460879.2534 
        46.000          42.000  
 130641574.90847 101798632.38447  24860260.5064   24860266.9874   24860261.2014 
        43.000          36.000  
 111499254.28547  86882516.36847  21217618.7364   21217624.3404   21217618.8634 
        52.000          46.000  
 125733340.71447  97974002.89147  23926279.9294   23926285.5494   23926279.9554 
        46.000          39.000  
 10  1 15 19  3 44.0000000  0 10G02G04G05G09G12G15G17G18G27G30
 123651611.24047  96351896.27347  23530126.2484   23530129.5394   23530126.0924 
        47.000          41.000  
 129082262.38947 100583575.97847  24563538.5334   24563544.4104   24563537.7924 
        44.000          39.000  
 131606958.13447 102550847.89147  25043992.9994   25044000.2104   25043992.2124 
        45.000          39.000  
 119287771.12747  92951503.55947  22699710.9574   22699717.0384   22699711.3464 
        52.000          46.000  
 116619649.32347  90872447.67647  22191983.6194   22191987.4554   22191983.1534 
        53.000          47.000  
 108144203.07847  84268210.52847  20579156.1334   20579159.6604   20579155.9584 
        56.000          51.000  
 123290770.05847  96070710.94647  23461465.6934   23461471.2514   23461465.7864 
        47.000          42.000  
 130642076.73647 101799023.41447  24860354.9184   24860361.9074   24860356.3744 
        42.000          36.000  
 111497690.55347  86881297.87647  21217320.7594   21217326.6524   21217321.2734 
        52.000          46.000  
 125732206.64347  97973119.19747  23926063.8564   23926070.3294   23926064.1754 
        46.000          39.000  
 10  1 15 19  3 45.0000000  0 10G02G04G05G09G12G15G17G18G27G30
 123649708.32247  96350413.48347  23529763.5004   23529767.7514   23529764.4814 
        47.000          41.000  
 129081449.85447 100582942.83547  24563382.9474   24563389.9154   24563382.8534 
        45.000          39.000  
 131608942.92647 102552394.47947  25044370.7764   25044377.8484   25044369.6424 
        45.000          39.000  
 119285950.78547  92950085.11247  22699364.6314   22699370.2084   22699364.8474 
        52.000          46.000  
 116619211.10147  90872106.20447  22191899.9814   22191903.8474   22191899.7904 
        53.000          47.000  
 108145343.45247  84269099.13147  20579373.3564   20579376.7154   20579373.0034 
        56.000          51.000  
 123293852.83147  96073113.10047  23462052.3384   23462059.4584   23462052.5454 
        46.000          42.000  
 130642578.89747 101799414.70647  24860450.8464   24860457.6614   24860451.5184 
        42.000          36.000  
 111496126.99847  86880079.52247  21217023.6574   21217029.1814   21217023.6804 
        52.000          46.000  
 125731072.78947  97972235.67447  23925848.7924   23925855.2354   23925848.3404 
        46.000          39.000  
 10  1 15 19  3 46.0000000  0 10G02G04G05G09G12G15G17G18G27G30
 123647805.38347  96348930.67147  23529401.3304   23529405.7214   23529402.4024 
        47.000          41.000  
 129080637.56047 100582309.87747  24563228.9474   24563237.1624   24563228.7604 
        45.000          39.000  
 131610927.44647 102553940.85547  25044748.7144   25044755.4004   25044747.5004 
        45.000          39.000  
 119284130.36947  92948666.60947  22699018.7904   22699023.7284   22699018.4804 
        52.000          46.000  
 116618773.11947  90871764.91947  22191816.5224   22191820.6524   22191816.5134 
        53.000          47.000  
 108146484.44647  84269988.21747  20579590.5444   20579593.7374   20579590.1064 
        56.000          51.000  
 123296935.93747  96075515.51447  23462638.9944   23462645.4204   23462639.2554 
        47.000          42.000  
 130643081.36647 101799806.24047  24860545.4194   24860554.3524   24860547.0224 
        42.000          36.000  
 111494563.62347  86878861.30947  21216725.7854   21216731.1324   21216726.2024 
        52.000          46.000  
 125729939.17047  97971352.33447  23925633.5294   23925638.2954   23925632.5974 
        46.000          39.000  
 10  1 15 19  3 47.0000000  0 10G02G04G05G09G12G15G17G18G27G30
 123645902.49547  96347447.90147  23529038.2574   23529042.7144   23529039.9974 
        46.000          41.000  
 129079825.49747 100581677.10147  24563075.1324   24563082.8884   24563074.6894 
        46.000          39.000  
 131612911.67947 102555487.00747  25045126.7084   25045133.4704   25045125.3414 
        45.000          39.000  
 119282309.93947  92947248.09347  22698671.8084   22698677.6974   22698672.1194 
        52.000          46.000  
 116618335.40847  90871423.84447  22191733.1244   22191737.1544   22191733.3064 
        53.000          47.000  
 108147626.10947  84270877.82447  20579807.4564   20579810.8464   20579807.3614 
        56.000          51.000  
 123300019.42047  96077918.22447  23463225.6694   23463231.4404   23463225.8994 
        47.000          42.000  
 130643584.19347 101800198.05247  24860642.4374   24860650.2964   24860642.6564 
        42.000          36.000  
 111493000.46847  86877643.26747  21216428.6984   21216434.0854   21216428.7874 
        52.000          46.000  
 125728805.82147  97970469.20247  23925417.6714   23925422.6194   23925416.7534 
        46.000          39.000  
 10  1 15 19  3 48.0000000  0 10G02G04G05G09G12G15G17G18G27G30
 123643999.59647  96345965.11947  23528676.3394   23528681.7534   23528677.2594 
        46.000          41.000  
 129079013.61747 100581044.46847  24562921.8054   24562927.6524   24562920.3954 
        46.000          39.000  
 131614895.59847 102557032.91647  25045504.2364   25045511.1284   25045503.2444 
        46.000          39.000  
 119280489.43347  92945829.51847  22698325.5744   22698330.7324   22698325.6234 
        52.000          46.000  
 116617897.92547  90871082.94947  22191650.0124   22191653.9154   22191650.0704 
        53.000          47.000  
 108148768.37247  84271767.89947  20580024.8984   20580028.4864   20580024.7704 
        56.000          51.000  
 123303103.22647  96080321.18647  23463813.3594   23463817.9474   23463812.7874 
        47.000          42.000  
 130644087.35647 101800590.12947  24860737.6064   24860746.8934   24860738.4954 
        42.000          36.000  
 111491437.47047  86876425.34747  21216130.9854   21216136.5734   21216131.3444 
        52.000          46.000  
 125727672.69447  97969586.24747  23925201.8494   23925207.3834   23925201.1554 
        47.000          39.000  
 10  1 15 19  3 49.0000000  0 10G02G04G05G09G12G15G17G18G27G30
 123642096.55747  96344482.23047  23528315.2914   23528318.5804   23528314.7004 
        46.000          41.000  
 129078201.79947 100580411.88147  24562767.4434   24562773.9544   24562766.3394 
        46.000          39.000  
 131616879.12347 102558578.51747  25045881.6854   25045888.2654   25045881.0714 
        46.000          39.000  
 119278668.74047  92944410.79747  22697979.2704   22697984.6204   22697979.2574 
        52.000          46.000  
 116617460.54947  90870742.13347  22191566.6904   22191571.1524   22191566.8454 
        53.000          47.000  
 108149911.12747  84272658.35647  20580242.4334   20580245.8324   20580242.1474 
        56.000          51.000  
 123306187.21147  96082724.28647  23464399.3044   23464405.3224   23464399.5964 
        47.000          42.000  
 130644590.70247 101800982.34947  24860833.1614   24860842.3254   24860834.1194 
        42.000          36.000  
 111489874.52447  86875207.46947  21215833.7804   21215838.9924   21215833.9474 
        52.000          46.000  
 125726539.65247  97968703.35647  23924985.8464   23924991.7474   23924985.5474 
        46.000          39.000  
 10  1 15 19  3 50.0000000  0 10G02G04G05G09G12G15G17G18G27G30
 123640193.68447  96342999.47247  23527952.5744   23527957.4464   23527952.3374 
        47.000          41.000  
 129077390.32847 100579779.56647  24562612.1584   24562618.8154   24562612.1424 
        46.000          39.000  
 131618862.49647 102560124.00047  25046259.4924   25046265.5464   25046258.7354 
        46.000          39.000  
 119276848.15147  92942992.15947  22697632.5734   22697638.2904   22697632.7354 
        52.000          46.000  
 116617023.57447  90870401.63447  22191483.2644   22191487.6124   22191483.7194 
        53.000          47.000  
 108151054.66547  84273549.42347  20580459.8834   20580463.3294   20580459.7064 
        56.000          51.000  
 123309271.69147  96085127.77547  23464985.9454   23464992.4274   23464986.4864 
        47.000          41.000  
 130645094.55147 101801374.96147  24860929.9154   24860938.5564   24860930.0744 
        42.000          36.000  
 111488311.92247  86873989.85947  21215536.5284   21215541.2564   21215536.6594 
        52.000          46.000  
 125725407.01147  97967820.77847  23924771.2454   23924777.8274   23924770.0464 
        46.000          39.000  
 10  1 15 19  3 51.0000000  0 10G02G04G05G09G12G15G17G18G27G30
 123638290.66947  96341516.60747  23527589.9374   23527597.0124   23527590.2194 
        46.000          41.000  
 129076578.93147 100579147.30747  24562457.1684   24562465.4664   24562457.7544 
        45.000          39.000  
 131620845.45247 102561669.15747  25046636.9634   25046643.1244   25046636.3764 
        46.000          39.000  
 119275027.35447  92941573.35647  22697286.4704   22697291.7024   22697286.2264 
        52.000          46.000  
 116616586.69847  90870061.21247  22191400.8294   22191404.7534   22191400.5714 
        53.000          47.000  
 108152198.68747  84274440.86947  20580677.6154   20580681.1254   20580677.3894 
        56.000          51.000  
 123312356.36847  96087531.41747  23465573.1964   23465579.3904   23465573.5214 
        47.000          41.000  
 130645598.56447 101801767.70447  24861025.9094   24861033.1254   24861026.1534 
        42.000          36.000  
 111486749.35047  86872772.27047  21215239.1554   21215244.2694   21215239.3024 
        52.000          46.000  
 125724274.46547  97966938.27747  23924554.3214   23924562.3264   23924554.5714 
        46.000          39.000  
 10  1 15 19  3 52.0000000  0 10G02G04G05G09G12G15G17G18G27G30
 123636387.65547  96340033.74447  23527228.4594   23527232.8394   23527228.0634 
        47.000          41.000  
 129075767.69647 100578515.17447  24562301.9484   24562309.2374   24562302.8474 
        44.000          39.000  
 131622828.06147 102563214.04447  25047014.5714   25047020.8504   25047013.8914 
        46.000          39.000  
 119273206.47447  92940154.48847  22696939.5824   22696945.0124   22696939.7834 
        52.000          46.000  
 116616150.02547  90869720.94647  22191317.1134   22191321.9064   22191317.5304 
        53.000          47.000  
 108153343.29147  84275332.76647  20580895.5424   20580898.8954   20580895.2624 
        56.000          51.000  
 123315441.33247  96089935.28347  23466161.4624   23466166.8954   23466160.6494 
        47.000          41.000  
 130646102.87047 101802160.67147  24861122.7104   24861129.7644   24861122.1964 
        42.000          36.000  
 111485186.92647  86871554.79747  21214941.7204   21214947.3574   21214941.9954 
        52.000          46.000  
 125723142.09547  97966055.91447  23924339.0124   23924345.2934   23924339.0924 
        46.000          39.000  
 10  1 15 19  3 53.0000000  0 10G02G04G05G09G12G15G17G18G27G30
 123634484.68547  96338550.91547  23526866.3684   23526870.1554   23526866.0514 
        47.000          41.000  
 129074956.73947 100577883.25847  24562147.2234   24562154.6844   24562148.4574 
        44.000          39.000  
 131624810.44947 102564758.75847  25047391.7014   25047397.4224   25047391.1434 
        46.000          39.000  
 119271385.57347  92938735.60647  22696593.5574   22696598.2014   22696593.2484 
        52.000          46.000  
 116615713.64847  90869380.91347  22191234.3444   22191238.4454   22191234.5554 
        53.000          47.000  
 108154488.57647  84276225.19547  20581113.2104   20581117.0084   20581113.1484 
        56.000          51.000  
 123318526.69147  96092339.45747  23466747.9684   23466753.5504   23466747.8234 
        46.000          41.000  
 130646607.56147 101802553.93947  24861218.1694   24861225.0044   24861218.1004 
        43.000          36.000  
 111483624.72747  86870337.49947  21214644.3804   21214649.6794   21214644.7624 
        52.000          46.000  
 125722010.02547  97965173.78347  23924123.0184   23924128.0484   23924123.5254 
        46.000          39.000  
 10  1 15 19  3 54.0000000  0 10G02G04G05G09G12G15G17G18G27G30
 123632581.69947  96337068.07747  23526504.2934   23526508.9444   23526504.1854 
        47.000          41.000  
 129074145.97247 100577251.49247  24561992.1664   24562001.0154   24561993.8624 
        45.000          39.000  
 131626792.49847 102566303.20947  25047768.8954   25047774.6184   25047768.5254 
        46.000          39.000  
 119269564.60747  92937316.67447  22696246.2914   22696252.2444   22696246.7884 
        52.000          46.000  
 116615277.49447  90869041.05347  22191151.3764   22191155.3364   22191151.5244 
        53.000          47.000  
 108155634.46247  84277118.09447  20581331.2054   20581334.8654   20581331.1334 
        56.000          51.000  
 123321612.35347  96094743.86947  23467334.4924   23467340.1964   23467335.1014 
        47.000          41.000  
 130647112.56847 101802947.45047  24861314.2484   24861322.7014   24861314.1644 
        42.000          36.000  
 111482062.69247  86869120.33147  21214346.7964   21214352.3884   21214347.5514 
        52.000          46.000  
 125720878.16747  97964291.81647  23923907.7074   23923913.5664   23923908.3094 
        46.000          39.000  
 10  1 15 19  3 55.0000000  0 10G02G04G05G09G12G15G17G18G27G30
 123630678.74847  96335585.26347  23526142.1054   23526147.8924   23526142.2654 
        48.000          41.000  
 129073335.42647 100576619.89547  24561839.8654   24561846.5294   24561839.8074 
        45.000          39.000  
 131628774.29047 102567847.46047  25048146.4784   25048151.6674   25048145.7764 
        46.000          39.000  
 119267743.61947  92935897.72447  22695899.9324   22695905.6704   22695900.2874 
        52.000          46.000  
 116614841.60847  90868701.40247  22191068.2234   22191072.5984   22191068.5294 
        53.000          47.000  
 108156781.00947  84278011.50647  20581549.7144   20581553.0444   20581549.3394 
        56.000          51.000  
 123324698.37447  96097148.56347  23467922.2194   23467928.0094   23467922.4314 
        46.000          41.000  
 130647617.93247 101803341.23847  24861411.1644   24861418.7144   24861410.3924 
        42.000          36.000  
 111480500.88147  86867903.33547  21214049.8984   21214055.0834   21214050.3114 
        52.000          46.000  
 125719746.56847  97963410.05247  23923693.9884   23923699.7244   23923693.0324 
        46.000          39.000  
 10  1 15 19  3 56.0000000  0 10G02G04G05G09G12G15G17G18G27G30
 123628775.88847  96334102.51747  23525779.6394   23525784.5024   23525780.4964 
        47.000          41.000  
 129072525.15647 100575988.51647  24561686.1634   24561691.8914   24561685.5434 
        45.000          39.000  
 131630755.89147 102569391.56447  25048523.1424   25048528.8334   25048523.0364 
        46.000          39.000  
 119265922.64247  92934478.78347  22695552.7414   22695558.3974   22695553.7804 
        52.000          46.000  
 116614406.04447  90868362.00347  22190985.2834   22190989.4544   22190985.6384 
        53.000          47.000  
 108157928.24947  84278905.45847  20581767.7924   20581771.4294   20581767.6124 
        56.000          51.000  
 123327784.79147  96099553.56347  23468509.3794   23468515.7104   23468509.7204 
        47.000          41.000  
 130648123.69547 101803735.33947  24861506.0104   24861514.0144   24861506.4174 
        43.000          36.000  
 111478939.31247  86866686.53047  21213752.6254   21213758.1054   21213753.2574 
        52.000          46.000  
 125718615.27247  97962528.52247  23923478.8534   23923485.1204   23923477.5624 
        46.000          39.000  
 10  1 15 19  3 57.0000000  0 10G02G04G05G09G12G15G17G18G27G30
 123626872.85547  96332619.63247  23525417.0724   23525422.1034   23525418.6564 
        47.000          41.000  
 129071714.90147 100575357.14647  24561531.1184   24561538.2524   24561531.2184 
        45.000          39.000  
 131632736.99847 102570935.28247  25048899.9534   25048905.7614   25048900.0104 
        46.000          39.000  
 119264101.44347  92933059.66847  22695206.5834   22695211.8734   22695207.1594 
        52.000          46.000  
 116613970.55947  90868022.66247  22190902.5814   22190906.5714   22190902.7324 
        53.000          47.000  
 108159075.95747  84279799.77647  20581986.2854   20581989.7074   20581986.0134 
        56.000          51.000  
 123330871.37847  96101958.69547  23469097.6834   23469103.8584   23469097.1794 
        46.000          41.000  
 130648629.60347 101804129.54947  24861601.8484   24861609.5554   24861602.6734 
        42.000          36.000  
 111477377.76547  86865469.74247  21213455.5574   21213460.9154   21213456.0994 
        52.000          46.000  
 125717484.03747  97961647.04147  23923264.0284   23923269.3354   23923262.5204 
        46.000          39.000  
 10  1 15 19  3 58.0000000  0 10G02G04G05G09G12G15G17G18G27G30
 123624969.81947  96331136.74147  23525055.7174   23525059.8594   23525056.6114 
        47.000          41.000  
 129070904.84947 100574725.93547  24561376.2034   24561384.5214   24561377.0814 
        45.000          39.000  
 131634717.82847 102572478.78447  25049276.9474   25049282.9194   25049277.0794 
        47.000          39.000  
 119262280.17347  92931640.49947  22694860.4034   22694865.2994   22694860.6464 
        52.000          46.000  
 116613535.28347  90867683.48747  22190820.3504   22190824.1744   22190819.8274 
        53.000          47.000  
 108160224.25947  84280694.55647  20582204.8324   20582208.3014   20582204.5764 
        56.000          51.000  
 123333958.27547  96104364.06647  23469684.5484   23469690.7104   23469684.7914 
        47.000          41.000  
 130649135.83347 101804524.01047  24861697.8624   24861705.8834   24861699.1234 
        43.000          36.000  
 111475816.37947  86864253.07747  21213158.2704   21213164.0044   21213159.0194 
        52.000          46.000  
 125716353.03047  97960765.73647  23923048.4914   23923053.5114   23923047.3214 
        46.000          39.000  
 10  1 15 19  3 59.0000000  0 10G02G04G05G09G12G15G17G18G27G30
 123623066.79247  96329653.86147  23524693.1304   23524697.4084   23524694.3594 
        47.000          41.000  
 129070095.03247 100574094.90647  24561222.5684   24561231.1064   24561222.8764 
        44.000          39.000  
 131636698.37247 102574022.06447  25049653.7474   25049659.4344   25049653.8634 
        46.000          39.000  
 119260458.86247  92930221.29747  22694514.1234   22694519.6804   22694514.0064 
        52.000          46.000  
 116613100.25847  90867344.50647  22190737.0734   22190740.8454   22190736.9654 
        53.000          47.000  
 108161373.19447  84281589.83047  20582423.6304   20582426.9044   20582423.2404 
        56.000          51.000  
 123337045.49947  96106769.69247  23470272.0214   23470277.6144   23470272.3824 
        47.000          41.000  
 130649642.41647 101804918.74447  24861794.2324   24861801.7554   24861795.5684 
        43.000          36.000  
 111474255.18547  86863036.56347  21212861.6294   21212866.3074   21212861.9744 
        52.000          46.000  
 125715222.25747  97959884.61547  23922832.5914   23922837.7244   23922832.2724 
        46.000          39.000  
 10  1 15 19  4  0.0000000  0 10G02G04G05G09G12G15G17G18G27G30
 123621163.81547  96328171.01747  23524330.5694   23524335.2194   23524331.8534 
        47.000          41.000  
 129069285.43147 100573464.04747  24561067.6264   24561075.8734   24561068.3454 
        44.000          39.000  
 131638678.64747 102575565.13447  25050029.7394   25050036.1264   25050030.8194 
        46.000          39.000  
 119258637.52547  92928802.07647  22694166.9774   22694173.0464   22694167.4044 
        52.000          46.000  
 116612665.51947  90867005.74647  22190654.3874   22190658.6944   22190654.2324 
        53.000          47.000  
 108162522.79947  84282485.62547  20582642.2884   20582645.6194   20582642.0114 
        56.000          51.000  
 123340133.09747  96109175.60947  23470859.7024   23470866.1414   23470860.1364 
        47.000          41.000  
 130650149.33447 101805313.74347  24861891.2524   24861898.4364   24861892.0334 
        43.000          36.000  
 111472694.21147  86861820.21947  21212564.2434   21212569.4114   21212564.8814 
        52.000          46.000  
 125714091.75047  97959003.70047  23922617.0734   23922623.5364   23922617.2334 
        46.000          39.000  
 10  1 15 19  4  1.0000000  0 10G02G04G05G09G12G15G17G18G27G30
 123619260.79547  96326688.14147  23523969.9874   23523973.7944   23523969.2734 
        47.000          41.000  
 129068476.01247 100572833.33147  24560913.4334   24560921.6404   24560914.1604 
        46.000          39.000  
 131640658.63247 102577107.97847  25050407.0334   25050413.3404   25050407.7044 
        46.000          39.000  
 119256816.10847  92927382.79047  22693820.6394   22693825.3274   22693820.8094 
        52.000          46.000  
 116612230.99047  90866667.15347  22190571.5434   22190575.8384   22190571.5464 
        53.000          47.000  
 108163672.99847  84283381.88447  20582861.2594   20582864.6114   20582860.9064 
        56.000          51.000  
 123343220.98447  96111581.75147  23471446.8744   23471453.7324   23471447.8374 
        47.000          41.000  
 130650656.57347 101805708.99347  24861988.4634   24861994.7714   24861988.6754 
        42.000          36.000  
 111471133.38647  86860603.99347  21212267.2124   21212272.2654   21212267.8114 
        52.000          47.000  
 125712961.46347  97958122.95847  23922403.0794   23922407.8694   23922402.2424 
        46.000          39.000  
 10  1 15 19  4  2.0000000  0 10G02G04G05G09G12G15G17G18G27G30
 123617357.72547  96325205.22947  23523606.8834   23523612.2844   23523606.6864 
        46.000          41.000  
 129067666.74747 100572202.73447  24560760.0184   24560767.6344   24560759.9304 
        45.000          39.000  
 131642638.21747 102578650.51147  25050784.1674   25050790.3244   25050784.7644 
        47.000          39.000  
 119254994.56847  92925963.40947  22693473.5734   22693479.8054   22693474.1824 
        52.000          46.000  
 116611796.63647  90866328.69547  22190489.1954   22190492.9104   22190488.8884 
        53.000          47.000  
 108164823.74947  84284278.57247  20583080.1514   20583083.5214   20583079.9224 
        56.000          51.000  
 123346309.14147  96113988.10147  23472034.8704   23472041.2024   23472035.6374 
        47.000          42.000  
 130651164.04547 101806104.42547  24862084.4004   24862092.0474   24862085.0734 
        43.000          36.000  
 111469572.68147  86859387.85747  21211970.5104   21211975.8884   21211970.8084 
        52.000          46.000  
 125711831.32647  97957242.33147  23922188.4454   23922192.3994   23922187.1664 
        46.000          39.000  
 10  1 15 19  4  3.0000000  0 10G02G04G05G09G12G15G17G18G27G30
 123615454.75247  96323722.39747  23523244.5924   23523249.7334   23523244.3394 
        47.000          41.000  
 129066857.75347 100571572.34747  24560607.3434   24560613.6434   24560606.3214 
        45.000          39.000  
 131644617.61947 102580192.90147  25051160.7784   25051167.4024   25051161.8314 
        47.000          39.000  
 119253173.05747  92924544.05247  22693127.2414   22693131.9654   22693127.6184 
        52.000          46.000  
 116611362.59847  90865990.48547  22190405.9514   22190410.8744   22190406.3044 
        53.000          47.000  
 108165975.20447  84285175.81047  20583299.2034   20583302.5404   20583298.9684 
        56.000          51.000  
 123349397.69447  96116394.76147  23472622.3974   23472628.5384   23472623.1794 
        46.000          41.000  
 130651671.93047 101806500.18147  24862181.0564   24862188.9684   24862181.7074 
        42.000          36.000  
 111468012.22947  86858171.92347  21211673.6294   21211678.5294   21211673.7984 
        52.000          46.000  
 125710701.49347  97956361.94347  23921972.5844   23921977.2274   23921972.2364 
        46.000          39.000  
 10  1 15 19  4  4.0000000  0 10G02G04G05G09G12G15G17G18G27G30
 123613551.73747  96322239.53747  23522881.6714   23522887.6044   23522882.2054 
        47.000          41.000  
 129066048.91347 100570942.08347  24560453.6704   24560460.2684   24560452.9084 
        46.000          39.000  
 131646596.68947 102581735.03247  25051537.4244   25051543.8544   25051538.4774 
        47.000          39.000  
 119251351.44047  92923124.61047  22692780.4104   22692786.0104   22692780.8734 
        52.000          46.000  
 116610928.76547  90865652.43447  22190323.2354   22190328.2794   22190323.7174 
        53.000          47.000  
 108167127.24347  84286073.50147  20583518.4084   20583522.0724   20583518.1874 
        56.000          51.000  
 123352486.56147  96118801.66847  23473210.2784   23473216.2374   23473210.9134 
        47.000          41.000  
 130652180.12147 101806896.17747  24862277.2774   24862285.5284   24862278.6764 
        42.000          36.000  
 111466451.92747  86856956.10447  21211376.3474   21211381.7544   21211376.8624 
        52.000          46.000  
 125709571.86147  97955481.71047  23921757.5584   23921762.6164   23921757.2614 
        46.000          39.000  
 10  1 15 19  4  5.0000000  0 10G02G04G05G09G12G15G17G18G27G30
 123611648.74147  96320756.68947  23522520.6864   23522526.3144   23522520.2364 
        47.000          41.000  
 129065240.29247 100570311.98847  24560299.3364   24560306.7894   24560299.5484 
        46.000          39.000  
 131648575.44647 102583276.91947  25051914.3884   25051920.1664   25051915.4044 
        48.000          39.000  
 119249529.78147  92921705.13547  22692433.7304   22692438.8854   22692434.1914 
        52.000          46.000  
 116610495.18247  90865314.57547  22190241.2984   22190245.5884   22190241.2464 
        53.000          47.000  
 108168279.90947  84286971.68347  20583737.8754   20583741.2344   20583737.5144 
        56.000          51.000  
 123355575.74147  96121208.81847  23473798.0474   23473804.8244   23473798.6634 
        46.000          41.000  
 130652688.63547 101807292.42747  24862373.9664   24862383.9394   24862375.4314 
        43.000          36.000  
 111464891.80847  86855740.42947  21211079.3104   21211085.1674   21211079.9664 
        52.000          46.000  
 125708442.46547  97954601.66147  23921542.4294   23921549.0864   23921542.2964 
        46.000          39.000  
 10  1 15 19  4  6.0000000  0 10G02G04G05G09G12G15G17G18G27G30
 123609745.70647  96319273.81147  23522159.8194   23522163.3064   23522158.4494 
        47.000          41.000  
 129064431.80647 100569681.99947  24560145.6044   24560153.3444   24560146.3104 
        46.000          39.000  
 131650553.86147 102584818.53947  25052289.8574   25052296.2044   25052292.0474 
        47.000          39.000  
 119247708.00447  92920285.56847  22692087.3974   22692092.6594   22692087.4444 
        52.000          46.000  
 116610061.78147  90864976.86047  22190158.9184   22190163.1244   22190158.6864 
        53.000          47.000  
 108169433.14847  84287870.30947  20583957.1794   20583960.5304   20583957.0234 
        56.000          51.000  
 123358665.21747  96123616.19947  23474387.1704   23474392.4724   23474386.5634 
        47.000          42.000  
 130653197.41547 101807688.88447  24862471.4984   24862480.5834   24862472.2904 
        43.000          36.000  
 111463331.81747  86854524.85247  21210782.9224   21210788.0984   21210783.0664 
        52.000          46.000  
 125707313.24647  97953721.74847  23921327.9934   23921333.0214   23921327.3764 
        47.000          39.000  
