     2.10           Observation         GPS                 RINEX VERSION / TYPE
GFW - ROW           NIMA                06/09/2004 23:59:50 PGM / RUN BY / DATE
Data are thinned (not smoothed) 30s. observations           COMMENT
BAHR                                                        MARKER NAME
24901M002                                                   MARKER NUMBER
NIMA                NATIONAL IMAGERY AND MAPPING AGENCY     OBSERVER / AGENCY
03215               ASHTECH Z-XII3      1Y07-1DY4           REC # / TYPE / VERS
11942               ASH700936B_M    SNOW                    ANT # / TYPE
  3633909.1016  4425275.5033  2799861.2736                  APPROX POSITION XYZ
        3.122          .0000         .0000                  ANTENNA: DELTA H/E/N
     1     1                                                WAVELENGTH FACT L1/2
     9    L1    L2    C1    P1    P2    D1    D2    S1    S2# / TYPES OF OBSERV
    30                                                      INTERVAL
  2004     6    10     0     0    0.0000000                 TIME OF FIRST OBS
                                                            END OF HEADER
 04  6 10  0  0  0.0000000  0  8G 4G 5G 6G 9G10G17G24G30              .000000000
  -4163185.462 7  -3221253.335 7  24236698.057    24236698.474    24236701.852
     -3468.113       -2702.427          39.020          36.240
 -24427464.594 9 -19023455.680 8  20576567.763    20576567.469    20576570.973
      1063.071         828.369          51.180          48.050
  -9865068.837 8  -7679434.221 7  23523582.258    23523582.877    23523586.029
      1614.770        1258.271          41.100          37.980
 -13714338.112 8 -10674627.667 8  22141230.525    22141230.616    22141233.839
     -2753.216       -2145.357          47.700          44.230
 -10408234.922 8  -8095254.721 8  23044359.240    23044357.397    23044361.846
      2504.879        1951.866          41.800          40.060
 -23488911.056 8 -18291343.413 8  20813497.339    20813496.926    20813501.340
       478.914         373.188          49.440          49.440
 -17641408.437 8 -13706556.260 8  21415744.099    21415744.065    21415748.245
     -2041.643       -1590.884          48.750          45.620
 -14855795.469 8 -11555992.528 8  22341902.327    22341902.993    22341906.794
      2784.951        2170.104          43.880          41.800
 04  6 10  0  0 30.0000000  0  8G 4G 5G 6G 9G10G17G24G30              .000000000
  -4059087.096 7  -3140137.736 7  24256507.804    24256507.611    24256511.589
     -3471.811       -2705.310          39.020          36.930
 -24459178.263 9 -19048167.598 8  20570533.175    20570532.490    20570536.040
      1051.116         819.050          51.180          48.050
  -9913472.595 8  -7717151.405 7  23514371.789    23514372.047    23514375.741
      1611.953        1256.058          41.450          38.320
 -13631600.123 8 -10610156.517 8  22156975.177    22156974.844    22156978.190
     -2762.645       -2152.706          48.050          43.880
 -10483278.807 8  -8153730.450 7  23030076.498    23030076.033    23030080.925
      2497.996        1946.494          41.800          39.710
 -23503033.838 8 -18302348.127 8  20810810.119    20810809.521    20810813.766
       462.668         360.519          49.790          49.440
 -17579962.756 8 -13658676.501 8  21427437.094    21427436.869    21427440.800
     -2054.760       -1601.111          49.090          45.620
 -14939283.527 8 -11621048.282 8  22326015.198    22326016.070    22326019.608
      2780.878        2166.927          44.230          41.800
 04  6 10  0  1  0.0000000  0  8G 4G 5G 6G 9G10G17G24G30              .000000000
  -3954880.768 7  -3058937.999 7  24276336.440    24276336.709    24276340.667
     -3475.320       -2708.035          39.020          37.280
 -24490534.029 9 -19072600.622 8  20564565.705    20564565.273    20564569.484
      1039.150         809.732          51.530          48.050
  -9961794.444 8  -7754804.765 7  23505175.701    23505176.983    23505180.637
      1609.241        1253.958          42.150          38.320
 -13548582.650 8 -10545467.571 8  22172772.495    22172772.304    22172775.825
     -2771.912       -2159.927          48.050          43.880
 -10558116.957 8  -8212045.888 7  23015835.408    23015834.794    23015839.985
      2491.111        1941.127          42.150          39.710
 -23516673.014 8 -18312975.994 8  20808214.218    20808213.854    20808218.313
       446.573         347.981          49.790          49.440
 -17518126.421 8 -13610492.326 8  21439203.405    21439203.719    21439207.963
     -2067.731       -1611.214          49.090          45.620
 -15022650.471 8 -11686009.702 8  22310151.305    22310151.892    22310155.436
      2776.792        2163.745          44.580          41.800
 04  6 10  0  1 30.0000000  0  8G 4G 5G 6G 9G10G17G24G30              .000000000
  -3850568.976 7  -2977656.130 7  24296186.423    24296187.492    24296190.129
     -3478.627       -2710.621          38.670          36.240
 -24521529.582 9 -19096752.962 8  20558667.335    20558667.087    20558671.051
      1027.247         800.451          51.530          48.050
 -10010034.392 8  -7792394.339 7  23495994.615    23495996.685    23496000.252
      1606.624        1251.925          42.150          38.320
 -13465288.421 8 -10480562.982 8  22188622.847    22188622.815    22188626.314
     -2780.955       -2166.977          48.050          43.880
 -10632745.927 8  -8270198.318 7  23001634.211    23001633.753    23001638.089
      2484.232        1935.761          42.490          39.370
 -23529828.346 8 -18323226.840 8  20805710.772    20805710.339    20805714.756
       430.565         335.502          49.790          49.090
 -17455901.809 8 -13562005.607 8  21451044.769    21451044.465    21451048.903
     -2080.526       -1621.190          49.090          45.270
 -15105893.880 8 -11750874.855 8  22294310.448    22294310.950    22294315.123
      2772.792        2160.618          44.580          42.150
 04  6 10  0  2  0.0000000  0  8G 4G 5G 6G 9G10G17G24G30              .000000000
  -3746154.712 7  -2896294.345 7  24316058.107    24316056.506    24316059.978
     -3482.202       -2713.401          39.710          36.240
 -24552163.517 9 -19120623.491 8  20552838.525    20552837.638    20552841.435
      1015.068         790.957          51.530          48.050
 -10058193.532 8  -7829920.986 7  23486832.192    23486833.423    23486837.438
      1603.859        1249.758          42.490          39.370
 -13381720.535 8 -10415445.153 8  22204525.246    22204525.196    22204528.392
     -2790.129       -2174.131          47.700          43.540
 -10707162.597 8  -8328185.359 7  22987473.898    22987472.871    22987476.374
      2476.995        1930.123          42.490          39.370
 -23542500.390 9 -18333101.092 8  20803299.604    20803299.120    20803303.267
       414.377         322.888          50.140          49.440
 -17393291.550 8 -13513218.387 8  21462959.004    21462958.848    21462963.153
     -2093.410       -1631.232          48.750          45.620
 -15189012.000 8 -11815642.338 8  22278493.913    22278494.310    22278498.041
      2768.486        2157.266          44.580          42.150
 04  6 10  0  2 30.0000000  0  8G 4G 5G 6G 9G10G17G24G30              .000000000
  -3641640.036 7  -2814854.378 7  24335944.491    24335944.206    24335948.388
     -3485.495       -2715.970          39.020          36.590
 -24582433.784 9 -19144210.641 8  20547078.149    20547077.403    20547081.180
      1002.921         781.489          51.530          48.050
 -10106272.729 8  -7867385.301 7  23477682.127    23477683.516    23477687.383
      1601.209        1247.697          42.490          39.020
 -13297881.852 8 -10350116.301 8  22220478.554    22220478.809    22220482.260
     -2799.097       -2181.115          47.360          43.190
 -10781363.627 8  -8386004.345 7  22973353.013    22973352.246    22973357.451
      2469.736        1924.470          42.490          39.370
 -23554688.968 9 -18342598.612 8  20800979.571    20800979.415    20800983.994
       398.272         310.339          50.140          49.440
 -17330298.044 8 -13464132.539 8  21474946.061    21474946.084    21474950.412
     -2106.135       -1641.147          48.750          45.270
 -15272002.689 8 -11880310.541 8  22262701.523    22262702.112    22262705.616
      2764.197        2153.921          44.580          41.800
 04  6 10  0  3  0.0000000  0  8G 4G 5G 6G 9G10G17G24G30              .000000000
  -3537027.580 7  -2733338.168 7  24355851.963    24355852.759    24355855.611
     -3488.677       -2718.451          39.710          36.590
 -24612338.458 9 -19167512.918 8  20541387.361    20541386.736    20541390.598
       990.708         771.974          51.530          48.400
 -10154271.856 8  -7904787.243 7  23468547.612    23468549.286    23468553.709
      1598.524        1245.606          42.490          39.020
 -13213775.125 8 -10284578.585 8  22236484.068    22236483.919    22236487.588
     -2807.994       -2188.049          47.360          43.540
 -10855345.705 8  -8443652.707 8  22959274.653    22959273.978    22959279.346
      2462.366        1918.731          42.490          40.060
 -23566394.433 9 -18351719.690 8  20798752.644    20798752.034    20798756.484
       382.170         297.790          50.140          49.440
 -17266923.723 8 -13414749.943 8  21487005.944    21487005.874    21487009.874
     -2118.819       -1651.037          48.750          45.270
 -15354863.587 8 -11944877.596 8  22246933.837    22246934.156    22246937.962
      2759.842        2150.524          44.580          41.800
 04  6 10  0  3 30.0000000  0  8G 4G 5G 6G 9G10G17G24G30              .000000000
  -3432320.019 7  -2651747.844 7  24375777.704    24375777.468    24375779.825
     -3491.829       -2720.903          39.710          35.200
 -24641875.856 9 -19190528.986 8  20535765.926    20535765.672    20535769.683
       978.380         762.375          51.530          48.050
 -10202192.402 8  -7942127.919 7  23459428.194    23459429.401    23459434.559
      1595.822        1243.501          42.490          39.020
 -13129403.419 8 -10218834.395 8  22252539.561    22252539.299    22252543.015
     -2816.813       -2194.913          47.010          43.540
 -10929105.291 8  -8501127.683 7  22945238.609    22945238.004    22945243.012
      2454.870        1912.891          42.490          39.710
 -23577616.798 9 -18360464.325 8  20796616.736    20796616.434    20796620.685
       366.046         285.235          50.140          49.440
 -17203171.112 8 -13365072.571 8  21499137.697    21499137.540    21499142.016
     -2131.437       -1660.855          48.750          45.270
 -15437592.757 8 -12009341.981 8  22231191.925    22231191.265    22231195.199
      2755.361        2147.047          44.930          42.150
 04  6 10  0  4  0.0000000  0  8G 4G 5G 6G 9G10G17G24G30              .000000000
  -3327519.862 7  -2570085.377 7  24395720.512    24395720.060    24395723.836
     -3494.925       -2723.310          39.020          35.200
 -24671044.133 9 -19213257.416 8  20530215.710    20530215.179    20530218.914
       966.044         752.760          51.530          48.400
 -10250033.979 8  -7979407.056 7  23450324.791    23450325.204    23450330.636
      1593.297        1241.536          42.150          39.370
 -13044769.881 8 -10152886.179 8  22268644.447    22268644.427    22268648.069
     -2825.498       -2201.686          47.010          43.540
 -11002639.413 8  -8558426.984 7  22931246.472    22931245.162    22931249.293
      2447.284        1906.976          42.490          39.710
 -23588356.283 9 -18368832.700 8  20794573.805    20794572.926    20794577.085
       349.916         272.660          50.140          49.440
 -17139042.560 8 -13315102.270 8  21511340.677    21511340.628    21511345.420
     -2143.914       -1670.583          48.400          45.620
 -15520187.985 8 -12073701.998 8  22215473.993    22215474.509    22215478.030
      2750.864        2143.534          45.270          42.150
 04  6 10  0  4 30.0000000  0  8G 4G 5G 6G 9G10G17G24G30              .000000000
  -3222629.265 7  -2488352.514 7  24415680.047    24415679.894    24415684.444
     -3497.781       -2725.553          38.320          36.930
 -24699841.692 9 -19235697.026 8  20524736.153    20524735.328    20524739.025
       953.733         743.164          51.530          48.050
 -10297798.298 8  -8016626.030 7  23441236.663    23441236.469    23441241.133
      1590.780        1239.568          42.150          39.020
 -12959877.364 8 -10086736.182 8  22284798.963    22284799.255    22284802.909
     -2834.026       -2208.339          47.010          43.540
 -11075944.891 8  -8615548.152 7  22917296.188    22917295.503    22917300.415
      2439.665        1901.028          42.840          39.710
 -23598613.145 9 -18376825.023 8  20792621.412    20792620.764    20792625.064
       333.863         260.147          50.140          49.090
 -17074540.645 8 -13264841.068 8  21523615.496    21523615.091    21523619.512
     -2156.232       -1680.187          48.400          45.270
 -15602647.181 8 -12137956.012 8  22199782.472    22199782.915    22199786.265
      2746.366        2140.025          45.620          41.800
 04  6 10  0  5  0.0000000  0  8G 4G 5G 6G 9G10G17G24G30              .000000000
  -3117651.165 7  -2406551.442 7  24435656.715    24435657.065    24435660.377
     -3500.725       -2727.851          38.670          36.590
 -24728266.732 9 -19257846.361 8  20519326.766    20519326.124    20519329.880
       941.197         733.396          51.530          48.400
 -10345485.323 8  -8053784.746 7  23432161.537    23432161.329    23432166.942
      1588.106        1237.477          42.150          39.370
 -12874728.761 8 -10020386.613 8  22301003.110    22301002.669    22301006.202
     -2842.559       -2214.986          47.360          43.540
 -11149018.171 8  -8672488.350 8  22903390.717    22903390.191    22903395.499
      2431.807        1894.912          42.840          40.060
 -23608387.684 9 -18384441.509 8  20790761.471    20790760.935    20790765.164
       317.747         247.591          50.140          49.440
 -17009667.859 8 -13214290.836 8  21535959.816    21535960.055    21535964.190
     -2168.648       -1689.855          48.400          45.270
 -15684968.184 8 -12202102.314 8  22184117.527    22184117.725    22184121.553
      2741.659        2136.359          45.270          41.800
 04  6 10  0  5 30.0000000  0  8G 4G 5G 6G 9G10G17G24G30              .000000000
  -3012587.718 7  -2324683.792 7  24455649.709    24455648.975    24455653.283
     -3503.597       -2730.066          37.980          35.890
 -24756317.662 9 -19279704.186 8  20513988.253    20513988.052    20513991.903
       928.668         723.639          51.530          48.400
 -10393095.647 8  -8090883.664 7  23423102.980    23423102.128    23423106.466
      1585.528        1235.476          41.800          39.020
 -12789327.067 8  -9953839.801 8  22317253.913    22317253.937    22317257.360
     -2851.011       -2221.565          47.360          43.190
 -11221855.995 8  -8729245.060 7  22889530.622    22889529.629    22889533.782
      2423.825        1888.695          42.840          39.710
 -23617680.086 9 -18391682.289 8  20788993.287    20788992.587    20788996.927
       301.615         235.025          50.140          49.440
 -16944426.475 8 -13163453.365 8  21548375.879    21548375.158    21548379.641
     -2180.929       -1699.428          48.750          45.270
 -15767148.922 8 -12266139.266 8  22168479.903    22168479.680    22168482.772
      2736.885        2132.640          45.620          42.150
 04  6 10  0  6  0.0000000  0  8G 4G 5G 6G 9G10G17G24G30              .000000000
  -2907441.727 7  -2242751.861 7  24475659.513    24475659.246    24475662.161
     -3506.208       -2732.112          38.670          36.590
 -24783992.469 9 -19301268.972 8  20508724.060    20508722.148    20508725.511
       916.166         713.890          51.530          48.400
 -10440630.175 8  -8127923.529 7  23414055.073    23414055.574    23414060.070
      1583.122        1233.592          41.800          38.670
 -12703675.285 8  -9887098.131 8  22333552.921    22333553.092    22333556.543
     -2859.224       -2227.974          47.700          43.540
 -11294454.965 8  -8785815.657 8  22875714.772    22875713.981    22875719.297
      2415.902        1882.519          42.840          40.060
 -23626490.694 9 -18398547.670 8  20787316.689    20787315.953    20787320.270
       285.639         222.572          50.140          49.440
 -16878819.537 8 -13112331.058 8  21560859.580    21560859.733    21560864.182
     -2193.016       -1708.845          48.750          45.620
 -15849187.255 8 -12330065.240 8  22152867.894    22152868.270    22152871.811
      2732.188        2128.972          45.620          42.840
 04  6 10  0  6 30.0000000  0  8G 4G 5G 6G 9G10G17G24G30              .000000000
  -2802215.428 7  -2160757.360 7  24495682.608    24495682.590    24495686.116
     -3508.866       -2734.187          39.370          36.240
 -24811289.546 9 -19322539.418 8  20503526.973    20503527.224    20503531.148
       903.573         704.080          51.870          48.050
 -10488089.678 8  -8164904.945 7  23405024.388    23405024.976    23405029.432
      1580.591        1231.628          41.450          38.670
 -12617776.367 8  -9820163.903 8  22349899.045    22349899.032    22349902.253
     -2867.389       -2234.330          47.700          43.190
 -11366811.883 8  -8842197.654 7  22861945.614    22861945.363    22861950.180
      2407.811        1876.217          42.840          39.710
 -23634819.637 9 -18405037.746 8  20785731.551    20785731.009    20785735.190
       269.648         210.114          50.140          49.090
 -16812849.176 8 -13060925.580 8  21573413.546    21573413.508    21573417.527
     -2205.070       -1718.240          48.750          45.270
 -15931080.947 8 -12393878.457 8  22137283.658    22137284.094    22137287.643
      2727.319        2125.179          45.270          42.490
 04  6 10  0  7  0.0000000  0  8G 4G 5G 6G 9G10G17G24G30              .000000000
  -2696911.374 7  -2078702.284 7  24515720.606    24515720.818    24515724.475
     -3511.394       -2736.160          37.980          35.200
 -24838207.023 9 -19343514.087 8  20498405.929    20498405.108    20498408.897
       890.865         694.174          51.530          48.400
 -10535474.770 8  -8201828.360 7  23396009.012    23396007.803    23396012.631
      1578.150        1229.725          41.800          39.370
 -12531633.169 8  -9753039.313 8  22366292.075    22366291.571    22366294.581
     -2875.524       -2240.677          47.700          43.190
 -11438923.479 8  -8898388.496 7  22848224.603    22848223.135    22848227.185
      2399.564        1869.776          43.190          39.710
 -23642667.382 9 -18411152.858 8  20784238.029    20784237.505    20784241.739
       253.573         197.581          50.140          49.440
 -16746518.383 8 -13009239.248 8  21586036.004    21586035.991    21586039.944
     -2217.067       -1727.588          48.750          45.270
 -16012827.930 8 -12457577.353 8  22121727.997    22121728.236    22121731.549
      2722.371        2121.320          45.270          42.150
 04  6 10  0  7 30.0000000  0  9G 4G 5G 6G 9G10G17G21G24G30           .000000000
  -2591531.891 7  -1996588.344 7  24535773.686    24535774.219    24535777.718
     -3513.918       -2738.111          39.370          35.200
 -24864742.740 9 -19364191.292 8  20493356.001    20493355.693    20493359.356
       878.091         684.229          51.870          48.400
 -10582785.345 8  -8238693.728 7  23387004.700    23387004.770    23387009.412
      1575.690        1227.811          41.800          38.670
 -12445248.650 8  -9685726.686 8  22382730.007    22382729.822    22382733.310
     -2883.515       -2246.894          47.360          43.190
 -11510786.440 8  -8954385.582 7  22834548.154    22834547.670    22834551.977
      2391.218        1863.283          42.840          39.710
 -23650034.146 8 -18416893.194 8  20782836.111    20782835.712    20782839.922
       237.549         185.103          49.790          49.090
   -312675.16419    -83103.99815          .00077  25878564.8171   25913429.4001
      3360.4661       2621.3991        651.3101         11.9201
 -16679829.235 8 -12957273.672 8  21598725.936    21598726.100    21598730.320
     -2228.982       -1736.867          48.750          44.930
 -16094425.880 8 -12521160.117 8  22106200.613    22106200.807    22106204.327
      2717.370        2117.432          45.620          42.150
 04  6 10  0  8  0.0000000  0  8G 4G 5G 6G 9G10G17G24G30              .000000000
  -2486079.692 7  -1914417.835 7  24555838.901    24555840.012    24555844.866
     -3516.128       -2739.854          37.980          35.890
 -24890895.231 9 -19384569.886 8  20488380.713    20488379.330    20488382.578
       865.438         674.371          51.870          48.400
 -10630023.075 8  -8275502.315 7  23378016.550    23378016.347    23378020.960
      1573.345        1225.982          41.800          39.020
 -12358626.030 8  -9618228.533 8  22399212.972    22399213.054    22399217.003
     -2891.293       -2252.955          47.010          43.190
 -11582397.574 8  -9010186.449 8  22820921.943    22820921.042    22820925.084
      2382.867        1856.778          43.190          40.060
 -23656920.266 8 -18422259.009 8  20781526.001    20781525.270    20781529.409
       221.664         172.727          49.790          49.440
 -16612784.388 8 -12905030.927 8  21611484.694    21611484.289    21611488.572
     -2240.647       -1745.964          48.400          44.930
 -16175872.801 8 -12584625.178 8  22090702.525    22090702.083    22090705.526
      2712.428        2113.582          45.620          42.840
 04  6 10  0  8 30.0000000  0  8G 4G 5G 6G 9G10G17G24G30              .000000000
  -2380556.844 7  -1832192.276 7  24575921.517    24575922.138    24575924.838
     -3518.528       -2741.711          38.320          36.590
 -24916662.887 9 -19404648.590 8  20483475.331    20483475.139    20483479.205
       852.499         664.287          51.870          48.400
 -10677187.941 8  -8312254.129 7  23369040.545    23369040.692    23369045.512
      1570.899        1224.083          41.800          38.670
 -12271768.141 8  -9550547.059 8  22415741.370    22415741.904    22415745.349
     -2899.139       -2259.059          46.660          42.840
 -11653753.399 8  -9065788.363 8  22807342.426    22807341.834    22807346.690
      2374.258        1850.073          42.840          40.060
 -23663326.278 9 -18427250.711 8  20780307.006    20780306.400    20780310.459
       205.603         160.213          50.140          49.440
 -16545386.183 8 -12852512.841 8  21624309.901    21624309.910    21624314.517
     -2252.457       -1755.160          48.400          45.270
 -16257166.403 8 -12647970.759 8  22075231.195    22075232.022    22075235.548
      2707.196        2109.501          45.620          42.490
 04  6 10  0  9  0.0000000  0  8G 4G 5G 6G 9G10G17G24G30              .000000000
  -2274966.256 7  -1749913.869 7  24596015.978    24596013.804    24596017.283
     -3520.868       -2743.530          38.670          35.540
 -24942044.093 9 -19424426.152 8  20478644.823    20478645.226    20478649.450
       839.511         654.169          51.870          48.400
 -10724281.213 8  -8348950.157 7  23360079.827    23360079.322    23360083.691
      1568.434        1222.162          42.150          39.020
 -12184678.167 8  -9482684.727 8  22432314.280    22432314.235    22432318.089
     -2906.884       -2265.102          46.310          42.840
 -11724850.826 8  -9121188.937 8  22793813.921    22793812.537    22793817.671
      2365.508        1843.256          42.840          40.410
 -23669252.485 9 -18431868.533 8  20779179.513    20779178.541    20779182.762
       189.519         147.684          50.140          49.440
 -16477637.276 8 -12799721.479 8  21637202.053    21637201.712    21637206.469
     -2264.207       -1764.310          48.400          44.930
 -16338304.744 8 -12711195.379 8  22059792.039    22059791.985    22059794.791
      2701.931        2105.409          45.970          42.150
 04  6 10  0  9 30.0000000  0  8G 4G 5G 6G 9G10G17G24G30              .000000000
  -2169310.021 7  -1667584.388 7  24616119.949    24616119.535    24616123.294
     -3523.054       -2745.238          37.280          34.850
 -24967036.969 9 -19443901.139 8  20473891.761    20473890.452    20473893.346
       826.462         643.994          51.870          48.400
 -10771302.718 8  -8385590.248 7  23351130.627    23351131.193    23351135.711
      1566.003        1220.260          42.150          39.020
 -12097358.990 8  -9414643.810 8  22448930.807    22448930.648    22448934.138
     -2914.571       -2271.101          46.310          42.840
 -11795686.595 8  -9176385.616 8  22780333.547    22780332.919    22780337.836
      2356.671        1836.358          43.190          40.410
 -23674699.220 8 -18436112.743 8  20778142.642    20778142.106    20778146.266
       173.442         135.144          49.790          49.440
 -16409540.001 8 -12746658.670 8  21650161.384    21650160.621    21650164.800
     -2275.823       -1773.372          48.400          44.930
 -16419285.347 8 -12774297.088 8  22044380.303    22044381.548    22044385.230
      2696.529        2101.183          45.970          42.490
 04  6 10  0 10  0.0000000  0  8G 4G 5G 6G 9G10G17G24G30              .000000000
  -2063590.655 7  -1585205.673 7  24636238.914    24636238.815    24636241.394
     -3525.001       -2746.762          38.320          35.200
 -24991639.941 9 -19463072.302 8  20469210.176    20469208.594    20469211.648
       813.563         633.945          51.870          48.400
 -10818253.745 8  -8422175.423 7  23342197.763    23342197.289    23342201.801
      1563.734        1218.492          42.490          39.020
 -12009813.537 8  -9346426.564 8  22465591.015    22465590.496    22465593.828
     -2921.925       -2276.831          46.660          42.840
 -11866257.320 8  -9231375.772 8  22766905.010    22766904.188    22766908.728
      2347.885        1829.523          43.190          40.410
 -23679666.828 8 -18439983.596 8  20777197.266    20777196.621    20777200.988
       157.639         122.832          49.790          49.440
 -16341097.279 8 -12693326.678 8  21663184.426    21663184.583    21663189.041
     -2287.176       -1782.218          48.050          44.930
 -16500106.060 8 -12837274.184 8  22029002.113    22029001.950    22029005.532
      2691.328        2097.131          45.620          42.840
 04  6 10  0 10 30.0000000  0  9G 4G 5G 6G 9G10G17G21G24G30           .000000000
  -1957810.385 7  -1502779.458 7  24656367.093    24656367.274    24656370.825
     -3527.037       -2748.359          38.670          33.810
 -25015851.304 9 -19481938.301 8  20464600.330    20464600.429    20464604.448
       800.495         623.758          51.870          48.400
 -10865134.471 8  -8458705.815 7  23333276.202    23333276.209    23333279.894
      1561.436        1216.699          42.490          38.320
 -11922044.966 8  -9278035.470 8  22482291.916    22482292.173    22482295.456
     -2929.296       -2282.573          46.660          42.490
 -11936559.809 8  -9286156.909 8  22753526.305    22753525.844    22753530.515
      2338.895        1822.506          43.190          40.060
 -23684155.788 8 -18443481.471 8  20776343.160    20776342.502    20776346.679
       141.714         110.423          49.790          49.090
   -116519.21019    -50137.11019          .00077  25763644.4921   25764297.1491
      3349.4461       2609.3501        651.3101        651.3101
 -16272311.507 8 -12639727.369 8  21676274.579    21676274.225    21676278.649
     -2298.548       -1791.081          48.050          44.930
 -16580764.771 8 -12900125.034 8  22013652.795    22013652.820    22013656.632
      2685.877        2092.879          45.970          42.840
 04  6 10  0 11  0.0000000  0  9G 4G 5G 6G 9G10G17G21G24G30           .000000000
  -1851971.917 7  -1420307.937 7  24676507.289    24676506.956    24676511.587
     -3528.861       -2749.772          38.320          35.200
 -25039669.229 9 -19500497.729 8  20460067.783    20460067.975    20460071.869
       787.369         613.529          51.870          48.400
 -10911945.587 8  -8495181.990 7  23324368.011    23324367.402    23324372.528
      1559.131        1214.902          42.840          38.670
 -11834055.964 8  -9209472.596 8  22499036.063    22499035.883    22499038.889
     -2936.595       -2288.261          47.010          42.490
 -12006590.689 8  -9340726.397 8  22740200.050    22740199.267    22740203.929
      2329.799        1815.425          43.190          40.410
 -23688166.542 8 -18446606.721 8  20775579.770    20775579.373    20775583.427
       125.746          97.980          49.790          49.440
   -216970.33019    -61881.44219          .00077  25744529.2691   25761429.0591
      3347.3691       2609.9791        651.3101        651.3101
 -16203185.162 8 -12585862.676 8  21689427.962    21689428.420    21689432.676
     -2309.871       -1799.899          48.050          44.580
 -16661259.077 8 -12962847.807 8  21998334.396    21998335.499    21998338.483
      2680.366        2088.593          45.970          42.490
 04  6 10  0 11 30.0000000  0  9G 4G 5G 6G 9G10G17G21G24G30           .000000000
  -1746077.424 7  -1337792.725 7  24696658.337    24696659.089    24696662.195
     -3530.667       -2751.175          38.670          35.890
 -25063092.231 9 -19518749.427 8  20455612.051    20455611.147    20455614.810
       774.190         603.262          51.870          48.400
 -10958687.883 8  -8531604.498 7  23315473.518    23315473.687    23315477.663
      1556.809        1213.089          43.190          38.670
 -11745849.851 8  -9140740.543 8  22515821.130    22515820.624    22515824.552
     -2943.771       -2293.854          46.660          42.490
 -12076346.967 8  -9395081.910 8  22726926.509    22726925.275    22726930.195
      2320.612        1808.260          43.190          40.410
 -23691699.790 8 -18449359.884 8  20774907.090    20774906.978    20774911.159
       109.916          85.645          49.790          49.090
   -317359.285 9    -61881.44219          .00077  25725425.874    25761429.0591
      3345.333        2609.9791        651.310         651.3101
 -16133720.999 8 -12531734.745 8  21702647.672    21702647.121    21702651.532
     -2321.078       -1808.638          48.050          44.930
 -16741587.129 8 -13025441.020 8  21983048.731    21983049.076    21983052.968
      2674.874        2084.314          45.970          42.490
 04  6 10  0 12  0.0000000  0  8G 4G 5G 6G 9G10G17G24G30              .000000000
  -1640129.273 7  -1255235.739 7  24716818.283    24716819.884    24716823.950
     -3532.413       -2752.516          37.980          35.890
 -25086118.544 9 -19536692.014 8  20451230.445    20451229.702    20451232.950
       760.916         592.924          51.870          48.400
 -11005361.417 8  -8567973.412 7  23306590.775    23306591.187    23306595.333
      1554.538        1211.329          42.840          38.320
 -11657429.367 8  -9071841.459 8  22532647.492    22532646.756    22532649.853
     -2950.899       -2299.404          46.660          42.490
 -12145824.939 8  -9449220.568 8  22713704.353    22713703.593    22713708.322
      2311.258        1800.981          43.190          40.410
 -23694755.834 8 -18451741.198 8  20774325.519    20774325.273    20774329.498
        93.944          73.207          49.790          49.440
 -16063921.068 8 -12477345.172 8  21715929.927    21715929.743    21715933.926
     -2332.213       -1817.310          48.050          44.930
 -16821746.193 8 -13087902.563 8  21967795.341    21967796.095    21967799.433
      2669.130        2079.844          46.310          43.540
 04  6 10  0 12 30.0000000  0  8G 4G 5G 6G 9G10G17G24G30              .000000000
  -1534130.047 7  -1172638.973 7  24736989.678    24736990.917    24736995.165
     -3534.136       -2753.876          36.930          35.890
 -25108746.813 9 -19554324.435 8  20446925.434    20446923.892    20446926.872
       747.591         582.537          51.870          48.400
 -11051967.913 8  -8604290.093 7  23297722.930    23297721.937    23297726.270
      1552.303        1209.579          42.840          37.980
 -11568797.726 8  -9002777.833 8  22549511.981    22549512.511    22549516.357
     -2957.899       -2304.857          46.310          42.490
 -12215021.870 8  -9503140.237 8  22700536.744    22700536.224    22700540.306
      2301.780        1793.591          43.540          40.410
 -23697335.376 8 -18453751.216 8  20773835.183    20773834.657    20773838.754
        78.025          60.796          49.790          49.090
 -15993788.746 8 -12422696.606 8  21729276.164    21729275.377    21729279.613
     -2343.296       -1825.947          48.050          44.580
 -16901734.518 8 -13150231.060 8  21952574.196    21952574.433    21952577.973
      2663.349        2075.329          46.660          43.190
 04  6 10  0 13  0.0000000  0  8G 4G 5G 6G 9G10G17G24G30              .000000000
  -1428081.965 7  -1090004.132 7  24757171.739    24757171.375    24757174.517
     -3535.687       -2755.080          36.930          34.850
 -25130975.050 9 -19571645.130 8  20442693.476    20442693.187    20442697.122
       734.319         572.199          51.870          48.400
 -11098506.903 8  -8640554.155 7  23288867.178    23288866.718    23288870.249
      1550.157        1207.911          42.840          38.670
 -11479957.683 8  -8933551.824 8  22566418.699    22566418.386    22566422.160
     -2964.711       -2310.163          46.310          42.840
 -12283934.157 8  -9556838.102 8  22687424.204    22687422.774    22687427.140
      2292.328        1786.235          43.540          40.410
 -23699438.865 8 -18455390.288 8  20773434.891    20773434.130    20773438.489
        62.255          48.511          49.790          49.440
 -15923326.233 8 -12367790.735 8  21742684.013    21742684.088    21742688.348
     -2354.180       -1834.427          48.050          44.930
 -16981549.621 8 -13212424.585 8  21937385.426    21937385.712    21937389.196
      2657.653        2070.899          45.970          42.840
 04  6 10  0 13 30.0000000  0  8G 4G 5G 6G 9G10G17G24G30              .000000000
  -1321987.513 7  -1007333.107 7  24777359.042    24777360.512    24777363.698
     -3537.174       -2756.235          38.320          35.200
 -25152801.520 9 -19588652.756 8  20438538.791    20438539.336    20438543.785
       720.860         561.710          51.870          48.400
 -11144979.751 8  -8676766.665 7  23280021.500    23280022.326    23280026.598
      1547.860        1206.128          42.490          38.670
 -11390912.168 8  -8864165.690 8  22583362.962    22583363.082    22583366.466
     -2971.576       -2315.515          46.310          42.150
 -12352558.426 8  -9610311.535 8  22674364.030    22674363.480    22674368.682
      2282.685        1778.711          43.540          40.410
 -23701066.622 8 -18456658.654 8  20773124.762    20773124.438    20773128.661
        46.425          36.175          49.790          49.090
 -15852535.838 8 -12312629.377 8  21756154.631    21756154.860    21756159.319
     -2365.111       -1842.941          48.050          44.580
 -17061189.117 8 -13274481.291 8  21922231.692    21922231.286    21922233.940
      2651.720        2066.281          45.970          42.490
 04  6 10  0 14  0.0000000  0  8G 4G 5G 6G 9G10G17G24G30              .000000000
  -1215848.745 7   -924627.607 7  24797555.428    24797557.789    24797562.313
     -3538.566       -2757.335          37.630          34.500
 -25174224.772 9 -19605346.221 8  20434464.569    20434463.261    20434467.052
       707.455         551.263          51.870          48.750
 -11191386.772 8  -8712927.942 7  23271190.892    23271191.375    23271195.675
      1545.821        1204.539          42.150          39.020
 -11301664.378 8  -8794621.974 8  22600346.158    22600346.492    22600350.106
     -2978.188       -2320.667          46.310          42.490
 -12420891.791 8  -9663558.327 8  22661361.286    22661360.563    22661364.298
      2272.969        1771.142          43.880          40.410
 -23702219.449 8 -18457556.976 8  20772905.385    20772904.984    20772909.216
        30.627          23.864          49.790          49.440
 -15781420.341 8 -12257214.728 8  21769687.726    21769687.553    21769692.543
     -2375.831       -1851.295          48.050          44.930
 -17140651.042 8 -13336399.675 8  21907108.641    21907109.552    21907113.367
      2645.820        2061.677          46.310          43.190
 04  6 10  0 14 30.0000000  0  8G 4G 5G 6G 9G10G17G24G30              .000000000
  -1109668.190 7   -841889.529 7  24817763.448    24817763.918    24817766.574
     -3540.006       -2758.448          37.630          34.150
 -25195243.033 9 -19621724.080 8  20430464.883    20430463.845    20430467.295
       693.805         540.623          51.870          48.400
 -11237728.557 8  -8749038.328 7  23262372.494    23262372.197    23262377.884
      1543.494        1202.718          42.150          39.370
 -11212217.142 8  -8724922.835 8  22617367.838    22617367.463    22617371.216
     -2984.890       -2325.899          45.970          42.490
 -12488930.835 8  -9716575.747 8  22648413.908    22648412.889    22648417.475
      2263.016        1763.381          43.880          40.410
 -23702897.973 8 -18458085.687 8  20772776.217    20772775.882    20772780.065
        14.724          11.472          49.790          49.090
 -15709982.310 8 -12201548.717 8  21783282.378    21783282.104    21783286.452
     -2386.642       -1859.722          48.050          44.580
 -17219933.003 8 -13398177.790 8  21892022.345    21892022.715    21892026.601
      2639.680        2056.886          45.970          43.190
 04  6 10  0 15  0.0000000  0  9G 4G 5G 6G 9G10G17G21G24G30           .000000000
  -1003448.284 7   -759120.706 7  24837977.955    24837976.769    24837979.527
     -3541.377       -2759.508          37.980          34.500
 -25215855.011 9 -19637785.316 8  20426542.454    20426541.460    20426544.923
       680.188         530.022          51.870          48.750
 -11284005.660 8  -8785098.317 7  23253567.508    23253566.686    23253572.181
      1541.339        1201.042          42.150          39.710
 -11122573.772 8  -8655070.818 8  22634426.507    22634426.302    22634429.904
     -2991.383       -2330.941          45.970          42.150
 -12556672.411 8  -9769361.341 8  22635522.471    22635521.989    22635527.219
      2252.991        1755.582          43.880          41.100
 -23703102.709 8 -18458245.188 8  20772737.264    20772736.962    20772741.134
        -1.094           -.846          49.790          49.440
   -103122.87219    -42063.50219          .00077  25592062.7451   25594597.3641
      3328.7991       2594.1301        651.3101        651.3101
 -15638224.461 8 -12145633.485 8  21796936.840    21796936.700    21796941.420
     -2397.306       -1868.024          48.050          44.580
 -17299032.836 8 -13459813.970 8  21876970.992    21876970.988    21876973.790
      2633.538        2052.114          46.310          42.840
 04  6 10  0 15 30.0000000  0  9G 4G 5G 6G 9G10G17G21G24G30           .000000000
   -897191.203 7   -676323.007 7  24858196.840    24858195.613    24858200.037
     -3542.589       -2760.449          36.930          35.200
 -25236058.836 9 -19653528.530 8  20422696.371    20422696.352    20422700.206
       666.571         519.411          51.870          48.400
 -11330218.952 8  -8821108.605 7  23244771.447    23244771.850    23244777.076
      1539.210        1199.385          42.150          39.710
 -11032737.142 8  -8585068.240 8  22651522.451    22651521.770    22651525.005
     -2997.799       -2335.943          45.970          42.150
 -12624113.318 8  -9821912.666 8  22622690.010    22622688.518    22622693.228
      2242.912        1747.724          43.880          40.760
 -23702834.471 8 -18458036.161 8  20772788.438    20772787.870    20772792.186
       -16.849         -13.124          49.790          49.090
   -202951.375 9    -42063.50219          .00077  25573066.000    25594597.3641
      3326.228        2594.1301        651.310         651.3101
 -15566149.201 8 -12089470.939 8  21810652.739    21810652.406    21810656.855
     -2407.828       -1876.224          48.050          44.580
 -17377948.149 8 -13521306.414 8  21861953.469    21861953.625    21861956.684
      2627.341        2047.283          46.660          42.840
 04  6 10  0 16  0.0000000  0  9G 4G 5G 6G 9G10G17G21G24G30           .000000000
   -790899.036 7   -593497.973 7  24878424.700    24878423.200    24878426.672
     -3543.706       -2761.331          36.930          35.890
 -25255853.028 9 -19668952.553 8  20418929.983    20418929.534    20418933.421
       652.896         508.744          51.530          48.400
 -11376368.569 8  -8857069.301 8  23235991.092    23235990.918    23235995.932
      1537.134        1197.765          42.490          40.060
 -10942709.763 8  -8514917.038 8  22668654.085    22668653.678    22668656.920
     -3004.100       -2340.865          46.310          42.490
 -12691250.254 8  -9874227.144 8  22609913.193    22609913.008    22609917.640
      2232.729        1739.784          43.880          41.100
 -23702093.450 8 -18457458.733 8  20772929.790    20772929.021    20772933.185
       -32.599         -25.405          49.790          49.090
   -302702.153 9    -42063.50219          .00077  25554084.048    25594597.3641
      3323.639        2594.1301        651.310         651.3101
 -15493759.237 8 -12033063.167 8  21824428.212    21824427.647    21824432.102
     -2418.292       -1884.386          47.700          44.580
 -17456676.468 8 -13582653.116 8  21846971.594    21846972.215    21846975.557
      2621.062        2042.379          46.660          43.540
 04  6 10  0 16 30.0000000  0  8G 4G 5G 6G 9G10G17G24G30              .000000000
   -684574.495 7   -510647.693 7  24898655.865    24898656.661    24898660.084
     -3544.645       -2762.055          37.630          35.200
 -25275236.154 9 -19684056.274 8  20415241.740    20415241.120    20415244.977
       639.238         498.106          51.530          48.400
 -11422455.447 8  -8892981.141 7  23227220.631    23227220.313    23227225.526
      1535.084        1196.170          42.490          39.710
 -10852495.008 8  -8444619.819 8  22685820.291    22685820.746    22685823.732
     -3010.251       -2345.652          46.310          41.800
 -12758080.069 8  -9926302.291 8  22597196.331    22597195.541    22597200.460
      2222.518        1731.831          44.230          40.760
 -23700880.789 8 -18456513.796 8  20773160.360    20773159.834    20773163.843
       -48.229         -37.581          49.790          49.090
 -15421057.095 8 -11976412.145 8  21838262.754    21838262.421    21838266.641
     -2428.596       -1892.413          47.700          44.230
 -17535215.688 8 -13643852.451 8  21832027.260    21832026.943    21832030.128
      2614.783        2037.491          46.660          43.540
 04  6 10  0 17  0.0000000  0  7G 5G 6G 9G10G17G24G30                 .000000000
 -25294206.488 9 -19698838.339 8  20411631.495    20411631.177    20411635.066
       625.456         487.369          51.530          48.750
 -11468480.424 8  -8928844.731 8  23218461.641    23218462.296    23218466.660
      1533.054        1194.592          42.490          40.060
 -10762095.982 8  -8374178.993 8  22703023.105    22703023.119    22703025.987
     -3016.334       -2350.393          46.310          41.800
 -12824599.503 8  -9978135.594 8  22584537.786    22584536.670    22584541.427
      2212.118        1723.727          44.230          40.760
 -23699197.147 9 -18455201.867 8  20773480.859    20773480.155    20773484.270
       -63.927         -49.811          50.140          49.090
 -15348045.480 8 -11919519.968 8  21852156.263    21852156.097    21852160.347
     -2438.850       -1900.406          47.700          44.230
 -17613563.701 8 -13704902.812 8  21817117.451    21817117.653    21817120.754
      2608.380        2032.503          47.010          43.190
 04  6 10  0 17 30.0000000  0  7G 5G 6G 9G10G17G24G30                 .000000000
 -25312762.380 9 -19713297.481 8  20408100.976    20408100.400    20408103.949
       611.638         476.603          51.530          48.400
 -11514443.197 8  -8964659.837 7  23209716.017    23209715.929    23209719.647
      1531.046        1193.018          42.840          39.370
 -10671515.661 8  -8303596.913 8  22720259.873    22720259.766    22720263.560
     -3022.265       -2355.013          45.970          42.150
 -12890805.295 8 -10029724.506 8  22571939.315    22571938.514    22571943.317
      2201.639        1715.567          44.230          40.760
 -23697042.818 9 -18453523.165 8  20773890.746    20773890.180    20773894.374
       -79.590         -62.018          50.140          49.090
 -15274726.709 8 -11862388.449 8  21866108.446    21866108.352    21866112.628
     -2448.995       -1908.304          47.700          44.230
 -17691717.951 8 -13765802.199 8  21802244.170    21802244.736    21802248.054
      2601.968        2027.512          46.310          42.840
 04  6 10  0 18  0.0000000  0  7G 5G 6G 9G10G17G24G30                 .000000000
 -25330902.605 9 -19727432.715 8  20404649.260    20404648.323    20404651.942
       597.754         465.781          51.870          48.750
 -11560345.266 8  -9000427.645 7  23200980.765    23200980.803    23200985.615
      1528.958        1191.388          42.840          39.710
 -10580756.847 8  -8232875.759 8  22737529.932    22737530.102    22737534.239
     -3028.228       -2359.660          45.620          42.490
 -12956694.616 8 -10081066.811 8  22559400.875    22559400.841    22559404.508
      2190.997        1707.267          44.230          41.100
 -23694418.935 9 -18451478.582 8  20774389.893    20774389.439    20774393.574
       -95.249         -74.222          50.140          49.090
 -15201103.427 8 -11805019.648 8  21880118.213    21880118.259    21880122.605
     -2459.146       -1916.218          47.700          44.230
 -17769676.318 8 -13826548.922 8  21787409.962    21787410.263    21787413.513
      2595.275        2022.288          46.310          43.540
 04  6 10  0 18 30.0000000  0  7G 5G 6G 9G10G17G24G30                 .000000000
 -25348625.549 9 -19741242.804 8  20401276.370    20401275.782    20401279.296
       583.790         454.899          51.530          48.400
 -11606186.862 8  -9036148.344 7  23192257.542    23192257.592    23192262.012
      1526.960        1189.835          43.190          39.710
 -10489822.560 8  -8162017.877 8  22754833.785    22754834.121    22754838.258
     -3034.063       -2364.205          45.270          41.800
 -13022264.035 8 -10132159.852 8  22546924.403    22546922.591    22546927.022
      2180.280        1698.918          44.230          40.760
 -23691326.071 9 -18449068.563 8  20774978.727    20774978.060    20774982.144
      -110.855         -86.382          50.140          49.090
 -15127178.167 8 -11747415.540 8  21894186.360    21894186.067    21894189.944
     -2469.191       -1924.045          47.700          44.230
 -17847436.347 8 -13887141.114 8  21772613.779    21772613.420    21772616.607
      2588.706        2017.170          47.010          43.880
 04  6 10  0 19  0.0000000  0  7G 5G 6G 9G10G17G24G30                 .000000000
 -25365929.571 9 -19754726.475 8  20397983.535    20397982.903    20397986.593
       569.730         443.945          51.530          48.750
 -11651968.720 8  -9071822.539 7  23183545.153    23183545.541    23183549.972
      1524.967        1188.287          43.190          39.710
 -10398715.907 8  -8091025.708 8  22772171.873    22772171.796    22772175.645
     -3039.789       -2368.667          45.270          42.150
 -13087510.329 8 -10183001.117 8  22534507.459    22534506.961    22534511.613
      2169.394        1690.438          44.230          41.100
 -23687764.949 9 -18446293.691 8  20775656.317    20775655.716    20775659.829
      -126.527         -98.590          50.140          49.090
 -15052953.585 8 -11689578.219 8  21908310.232    21908310.270    21908314.539
     -2479.191       -1931.837          47.700          44.230
 -17924995.837 8 -13947577.057 8  21757853.912    21757853.396    21757856.884
      2581.870        2011.849          46.660          43.540
 04  6 10  0 19 30.0000000  0  7G 5G 6G 9G10G17G24G30                 .000000000
 -25382813.051 9 -19767882.429 8  20394770.475    20394770.066    20394773.848
       555.793         433.086          51.530          48.400
 -11697691.007 8  -9107450.263 7  23174845.482    23174845.102    23174849.017
      1523.103        1186.837          43.190          39.370
 -10307439.921 8  -8019901.557 8  22789541.242    22789541.203    22789544.420
     -3045.285       -2372.948          45.620          41.800
 -13152430.454 8 -10233588.212 8  22522154.423    22522153.475    22522157.301
      2158.602        1682.026          44.230          40.760
 -23683736.564 9 -18443154.687 8  20776422.829    20776422.193    20776426.450
      -141.976        -110.631          50.140          49.090
 -14978432.313 8 -11631509.680 8  21922492.317    21922491.427    21922495.850
     -2488.935       -1939.427          48.050          44.230
 -18002352.546 8 -14007854.979 8  21743132.857    21743133.195    21743136.282
      2575.179        2006.632          46.310          43.190
 04  6 10  0 20  0.0000000  0  7G 5G 6G 9G10G17G24G30                 .000000000
 -25399274.559 9 -19780709.555 8  20391637.623    20391637.349    20391641.305
       541.645         422.060          51.530          48.750
 -11743354.614 8  -9143032.236 7  23166154.493    23166154.965    23166159.514
      1521.082        1185.246          43.540          39.710
 -10215997.213 8  -7948647.475 8  22806941.964    22806942.208    22806945.562
     -3050.834       -2377.282          45.620          41.800
 -13217021.037 8 -10283918.491 8  22509862.020    22509861.708    22509865.840
      2147.486        1673.369          44.230          41.100
 -23679241.207 9 -18439651.791 8  20777278.037    20777277.549    20777281.793
      -157.571        -122.782          50.140          49.090
 -14903617.081 8 -11573212.061 8  21936728.083    21936728.002    21936732.390
     -2498.727       -1947.062          47.700          44.230
 -18079503.863 8 -14067972.839 8  21728452.334    21728452.345    21728455.387
      2568.272        2001.253          47.010          43.880
 04  6 10  0 20 30.0000000  0  7G 5G 6G 9G10G17G24G30                 .000000000
 -25415312.815 9 -19793206.905 8  20388585.824    20388585.432    20388589.303
       527.534         411.064          51.530          48.400
 -11788960.017 8  -9178568.881 7  23157477.701    23157477.282    23157480.955
      1519.098        1183.706          43.540          39.710
 -10124391.283 8  -7877266.223 8  22824374.012    22824374.205    22824377.180
     -3056.233       -2381.484          45.970          41.450
 -13281279.179 8 -10333989.745 8  22497634.222    22497633.402    22497638.475
      2136.383        1664.709          44.230          41.450
 -23674280.220 9 -18435786.095 8  20778222.500    20778221.711    20778225.817
      -173.110        -134.895          50.140          49.090
 -14828510.511 8 -11514687.445 8  21951020.260    21951020.505    21951024.486
     -2508.418       -1954.618          47.700          43.880
 -18156447.766 8 -14127929.097 8  21713809.618    21713809.453    21713813.560
      2561.290        1995.807          47.010          43.880
 04  6 10  0 21  0.0000000  0  7G 5G 6G 9G10G17G24G30                 .000000000
 -25430926.266 9 -19805373.234 8  20385615.201    20385614.387    20385618.218
       513.316         399.986          51.530          48.750
 -11834507.823 8  -9214060.606 7  23148808.863    23148809.206    23148813.032
      1517.141        1182.172          43.540          39.370
 -10032624.662 8  -7805759.751 8  22841837.285    22841836.909    22841839.811
     -3061.560       -2385.629          45.970          41.450
 -13345201.682 8 -10383799.457 8  22485469.955    22485469.439    22485474.672
      2125.093        1655.912          44.230          41.450
 -23668854.153 9 -18431557.984 8  20779254.813    20779254.384    20779258.433
      -188.597        -146.958          50.140          49.090
 -14753114.800 8 -11455937.528 8  21965367.336    21965367.566    21965371.903
     -2518.015       -1962.092          47.700          44.230
 -18233181.750 8 -14187721.771 8  21699207.369    21699208.042    21699210.838
      2554.207        1990.290          47.010          43.880
 04  6 10  0 21 30.0000000  0  7G 5G 6G 9G10G17G24G30                 .000000000
 -25446113.397 9 -19817207.371 8  20382724.898    20382724.423    20382728.225
       499.132         388.935          51.870          48.750
 -11879998.551 8  -9249507.872 7  23140153.047    23140152.981    23140156.787
      1515.345        1180.782          43.540          39.370
  -9940700.608 8  -7734130.608 8  22859329.435    22859329.754    22859332.880
     -3066.687       -2389.622          45.970          41.800
 -13408785.186 8 -10433345.041 8  22473370.920    22473370.488    22473374.612
      2113.776        1647.094          44.580          41.100
 -23662963.750 9 -18426968.071 8  20780375.836    20780375.260    20780379.389
      -203.987        -158.951          50.140          49.090
 -14677433.038 8 -11396964.716 8  21979769.756    21979769.467    21979773.649
     -2527.440       -1969.434          47.360          43.880
 -18309703.453 8 -14247349.065 8  21684646.981    21684646.958    21684649.343
      2547.188        1984.823          47.360          43.540
 04  6 10  0 22  0.0000000  0  7G 5G 6G 9G10G17G24G30                 .000000000
 -25460872.436 9 -19828707.928 8  20379916.629    20379915.961    20379919.600
       484.791         377.763          51.870          48.750
 -11925432.884 8  -9284911.171 7  23131507.342    23131506.858    23131510.879
      1513.374        1179.249          43.540          39.370
  -9848622.026 8  -7662381.064 8  22876851.209    22876850.816    22876854.684
     -3071.884       -2393.672          45.270          41.450
 -13472026.640 8 -10482624.081 8  22461336.935    22461335.813    22461340.290
      2102.256        1638.122          44.580          41.450
 -23656610.025 9 -18422017.117 8  20781585.225    20781584.312    20781588.396
      -219.520        -171.056          50.140          49.090
 -14601467.531 8 -11337770.802 8  21994225.079    21994225.047    21994229.605
     -2536.918       -1976.816          47.360          44.230
 -18386010.516 8 -14306809.103 8  21670125.139    21670125.508    21670128.641
      2539.923        1979.158          47.360          44.230
 04  6 10  0 22 30.0000000  0  7G 5G 6G 9G10G17G24G30                 .000000000
 -25475202.413 9 -19839874.161 8  20377189.566    20377189.001    20377192.633
       470.493         366.620          51.870          48.400
 -11970811.307 8  -9320270.854 7  23122872.009    23122871.640    23122874.885
      1511.560        1177.824          43.540          38.670
  -9756391.913 8  -7590513.437 8  22894402.390    22894401.810    22894405.470
     -3076.831       -2397.531          44.930          41.450
 -13534923.064 8 -10531634.253 8  22449367.767    22449367.179    22449371.325
      2090.747        1629.150          44.580          41.100
 -23649793.763 9 -18416705.737 8  20782881.916    20782881.324    20782885.387
      -234.898        -183.037          50.140          49.090
 -14525220.733 8 -11278357.709 8  22008734.406    22008734.325    22008738.821
     -2546.219       -1984.071          47.360          43.880
 -18462100.801 8 -14366100.179 8  21655644.744    21655645.424    21655649.571
      2532.698        1973.531          46.660          44.230
 04  6 10  0 23  0.0000000  0  7G 5G 6G 9G10G17G24G30                 .000000000
 -25489101.825 9 -19850704.886 8  20374544.842    20374544.172    20374547.753
       456.147         355.439          51.870          48.750
 -12016134.270 8  -9355587.299 7  23114246.798    23114246.461    23114250.406
      1509.793        1176.456          43.190          39.020
  -9664013.273 8  -7518530.087 8  22911980.760    22911980.882    22911984.555
     -3081.690       -2401.319          44.930          41.800
 -13597471.343 8 -10580373.168 8  22437465.513    22437464.616    22437468.888
      2079.154        1620.118          44.930          41.100
 -23642516.016 9 -18411034.771 8  20784266.896    20784266.334    20784270.447
      -250.197        -194.958          50.140          49.090
 -14448695.651 8 -11218727.767 8  22023296.500    22023296.431    22023300.416
     -2555.408       -1991.230          47.360          43.880
 -18537971.853 8 -14425220.447 8  21641208.578    21641208.736    21641211.469
      2525.374        1967.821          47.010          44.230
 04  6 10  0 23 30.0000000  0  7G 5G 6G 9G10G17G24G30                 .000000000
 -25502569.325 9 -19861199.046 8  20371981.617    20371981.375    20371984.912
       441.678         344.172          51.870          48.750
 -12061402.733 8  -9390861.276 7  23105631.522    23105631.356    23105635.562
      1507.911        1174.997          42.840          39.020
  -9571488.996 8  -7446433.244 8  22929587.432    22929587.758    22929591.335
     -3086.538       -2405.082          44.930          41.800
 -13659668.348 8 -10628838.345 8  22425629.248    22425628.646    22425633.270
      2067.309        1610.896          44.930          41.450
 -23634777.572 9 -18405004.805 8  20785739.082    20785738.837    20785742.867
      -265.598        -206.953          50.140          48.750
 -14371894.641 8 -11158882.806 8  22037911.581    22037911.155    22037915.501
     -2564.608       -1998.387          47.360          43.880
 -18613621.376 8 -14484168.116 8  21626812.643    21626812.572    21626815.111
      2517.914        1962.015          47.360          43.540
 04  6 10  0 24  0.0000000  0  7G 5G 6G 9G10G17G24G30                 .000000000
 -25515603.444 9 -19871355.516 8  20369501.769    20369501.055    20369504.508
       427.211         332.896          51.870          48.750
 -12106616.918 8  -9426093.001 7  23097029.199    23097028.216    23097032.019
      1506.144        1173.619          43.190          39.370
  -9478822.130 8  -7374225.299 8  22947222.141    22947221.765    22947225.074
     -3091.270       -2408.778          45.270          41.100
 -13721510.983 8 -10677027.399 8  22413861.399    22413860.337    22413864.528
      2055.434        1601.638          44.580          41.100
 -23626579.519 9 -18398616.716 8  20787299.209    20787298.803    20787302.872
      -280.946        -218.919          50.140          49.090
 -14294820.396 8 -11098824.943 8  22052577.776    22052578.037    22052582.093
     -2573.741       -2005.516          47.360          43.540
 -18689046.884 8 -14542941.204 8  21612457.787    21612458.990    21612462.896
      2510.360        1956.130          47.010          44.230
 04  6 10  0 24 30.0000000  0  7G 5G 6G 9G10G17G24G30                 .000000000
 -25528202.771 9 -19881173.177 8  20367104.111    20367103.575    20367107.106
       412.624         321.522          51.870          48.750
 -12151777.501 8  -9461282.992 7  23088434.962    23088434.180    23088437.567
      1504.310        1172.183          43.190          39.370
  -9386015.607 8  -7301908.518 8  22964882.131    22964882.583    22964885.573
     -3095.920       -2412.415          45.270          41.100
 -13782996.271 8 -10724937.998 8  22402161.366    22402160.396    22402164.585
      2043.446        1592.291          44.930          41.100
 -23617922.528 9 -18391871.001 8  20788946.917    20788946.224    20788950.407
      -296.288        -230.880          50.140          49.090
 -14217475.583 8 -11038556.247 8  22067296.062    22067296.041    22067300.364
     -2582.734       -2012.533          47.360          43.540
 -18764246.047 8 -14601537.906 8  21598149.442    21598150.039    21598152.778
      2502.737        1950.180          47.360          44.230
 04  6 10  0 25  0.0000000  0  7G 5G 6G 9G10G17G24G30                 .000000000
 -25540365.773 9 -19890650.851 8  20364789.649    20364789.006    20364792.485
       398.230         310.307          51.870          48.750
 -12196884.897 8  -9496431.527 7  23079850.485    23079850.395    23079854.348
      1502.688        1170.930          42.840          39.710
  -9293072.512 8  -7229485.323 8  22982569.960    22982568.877    22982572.008
     -3100.235       -2415.767          45.270          41.450
 -13844120.960 8 -10772567.606 8  22390529.756    22390528.507    22390532.900
      2031.531        1583.014          44.930          41.450
 -23608807.775 9 -18384768.590 8  20790681.134    20790680.745    20790684.840
      -311.299        -242.574          50.140          49.090
 -14139862.569 8 -10978078.573 8  22082066.085    22082065.616    22082069.374
     -2591.453       -2019.320          47.360          43.540
 -18839216.585 8 -14659956.495 8  21583883.854    21583883.441    21583886.078
      2495.262        1944.357          47.700          43.880
 04  6 10  0 25 30.0000000  0  7G 5G 6G 9G10G17G24G30                 .000000000
 -25552090.932 9 -19899787.371 8  20362558.401    20362557.832    20362561.330
       383.621         298.932          51.870          48.400
 -12241939.736 8  -9531539.122 8  23071277.177    23071277.435    23071280.929
      1500.953        1169.580          42.840          40.060
  -9199995.662 8  -7156957.930 8  23000280.922    23000281.047    23000283.933
     -3104.665       -2419.211          44.930          41.100
 -13904881.924 8 -10819913.817 8  22378966.487    22378965.608    22378970.574
      2019.307        1573.493          44.580          41.450
 -23599235.967 9 -18377310.059 8  20792502.620    20792502.156    20792506.409
      -326.536        -254.438          50.140          49.090
 -14061983.823 8 -10917393.844 8  22096884.853    22096885.230    22096889.686
     -2600.258       -2026.171          47.010          43.540
 -18913955.912 8 -14718194.923 8  21569660.343    21569660.334    21569663.321
      2487.505        1938.319          47.360          43.880
 04  6 10  0 26  0.0000000  0  7G 5G 6G 9G10G17G24G30                 .000000000
 -25563377.336 9 -19908581.978 8  20360410.730    20360410.233    20360413.667
       368.876         287.431          51.870          48.750
 -12286942.467 8  -9566606.103 8  23062712.287    23062712.579    23062717.162
      1499.167        1168.177          42.840          40.410
  -9106788.030 8  -7084328.595 8  23018017.614    23018017.382    23018020.886
     -3109.105       -2422.685          44.930          41.100
 -13965276.073 8 -10866974.178 8  22367474.943    22367473.760    22367477.878
      2007.005        1563.893          44.930          41.800
 -23589208.374 9 -18369496.346 8  20794410.710    20794410.291    20794414.575
      -341.824        -266.362          50.140          49.090
 -13983842.194 8 -10856504.259 8  22111756.636    22111755.472    22111759.343
     -2609.081       -2033.054          47.010          43.540
 -18988461.872 8 -14776251.475 8  21555482.378    21555482.537    21555485.632
      2479.611        1932.160          47.360          44.230
 04  6 10  0 26 30.0000000  0  7G 5G 6G 9G10G17G24G30                 .000000000
 -25574223.414 9 -19917033.449 8  20358346.671    20358346.193    20358349.651
       354.134         275.946          51.870          48.750
 -12331893.673 8  -9601632.917 8  23054159.441    23054159.216    23054163.420
      1497.406        1166.808          42.840          40.410
  -9013452.683 8  -7011599.731 8  23035778.446    23035778.449    23035782.140
     -3113.310       -2425.961          44.580          41.100
 -14025300.319 8 -10913746.282 8  22356052.107    22356050.884    22356055.563
      1994.597        1554.235          44.930          41.450
 -23578725.887 9 -18361328.139 8  20796405.655    20796405.191    20796409.129
      -356.978        -278.165          50.140          49.090
 -13905440.557 8 -10795412.031 8  22126674.396    22126674.422    22126678.661
     -2617.739       -2039.803          47.010          43.190
 -19062732.049 8 -14834124.275 8  21541349.595    21541349.871    21541352.725
      2471.676        1925.977          47.700          44.580
 04  6 10  0 27  0.0000000  0  7G 5G 6G 9G10G17G24G30                 .000000000
 -25584627.850 9 -19925140.809 8  20356366.845    20356366.383    20356369.850
       339.588         264.618          51.870          48.750
 -12376793.968 8  -9636620.121 8  23045614.605    23045614.481    23045618.980
      1495.864        1165.610          43.540          40.760
  -8919992.590 8  -6938773.697 8  23053563.523    23053563.466    23053567.270
     -3117.223       -2429.001          44.580          41.450
 -14084951.846 8 -10960227.967 8  22344700.179    22344699.606    22344704.882
      1982.269        1544.626          44.930          41.800
 -23567789.417 9 -18352806.213 8  20798486.912    20798486.237    20798490.164
      -371.927        -289.814          50.140          49.090
 -13826781.297 8 -10734119.093 8  22141642.975    22141643.174    22141647.089
     -2626.136       -2046.343          47.010          43.540
 -19136764.017 8 -14891811.461 8  21527260.794    21527261.251    21527264.577
      2463.903        1919.922          47.700          44.230
 04  6 10  0 27 30.0000000  0  7G 5G 6G 9G10G17G24G30                 .000000000
 -25594589.634 9 -19932903.242 8  20354470.827    20354470.568    20354474.011
       324.781         253.082          51.870          48.750
 -12421643.917 8  -9671568.086 8  23037079.968    23037080.079    23037084.277
      1494.187        1164.312          43.190          40.060
  -8826410.663 8  -6865852.723 8  23071372.162    23071371.794    23071375.141
     -3121.277       -2432.151          44.580          41.450
 -14144227.537 8 -11006416.814 8  22333422.140    22333420.603    22333424.484
      1969.654        1534.798          45.270          41.800
 -23556400.233 9 -18343931.516 8  20800654.047    20800653.600    20800657.661
      -387.029        -301.577          50.140          48.750
 -13747866.812 8 -10672627.274 8  22156659.846    22156659.888    22156663.928
     -2634.565       -2052.904          47.010          43.190
 -19210555.507 8 -14949311.267 8  21513218.986    21513219.161    21513222.633
      2455.791        1913.605          47.360          44.230
 04  6 10  0 28  0.0000000  0  7G 5G 6G 9G10G17G24G30                 .000000000
 -25604107.228 9 -19940319.553 8  20352660.075    20352659.410    20352662.852
       309.798         241.401          51.870          48.750
 -12466443.971 8  -9706477.196 8  23028555.247    23028554.904    23028558.721
      1492.388        1162.900          43.540          40.410
  -8732709.632 8  -6792838.948 8  23089202.549    23089202.256    23089205.834
     -3125.341       -2435.339          44.580          41.100
 -14203124.282 8 -11052310.364 8  22322213.573    22322212.475    22322216.739
      1956.870        1524.833          45.270          41.800
 -23544559.204 9 -18334704.730 8  20802907.647    20802906.874    20802911.044
      -402.192        -313.399          50.140          49.090
 -13668699.634 8 -10610938.555 8  22171725.245    22171724.992    22171729.003
     -2643.089       -2059.556          47.010          43.190
 -19284104.005 8 -15006621.723 8  21499224.369    21499223.861    21499227.031
      2447.507        1907.143          47.360          44.580
 04  6 10  0 28 30.0000000  0  7G 5G 6G 9G10G17G24G30                 .000000000
 -25613179.072 9 -19947388.547 8  20350933.400    20350933.056    20350936.713
       294.936         229.823          51.870          48.750
 -12511194.531 8  -9741347.770 8  23020039.181    23020039.003    23020043.157
      1490.759        1161.629          43.540          40.410
  -8638892.496 8  -6719734.697 8  23107055.803    23107055.286    23107058.550
     -3129.145       -2438.292          44.580          40.760
 -14261639.137 8 -11097906.359 8  22311077.719    22311077.457    22311082.259
      1944.051        1514.845          45.270          41.800
 -23532267.508 9 -18325126.800 8  20805246.508    20805245.887    20805249.791
      -417.207        -325.096          50.140          48.750
 -13589282.530 8 -10549055.110 8  22186838.307    22186837.611    22186841.879
     -2651.393       -2066.012          47.010          43.540
 -19357407.082 8 -15063740.948 8  21485274.362    21485274.469    21485277.602
      2439.311        1900.761          47.360          44.580
 04  6 10  0 29  0.0000000  0  7G 5G 6G 9G10G17G24G30                 .000000000
 -25621804.172 9 -19954109.408 8  20349292.580    20349291.922    20349295.480
       279.940         218.138          52.220          48.750
 -12555896.105 8  -9776180.176 8  23011532.919    23011533.007    23011536.697
      1489.053        1160.316          43.540          40.410
  -8544962.343 8  -6646542.356 8  23124929.188    23124929.158    23124932.729
     -3132.967       -2441.270          44.230          40.760
 -14319769.178 8 -11143202.484 8  22300016.434    22300015.266    22300019.697
      1931.122        1504.768          44.930          41.450
 -23519526.230 9 -18315198.522 8  20807671.120    20807670.575    20807674.575
      -432.252        -336.816          50.140          49.090
 -13509618.197 8 -10486979.005 8  22201997.326    22201997.236    22202001.449
     -2659.690       -2072.486          47.010          43.540
 -19430462.531 8 -15120667.171 8  21471370.803    21471371.461    21471375.506
      2430.929        1894.233          47.360          44.580
 04  6 10  0 29 30.0000000  0  7G 5G 6G 9G10G17G24G30                 .000000000
 -25629981.645 9 -19960481.442 8  20347736.459    20347735.840    20347739.257
       265.159         206.620          52.220          48.750
 -12600549.670 8  -9810975.156 8  23003036.121    23003035.906    23003039.701
      1487.635        1159.203          43.880          40.410
  -8450922.173 8  -6573264.278 8  23142824.868    23142824.525    23142828.392
     -3136.439       -2443.978          44.230          40.410
 -14377511.346 8 -11188196.347 8  22289028.942    22289028.029    22289032.651
      1918.294        1494.777          45.270          41.800
 -23506336.586 9 -18304920.838 8  20810180.751    20810180.308    20810184.406
      -447.033        -348.335          50.140          48.750
 -13429709.065 8 -10424712.113 8  22217203.856    22217203.155    22217207.618
     -2667.636       -2078.673          47.010          43.190
 -19503267.859 8 -15177398.478 8  21457517.772    21457517.903    21457520.583
      2422.698        1887.821          47.360          44.230
 04  6 10  0 30  0.0000000  0  7G 5G 6G 9G10G17G24G30                 .000000000
 -25637709.800 9 -19966503.382 8  20346265.381    20346265.032    20346268.652
       250.048         194.842          51.870          48.750
 -12645155.074 8  -9845732.629 8  22994548.266    22994548.077    22994551.605
      1485.869        1157.827          43.880          40.760
  -8356774.706 8  -6499902.621 8  23160740.351    23160740.329    23160743.994
     -3140.060       -2446.798          44.230          40.410
 -14434862.607 8 -11232885.623 8  22278114.759    22278113.371    22278118.376
      1905.083        1484.479          44.930          42.150
 -23492699.216 9 -18294294.309 8  20812776.324    20812775.530    20812779.578
      -462.036        -360.028          50.140          49.090
 -13349557.281 8 -10362256.179 8  22232455.822    22232455.687    22232459.954
     -2675.807       -2085.042          47.010          43.190
 -19575820.549 8 -15233932.984 8  21443712.184    21443711.997    21443714.666
      2414.126        1881.134          48.050          44.580
 04  6 10  0 30 30.0000000  0  7G 5G 6G 9G10G17G24G30                 .000000000
 -25644987.637 9 -19972174.428 8  20344880.623    20344880.199    20344883.590
       234.994         183.116          51.870          48.750
 -12689713.231 8  -9880453.297 8  22986068.160    22986068.384    22986072.555
      1484.337        1156.628          43.880          40.760
  -8262523.236 8  -6426459.910 8  23178675.553    23178675.437    23178679.017
     -3143.484       -2449.471          44.230          40.410
 -14491820.104 8 -11277268.067 8  22267275.501    22267275.388    22267279.469
      1891.915        1474.219          44.930          41.800
 -23478615.898 9 -18283320.282 8  20815455.861    20815455.354    20815459.413
      -476.890        -371.603          50.140          48.750
 -13269166.037 8 -10299613.651 8  22247753.608    22247753.433    22247758.268
     -2683.754       -2091.236          47.010          43.190
 -19648118.572 8 -15290269.048 8  21429952.845    21429953.209    21429956.844
      2405.594        1874.486          48.050          44.930
 04  6 10  0 31  0.0000000  0  8G 5G 6G 9G10G17G21G24G30              .000000000
 -25651813.539 9 -19977493.317 8  20343581.928    20343581.408    20343584.660
       220.058         171.473          52.220          48.750
 -12734224.440 8  -9915137.397 8  22977597.389    22977597.959    22977601.936
      1482.929        1155.518          43.880          40.410
  -8168170.368 8  -6352938.203 8  23196629.965    23196629.979    23196634.375
     -3146.651       -2451.937          43.880          40.760
 -14548380.672 8 -11321341.225 8  22256513.470    22256511.826    22256517.035
      1878.802        1463.998          45.270          42.150
 -23464087.604 9 -18271999.529 8  20818220.634    20818219.946    20818224.116
      -491.571        -383.044          50.140          49.090
  -3250452.08217  -2504904.33217  24993140.0551   24993139.0261   24993141.5921
      3218.4311       2507.8551         35.2001         34.5001
 -13188537.437 8 -10236786.160 8  22263097.054    22263096.816    22263101.119
     -2691.464       -2097.247          47.010          43.190
 -19720159.258 8 -15346404.600 8  21416243.598    21416244.627    21416247.771
      2397.117        1867.883          47.700          44.930
 04  6 10  0 31 30.0000000  0  8G 5G 6G 9G10G17G21G24G30              .000000000
 -25658186.781 9 -19982459.479 8  20342369.283    20342368.621    20342371.988
       204.883         159.652          52.220          48.750
 -12778689.110 8  -9949785.229 8  22969136.996    22969136.733    22969141.164
      1481.283        1154.250          43.880          40.410
  -8073719.185 8  -6279339.871 8  23214603.962    23214604.202    23214607.415
     -3149.925       -2454.483          43.880          40.760
 -14604541.697 8 -11365103.028 8  22245824.573    22245824.416    22245829.289
      1865.362        1453.527          44.930          41.800
 -23449115.223 8 -18260332.722 8  20821069.940    20821069.181    20821073.213
      -506.418        -394.607          49.790          48.750
  -3346938.771 7  -2580088.800 7  24974779.664    24974779.058    24974780.196
      3214.124        2504.528          36.590          34.850
 -13107674.288 8 -10173775.910 8  22278484.515    22278484.223    22278488.471
     -2699.277       -2103.333          46.660          42.840
 -19791940.377 8 -15402337.949 8  21402585.852    21402585.722    21402587.958
      2388.376        1861.079          48.050          44.580
 04  6 10  0 32  0.0000000  0  8G 5G 6G 9G10G17G21G24G30              .000000000
 -25664105.934 9 -19987071.807 8  20341242.583    20341242.097    20341245.692
       189.686         147.811          52.220          48.750
 -12823107.980 8  -9984397.381 8  22960683.621    22960683.556    22960688.207
      1479.709        1153.035          43.880          40.060
  -7979172.711 8  -6205667.292 8  23232595.453    23232595.032    23232599.287
     -3153.111       -2456.964          43.540          40.760
 -14660300.161 8 -11408551.177 8  22235215.956    22235214.823    22235218.518
      1851.814        1442.973          45.270          41.800
 -23433700.064 8 -18248320.900 8  20824003.065    20824002.462    20824006.607
      -521.191        -406.122          49.790          48.750
  -3443292.848 7  -2655169.901 7  24956444.397    24956443.515    24956444.761
      3209.500        2500.898          37.280          34.150
 -13026579.414 8 -10110585.094 8  22293915.612    22293915.906    22293920.464
     -2707.039       -2109.377          46.310          42.840
 -19863459.308 8 -15458066.996 8  21388974.560    21388975.278    21388978.160
      2379.522        1854.173          48.050          44.230
 04  6 10  0 32 30.0000000  0  8G 5G 6G 9G10G17G21G24G30              .000000000
 -25669569.947 9 -19991329.478 8  20340202.864    20340202.383    20340205.849
       174.454         135.939          52.220          48.750
 -12867481.524 8 -10018974.243 7  22952240.859    22952240.304    22952243.368
      1478.208        1151.852          43.880          39.710
  -7884533.655 8  -6131922.598 8  23250604.597    23250604.363    23250608.307
     -3156.182       -2459.359          43.190          40.410
 -14715653.108 8 -11451683.330 8  22224681.721    22224681.082    22224685.418
      1838.228        1432.386          45.620          42.150
 -23417843.287 8 -18235964.959 8  20827020.355    20827019.788    20827023.968
      -535.941        -417.615          49.790          48.750
  -3539513.685 7  -2730147.225 7  24938133.246    24938132.424    24938133.955
      3205.004        2497.403          36.930          33.110
 -12945255.406 8 -10047215.723 8  22309391.337    22309391.364    22309396.014
     -2714.668       -2115.320          46.310          42.840
 -19934713.761 8 -15513589.942 8  21375415.534    21375416.293    21375419.298
      2370.632        1847.251          48.050          44.580
 04  6 10  0 33  0.0000000  0  8G 5G 6G 9G10G17G21G24G30              .000000000
 -25674577.431 9 -19995231.413 8  20339250.220    20339249.551    20339253.099
       159.218         124.066          51.870          48.750
 -12911810.083 8 -10053516.053 8  22943804.741    22943804.375    22943809.552
      1476.733        1150.699          43.880          40.410
  -7789805.210 8  -6058108.233 8  23268630.524    23268630.780    23268634.162
     -3159.139       -2461.669          43.540          40.410
 -14770597.729 8 -11494497.309 8  22214226.495    22214225.912    22214230.180
      1824.568        1421.744          45.620          41.800
 -23401546.293 8 -18223265.991 8  20830121.823    20830121.082    20830125.149
      -550.589        -429.031          49.790          48.750
  -3635599.110 7  -2805019.095 7  24919849.759    24919849.433    24919848.732
      3200.464        2493.869          38.670          33.460
 -12863704.637 8  -9983669.667 8  22324910.652    22324909.892    22324914.561
     -2722.180       -2121.178          46.310          42.840
 -20005701.234 8 -15568904.852 8  21361908.462    21361908.406    21361911.183
      2361.703        1840.288          48.400          44.930
 04  6 10  0 33 30.0000000  0  8G 5G 6G 9G10G17G21G24G30              .000000000
 -25679127.464 9 -19998776.895 8  20338384.206    20338383.616    20338387.031
       144.014         112.218          51.870          48.750
 -12956094.105 8 -10088023.167 7  22935378.933    22935378.257    22935381.493
      1475.322        1149.617          43.540          39.710
  -7694990.119 8  -5984226.341 8  23286674.646    23286673.944    23286677.580
     -3161.938       -2463.845          43.880          40.760
 -14825131.050 8 -11536990.796 8  22203849.641    22203848.228    22203852.856
      1810.857        1411.056          45.620          42.150
 -23384810.136 8 -18210224.820 8  20833306.240    20833305.740    20833310.099
      -565.190        -440.406          49.790          48.750
  -3731547.852 7  -2879784.426 7  24901590.711    24901590.394    24901592.887
      3195.968        2490.364          39.370          36.240
 -12781929.750 8  -9919948.966 8  22340471.379    22340471.678    22340475.838
     -2729.558       -2126.928          46.310          42.490
 -20076419.292 8 -15624009.814 8  21348450.724    21348450.818    21348453.730
      2352.734        1833.299          48.400          44.930
 04  6 10  0 34  0.0000000  0  8G 5G 6G 9G10G17G21G24G30              .000000000
 -25683218.964 9 -20001965.101 8  20337605.621    20337605.003    20337608.560
       128.730         100.312          51.870          48.750
 -13000334.127 8 -10122496.053 8  22926959.544    22926959.344    22926963.042
      1473.837        1148.455          43.880          40.060
  -7600091.261 8  -5910279.210 8  23304732.357    23304732.596    23304735.805
     -3164.623       -2465.932          43.880          40.410
 -14879250.062 8 -11579161.460 8  22193551.079    22193550.266    22193555.056
      1797.031        1400.285          45.620          42.490
 -23367635.996 8 -18196842.389 8  20836574.361    20836573.896    20836578.192
      -579.718        -451.726          49.790          48.750
  -3827358.237 7  -2954441.851 7  24883356.918    24883357.076    24883360.536
      3191.293        2486.711          37.280          34.850
 -12699933.281 8  -9856055.640 8  22356074.723    22356074.664    22356078.705
     -2736.871       -2132.620          45.970          42.490
 -20146865.627 8 -15678903.052 8  21335044.099    21335044.472    21335047.865
      2343.642        1826.220          48.050          44.930
 04  6 10  0 34 30.0000000  0  8G 5G 6G 9G10G17G21G24G30              .000000000
 -25686850.973 9 -20004795.239 8  20336914.249    20336913.798    20336917.412
       113.422          88.384          51.870          48.750
 -13044530.631 8 -10156934.978 8  22918548.692    22918548.920    22918553.645
      1472.401        1147.331          43.880          40.410
  -7505111.629 8  -5836269.111 8  23322807.624    23322806.922    23322809.759
     -3167.255       -2467.979          43.880          40.410
 -14932951.985 8 -11621007.100 8  22183331.271    22183330.437    22183335.144
      1783.087        1389.421          45.620          42.490
 -23350025.220 8 -18183119.696 8  20839925.616    20839925.043    20839929.362
      -594.227        -463.030          49.790          48.750
  -3923028.357 7  -3028990.128 7  24865152.552    24865152.678    24865153.131
      3186.712        2483.152          38.320          32.420
 -12617717.677 8  -9791991.523 8  22371719.831    22371719.825    22371724.059
     -2744.106       -2138.264          46.310          42.490
 -20217037.768 8 -15733582.629 8  21321691.176    21321691.613    21321694.759
      2334.478        1819.079          48.050          44.930
 04  6 10  0 35  0.0000000  0  8G 5G 6G 9G10G17G21G24G30              .000000000
 -25690022.257 9 -20007266.343 8  20336310.739    20336310.353    20336313.834
        98.060          76.411          51.870          48.750
 -13088684.133 8 -10191340.383 8  22910146.909    22910147.056    22910151.175
      1470.991        1146.234          43.880          40.060
  -7410054.181 8  -5762198.346 8  23340895.381    23340895.362    23340898.846
     -3169.777       -2469.957          43.880          40.060
 -14986234.072 8 -11662525.564 8  22173191.725    22173191.050    22173195.488
      1769.086        1378.506          45.270          42.150
 -23331979.124 8 -18169057.765 8  20843359.734    20843359.138    20843363.401
      -608.699        -474.315          49.790          48.750
  -4018556.831 7  -3103427.955 7  24846973.289    24846972.642    24846976.834
      3181.930        2479.419          37.630          34.850
 -12535285.583 8  -9727758.692 8  22387406.431    22387406.641    22387410.605
     -2751.265       -2143.844          46.310          42.490
 -20286933.465 8 -15788046.773 8  21308392.110    21308391.243    21308394.474
      2325.253        1811.883          48.400          45.620
 04  6 10  0 35 30.0000000  0  8G 5G 6G 9G10G17G21G24G30              .000000000
 -25692731.532 9 -20009377.469 8  20335795.462    20335794.965    20335798.283
        82.569          64.336          51.870          48.750
 -13132794.796 8 -10225712.413 8  22901753.056    22901752.818    22901757.599
      1469.519        1145.076          43.880          40.410
  -7314921.633 8  -5688069.087 8  23358998.546    23358998.517    23359001.885
     -3172.301       -2471.924          43.880          40.060
 -15039093.434 8 -11703714.667 8  22163133.358    22163132.603    22163137.445
      1754.883        1367.438          45.620          42.490
 -23313498.882 8 -18154657.567 8  20846876.063    20846875.551    20846880.272
      -623.218        -485.626          49.440          48.750
  -4113942.212 7  -3177754.204 7  24828821.477    24828822.404    24828825.564
      3177.103        2475.676          36.240          35.890
 -12452639.500 8  -9663359.144 8  22403133.673    22403133.363    22403138.129
     -2758.448       -2149.445          46.310          42.840
 -20356550.154 8 -15842293.509 8  21295142.541    21295142.983    21295146.719
      2315.817        1804.532          48.050          45.270
 04  6 10  0 36  0.0000000  0  8G 5G 6G 9G10G17G21G24G30              .000000000
 -25694977.828 9 -20011127.827 8  20335368.065    20335367.381    20335370.863
        67.213          52.376          51.870          48.750
 -13176863.135 8 -10260051.420 8  22893368.111    22893367.793    22893371.537
      1468.220        1144.076          43.880          40.760
  -7219716.947 8  -5613883.600 8  23377116.289    23377115.505    23377119.081
     -3174.588       -2473.707          43.540          40.060
 -15091527.095 8 -11744572.053 8  22153154.950    22153154.298    22153159.189
      1740.747        1356.426          45.620          42.150
 -23294585.777 8 -18139920.074 8  20850475.599    20850474.742    20850479.145
      -637.555        -496.800          49.440          48.750
  -4209182.794 7  -3251967.728 7  24810701.309    24810700.718    24810700.075
      3172.312        2471.947          38.320          32.760
 -12369781.928 8  -9598794.803 8  22418901.051    22418900.520    22418904.557
     -2765.328       -2154.798          46.310          42.150
 -20425885.262 8 -15896320.836 8  21281948.786    21281949.301    21281952.365
      2306.512        1797.280          48.050          44.930
 04  6 10  0 36 30.0000000  0  8G 5G 6G 9G10G17G21G24G30              .000000000
 -25696760.317 9 -20012516.777 8  20335028.756    20335028.151    20335031.639
        51.637          40.231          51.870          48.750
 -13220889.882 8 -10294358.010 8  22884989.327    22884988.900    22884993.130
      1466.729        1142.907          43.880          40.060
  -7124443.174 8  -5539644.312 8  23395245.145    23395244.211    23395249.001
     -3176.942       -2475.540          42.840          40.060
 -15143532.598 8 -11785095.815 8  22143259.708    22143258.417    22143263.141
      1726.309        1345.171          45.620          42.490
 -23275241.321 8 -18124846.459 8  20854156.198    20854155.794    20854160.428
      -652.005        -508.059          49.440          48.750
  -4304277.122 7  -3326067.331 7  24792603.880    24792604.206    24792604.928
      3167.272        2467.994          37.630          33.110
 -12286715.638 8  -9534067.819 8  22434708.299    22434707.818    22434711.734
     -2772.394       -2160.320          46.310          42.490
 -20494936.744 8 -15950127.170 8  21268809.450    21268809.532    21268812.117
      2296.932        1789.811          48.400          45.270
 04  6 10  0 37  0.0000000  0  8G 5G 6G 9G10G17G21G24G30              .000000000
 -25698077.655 9 -20013543.296 8  20334777.882    20334777.397    20334781.001
        36.188          28.193          51.870          48.750
 -13264875.231 8 -10328632.358 8  22876618.898    22876619.366    22876623.505
      1465.422        1141.875          43.880          40.410
  -7029103.016 8  -5465353.312 8  23413387.176    23413387.858    23413391.443
     -3179.067       -2477.202          43.190          40.060
 -15195107.064 8 -11825283.724 8  22133444.955    22133444.077    22133448.641
      1711.966        1333.996          45.620          42.490
 -23255466.649 8 -18109437.639 8  20857919.115    20857918.786    20857923.222
      -666.247        -519.162          49.440          48.750
  -4399223.510 7  -3400051.537 7  24774535.298    24774535.892    24774538.865
      3162.450        2464.250          36.930          35.540
 -12203442.845 8  -9469179.939 8  22450554.378    22450553.858    22450557.803
     -2779.150       -2165.573          46.310          42.150
 -20563701.953 8 -16003710.465 8  21255723.361    21255723.723    21255727.235
      2287.396        1782.379          48.400          45.620
 04  6 10  0 37 30.0000000  0  8G 5G 6G 9G10G17G21G24G30              .000000000
 -25698929.055 9 -20014206.724 8  20334616.054    20334615.425    20334619.062
        20.636          16.081          51.870          48.750
 -13308819.878 8 -10362874.960 8  22868257.253    22868257.129    22868261.138
      1464.139        1140.886          44.230          40.760
  -6933699.367 8  -5391012.795 7  23431542.131    23431542.361    23431546.568
     -3181.079       -2478.765          43.190          39.710
 -15246247.507 8 -11865133.419 8  22123713.237    22123712.330    22123716.376
      1697.456        1322.693          45.620          42.150
 -23235263.019 8 -18093694.543 8  20861764.079    20861763.500    20861767.839
      -680.528        -530.281          49.440          48.750
  -4494020.312 7  -3473919.203 7  24756497.483    24756497.297    24756499.759
      3157.357        2460.279          37.980          34.850
 -12119966.220 8  -9404133.223 8  22466439.435    22466439.065    22466443.385
     -2785.889       -2170.823          45.970          42.490
 -20632178.471 8 -16057068.771 8  21242692.896    21242693.043    21242696.694
      2277.741        1774.862          48.400          45.620
 04  6 10  0 38  0.0000000  0  8G 5G 6G 9G10G17G21G24G30              .000000000
 -25699313.264 9 -20014506.080 8  20334542.827    20334542.335    20334545.891
         4.993           3.892          51.870          48.750
 -13352723.713 8 -10397085.720 8  22859902.637    22859902.633    22859905.890
      1462.691        1139.767          44.230          40.410
  -6838235.192 8  -5316625.097 8  23449708.285    23449708.740    23449712.707
     -3183.142       -2480.364          43.190          40.060
 -15296951.131 8 -11904642.688 8  22114064.343    22114063.576    22114068.319
      1682.768        1311.250          45.620          42.490
 -23214631.906 8 -18077618.314 8  20865689.895    20865689.373    20865693.964
      -694.813        -541.414          49.440          48.750
  -4588665.851 7  -3547668.988 7  24738486.910    24738486.447    24738488.482
      3152.308        2456.348          36.930          33.110
 -12036288.291 8  -9338929.618 8  22482362.857    22482362.288    22482366.495
     -2792.639       -2176.085          45.970          42.150
 -20700363.881 8 -16110200.207 8  21229717.801    21229718.046    21229720.770
      2267.933        1767.224          48.750          45.270
 04  6 10  0 38 30.0000000  0  8G 5G 6G 9G10G17G21G24G30              .000000000
 -25699229.465 9 -20014440.784 8  20334558.794    20334558.292    20334561.682
       -10.673          -8.315          51.870          48.750
 -13396587.579 8 -10431265.368 8  22851555.400    22851555.473    22851559.998
      1461.331        1138.705          44.580          41.100
  -6742713.180 8  -5242192.353 8  23467886.447    23467885.882    23467889.465
     -3185.050       -2481.859          43.540          40.060
 -15347215.200 8 -11943809.488 8  22104499.518    22104498.925    22104503.323
      1668.043        1299.770          45.620          42.490
 -23193574.586 8 -18061210.001 8  20869697.052    20869696.452    20869701.008
      -709.021        -552.484          49.440          48.750
  -4683158.429 7  -3621299.665 7  24720505.336    24720505.803    24720507.547
      3147.118        2452.300          37.980          34.150
 -11952411.683 8  -9273571.224 8  22498322.775    22498323.307    22498327.293
     -2799.247       -2181.236          45.620          41.800
 -20768255.799 8 -16163103.003 8  21216798.713    21216798.826    21216801.134
      2258.066        1759.529          49.090          45.270
 04  6 10  0 39  0.0000000  0  8G 5G 6G 9G10G17G21G24G30              .000000000
 -25698676.993 9 -20014010.283 8  20334663.811    20334663.280    20334666.903
       -26.255         -20.454          51.870          48.750
 -13440412.058 8 -10465414.277 8  22843216.003    22843215.942    22843220.384
      1460.076        1137.727          44.230          41.100
  -6647136.419 8  -5167716.942 8  23486073.205    23486073.861    23486077.220
     -3186.743       -2483.168          43.190          40.060
 -15397037.454 8 -11982632.015 8  22095019.210    22095018.106    22095022.230
      1653.349        1288.327          45.970          42.490
 -23172092.650 8 -18044470.820 8  20873784.695    20873784.408    20873788.648
      -723.094        -563.446          49.440          48.750
  -4777497.122 7  -3694810.322 7  24702551.705    24702552.326    24702555.657
      3141.988        2448.298          37.630          35.540
 -11868338.822 8  -9208059.892 8  22514323.148    22514322.118    22514326.500
     -2805.675       -2186.242          45.620          42.490
 -20835851.866 8 -16215775.262 8  21203934.730    21203935.063    21203938.338
      2248.256        1751.886          48.750          45.620
 04  6 10  0 39 30.0000000  0  8G 5G 6G 9G10G17G21G24G30              .000000000
 -25697654.690 9 -20013213.685 8  20334858.516    20334857.865    20334861.475
       -41.957         -32.695          51.870          48.750
 -13484197.035 8 -10499532.440 8  22834883.971    22834883.890    22834887.349
      1458.745        1136.683          44.580          40.760
  -6551507.609 8  -5093200.976 8  23504271.082    23504271.269    23504274.693
     -3188.473       -2484.526          43.190          40.060
 -15446414.596 8 -12021107.699 8  22085622.445    22085621.555    22085626.627
      1638.423        1276.689          45.970          42.490
 -23150187.339 8 -18027401.732 8  20877953.410    20877952.857    20877957.144
      -737.230        -574.468          49.440          48.750
  -4871679.996 7  -3768199.568 7  24684630.339    24684630.345    24684632.419
      3136.825        2444.279          37.630          33.460
 -11784072.280 8  -9142397.664 8  22530357.754    22530357.094    22530361.795
     -2812.145       -2191.286          45.620          42.150
 -20903149.538 8 -16268214.987 8  21191128.003    21191128.666    21191132.270
      2238.209        1744.056          48.400          45.620
 04  6 10  0 40  0.0000000  0  8G 5G 6G 9G10G17G21G24G30              .000000000
 -25696161.631 9 -20012050.265 8  20335142.431    20335141.988    20335145.628
       -57.687         -44.947          51.870          48.750
 -13527943.510 8 -10533620.566 8  22826558.975    22826559.071    22826563.520
      1457.396        1135.637          44.580          41.450
  -6455829.702 8  -5018646.756 8  23522478.743    23522478.450    23522481.973
     -3190.090       -2485.785          43.190          40.410
 -15495344.307 8 -12059234.731 8  22076311.593    22076311.154    22076315.699
      1623.455        1265.037          45.970          42.840
 -23127860.177 8 -18010003.933 8  20882202.431    20882201.704    20882205.974
      -751.303        -585.429          49.790          48.750
  -4965705.925 7  -3841466.602 7  24666738.296    24666738.241    24666740.299
      3131.439        2440.088          38.320          34.500
 -11699614.714 8  -9076586.576 8  22546429.097    22546428.972    22546433.047
     -2818.480       -2196.215          45.270          41.800
 -20970146.503 8 -16320420.403 8  21178379.592    21178380.106    21178382.798
      2228.139        1736.214          48.750          45.620
 04  6 10  0 40 30.0000000  0  8G 5G 6G 9G10G17G21G24G30              .000000000
 -25694196.859 9 -20010519.271 8  20335516.626    20335515.902    20335519.456
       -73.355         -57.158          51.870          48.750
 -13571651.502 8 -10567678.713 8  22818242.043    22818241.863    22818245.957
      1456.217        1134.715          44.580          40.760
  -6360105.517 8  -4944056.477 8  23540694.449    23540693.967    23540697.552
     -3191.551       -2486.926          43.190          40.060
 -15543823.618 8 -12097010.815 8  22067087.532    22067086.166    22067090.231
      1608.468        1253.347          46.310          42.840
 -23105112.526 8 -17992278.484 8  20886531.009    20886530.395    20886534.675
      -765.193        -596.256          49.790          48.750
  -5059573.019 7  -3914609.752 7  24648874.280    24648874.329    24648877.414
      3126.226        2436.000          37.280          35.200
 -11614968.637 8  -9010628.597 8  22562537.427    22562536.595    22562540.879
     -2824.626       -2201.011          45.270          41.800
 -21036840.322 8 -16372389.606 8  21165687.852    21165688.309    21165691.027
      2218.070        1728.365          48.750          45.270
 04  6 10  0 41  0.0000000  0  8G 5G 6G 9G10G17G21G24G30              .000000000
 -25691759.641 9 -20008620.133 8  20335980.126    20335979.616    20335983.241
       -89.134         -69.457          51.870          48.750
 -13615321.402 8 -10601707.167 8  22809930.907    22809931.347    22809935.277
      1454.926        1133.707          44.580          40.410
  -6264337.883 8  -4869432.356 8  23558918.740    23558918.167    23558921.580
     -3192.882       -2487.956          43.540          40.410
 -15591850.018 8 -12134433.955 8  22057947.042    22057946.154    22057951.009
      1593.298        1241.533          45.970          42.840
 -23081945.618 8 -17974226.328 8  20890939.373    20890938.888    20890943.090
      -779.158        -607.136          49.790          48.750
  -5153279.967 7  -3987628.173 7  24631043.808    24631044.164    24631045.186
      3120.846        2431.832          37.630          33.810
 -11530136.450 8  -8944525.585 8  22578680.039    22578679.714    22578684.005
     -2830.820       -2205.838          45.270          41.800
 -21103228.575 8 -16424120.684 8  21153054.837    21153054.822    21153057.955
      2207.833        1720.387          48.400          45.620
 04  6 10  0 41 30.0000000  0  8G 5G 6G 9G10G17G21G24G30              .000000000
 -25688848.929 9 -20006352.045 8  20336534.278    20336533.669    20336537.212
      -104.828         -81.686          51.870          48.750
 -13658953.891 8 -10635706.477 8  22801629.567    22801629.062    22801632.891
      1453.814        1132.839          44.930          40.760
  -6168529.657 8  -4794776.575 8  23577149.742    23577149.800    23577153.327
     -3194.153       -2488.952          43.540          40.060
 -15639420.744 8 -12171502.034 8  22048894.275    22048893.919    22048898.045
      1578.176        1229.745          45.970          42.490
 -23058361.099 8 -17955848.775 8  20895427.718    20895426.962    20895431.103
      -792.971        -617.899          49.790          48.750
  -5246824.920 7  -4060520.394 7  24613243.228    24613242.981    24613244.325
      3115.562        2427.709          37.980          35.540
 -11445120.349 8  -8878279.286 8  22594856.590    22594857.433    22594862.335
     -2836.808       -2210.500          45.270          42.150
 -21169308.765 8 -16475611.719 8  21140480.748    21140480.546    21140483.459
      2197.608        1712.422          48.750          45.620
 04  6 10  0 42  0.0000000  0  8G 5G 6G 9G10G17G21G24G30              .000000000
 -25685463.816 9 -20003714.290 8  20337178.074    20337177.741    20337181.239
      -120.588         -93.965          51.870          48.750
 -13702548.966 8 -10669676.640 8  22793332.453    22793332.372    22793336.268
      1452.652        1131.933          44.580          40.410
  -6072683.717 8  -4720091.424 7  23595389.117    23595388.794    23595391.986
     -3195.300       -2489.846          43.540          39.370
 -15686533.206 8 -12208213.039 8  22039930.449    22039929.108    22039933.528
      1562.896        1217.838          45.970          42.840
 -23034360.311 8 -17937146.846 8  20899994.740    20899994.343    20899998.327
      -806.710        -628.603          49.790          48.750
  -5340206.726 7  -4133285.439 7  24595473.298    24595473.275    24595475.955
      3110.149        2423.484          38.320          36.590
 -11359923.100 8  -8811891.822 8  22611070.602    22611070.307    22611074.203
     -2842.762       -2215.135          45.620          41.800
 -21235078.518 8 -16526860.875 8  21127964.955    21127965.094    21127968.005
      2187.277        1704.374          48.750          45.620
 04  6 10  0 42 30.0000000  0  8G 5G 6G 9G10G17G21G24G30              .000000000
 -25681603.676 9 -20000706.388 8  20337913.084    20337912.401    20337915.887
      -136.706        -106.523          51.870          48.750
 -13746107.362 8 -10703618.260 8  22785044.164    22785044.172    22785047.626
      1451.142        1130.760          44.930          40.760
  -5976802.713 8  -4645378.934 7  23613633.626    23613633.585    23613637.163
     -3196.693       -2490.932          42.840          39.020
 -15733184.669 8 -12244564.807 8  22031052.086    22031050.860    22031055.960
      1547.236        1205.639          45.970          43.190
 -23009944.845 9 -17918121.793 8  20904640.392    20904640.267    20904644.504
      -820.856        -639.631          50.140          48.750
  -5433423.445 7  -4205921.849 7  24577734.389    24577733.950    24577736.285
      3104.358        2418.986          37.980          35.200
 -11274547.111 8  -8745365.081 8  22627315.824    22627316.767    22627321.682
     -2848.947       -2219.960          45.620          42.150
 -21300535.536 8 -16577866.334 8  21115507.883    21115508.584    21115511.920
      2176.536        1696.001          49.090          45.620
 04  6 10  0 43  0.0000000  0  8G 5G 6G 9G10G17G21G24G30              .000000000
 -25677267.613 9 -19997327.633 8  20338737.832    20338737.313    20338740.993
      -152.569        -118.885          51.870          48.750
 -13789629.578 8 -10737531.658 8  22776761.482    22776761.434    22776765.855
      1449.949        1129.831          44.580          41.100
  -5880889.709 8  -4570641.535 7  23631884.452    23631885.027    23631888.788
     -3197.683       -2491.707          42.490          39.020
 -15779372.882 8 -12280555.601 8  22022262.071    22022261.708    22022266.243
      1531.770        1193.586          45.970          42.840
 -22985116.027 9 -17898774.649 8  20909366.002    20909365.229    20909369.170
      -834.575        -650.317          50.140          48.750
  -5526473.878 7  -4278428.695 7  24560028.456    24560028.391    24560030.037
      3098.771        2414.628          39.020          35.540
 -11188995.173 8  -8678701.248 8  22643597.998    22643596.869    22643600.825
     -2854.736       -2224.474          45.620          41.800
 -21365677.321 8 -16628626.172 8  21103112.909    21103112.953    21103115.519
      2166.067        1687.842          49.090          45.620
 04  6 10  0 43 30.0000000  0  8G 5G 6G 9G10G17G21G24G30              .000000000
 -25672454.713 9 -19993577.318 8  20339653.842    20339653.195    20339656.738
      -168.429        -131.249          51.870          48.750
 -13833115.605 8 -10771416.864 8  22768486.917    22768486.893    22768489.907
      1448.823        1128.952          44.580          40.760
  -5784947.588 8  -4495881.422 7  23650141.938    23650142.443    23650146.559
     -3198.559       -2492.388          42.150          39.370
 -15825095.080 8 -12316183.282 8  22013562.301    22013561.253    22013565.487
      1516.232        1181.474          46.310          42.840
 -22959875.589 9 -17879106.761 8  20914168.415    20914168.121    20914172.082
      -848.209        -660.948          50.140          48.750
  -5619356.850 7  -4350805.093 7  24542353.681    24542352.634    24542355.801
      3093.254        2410.318          39.710          35.890
 -11103269.669 8  -8611902.147 8  22659910.666    22659910.000    22659914.061
     -2860.459       -2228.930          45.620          41.450
 -21430501.595 8 -16679138.594 8  21090777.184    21090777.570    21090780.119
      2155.429        1679.553          49.440          45.620
 04  6 10  0 44  0.0000000  0  8G 5G 6G 9G10G17G21G24G30              .000000000
 -25667164.113 9 -19989454.778 8  20340660.434    20340660.002    20340663.603
      -184.248        -143.571          51.870          48.750
 -13876565.743 8 -10805274.093 8  22760218.613    22760218.428    22760222.944
      1447.761        1128.115          44.580          41.450
  -5688978.841 8  -4421100.579 7  23668405.325    23668404.681    23668408.102
     -3199.263       -2492.935          42.150          39.370
 -15870348.511 8 -12351445.700 8  22004950.524    22004949.823    22004954.440
      1500.704        1169.382          46.310          42.840
 -22934224.795 9 -17859119.121 8  20919050.033    20919049.473    20919053.276
      -861.722        -671.473          50.140          48.400
  -5712070.491 7  -4423049.498 7  24524709.515    24524709.730    24524711.875
      3087.717        2406.014          39.020          36.240
 -11017372.733 8  -8544969.481 8  22676255.185    22676255.265    22676259.812
     -2865.965       -2233.221          45.270          41.800
 -21495005.824 8 -16729401.641 8  21078502.621    21078502.631    21078505.475
      2144.846        1671.306          49.440          45.970
 04  6 10  0 44 30.0000000  0  8G 5G 6G 9G10G17G21G24G30              .000000000
 -25661395.005 9 -19984959.394 8  20341758.540    20341757.938    20341761.545
      -200.268        -156.057          51.870          48.750
 -13919980.224 8 -10839103.511 8  22751957.125    22751957.283    22751960.637
      1446.442        1127.093          44.580          40.760
  -5592986.314 8  -4346301.211 7  23686670.115    23686671.071    23686674.763
     -3200.133       -2493.615          42.490          39.020
 -15915130.661 8 -12386340.884 8  21996427.842    21996427.722    21996432.662
      1484.861        1157.024          45.970          43.190
 -22908165.235 9 -17838812.977 8  20924009.463    20924008.528    20924012.339
      -875.400        -682.133          50.140          48.750
  -5804613.234 7  -4495160.772 7  24507098.743    24507098.972    24507102.351
      3081.916        2401.477          39.020          36.240
 -10931306.869 8  -8477905.209 8  22692633.631    22692633.199    22692637.587
     -2871.628       -2237.632          45.270          41.800
 -21559187.385 8 -16779413.267 8  21066288.550    21066289.006    21066292.060
      2133.974        1662.830          49.440          45.970
 04  6 10  0 45  0.0000000  0  8G 5G 6G 9G10G17G21G24G30              .000000000
 -25655146.764 9 -19980090.640 8  20342947.168    20342946.751    20342950.381
      -216.100        -168.392          51.870          48.750
 -13963359.904 8 -10872905.821 8  22743701.424    22743701.768    22743705.179
      1445.466        1126.336          44.580          40.760
  -5496973.038 8  -4271485.649 7  23704942.361    23704942.333    23704945.750
     -3200.596       -2493.968          43.190          39.020
 -15959439.128 8 -12420866.948 8  21987997.453    21987996.609    21988001.097
      1469.217        1144.845          46.310          43.190
 -22881698.277 9 -17818189.364 8  20929044.818    20929044.746    20929048.690
      -888.804        -692.576          50.140          48.400
  -5896983.660 7  -4567137.760 7  24489522.700    24489522.410    24489524.218
      3076.372        2397.177          39.020          35.200
 -10845075.059 8  -8410711.603 8  22709042.762    22709042.872    22709047.236
     -2877.010       -2241.825          45.270          41.800
 -21623044.070 8 -16829171.721 8  21054137.835    21054137.494    21054140.076
      2123.267        1654.492          49.090          45.970
 04  6 10  0 45 30.0000000  0  8G 5G 6G 9G10G17G21G24G30              .000000000
 -25648419.031 9 -19974848.227 8  20344227.550    20344226.976    20344230.731
      -232.107        -180.863          51.530          48.750
 -14006705.019 8 -10906681.125 8  22735453.759    22735453.702    22735457.892
      1444.329        1125.445          44.580          41.100
  -5400942.030 8  -4196656.227 7  23723216.487    23723216.784    23723220.107
     -3201.145       -2494.399          43.540          39.370
 -16003271.407 8 -12455021.934 8  21979656.739    21979656.147    21979659.868
      1453.241        1132.389          46.310          43.190
 -22854825.620 9 -17797249.598 8  20934159.124    20934158.514    20934162.505
      -902.291        -703.085          50.140          48.750
  -5989180.583 7  -4638979.544 7  24471977.853    24471977.011    24471979.349
      3070.457        2392.550          38.320          34.500
 -10758679.484 8  -8343390.359 8  22725483.105    22725482.754    22725487.405
     -2882.398       -2246.026          45.270          41.800
 -21686573.571 8 -16878675.199 8  21042048.198    21042048.254    21042050.939
      2112.314        1645.958          49.090          45.970
 04  6 10  0 46  0.0000000  0  8G 5G 6G 9G10G17G21G24G30              .000000000
 -25641210.704 9 -19969231.353 8  20345599.531    20345598.749    20345602.420
      -248.317        -193.494          51.530          48.750
 -14050015.858 8 -10940429.791 8  22727211.509    22727211.673    22727215.275
      1443.024        1124.427          44.580          40.760
  -5304895.948 8  -4121815.096 7  23741493.293    23741493.284    23741497.048
     -3201.790       -2494.903          43.190          39.710
 -16046624.783 8 -12488803.778 8  21971406.221    21971405.225    21971410.214
      1437.071        1119.796          46.310          42.840
 -22827548.908 8 -17775995.004 8  20939349.133    20939348.961    20939353.061
      -915.934        -713.716          49.790          48.400
  -6081202.263 7  -4710684.783 7  24454467.008    24454466.847    24454469.255
      3064.341        2387.800          37.980          35.890
 -10672122.091 8  -8275943.064 8  22741955.321    22741955.005    22741959.096
     -2887.900       -2250.314          44.930          41.800
 -21749773.358 8 -16927921.780 8  21030021.730    21030021.713    21030024.865
      2101.106        1637.224          49.090          46.310
 04  6 10  0 46 30.0000000  0  8G 5G 6G 9G10G17G21G24G30              .000000000
 -25633521.047 9 -19963239.440 8  20347062.812    20347062.085    20347065.758
      -264.474        -206.088          51.870          48.750
 -14093292.707 8 -10974152.016 8  22718977.487    22718977.036    22718980.737
      1441.774        1123.457          44.930          41.450
  -5208837.220 8  -4046964.167 7  23759774.209    23759773.023    23759776.268
     -3202.256       -2495.269          42.840          39.710
 -16089496.985 8 -12522210.716 8  21963247.957    21963247.326    21963251.193
      1420.918        1107.209          46.310          42.840
 -22799869.542 8 -17754426.686 8  20944616.803    20944616.271    20944620.377
      -929.434        -724.237          49.790          48.400
  -6173047.270 7  -4782252.374 7  24436988.395    24436988.998    24436991.519
      3058.453        2383.211          38.320          35.540
 -10585405.882 8  -8208372.037 8  22758456.824    22758456.380    22758460.350
     -2893.277       -2254.503          45.270          41.450
 -21812641.059 8 -16976909.609 8  21018058.121    21018058.174    21018061.485
      2089.896        1628.486          49.090          46.310
 04  6 10  0 47  0.0000000  0  8G 5G 6G 9G10G17G21G24G30              .000000000
 -25625349.387 9 -19956871.914 8  20348617.822    20348617.195    20348620.713
      -280.384        -218.479          51.870          48.750
 -14136535.820 8 -11007847.902 8  22710747.816    22710747.370    22710751.600
      1440.859        1122.747          44.930          41.450
  -5112768.816 8  -3972105.653 7  23778054.572    23778054.307    23778057.694
     -3202.341       -2495.330          42.490          39.020
 -16131885.674 8 -12555240.851 8  21955181.582    21955181.089    21955185.170
      1404.912        1094.740          46.310          42.840
 -22771789.180 8 -17732545.873 8  20949960.441    20949959.686    20949963.859
      -942.590        -734.484          49.790          48.400
  -6264714.471 7  -4853681.407 7  24419546.443    24419544.656    24419547.020
      3052.621        2378.668          37.980          34.850
 -10498533.321 8  -8140679.149 8  22774987.438    22774987.259    22774991.978
     -2898.311       -2258.424          44.930          41.450
 -21875174.224 8 -17025636.729 8  21006158.588    21006158.592    21006161.468
      2078.905        1619.926          49.090          45.970
 04  6 10  0 47 30.0000000  0  8G 5G 6G 9G10G17G21G24G30              .000000000
 -25616695.107 9 -19950128.298 8  20350264.218    20350263.880    20350267.672
      -296.511        -231.045          51.870          48.750
 -14179745.643 8 -11041517.847 8  22702525.324    22702525.358    22702529.066
      1439.684        1121.826          44.930          41.450
  -5016693.527 8  -3897241.761 7  23796337.003    23796337.136    23796339.269
     -3202.580       -2495.516          42.490          38.320
 -16173788.085 8 -12587892.059 8  21947208.886    21947207.943    21947211.480
      1388.644        1082.061          46.660          43.190
 -22743309.288 8 -17710353.716 8  20955379.503    20955378.912    20955383.167
      -955.917        -744.873          49.790          48.400
  -6356202.184 7  -4924970.571 7  24402136.271    24402136.127    24402137.437
      3046.563        2373.945          38.320          35.200
 -10411506.552 8  -8072866.072 8  22791548.929    22791548.575    22791552.256
     -2903.420       -2262.405          44.930          41.450
 -21937370.574 8 -17074101.390 8  20994322.756    20994323.119    20994325.696
      2067.586        1611.111          49.090          45.970
 04  6 10  0 48  0.0000000  0  8G 5G 6G 9G10G17G21G24G30              .000000000
 -25607557.363 9 -19943007.981 8  20352003.708    20352002.749    20352006.426
      -312.643        -243.615          51.530          48.750
 -14222922.280 8 -11075161.926 8  22694308.358    22694308.320    22694313.013
      1438.609        1120.992          44.930          41.800
  -4920614.083 8  -3822374.643 7  23814620.208    23814619.803    23814622.757
     -3202.640       -2495.555          41.800          38.320
 -16215201.928 8 -12620162.563 8  21939326.698    21939326.050    21939330.725
      1372.336        1069.354          46.660          42.840
 -22714431.453 8 -17687851.489 8  20960875.039    20960874.418    20960878.585
      -969.142        -755.175          49.790          48.400
  -6447509.090 7  -4996118.879 7  24384761.127    24384760.528    24384762.528
      3040.583        2369.297          39.020          35.200
 -10324328.179 8  -8004934.866 8  22808138.062    22808137.683    22808141.302
     -2908.433       -2266.309          44.930          40.760
 -21999227.535 8 -17122301.609 8  20982551.520    20982551.861    20982555.270
      2056.228        1602.260          49.090          45.970
 04  6 10  0 48 30.0000000  0  8G 5G 6G 9G10G17G21G24G30              .000000000
 -25597935.716 9 -19935510.604 8  20353834.497    20353833.695    20353837.403
      -328.882        -256.268          51.530          48.750
 -14266066.537 8 -11108780.797 8  22686098.793    22686098.334    22686102.005
      1437.407        1120.063          44.930          41.450
  -4824533.209 8  -3747506.421 7  23832903.383    23832903.184    23832906.363
     -3202.773       -2495.660          41.800          37.980
 -16256124.840 8 -12652050.545 8  21931540.667    21931539.291    21931543.434
      1355.805        1056.469          46.660          42.840
 -22685157.468 8 -17665040.589 8  20966445.576    20966444.986    20966449.283
      -982.424        -765.522          49.440          48.400
  -6538633.579 7  -5067125.066 7  24367419.305    24367419.609    24367422.290
      3034.400        2364.470          39.370          34.850
 -10237000.483 8  -7936887.338 8  22824755.627    22824755.324    22824760.022
     -2913.463       -2270.227          44.930          41.450
 -22060742.755 8 -17170235.532 8  20970845.366    20970846.023    20970849.329
      2044.710        1593.284          49.090          46.310
 04  6 10  0 49  0.0000000  0  8G 5G 6G 9G10G17G21G24G30              .000000000
 -25587829.602 9 -19927635.710 8  20355757.625    20355756.892    20355760.474
      -345.003        -268.833          51.530          48.750
 -14309177.979 8 -11142374.058 8  22677893.878    22677894.351    22677898.567
      1436.330        1119.212          44.930          41.450
  -4728453.557 8  -3672639.147 7  23851187.816    23851187.522    23851189.606
     -3202.621       -2495.558          42.490          37.630
 -16296554.421 8 -12683554.101 8  21923845.534    21923845.130    21923850.039
      1339.328        1043.629          46.660          42.840
 -22655488.737 8 -17641922.098 8  20972091.241    20972090.524    20972094.959
      -995.519        -775.729          49.440          48.400
  -6629574.336 7  -5137988.080 7  24350115.210    24350114.599    24350116.739
      3028.218        2359.651          39.710          35.540
 -10149526.045 8  -7868725.443 8  22841402.185    22841401.508    22841405.208
     -2918.287       -2273.990          44.930          40.760
 -22121913.951 8 -17217901.384 8  20959205.779    20959205.752    20959208.639
      2033.207        1584.319          49.440          46.310
 04  6 10  0 49 30.0000000  0  8G 5G 6G 9G10G17G21G24G30              .000000000
 -25577238.364 9 -19919382.801 8  20357772.729    20357772.331    20357775.965
      -361.012        -281.307          51.530          48.750
 -14352257.225 8 -11175942.208 8  22669697.363    22669697.044    22669700.377
      1435.501        1118.572          44.930          41.450
  -4632378.124 8  -3597775.135 7  23869469.646    23869469.456    23869472.652
     -3202.281       -2495.282          43.190          37.630
 -16336488.453 8 -12714671.527 8  21916247.835    21916246.525    21916250.536
      1322.976        1030.894          46.660          43.190
 -22625427.092 8 -17618497.430 8  20977811.588    20977811.144    20977815.749
     -1008.457        -785.811          49.440          48.400
  -6720330.037 7  -5208706.908 7  24332845.401    24332844.277    24332846.230
      3022.211        2354.962          39.710          34.850
 -10061907.417 8  -7800451.195 8  22858074.671    22858074.201    22858078.938
     -2922.888       -2277.576          44.580          41.100
 -22182738.897 8 -17265297.439 8  20947630.942    20947631.185    20947633.880
      2021.822        1575.448          49.440          46.310
 04  6 10  0 50  0.0000000  0  8G 5G 6G 9G10G17G21G24G30              .000000000
 -25566161.691 9 -19910751.624 8  20359881.013    20359880.196    20359883.928
      -377.181        -293.903          51.530          48.750
 -14395304.983 8 -11209485.862 8  22661504.909    22661504.899    22661508.974
      1434.434        1117.746          44.930          41.450
  -4536309.530 8  -3522916.448 7  23887750.643    23887750.452    23887753.991
     -3201.973       -2495.043          43.190          37.980
 -16375924.607 8 -12745400.978 8  21908741.323    21908741.139    21908746.736
      1306.348        1017.941          46.310          43.190
 -22594974.034 8 -17594767.768 8  20983607.155    20983606.212    20983610.589
     -1021.440        -795.926          49.440          48.400
  -6810898.867 7  -5279280.130 7  24315609.602    24315609.571    24315612.924
      3015.982        2350.115          39.370          36.240
  -9974146.889 8  -7732066.376 8  22874774.946    22874775.033    22874778.385
     -2927.530       -2281.187          44.580          40.410
 -22243215.058 8 -17312421.707 8  20936121.730    20936122.709    20936125.545
      2010.187        1566.384          49.790          46.310
 04  6 10  0 50 30.0000000  0  8G 5G 6G 9G10G17G21G24G30              .000000000
 -25554598.641 9 -19901741.461 8  20362080.618    20362080.397    20362084.232
      -393.501        -306.623          51.530          48.750
 -14438320.979 8 -11243004.777 8  22653320.274    22653319.627    22653323.471
      1433.311        1116.866          45.270          41.800
  -4440250.371 8  -3448065.134 7  23906029.737    23906029.460    23906032.772
     -3201.739       -2494.851          42.490          37.980
 -16414860.159 8 -12775740.370 8  21901333.989    21901332.917    21901336.664
      1289.533        1004.832          46.660          43.190
 -22564131.208 8 -17570734.397 8  20989476.027    20989475.383    20989479.915
     -1034.480        -806.086          49.440          48.400
  -6901280.066 7  -5349707.105 7  24298411.618    24298411.426    24298413.176
      3009.625        2345.175          39.370          35.890
  -9886246.575 8  -7663572.631 8  22891501.542    22891501.419    22891506.256
     -2932.271       -2284.880          44.230          41.100
 -22303339.932 8 -17359272.245 8  20924681.470    20924681.613    20924684.476
      1998.321        1557.133          49.790          46.310
 04  6 10  0 51  0.0000000  0  8G 5G 6G 9G10G17G21G24G30              .000000000
 -25542548.863 9 -19892352.029 8  20364374.300    20364373.540    20364377.098
      -409.772        -319.303          51.530          48.750
 -14481305.872 8 -11276499.466 8  22645140.283    22645139.857    22645143.730
      1432.233        1116.018          45.270          41.800
  -4344203.804 8  -3373223.614 7  23924306.739    23924306.390    23924310.531
     -3201.344       -2494.558          41.450          38.670
 -16453293.107 8 -12805688.113 8  21894020.055    21894019.010    21894023.303
      1272.710         991.717          46.660          43.190
 -22532900.440 8 -17546398.734 8  20995418.986    20995418.456    20995422.702
     -1047.440        -816.189          49.440          48.400
  -6991471.978 7  -5419986.604 7  24281249.768    24281248.328    24281249.987
      3003.340        2340.277          39.710          35.200
  -9798209.172 8  -7594972.079 8  22908254.433    22908254.812    22908258.430
     -2936.834       -2288.442          44.230          40.410
 -22363111.196 8 -17405847.238 8  20913307.168    20913307.453    20913310.414
      1986.469        1547.897          49.790          46.660
 04  6 10  0 51 30.0000000  0  8G 5G 6G 9G10G17G21G24G30              .000000000
 -25530011.807 9 -19882582.926 8  20366759.924    20366759.200    20366763.035
      -426.031        -331.958          51.530          48.750
 -14524259.811 8 -11309970.056 8  22636966.041    22636965.924    22636970.209
      1431.233        1115.258          45.270          42.150
  -4248172.230 8  -3298393.829 7  23942580.215    23942580.569    23942584.717
     -3200.768       -2494.091          41.100          39.020
 -16491220.883 8 -12835242.247 8  21886802.786    21886801.956    21886806.220
      1255.841         978.593          46.660          43.190
 -22501283.178 8 -17521761.934 8  21001435.504    21001435.066    21001439.362
     -1060.272        -826.175          49.440          48.400
  -7081473.149 7  -5490117.481 7  24264121.845    24264122.033    24264123.112
      2996.835        2335.215          39.020          35.540
  -9710037.098 8  -7526266.592 8  22925032.337    22925033.288    22925037.775
     -2941.267       -2291.885          44.230          40.760
 -22422526.544 8 -17452144.918 8  20902000.878    20902000.988    20902004.063
      1974.558        1538.628          49.790          46.660
 04  6 10  0 52  0.0000000  0  8G 5G 6G 9G10G17G21G24G30              .000000000
 -25516986.714 9 -19872433.497 8  20369237.987    20369237.810    20369241.547
      -442.299        -344.653          51.530          48.750
 -14567183.009 8 -11343416.633 8  22628797.220    22628797.569    22628801.197
      1430.143        1114.396          44.930          41.800
  -4152158.322 8  -3223577.768 7  23960852.433    23960851.528    23960855.381
     -3200.169       -2493.648          41.100          39.020
 -16528641.466 8 -12864401.123 8  21879681.409    21879680.766    21879684.626
      1238.861         965.347          46.660          42.840
 -22469281.154 8 -17496825.286 8  21007525.415    21007524.811    21007528.906
     -1073.097        -836.184          49.440          48.050
  -7171282.156 7  -5560098.604 7  24247031.861    24247032.370    24247035.090
      2990.404        2330.196          39.370          36.590
  -9621732.745 8  -7457458.024 8  22941836.997    22941837.035    22941841.406
     -2945.643       -2295.308          44.230          40.760
 -22481583.682 8 -17498163.441 8  20890762.651    20890762.762    20890765.407
      1962.560        1529.264          49.790          46.310
 04  6 10  0 52 30.0000000  0  8G 5G 6G 9G10G17G21G24G30              .000000000
 -25503473.411 9 -19861903.654 8  20371809.920    20371809.411    20371812.843
      -458.585        -357.341          51.530          48.750
 -14610075.549 8 -11376839.366 8  22620636.115    22620635.800    22620639.342
      1429.171        1113.646          44.930          41.800
  -4056164.878 8  -3148777.648 7  23979119.088    23979118.660    23979122.345
     -3199.367       -2493.013          40.760          38.670
 -16565552.531 8 -12893162.980 8  21872657.956    21872656.808    21872661.399
      1221.862         952.095          46.660          43.190
 -22436895.916 8 -17471590.027 8  21013688.418    21013687.699    21013691.720
     -1085.817        -846.093          49.440          48.050
  -7260897.930 7  -5629929.121 7  24229978.059    24229977.952    24229980.718
      2983.872        2325.091          38.320          35.890
  -9533298.222 8  -7388548.017 8  22958665.676    22958665.875    22958669.237
     -2949.927       -2298.647          44.230          40.410
 -22540280.001 8 -17543900.821 8  20879592.915    20879593.359    20879595.858
      1950.528        1519.894          49.790          46.310
 04  6 10  0 53  0.0000000  0  8G 5G 6G 9G10G17G21G24G30              .000000000
 -25489471.290 9 -19850992.885 8  20374474.533    20374473.919    20374477.495
      -474.925        -370.075          51.530          48.750
 -14652937.977 8 -11410238.592 8  22612478.484    22612478.900    22612482.566
      1428.098        1112.803          44.930          41.450
  -3960194.626 8  -3073995.578 7  23997381.239    23997381.124    23997384.605
     -3198.646       -2492.461          40.760          38.670
 -16601951.976 8 -12921526.152 8  21865731.268    21865730.298    21865734.589
      1204.712         938.732          47.010          43.190
 -22404129.417 8 -17446057.665 8  21019923.614    21019922.868    21019927.058
     -1098.575        -856.038          49.790          48.050
  -7350318.741 7  -5699607.744 7  24212964.364    24212962.594    24212964.972
      2977.368        2320.031          39.020          35.890
  -9444736.082 8  -7319538.547 8  22975518.655    22975518.354    22975522.794
     -2954.249       -2302.006          44.230          40.760
 -22598613.553 8 -17589355.498 8  20868492.334    20868492.838    20868495.665
      1938.317        1510.373          49.790          46.660
 04  6 10  0 53 30.0000000  0  8G 5G 6G 9G10G17G21G24G30              .000000000
 -25474980.257 9 -19839701.166 8  20377232.047    20377231.444    20377235.059
      -491.116        -382.689          51.530          48.750
 -14695770.752 8 -11443614.745 8  22604327.945    22604327.851    22604332.150
      1427.239        1112.137          44.930          41.450
  -3864250.406 8  -2999233.822 7  24015639.082    24015638.339    24015642.268
     -3197.628       -2491.664          40.410          38.670
 -16637837.489 8 -12949488.878 8  21858901.680    21858901.090    21858905.978
      1187.677         925.457          46.660          43.540
 -22370983.308 8 -17420229.520 8  21026230.837    21026230.414    21026234.549
     -1111.056        -865.760          49.790          48.050
  -7439543.539 7  -5769133.638 7  24195984.117    24195983.132    24195985.848
      2970.985        2315.046          39.370          36.590
  -9356048.733 8  -7250431.534 8  22992395.018    22992395.124    22992399.060
     -2958.216       -2305.105          44.230          40.760
 -22656581.746 8 -17634525.500 8  20857461.536    20857461.646    20857464.743
      1926.228        1500.954          49.790          46.660
 04  6 10  0 54  0.0000000  0  8G 5G 6G 9G10G17G21G24G30              .000000000
 -25459999.682 9 -19828027.990 8  20380082.621    20380082.017    20380085.806
      -507.450        -395.418          51.530          48.750
 -14738573.498 8 -11476967.485 8  22596182.535    22596182.714    22596186.793
      1426.256        1111.361          44.930          41.450
  -3768334.688 8  -2924494.272 7  24033891.865    24033891.086    24033894.775
     -3196.580       -2490.857          40.760          38.670
 -16673206.927 8 -12977049.470 8  21852171.676    21852170.936    21852175.216
      1170.436         912.021          46.660          43.190
 -22337459.099 8 -17394106.750 8  21032610.169    21032609.859    21032614.082
     -1123.636        -875.566          49.790          48.050
  -7528570.661 8  -5838505.485 7  24179043.532    24179042.701    24179044.272
      2964.305        2309.858          40.410          35.890
  -9267238.340 8  -7181228.645 8  23009294.968    23009294.972    23009299.882
     -2962.317       -2308.300          44.230          40.760
 -22714182.162 8 -17679408.917 8  20846499.645    20846500.243    20846503.475
      1913.931        1491.370          49.790          46.660
 04  6 10  0 54 30.0000000  0  8G 5G 6G 9G10G17G21G24G30              .000000000
 -25444528.885 9 -19815972.825 8  20383027.222    20383026.176    20383029.754
      -523.749        -408.120          51.530          48.750
 -14781346.648 8 -11510297.146 8  22588043.012    22588042.927    22588047.091
      1425.336        1110.654          44.580          41.800
  -3672450.054 8  -2849778.946 7  24052137.515    24052137.252    24052140.674
     -3195.568       -2490.054          41.100          38.320
 -16708058.019 8 -13004206.169 8  21845540.760    21845539.592    21845543.502
      1153.161         898.567          47.010          43.540
 -22303558.704 8 -17367690.860 8  21039061.980    21039060.949    21039064.810
     -1136.112        -885.286          49.790          48.050
  -7617399.286 8  -5907722.694 7  24162140.081    24162138.773    24162141.094
      2957.705        2304.709          41.100          35.890
  -9178307.428 8  -7111931.859 8  23026219.421    23026218.787    23026222.254
     -2966.226       -2311.344          44.230          40.410
 -22771412.502 8 -17724003.971 8  20835609.392    20835609.888    20835612.730
      1901.601        1481.765          49.440          46.660
 04  6 10  0 55  0.0000000  0  8G 5G 6G 9G10G17G21G24G30              .000000000
 -25428567.671 9 -19803535.537 8  20386063.825    20386063.487    20386067.239
      -540.154        -420.901          51.530          48.750
 -14824090.562 8 -11543604.045 8  22579909.512    22579908.893    22579913.559
      1424.281        1109.822          44.580          41.800
  -3576599.440 8  -2775090.147 7  24070376.488    24070377.079    24070380.609
     -3194.360       -2489.115          41.450          38.320
 -16742388.797 8 -13030957.435 8  21839007.531    21839006.244    21839010.478
      1135.717         884.971          47.010          43.540
 -22269283.811 8 -17340983.172 8  21045583.827    21045583.360    21045587.341
     -1148.619        -895.031          49.790          48.050
  -7706027.910 8  -5976784.062 7  24145272.663    24145273.002    24145276.372
      2951.002        2299.474          40.760          35.890
  -9089258.386 8  -7042543.022 8  23043162.770    23043163.024    23043167.509
     -2970.213       -2314.457          44.230          40.410
 -22828270.561 8 -17768308.963 8  20824790.643    20824790.215    20824793.139
      1889.096        1472.020          49.790          46.660
 04  6 10  0 55 30.0000000  0  8G 5G 6G 9G10G17G21G24G30              .000000000
 -25412115.773 9 -19790715.874 8  20389194.792    20389194.159    20389197.743
      -556.646        -433.749          51.530          48.750
 -14866805.376 8 -11576888.237 8  22571780.303    22571780.923    22571785.013
      1423.161        1108.955          44.580          41.800
  -3480785.402 8  -2700429.821 7  24088610.010    24088609.909    24088613.208
     -3193.244       -2488.256          41.450          37.630
 -16776196.857 8 -13057301.372 8  21832573.113    21832572.391    21832576.535
      1118.151         871.288          47.010          43.190
 -22234636.246 8 -17313985.068 8  21052177.474    21052176.523    21052180.409
     -1161.147        -904.793          49.790          48.050
  -7794454.956 8  -6045688.322 7  24128446.506    24128446.385    24128449.026
      2944.112        2294.124          40.760          36.590
  -9000093.246 8  -6973063.707 8  23060132.249    23060131.307    23060135.324
     -2974.149       -2317.526          43.880          40.410
 -22884753.847 8 -17812321.904 8  20814041.401    20814041.767    20814044.618
      1876.432        1462.155          49.790          46.660
 04  6 10  0 56  0.0000000  0  8G 5G 6G 9G10G17G21G24G30              .000000000
 -25395172.765 9 -19777513.506 8  20392418.900    20392418.168    20392422.065
      -573.000        -446.496          51.530          48.750
 -14909491.407 8 -11610150.006 8  22563658.745    22563658.152    22563661.780
      1422.199        1108.203          44.930          41.450
  -3385010.546 8  -2625799.998 7  24106834.814    24106835.379    24106838.292
     -3191.905       -2487.199          41.800          37.630
 -16809480.401 8 -13083236.570 8  21826239.420    21826238.792    21826243.260
      1100.626         857.629          47.010          43.190
 -22199617.612 8 -17286697.788 8  21058840.816    21058840.180    21058844.358
     -1173.483        -914.404          49.790          48.050
  -7882679.377 8  -6114434.632 7  24111657.832    24111657.376    24111660.094
      2937.350        2288.842          40.760          36.240
  -8910814.728 8  -6903496.028 8  23077120.215    23077120.275    23077125.260
     -2977.877       -2320.417          43.880          40.410
 -22940860.033 8 -17856040.968 8  20803364.833    20803365.076    20803368.129
      1863.835        1452.339          49.790          46.660
 04  6 10  0 56 30.0000000  0  8G 5G 6G 9G10G17G21G24G30              .000000000
 -25377738.314 9 -19763928.217 8  20395736.639    20395735.992    20395739.438
      -589.385        -459.260          51.530          48.750
 -14952148.910 8 -11643389.540 8  22555540.492    22555540.782    22555544.341
      1421.354        1107.548          44.930          41.450
  -3289277.679 8  -2551202.909 7  24125052.562    24125052.674    24125055.980
     -3190.457       -2486.078          41.800          37.630
 -16842237.151 8 -13108761.305 8  21820006.980    21820006.054    21820009.659
      1083.054         843.939          47.010          43.540
 -22164229.685 8 -17259122.773 8  21065574.718    21065574.318    21065578.345
     -1185.717        -923.937          49.440          48.050
  -7970699.712 8  -6183021.956 7  24094907.643    24094908.245    24094910.080
      2930.593        2283.574          40.410          36.240
  -8821424.746 8  -6833841.500 8  23094131.288    23094131.069    23094134.593
     -2981.519       -2323.254          44.230          40.060
 -22996586.922 9 -17899464.502 8  20792760.653    20792761.025    20792763.822
      1851.183        1442.480          50.140          47.010
 04  6 10  0 57  0.0000000  0  8G 5G 6G 9G10G17G21G24G30              .000000000
 -25359811.732 9 -19749959.457 8  20399147.776    20399147.312    20399150.825
      -605.638        -471.923          51.530          48.750
 -14994777.780 8 -11676606.805 8  22547428.764    22547428.892    22547432.822
      1420.481        1106.868          45.270          42.150
  -3193589.335 8  -2476640.508 7  24143261.421    24143261.556    24143264.757
     -3188.718       -2484.721          41.450          37.980
 -16874465.180 8 -13133874.051 8  21813873.447    21813872.614    21813877.234
      1065.560         830.309          47.010          43.540
 -22128474.200 8 -17231261.356 8  21072378.859    21072378.216    21072382.503
     -1197.792        -933.341          49.440          48.050
  -8058514.660 8  -6251449.202 7  24078197.326    24078197.405    24078200.326
      2923.795        2278.273          40.060          36.930
  -8731925.452 8  -6764101.813 8  23111161.502    23111161.514    23111166.321
     -2985.009       -2325.986          43.540          40.060
 -23051931.975 9 -17942590.509 8  20782229.121    20782229.050    20782231.689
      1838.551        1432.637          50.140          46.660
 04  6 10  0 57 30.0000000  0  8G 5G 6G 9G10G17G21G24G30              .000000000
 -25341393.312 9 -19735607.443 8  20402653.004    20402652.183    20402655.677
      -622.259        -484.876          51.530          48.750
 -15037378.393 8 -11709802.045 8  22539322.187    22539322.355    22539325.704
      1419.384        1106.011          45.270          42.150
  -3097948.043 8  -2402114.804 7  24161461.548    24161461.131    24161464.744
     -3187.317       -2483.618          41.100          38.320
 -16906162.330 8 -13158573.125 8  21807841.449    21807840.785    21807845.213
      1047.602         816.313          47.010          43.540
 -22092352.955 8 -17203114.937 8  21079252.784    21079251.950    21079256.056
     -1210.173        -942.993          49.440          48.050
  -8146122.939 7  -6319715.409 7  24061526.680    24061526.098    24061529.288
      2916.732        2272.785          39.370          36.240
  -8642319.770 8  -6694279.228 8  23128213.420    23128213.864    23128217.472
     -2988.718       -2328.874          43.880          40.410
 -23106893.288 9 -17985417.486 8  20771769.881    20771770.014    20771772.529
      1825.521        1422.483          50.140          46.660
 04  6 10  0 58  0.0000000  0  8G 5G 6G 9G10G17G21G24G30              .000000000
 -25322482.485 9 -19720871.734 8  20406251.265    20406250.693    20406254.391
      -638.591        -497.605          51.530          48.750
 -15079950.821 8 -11742975.371 8  22531220.403    22531220.614    22531224.521
      1418.486        1105.310          45.620          42.150
  -3002356.500 8  -2327627.888 7  24179651.330    24179651.065    24179655.160
     -3185.553       -2482.247          40.410          38.320
 -16937326.818 8 -13182857.132 8  21801910.856    21801909.918    21801914.942
      1029.917         802.530          46.660          43.540
 -22055867.764 8 -17174684.912 8  21086195.403    21086194.894    21086199.057
     -1222.189        -952.359          49.440          48.050
  -8233523.387 7  -6387819.702 7  24044894.408    24044894.036    24044896.958
      2909.830        2267.397          39.370          36.240
  -8552609.563 8  -6624375.189 8  23145285.012    23145284.307    23145288.705
     -2992.060       -2331.475          43.540          40.410
 -23161468.130 9 -18027943.317 8  20761384.782    20761385.017    20761387.570
      1812.642        1412.443          50.140          46.660
 04  6 10  0 58 30.0000000  0  8G 5G 6G 9G10G17G21G24G30              .000000000
 -25303079.121 9 -19705752.229 8  20409943.278    20409943.046    20409946.733
      -654.953        -510.351          51.530          48.750
 -15122495.709 8 -11776127.204 8  22523124.582    22523124.554    22523128.481
      1417.619        1104.637          45.970          42.150
  -2906817.451 7  -2253181.866 7  24197831.338    24197831.615    24197835.151
     -3183.631       -2480.766          39.710          38.320
 -16967956.692 8 -13206724.568 8  21796082.536    21796081.941    21796085.904
      1012.106         788.654          46.660          43.190
 -22019020.518 8 -17145972.774 8  21093207.120    21093206.563    21093210.884
     -1234.196        -961.710          49.440          48.050
  -8320714.799 7  -6455761.067 7  24028303.194    24028302.027    24028304.933
      2902.889        2261.992          39.020          36.930
  -8462797.174 8  -6554391.532 8  23162375.630    23162374.992    23162379.592
     -2995.437       -2334.110          43.540          40.060
 -23215654.474 9 -18070166.416 8  20751073.122    20751073.775    20751076.561
      1799.734        1402.390          50.480          47.010
 04  6 10  0 59  0.0000000  0  8G 5G 6G 9G10G17G21G24G30              .000000000
 -25283182.779 9 -19690248.583 8  20413729.849    20413729.300    20413732.938
      -671.418        -523.181          51.530          48.750
 -15165012.657 8 -11809257.269 8  22515034.055    22515034.322    22515037.783
      1416.677        1103.908          45.970          42.150
  -2811333.305 7  -2178778.656 7  24216000.731    24216001.496    24216005.572
     -3181.812       -2479.326          39.370          38.320
 -16998049.759 8 -13230173.711 8  21790356.076    21790355.191    21790359.956
       994.135         774.655          47.010          43.540
 -21981812.782 8 -17116979.730 8  21100287.346    21100287.071    21100291.416
     -1246.256        -971.107          49.440          48.050
  -8407695.817 7  -6523538.532 7  24011750.098    24011749.698    24011752.636
      2895.810        2256.466          39.710          35.890
  -8372884.973 8  -6484330.086 8  23179485.145    23179485.611    23179490.221
     -2998.715       -2336.658          43.540          40.410
 -23269449.939 9 -18112084.934 8  20740836.923    20740836.842    20740839.477
      1786.669        1392.213          50.480          47.010
 04  6 10  0 59 30.0000000  0  8G 5G 6G 9G10G17G21G24G30              .000000000
 -25262793.424 9 -19674360.768 8  20417610.077    20417609.120    20417612.787
      -687.947        -536.068          51.530          48.750
 -15207501.985 8 -11842365.825 8  22506949.196    22506948.416    22506951.769
      1415.687        1103.123          45.970          41.800
  -2715906.723 8  -2104420.278 7  24234160.858    24234160.398    24234164.193
     -3180.008       -2477.923          40.060          38.320
 -17027603.961 8 -13253202.958 8  21784732.610    21784731.469    21784735.293
       976.049         760.551          47.010          43.540
 -21944246.337 8 -17087707.177 8  21107435.959    21107435.443    21107439.934
     -1258.233        -980.445          49.090          48.050
  -8494465.117 8  -6591151.010 7  23995239.364    23995239.028    23995241.347
      2888.640        2250.885          40.060          36.240
  -8282875.170 8  -6414192.591 7  23196613.900    23196613.063    23196617.484
     -3001.988       -2339.210          43.540          39.710
 -23322852.187 9 -18153697.054 8  20730674.222    20730674.417    20730677.287
      1773.401        1381.868          50.140          47.010
