     2              OBSERVATION DATA    G (GPS)             RINEX VERSION / TYPE
TRRINEXO V2.9.7 LHm ICC                 31-JAN-02 03:46     PGM / RUN BY / DATE
Rinex conversion                                            COMMENT
BIT 2 OF LLI (+4) FLAGS DATA COLLECTED UNDER "AS" CONDITION COMMENT
BELL                                                        MARKER NAME
13431M001                                                   MARKER NUMBER
ICC                 ICC                                     OBSERVER / AGENCY
18091               TRIMBLE 4000SSI      7.29 / 3.07        REC # / TYPE / VERS
0220080346          TRM29659.00                             ANT # / TYPE
  4775849.6200   116814.1000  4213018.7100                  APPROX POSITION XYZ
        0.0540        0.0000        0.0000                  ANTENNA: DELTA H/E/N
     1     1                                                WAVELENGTH FACT L1/2
     5    C1    L1    L2    P2    P1                        # / TYPES OF OBSERV
    30                                                      INTERVAL
  2002     1    30     0     0    0.000000                  TIME OF FIRST OBS
                                                            END OF HEADER
 02  1 30  0  0  0.0000000  0  7 07 04 27 20 01 24 13
  24111321.349     8313863.354 5   5566499.27045  24111332.8234
  20990842.688   -24616122.248 8 -10318261.73447  20990847.9034
  23330162.173    -6127529.564 6  -4588767.68946  23330168.3354
  22893718.283   -16289473.861 6 -12558085.09446  22893724.4604
  21372448.483   -13284821.249 8 -10192060.75547  21372454.2524
  23521288.725    -9895585.518 6  -7512983.92046  23521294.3654
  20476060.808   -23660439.657 8 -18205317.73947  20476064.5984
 02  1 30  0  0 30.0000000  0  7 07 04 27 20 01 24 13
  24125796.575     8389930.673 5   5625772.34045  24125806.3514
  20984658.329   -24648621.204 8 -10343585.58647  20984663.6494
  23311848.422    -6223768.874 6  -4663759.27746  23311854.6764
  22906322.060   -16223240.266 6 -12506474.57846  22906327.9154
  21382095.501   -13234125.853 8 -10152557.85847  21382101.4074
  23503124.550    -9991038.611 6  -7587362.92846  23503130.8774
  20473970.994   -23671421.433 8 -18213874.95647  20473974.5634
 02  1 30  0  1  0.0000000  0  7 07 04 27 20 01 24 13
  24140294.675     8466117.337 4   5685138.30445  24140305.3024
  20978573.129   -24680599.187 6 -10368503.50147  20978577.8674
  23293573.024    -6319806.742 6  -4738593.93646  23293579.8194
  22918960.948   -16156822.701 6 -12454720.67946  22918967.1804
  21391800.334   -13183126.444 8 -10112818.03647  21391805.7614
  23485004.946   -10086257.435 6  -7661559.37646  23485010.5424
  20471968.210   -23681946.103 8 -18222075.98447  20471971.8104
 02  1 30  0  1 30.0000000  0  7 07 04 27 20 01 24 13
  24154814.519     8542418.349 5   5744593.49945  24154825.1134
  20972587.012   -24712056.536 6 -10393015.71647  20972591.8364
  23275336.092    -6415642.424 6  -4813271.02746  23275343.1184
  22931634.547   -16090223.013 6 -12402824.84146  22931640.0444
  21401562.339   -13131826.623 8 -10072844.17247  21401568.4114
  23466930.022   -10181241.358 6  -7735572.79346  23466937.5384
  20470051.878   -23692016.563 8 -18229923.08847  20470055.7874
 02  1 30  0  2  0.0000000  0  7 07 04 27 20 01 24 13
  24169355.797     8618832.862 5   5804137.09145  24169368.9404
  20966700.616   -24742989.936 6 -10417119.66447  20966705.6044
  23257138.431    -6511271.271 6  -4887786.93846  23257144.8234
  22944343.059   -16023439.789 6 -12350785.98346  22944349.5024
  21411381.586   -13080226.206 7 -10032636.04747  21411386.8454
  23448900.846   -10275985.102 6  -7809399.03346  23448907.5464
  20468222.182   -23701631.712 8 -18237415.39647  20468225.8064
 02  1 30  0  2 30.0000000  0  7 07 04 27 20 01 24 13
  24183917.900     8695356.485 4   5863765.60545  24183927.2944
  20960913.908   -24773399.543 6 -10440815.46547  20960918.9894
  23238980.328    -6606692.543 6  -4962141.12846  23238987.0214
  22957086.139   -15956474.841 6 -12298605.53246  22957092.9164
  21421257.423   -13028328.572 8  -9992196.34347  21421262.9124
  23430917.548   -10370488.115 6  -7883037.71946  23430923.2414
  20466478.662   -23710793.849 8 -18244554.71447  20466482.4524
 02  1 30  0  3  0.0000000  0  7 07 04 27 20 01 24 13
  24198499.643     8771983.402 5   5923474.74845  24198511.8934
  20955226.539   -24803286.924 8 -10464104.32547  20955231.7384
  23220861.696    -6701906.412 6  -5036333.69046  23220867.8664
  22969863.231   -15889331.054 6 -12246285.74346  22969868.8364
  21431188.922   -12976138.366 7  -9951528.64947  21431194.4554
  23412979.849   -10464751.160 6  -7956489.39146  23412986.3594
  20464820.701   -23719506.316 8 -18251343.63447  20464824.4934
 02  1 30  0  3 30.0000000  0  7 07 04 27 20 01 24 13
  24213101.561     8848715.850 5   5983265.98745  24213111.3334
  20949639.721   -24832645.544 8 -10486981.15747  20949644.9834
  23202783.981    -6796905.304 6  -5110358.72946  23202790.8234
  22982675.225   -15822003.755 6 -12193822.91746  22982681.3004
  21441176.691   -12923652.589 8  -9910630.64947  21441182.0774
  23395089.232   -10558766.523 6  -8029748.08346  23395095.8414
  20463249.049   -23727765.285 8 -18257779.17547  20463252.7764
 02  1 30  0  4  0.0000000  0  7 07 04 27 20 01 24 13
  24227721.793     8925545.476 5   6043133.06545  24227733.9064
  20944152.784   -24861479.240 8 -10509448.96547  20944158.2134
  23184746.612    -6891691.947 6  -5184218.35946  23184752.7954
  22995521.072   -15754498.552 6 -12141221.55446  22995527.7234
  21451219.316   -12870878.338 8  -9869507.84847  21451224.5654
  23377245.388   -10652536.448 6  -8102815.54846  23377252.2104
  20461762.510   -23735576.862 8 -18263866.10847  20461766.2424
 02  1 30  0  4 30.0000000  0  7 07 04 27 20 01 24 13
  24242361.092     9002475.049 4   6103077.92445  24242372.3694
  20938767.097   -24889781.149 8 -10531502.39147  20938772.6054
  23166751.129    -6986258.303 6  -5257906.38846  23166758.1604
  23008401.770   -15686810.152 6 -12088477.35746  23008408.7454
  21461317.539   -12817811.844 8  -9828157.33647  21461323.9554
  23359449.809   -10746052.897 6  -8175685.50646  23359456.6264
  20460361.972   -23742936.469 8 -18269600.86147  20460365.9714
 02  1 30  0  5  0.0000000  0  7 07 04 27 20 01 24 13
  24257019.279     9079502.667 5   6163099.19145  24257029.3754
  20933483.071   -24917549.041 7 -10553139.70947  20933487.9794
  23148798.236    -7080600.967 6  -5331420.09646  23148804.6334
  23021317.495   -15618937.751 6 -12035589.82846  23021323.8354
  21471471.218   -12764453.975 8  -9786579.76847  21471476.5124
  23341703.095   -10839312.621 6  -8248355.37446  23341709.5314
  20459047.511   -23749843.824 8 -18274983.18647  20459051.8494
 02  1 30  0  5 30.0000000  0  7 07 04 27 20 01 24 13
  24271694.113     9156618.134 5   6223188.90645  24271704.7344
  20928299.505   -24944788.992 7 -10574365.64747  20928304.5654
  23130886.960    -7174724.862 6  -5404763.31146  23130893.8774
  23034266.736   -15550888.956 6 -11982564.83246  23034273.4034
  21481678.584   -12710813.943 8  -9744782.33847  21481684.4914
  23324004.289   -10932320.768 6  -8320829.23446  23324010.6864
  20457817.584   -23756307.285 8 -18280019.64347  20457821.0244
 02  1 30  0  6  0.0000000  0  7 07 04 27 20 01 24 13
  24286385.784     9233822.218 5   6283347.68445  24286394.6744
  20923217.366   -24971495.761 8 -10595176.12847  20923222.8444
  23113018.583    -7268623.503 6  -5477931.02946  23113025.4344
  23047250.233   -15482660.058 6 -11929399.51246  23047257.0494
  21491940.005   -12656889.747 8  -9702763.48047  21491945.5184
  23306354.567   -11025070.864 6  -8393102.01746  23306361.9144
  20456672.787   -23762323.529 8 -18284707.63847  20456676.2104
 02  1 30  0  6 30.0000000  0  7 07 04 27 20 01 24 13
  24301092.458     9311105.230 5   6343568.00445  24301100.5774
  20918235.592   -24997675.080 8 -10615575.59647  20918241.2274
  23095192.255    -7362301.446 6  -5550926.76146  23095199.4774
  23060266.649   -15414258.359 6 -11876099.52946  23060273.8724
  21502253.836   -12602690.121 8  -9660530.00147  21502259.7004
  23288753.117   -11117567.145 6  -8465177.01246  23288759.6664
  20455611.572   -23767900.176 8 -18289053.06147  20455615.6144
 02  1 30  0  7  0.0000000  0  7 07 04 27 20 01 24 13
  24315814.433     9388468.525 5   6403850.73045  24315828.6394
  20913355.201   -25023321.642 7 -10635559.92047  20913360.1664
  23077409.142    -7455752.080 6  -5623745.37246  23077416.5414
  23073316.695   -15345679.832 6 -11822661.74246  23073322.7184
  21512620.510   -12548212.759 8  -9618080.10747  21512625.2154
  23271201.248   -11209802.685 6  -8537048.83646  23271208.3454
  20454634.441   -23773034.739 8 -18293053.99447  20454638.4474
 02  1 30  0  7 30.0000000  0  7 07 04 27 20 01 24 13
  24330551.241     9465909.798 4   6464194.28145  24330562.8524
  20908576.549   -25048433.590 7 -10655127.65647  20908581.5544
  23059669.838    -7548972.364 6  -5696384.49346  23059676.9164
  23086400.399   -15276924.434 6 -11769086.16146  23086407.3924
  21523039.757   -12493459.120 8  -9575414.91847  21523045.5044
  23253699.504   -11301774.842 6  -8608715.44446  23253706.7014
  20453741.480   -23777727.323 8 -18296710.53647  20453745.0254
 02  1 30  0  8  0.0000000  0  7 07 04 27 20 01 24 13
  24345302.611     9543428.178 5   6524597.98445  24345314.9114
  20903900.286   -25073007.364 8 -10674276.05647  20903905.7084
  23041975.312    -7641957.433 6  -5768840.32446  23041981.9744
  23099518.234   -15207989.997 6 -11715371.08446  23099524.5514
  21533511.696   -12438428.533 8  -9532533.95247  21533517.4584
  23236248.874   -11393478.329 6  -8680172.70046  23236255.7634
  20452932.902   -23781976.621 8 -18300021.68147  20452936.8524
 02  1 30  0  8 30.0000000  0  7 07 04 27 20 01 24 13
  24360069.076     9621025.780 5   6585063.36945  24360079.1334
  20899327.559   -25097037.120 8 -10693000.54447  20899333.3804
  23024326.944    -7734700.109 6  -5841107.27946  23024333.9654
  23112671.059   -15138871.972 6 -11661512.92346  23112676.9684
  21544036.916   -12383118.068 8  -9489434.88447  21544043.1284
  23218850.678   -11484906.074 6  -8751415.03446  23218857.8014
  20452209.373   -23785778.795 8 -18302984.40247  20452213.1404
 02  1 30  0  9  0.0000000  0  7 07 04 27 20 01 24 13
  24374848.020     9698688.888 5   6645579.75845  24374859.8154
  20894856.566   -25120532.506 7 -10711308.64047  20894862.2444
  23006723.106    -7827208.790 6  -5913191.90746  23006729.6274
  23125856.632   -15069581.466 6 -11607520.36046  23125862.6234
  21554613.011   -12327540.191 8  -9446127.47347  21554618.6524
  23201503.480   -11576066.133 6  -8822448.82746  23201510.3954
  20451568.704   -23789145.407 8 -18305607.72947  20451572.2914
 02  1 30  0  9 30.0000000  0  7 07 04 27 20 01 24 13
  24389639.519     9776418.227 3   6706147.75945  24389651.3224
  20890488.179   -25143488.688 7 -10729196.57147  20890493.6774
  22989164.955    -7919477.388 6  -5985089.43146  22989170.8404
  23139075.626   -15000114.950 6 -11553390.67846  23139081.9124
  21565240.314   -12271693.294 8  -9402610.41147  21565247.0204
  23184208.395   -11666952.371 6  -8893269.25946  23184215.0204
  20451011.463   -23792073.807 8 -18307889.58647  20451015.2814
 02  1 30  0 10  0.0000000  0  7 07 04 27 20 01 24 13
  24404444.161     9854216.345 4   6766769.38245  24404457.2964
  20886223.637   -25165898.903 8 -10746659.06747  20886228.6424
  22971653.977    -8011497.995 6  -6056793.77546  22971659.8984
  23152329.145   -14930467.480 6 -11499119.96746  23152335.7024
  21575919.527   -12215573.781 8  -9358880.92947  21575925.4074
  23166966.819   -11757557.190 6  -8963870.37046  23166973.1244
  20450538.415   -23794559.848 8 -18309826.75947  20450542.0844
 02  1 30  0 10 30.0000000  0  7 07 04 27 20 01 24 13
  24419259.808     9932071.312 5   6827435.25745  24419267.6244
  20882061.397   -25187771.393 8 -10763702.57347  20882066.9894
  22954188.898    -8103277.420 6  -6128310.16346  22954195.3134
  23165615.339   -14860648.428 6 -11444715.54446  23165621.8684
  21586648.493   -12159192.693 8  -9314947.60347  21586653.7284
  23149777.585   -11847887.169 6  -9034257.34746  23149783.4334
  20450147.652   -23796613.295 8 -18311426.84947  20450151.0194
 02  1 30  0 11  0.0000000  0  7 07 04 27 20 01 24 13
  24434085.831    10009980.712 4   6888143.50045  24434096.4974
  20878001.807   -25209104.616 8 -10780325.86647  20878007.4634
  22936770.278    -8194812.559 6  -6199636.18946  22936776.7334
  23178934.250   -14790657.432 6 -11390177.18446  23178941.1234
  21597427.052   -12102551.181 8  -9270811.37547  21597432.3254
  23132641.111   -11937939.285 6  -9104427.83646  23132648.4654
  20449839.082   -23798234.765 8 -18312690.33247  20449842.7534
 02  1 30  0 11 30.0000000  0  7 07 04 27 20 01 24 13
  24448921.196    10087939.808 4   6948890.57145  24448933.4174
  20874044.706   -25229899.410 8 -10796529.61147  20874049.9224
  22919398.277    -8286102.854 6  -6270771.42746  22919404.4554
  23192285.495   -14720496.772 6 -11335506.58146  23192291.7224
  21608254.417   -12045653.080 8  -9226475.19647  21608259.5244
  23115557.671   -12027712.768 6  -9174381.16946  23115564.8164
  20449612.135   -23799427.370 8 -18313619.62247  20449615.7044
 02  1 30  0 12  0.0000000  0  7 07 04 27 20 01 24 13
  24463766.595    10165950.924 4   7009678.06445  24463777.1914
  20870191.291   -25250149.384 7 -10812308.81747  20870196.0984
  22902074.264    -8377140.762 6  -6341710.01246  22902080.8734
  23205669.977   -14650161.625 6 -11280700.01046  23205674.6564
  21619131.254   -11988494.998 8  -9181936.44147  21619136.9794
  23098528.847   -12117200.015 6  -9244111.48246  23098535.9784
  20449467.689   -23800186.393 8 -18314211.07147  20449471.1024
 02  1 30  0 12 30.0000000  0  7 07 04 27 20 01 24 13
  24478621.950    10244015.475 3   7070507.21345  24478634.2294
  20866442.541   -25269849.320 8 -10827659.42247  20866447.7674
  22884799.585    -8467919.509 6  -6412446.66446  22884806.7784
  23219088.374   -14579648.019 6 -11225754.38546  23219093.7814
  21630058.075   -11931074.264 8  -9137193.01547  21630062.7214
  23081555.848   -12206393.959 6  -9313613.22046  23081562.3244
  20449406.227   -23800509.297 8 -18314462.67047  20449410.2044
 02  1 30  0 13  0.0000000  0  7 07 04 27 20 01 24 13
  24493486.306    10322128.519 2   7131374.29845  24493499.1754
  20862798.258   -25289000.212 7 -10842582.19347  20862803.3064
  22867574.353    -8558438.821 6  -6482981.16546  22867581.7794
  23232540.222   -14508958.225 6 -11170671.46846  23232546.6634
  21641034.126   -11873394.947 8  -9092248.09347  21641039.0784
  23064638.831   -12295293.873 7  -9382885.83646  23064644.6394
  20449427.210   -23800398.974 8 -18314376.69047  20449430.5924
 02  1 30  0 13 30.0000000  0  7 07 04 27 20 01 24 13
  24508358.404    10400280.563 3   7192271.51545  24508369.5724
  20859257.367   -25307607.704 8 -10857081.53647  20859262.5644
  22850397.679    -8648703.008 7  -6553316.83546  22850404.9164
  23246024.239   -14438099.248 6 -11115456.76146  23246029.6734
  21652057.735   -11815465.561 8  -9047108.30947  21652062.8664
  23047776.821   -12383904.501 6  -9451933.05046  23047783.5344
  20449529.243   -23799862.760 8 -18313958.85947  20449532.4034
 02  1 30  0 14  0.0000000  0  7 07 04 27 20 01 24 13
  24523238.147    10478472.578 3   7253199.99645  24523250.6194
  20855820.793   -25325667.046 6 -10871153.75147  20855825.7534
  22833270.703    -8738705.744 6  -6623448.77446  22833277.3334
  23259541.157   -14367067.349 6 -11060107.24046  23259546.7924
  21663129.342   -11757283.892 8  -9001771.94447  21663134.6514
  23030971.028   -12472219.215 6  -9520749.69146  23030977.2224
  20449712.809   -23798898.162 8 -18313207.20547  20449716.5914
 02  1 30  0 14 30.0000000  0  7 07 04 27 20 01 24 13
  24538125.334    10556703.779 3   7314158.97445  24538137.9524
  20852489.076   -25343175.438 7 -10884796.66147  20852494.0344
  22816194.311    -8828442.640 6  -6693373.59046  22816201.2334
  23273091.234   -14295860.976 6 -11004621.80246  23273097.3894
  21674248.952   -11698850.080 8  -8956239.11747  21674254.3984
  23014222.399   -12560233.748 6  -9589332.45246  23014228.2284
  20449978.056   -23797504.433 8 -18312121.20147  20449981.2064
 02  1 30  0 15  0.0000000  0  7 07 04 27 20 01 24 13
  24553019.785    10634973.152 3   7375147.69245  24553034.9074
  20849262.775   -25360129.933 8 -10898007.95847  20849267.9494
  22799169.330    -8917909.349 6  -6763087.86346  22799175.5244
  23286674.866   -14224478.391 6 -10948999.06246  23286681.7394
  21685416.564   -11640163.768 8  -8910509.50746  21685422.2784
  22997531.771   -12647943.319 6  -9657677.55246  22997537.2444
  20450325.121   -23795680.592 8 -18310700.02147  20450328.2954
 02  1 30  0 15 30.0000000  0  7 07 04 27 20 01 24 13
  24567920.179    10713273.814 3   7436160.87645  24567934.2944
  20846141.266   -25376533.658 8 -10910790.08647  20846146.4564
  22782195.329    -9007107.696 6  -6832593.02246  22782201.5754
  23300291.202   -14152924.270 6 -10893242.63646  23300297.7584
  21696631.055   -11581230.934 7  -8864587.83346  21696636.7484
  22980898.863   -12735349.533 6  -9725786.28046  22980904.8524
  20450753.015   -23793431.803 8 -18308947.71747  20450756.6194
 02  1 30  0 16  0.0000000  0  7 07 04 27 20 01 24 13
  24582825.575    10791600.664 4   7497194.29945  24582837.6364
  20843124.275   -25392387.940 8 -10923144.06447  20843129.5654
  22765272.546    -9096037.224 6  -6901888.71946  22765279.3534
  23313939.737   -14081200.882 6 -10837354.30346  23313945.6134
  21707891.718   -11522055.451 8  -8818477.06246  21707897.9024
  22964323.840   -12822451.946 7  -9793658.26546  22964330.2064
  20451261.211   -23790761.129 8 -18306866.66147  20451264.7274
 02  1 30  0 16 30.0000000  0  7 07 04 27 20 01 24 13
  24597736.673    10869957.160 4   7558250.95045  24597749.1764
  20840213.155   -25407685.836 8 -10935064.50147  20840218.5774
  22748402.501    -9184689.605 6  -6970968.46146  22748409.5814
  23327621.582   -14009302.486 6 -10781329.60046  23327627.6624
  21719199.385   -11462633.143 8  -8772173.96646  21719204.6474
  22947808.273   -12909242.045 7  -9861286.88546  22947813.8474
  20451850.617   -23787663.898 8 -18304453.22047  20451853.8544
 02  1 30  0 17  0.0000000  0  7 07 04 27 20 01 24 13
  24612652.710    10948339.728 3   7619327.83245  24612667.4934
  20837407.994   -25422427.042 6 -10946551.15847  20837412.8424
  22731585.598    -9273063.078 7  -7039830.86546  22731592.8704
  23341336.567   -13937229.876 5 -10725169.16345  23341343.4094
  21730553.591   -11402966.380 7  -8725680.41146  21730559.3974
  22931352.430   -12995717.899 6  -9928670.64346  22931359.1584
  20452520.846   -23784141.817 8 -18301708.73547  20452524.2394
 02  1 30  0 17 30.0000000  0  7 07 04 27 20 01 24 13
  24627572.098    11026740.117 3   7680418.70845  24627582.3524
  20834707.903   -25436616.291 6 -10957607.73647  20834712.9534
  22714821.099    -9361160.982 7  -7108478.50846  22714827.9244
  23355083.582   -13864989.157 6 -10668877.74145  23355089.9634
  21741952.933   -11343062.500 8  -8679002.05946  21741958.1344
  22914955.787   -13081882.550 6  -9995811.88146  22914963.4284
  20453270.599   -23780201.667 8 -18298638.48447  20453274.4054
 02  1 30  0 18  0.0000000  0  7 07 04 27 20 01 24 13
  24642494.691    11105157.033 4   7741522.35145  24642505.4544
  20832113.276   -25450251.224 7 -10968232.35447  20832118.5164
  22698109.760    -9448979.457 6  -7176908.44546  22698115.9394
  23368862.954   -13792578.761 6 -10612454.10546  23368869.2814
  21753397.386   -11282921.630 8  -8632139.06046  21753402.9314
  22898619.250   -13167731.670 7 -10062707.27346  22898625.8774
  20454100.074   -23775842.643 8 -18295241.82947  20454103.3594
 02  1 30  0 18 30.0000000  0  7 07 04 27 20 01 24 13
  24657421.363    11183595.569 4   7802642.87445  24657441.3434
  20829625.776   -25463322.964 7 -10978418.11947  20829630.7474
  22681453.614    -9536507.981 7  -7245112.43146  22681459.5734
  23382676.019   -13719991.034 6 -10555892.25046  23382681.5154
  21764888.149   -11222537.473 8  -8585086.47946  21764893.7334
  22882344.758   -13253254.953 7 -10129348.79946  22882350.0334
  20455010.707   -23771057.342 8 -18291513.01647  20455014.2494
 02  1 30  0 19  0.0000000  0  7 07 04 27 20 01 24 13
  24672350.536    11262047.333 3   7863773.62045  24672367.8604
  20827244.484   -25475836.536 8 -10988168.94647  20827249.9284
  22664851.906    -9623749.992 6  -7313093.18246  22664857.9834
  23396521.555   -13647232.330 6 -10499197.23446  23396527.5304
  21776423.730   -11161917.801 8  -8537850.37946  21776429.6084
  22866131.632   -13338455.502 6 -10195738.81846  22866138.1564
  20456000.857   -23765853.982 8 -18287458.43747  20456004.7794
 02  1 30  0 19 30.0000000  0  7 07 04 27 20 01 24 13
  24687280.663    11340503.636 4   7924908.02945  24687294.0054
  20824968.466   -25487797.102 8 -10997488.87047  20824974.2614
  22648304.071    -9710709.028 6  -7380853.42146  22648310.1754
  23410398.490   -13574308.621 6 -10442373.59746  23410403.9654
  21788002.726   -11101069.992 7  -8490436.51746  21788008.6824
  22849979.223   -13423336.775 6 -10261880.04446  22849984.9994
  20457069.325   -23760238.999 8 -18283083.11347  20457073.2124
 02  1 30  0 20  0.0000000  0  7 07 04 27 20 01 24 13
  24702213.795    11418975.095 2   7986054.12045  24702227.1644
  20822800.380   -25499190.634 7 -11006366.95747  20822805.5604
  22631813.131    -9797369.329 7  -7448380.87046  22631818.9404
  23424309.252   -13501206.851 5 -10385411.25145  23424315.3704
  21799627.301   -11039982.562 8  -8442835.94046  21799632.4774
  22833890.658   -13507882.568 6 -10327759.87646  22833896.2774
  20458218.488   -23754200.039 8 -18278377.42647  20458222.0884
 02  1 30  0 20 30.0000000  0  7 07 04 27 20 01 24 13
  24717146.615    11497446.192 3   8047199.92745  24717159.4104
  20820737.963   -25510028.908 7 -11014812.38547  20820743.2454
  22615377.081    -9883741.237 6  -7515683.61446  22615383.7464
  23438251.440   -13427940.058 5 -10328320.29145  23438258.0964
  21811294.741   -10978669.936 8  -8395059.85246  21811300.7044
  22817863.867   -13592103.678 6 -10393386.70646  22817869.8284
  20459445.653   -23747751.107 8 -18273352.26647  20459449.4264
 02  1 30  0 21  0.0000000  0  7 07 04 27 20 01 24 13
  24732079.285    11575915.979 4   8108344.83345  24732091.1624
  20818781.645   -25520309.574 7 -11022823.30247  20818786.4954
  22598996.691    -9969820.762 7  -7582758.53446  22599003.2814
  23452225.355   -13354506.787 5 -10271099.62045  23452231.9344
  21823005.039   -10917131.853 8  -8347108.10246  21823009.8974
  22801899.833   -13675995.170 7 -10458756.68846  22801906.0634
  20460750.995   -23740891.300 8 -18268006.95547  20460754.9054
 02  1 30  0 21 30.0000000  0  7 07 04 27 20 01 24 13
  24747012.547    11654388.091 4   8169491.39145  24747024.4344
  20816932.771   -25530025.408 8 -11030394.08347  20816938.0384
  22582673.643   -10055599.040 7  -7649598.72246  22582679.8984
  23466232.204   -13280900.797 6 -10213744.35645  23466238.0714
  21834759.139   -10855363.688 8  -8298977.05546  21834764.3194
  22786000.219   -13759548.193 7 -10523862.89646  22786006.6144
  20462135.514   -23733615.528 8 -18262337.52147  20462139.0924
 02  1 30  0 22  0.0000000  0  7 07 04 27 20 01 24 13
  24761943.172    11732848.746 2   8230629.14245  24761960.2814
  20815189.358   -25539186.858 8 -11037532.86647  20815194.4644
  22566406.211   -10141084.899 7  -7716211.03546  22566412.4404
  23480269.777   -13207133.245 6 -10156263.14745  23480276.8104
  21846554.556   -10793378.271 7  -8250676.74646  21846560.4054
  22770163.380   -13842771.419 6 -10588712.12246  22770169.3474
  20463596.868   -23725936.068 8 -18256353.52447  20463600.4914
 02  1 30  0 22 30.0000000  0  7 07 04 27 20 01 24 13
  24776873.379    11811305.676 2   8291763.70644  24776888.4404
  20813553.562   -25547782.964 8 -11044231.13047  20813558.8124
  22550196.789   -10226265.623 7  -7782585.57346  22550203.3454
  23494339.943   -13133194.305 6 -10098648.46745  23494346.5224
  21858392.966   -10731166.974 8  -8202200.41246  21858398.0684
  22754391.696   -13925651.829 6 -10653294.23446  22754396.9944
  20465136.810   -23717843.580 8 -18250047.69547  20465140.5604
 02  1 30  0 23  0.0000000  0  7 07 04 27 20 01 24 13
  24791800.560    11889747.093 3   8352886.55745  24791819.1034
  20812023.868   -25555821.715 6 -11050495.09647  20812028.7924
  22534044.222   -10311147.683 7  -7848727.38546  22534050.5754
  23508440.893   -13059093.189 6 -10040907.37845  23508447.5234
  21870272.358   -10668740.281 7  -8153556.25346  21870277.7144
  22738684.050   -14008195.955 6 -10717614.30346  22738689.2604
  20466753.369   -23709348.370 8 -18243428.02947  20466757.3584
 02  1 30  0 23 30.0000000  0  7 07 04 27 20 01 24 13
  24806725.291    11968175.098 2   8413998.68045  24806743.3544
  20810601.152   -25563298.095 8 -11056320.85247  20810606.5614
  22517949.847   -10395724.143 6  -7914631.07946  22517956.1084
  23522573.529   -12984825.430 5  -9983036.44645  23522579.7694
  21882193.294   -10606095.253 7  -8104741.94246  21882198.9334
  22723041.803   -14090396.377 6 -10781666.60146  22723048.2734
  20468447.310   -23700446.791 8 -18236491.74747  20468450.9094
 02  1 30  0 24  0.0000000  0  7 07 04 27 20 01 24 13
  24821647.700    12046591.003 3   8475101.45745  24821663.9304
  20809286.336   -25570207.301 8 -11061704.65847  20809292.1694
  22501914.799   -10479988.715 6  -7980291.73446  22501921.1454
  23536738.565   -12910387.402 6  -9925032.79745  23536744.9944
  21894156.222   -10543229.595 8  -8055755.71846  21894161.3284
  22707466.189   -14172246.473 6 -10845445.87046  22707473.6164
  20470219.134   -23691136.012 8 -18229236.60447  20470222.3524
 02  1 30  0 24 30.0000000  0  7 07 04 27 20 01 24 13
  24836565.820    12124984.645 2   8536186.89444  24836585.8814
  20808078.185   -25576556.184 6 -11066651.84547  20808083.5064
  22485938.146   -10563946.523 7  -8045713.35546  22485944.9174
  23550934.565   -12835786.842 5  -9866902.57245  23550940.4344
  21906159.401   -10480152.488 7  -8006604.74546  21906164.5474
  22691956.388   -14253750.996 7 -10908955.86846  22691962.6384
  20472067.223   -23681424.092 8 -18221668.88047  20472071.0714
 02  1 30  0 25  0.0000000  0  7 07 04 27 20 01 24 13
  24851479.659    12203354.519 2   8597253.48643  24851501.3974
  20806977.001   -25582343.136 6 -11071161.16747  20806981.7474
  22470020.497   -10647594.166 7  -8110893.29946  22470026.7624
  23565161.804   -12761022.777 6  -9808644.91445  23565168.9774
  21918202.721   -10416864.465 7  -7957289.41246  21918208.9184
  22676512.980   -14334906.632 6 -10972194.02246  22676518.9404
  20473991.420   -23671312.450 8 -18213789.67447  20473995.0804
 02  1 30  0 25 30.0000000  0  6 04 27 20 01 24 13
  20805983.273   -25587565.266 7 -11075230.35347  20805988.0584
  22454162.784   -10730926.726 7  -8175827.73846  22454169.1754
  23579420.572   -12686093.101 6  -9750258.20345  23579427.5924
  21930286.315   -10353364.675 7  -7907809.03946  21930292.2124
  22661136.907   -14415708.203 6 -11035156.26246  22661143.7434
  20475992.126   -23660798.809 8 -18205597.23647  20475995.7854
 02  1 30  0 26  0.0000000  0  7 04 27 20 01 08 24 13
  20805097.442   -25592220.326 8 -11078857.67647  20805102.8004
  22438365.691   -10813940.722 7  -8240513.90746  22438372.0354
  23593711.025   -12610996.659 6  -9691741.51245  23593716.9464
  21942410.145   -10289653.372 7  -7858163.87646  21942415.8104
  24461144.877      -20109.90315
  22645829.003   -14496151.699 6 -11097839.47946  22645835.4584
  20478069.295   -23649883.042 8 -18197091.40747  20478073.3284
 02  1 30  0 26 30.0000000  0  7 04 27 20 01 08 24 13
  20804319.273   -25596309.582 7 -11082044.11447  20804324.7754
  22422629.364   -10896635.378 7  -8304951.23846  22422635.8584
  23608032.881   -12535735.170 6  -9633096.23645  23608040.4724
  21954573.606   -10225733.762 7  -7808356.40046  21954579.1244
  24438181.192     -140781.893 5
  22630589.442   -14576236.102 7 -11160242.88746  22630595.7714
  20480222.460   -23638567.973 8 -18188274.45547  20480226.4614
 02  1 30  0 27  0.0000000  0  7 04 27 20 01 08 24 13
  20803648.734   -25599833.418 6 -11084789.96747  20803653.6504
  22406954.147   -10979009.017 7  -8369138.42446  22406960.8294
  23622385.870   -12460309.791 5  -9574323.27345  23622392.8054
  21966776.326   -10161608.155 7  -7758388.41746  21966782.3024
  24415220.711     -261438.230 5
  22615418.519   -14655960.009 7 -11222365.39946  22615424.7174
  20482451.345   -23626854.981 8 -18179147.44047  20482454.9984
 02  1 30  0 27 30.0000000  0  7 04 27 20 01 08 24 13
  20803086.661   -25602787.200 7 -11087091.61547  20803091.6294
  22391341.195   -11061055.399 7  -8433070.58946  22391348.2264
  23636770.705   -12384716.934 5  -9515419.79845  23636777.0584
  21979018.705   -10097274.074 7  -7708257.96246  21979023.9944
  24392264.600     -382072.012 5    -65796.06055  24392274.4614
  22600317.497   -14735316.210 7 -11284201.38346  22600323.5314
  20484756.226   -23614742.609 8 -18169709.22947  20484759.9024
 02  1 30  0 28  0.0000000  0  7 04 27 20 01 08 24 13
  20802631.446   -25605179.331 7 -11088955.60247  20802636.4524
  22375789.228   -11142781.398 7  -8496753.13646  22375796.1294
  23651185.630   -12308966.030 5  -9456393.15245  23651191.8324
  21991298.726   -10032742.241 7  -7657973.41246  21991304.0044
  24369311.479     -502689.729 3   -159783.59045  24369320.0824
  22585285.130   -14814311.685 7 -11345756.29346  22585290.9494
  20487135.215   -23602240.772 8 -18159967.53647  20487138.8644
 02  1 30  0 28 30.0000000  0  7 04 27 20 01 08 24 13
  20802283.214   -25607009.255 8 -11090381.52847  20802288.6364
  22360298.766   -11224184.426 7  -8560184.04646  22360304.8964
  23665630.755   -12233056.656 6  -9397243.02445  23665638.1714
  22003616.143    -9968014.043 7  -7607535.86746  22003621.7914
  24346362.258     -623288.334 4   -253756.20545  24346370.3654
  22570321.994   -14892943.241 7 -11407027.62346  22570327.6204
  20489588.339   -23589349.492 8 -18149922.39247  20489591.8224
 02  1 30  0 29  0.0000000  0  7 04 27 20 01 08 24 13
  20802044.192   -25608265.358 8 -11091360.31147  20802049.7124
  22344872.248   -11305251.049 7  -8623352.79246  22344877.5484
  23680108.057   -12156978.084 6  -9337961.12345  23680115.0964
  22015972.721    -9903079.852 7  -7556937.78046  22015978.3804
  24323419.170     -743853.907 4   -347703.15945  24323429.4484
  22555430.765   -14971197.380 7 -11468004.84646  22555436.6954
  20492117.399   -23576059.407 8 -18139566.48447  20492120.8744
 02  1 30  0 29 30.0000000  0  7 04 27 20 01 08 24 13
  20801913.001   -25608954.933 7 -11091897.65447  20801918.5134
  22329508.686   -11385986.614 7  -8686263.61146  22329514.7974
  23694616.134   -12080738.118 5  -9278553.40545  23694621.9994
  22028366.740    -9837948.862 7  -7506186.38846  22028371.7204
  24300481.493     -864391.113 4   -441627.94645  24300487.2584
  22540610.393   -15049079.282 7 -11528692.00046  22540616.5394
  20494720.720   -23562378.966 8 -18128906.38947  20494724.0494
 02  1 30  0 30  0.0000000  0  7 04 27 20 01 08 24 13
  20801888.547   -25609083.592 6 -11091997.91147  20801893.4324
  22314207.429   -11466395.057 7  -8748919.52346  22314213.5394
  23709153.684   -12004343.296 5  -9219025.03745  23709160.2594
  22040796.766    -9772628.732 7  -7455287.60446  22040802.8534
  24277548.582     -984903.481 5   -535533.49645  24277555.3254
  22525860.282   -15126591.956 7 -11589091.48346  22525866.9014
  20497396.791   -23548316.028 8 -18117948.24647  20497400.4644
 02  1 30  0 30 30.0000000  0  7 04 27 20 01 08 24 13
  20801972.773   -25608641.038 6 -11091653.07047  20801977.6464
  22298970.737   -11546464.109 7  -8811310.95846  22298977.5234
  23723722.465   -11927783.864 6  -9159368.32145  23723728.7654
  22053264.340    -9707111.195 7  -7404234.97846  22053269.9074
  24254622.717    -1105378.417 4   -629409.78145  24254627.9814
  22511182.713   -15203723.084 7 -11649193.63046  22511189.2914
  20500147.539   -23533860.872 7 -18106684.49047  20500150.8604
 02  1 30  0 31  0.0000000  0  7 04 27 20 01 08 24 13
  20802165.153   -25607630.015 6 -11090865.27847  20802170.4514
  22283798.549   -11626194.403 7  -8873438.43546  22283805.4354
  23738321.896   -11851063.176 5  -9099585.99845  23738329.3154
  22065768.651    -9641400.702 7  -7353032.02746  22065774.4544
  24231703.999    -1225815.984 4   -723257.04345  24231711.7034
  22496577.536   -15280473.259 6 -11708998.94946  22496584.5394
  20502972.029   -23519018.041 8 -18095118.64747  20502975.8564
 02  1 30  0 31 30.0000000  0  7 04 27 20 01 08 24 13
  20802464.467   -25606057.033 8 -11089639.59647  20802469.9994
  22268689.927   -11705590.794 7  -8935305.72046  22268696.7454
  23752950.597   -11774188.429 5  -9039683.63445  23752956.8524
  22078308.033    -9575505.770 7  -7301685.31946  22078313.4024
  24208791.536    -1346220.562 4   -817078.50945  24208798.0494
  22482044.019   -15356846.943 7 -11768510.91446  22482051.2724
  20505868.448   -23503797.154 8 -18083258.20847  20505872.2034
 02  1 30  0 32  0.0000000  0  7 04 27 20 01 08 24 13
  20802871.721   -25603916.952 6 -11087972.01447  20802877.1364
  22253646.213   -11784646.095 7  -8996907.24846  22253651.9644
  23767609.553   -11697155.095 5  -8979657.67345  23767615.8544
  22090883.106    -9509423.143 7  -7250192.37146  22090889.7244
  24185886.890    -1466584.469 4   -910868.38245  24185895.3974
  22467583.548   -15432836.933 7 -11827723.88646  22467589.8924
  20508837.765   -23488193.415 8 -18071099.46947  20508841.6484
 02  1 30  0 32 30.0000000  0  7 04 27 20 01 08 24 13
  20803387.048   -25601209.026 6 -11085861.94547  20803392.3234
  22238667.872   -11863357.654 7  -9058240.87246  22238673.2194
  23782298.737   -11619962.924 6  -8919507.95545  23782305.8844
  22103493.691    -9443153.835 7  -7198553.98946  22103499.4684
  24162990.495    -1586904.488 4  -1004623.97645  24163002.6634
  22453196.758   -15508439.777 6 -11886635.17046  22453203.2994
  20511879.981   -23472206.387 8 -18058642.03947  20511883.6124
 02  1 30  0 33  0.0000000  0  7 04 27 20 01 08 24 13
  20804010.412   -25597933.240 6 -11083309.38947  20804015.2804
  22223755.340   -11941723.285 7  -9119304.98046  22223761.6534
  23797018.164   -11542612.194 5  -8859234.74645  23797026.1104
  22116139.501    -9376699.469 7  -7146771.37246  22116146.9624
  24140102.857    -1707177.927 3  -1098343.28745  24140113.6094
  22438884.070   -15583653.203 7 -11945243.00146  22438890.0994
  20514994.422   -23455839.747 8 -18045888.79647  20514998.1244
 02  1 30  0 33 30.0000000  0  7 04 27 20 01 08 24 13
  20804742.123   -25594087.882 8 -11080313.01347  20804747.5784
  22208909.312   -12019739.780 7  -9180097.05946  22208915.8164
  23811767.938   -11465102.380 5  -8798837.50345  23811774.0534
  22128820.476    -9310060.488 7  -7094844.91946  22128826.3364
  24117225.043    -1827400.951 5  -1192023.36345  24117231.6974
  22424646.236   -15658473.729 7 -12003544.71846  22424652.1474
  20518181.472   -23439091.753 8 -18032838.41747  20518185.1884
 02  1 30  0 34  0.0000000  0  7 04 27 20 01 08 24 13
  20805582.687   -25589670.784 6 -11076871.13647  20805587.6904
  22194130.545   -12097402.589 7  -9240613.49846  22194136.3194
  23826548.231   -11387431.490 5  -8738314.74945  23826553.7934
  22141536.756    -9243236.028 7  -7042773.92746  22141542.5894
  24094357.630    -1947568.364 4  -1285660.08745  24094368.6094
  22410484.148   -15732896.355 7 -12061536.36546  22410489.9794
  20521441.145   -23421961.946 8 -18019490.50547  20521445.1184
 02  1 30  0 34 30.0000000  0  7 04 27 20 01 08 24 13
  20806531.369   -25584685.612 6 -11072986.59947  20806536.1304
  22179418.758   -12174713.620 7  -9300855.85146  22179425.0554
  23841358.232   -11309603.453 5  -8677669.63745  23841364.7594
  22154287.302    -9176231.684 7  -6990562.75946  22154293.4064
  24071500.823    -2067681.390 5  -1379254.43645  24071510.5044
  22396397.477   -15806922.638 7 -12119219.18046  22396404.1234
  20524772.275   -23404456.662 8 -18005850.01947  20524776.0234
 02  1 30  0 35  0.0000000  0  7 04 27 20 01 08 24 13
  20807588.616   -25579129.733 7 -11068657.34447  20807593.9474
  22164774.817   -12251668.132 7  -9360820.39346  22164781.4354
  23856198.693   -11231616.268 5  -8616900.42545  23856205.7044
  22167072.288    -9109046.342 7  -6938210.56846  22167078.7624
  24048655.237    -2187734.885 4  -1472802.38345  24048664.3754
  22382387.124   -15880547.594 7 -12176589.26646  22382393.2484
  20528175.294   -23386573.627 8 -17991915.18647  20528179.4674
 02  1 30  0 35 30.0000000  0  7 04 27 20 01 08 24 13
  20808754.634   -25573002.173 6 -11063882.60847  20808759.6864
  22150199.226   -12328263.336 7  -9420504.95446  22150205.5684
  23871069.674   -11153469.464 5  -8556006.82645  23871075.2474
  22179891.557    -9041680.825 7  -6885717.95846  22179898.3544
  24025821.740    -2307725.156 3  -1566301.13145  24025829.9564
  22368453.704   -15953768.280 7 -12233644.33346  22368460.3124
  20531650.156   -23368313.073 7 -17977686.17747  20531654.1814
 02  1 30  0 36  0.0000000  0  7 04 27 20 01 08 24 13
  20810029.480   -25566302.892 6 -11058662.40747  20810034.7084
  22135692.405   -12404497.056 8  -9479907.81246  22135697.9154
  23885970.995   -11075163.145 5  -8494988.96545  23885977.7384
  22192744.810    -8974136.598 7  -6833086.11246  22192749.8124
  24003000.767    -2427649.346 3  -1659748.35445  24003007.9544
  22354597.735   -16026581.907 7 -12290382.17846  22354603.3024
  20535196.640   -23349676.335 8 -17963164.02747  20535200.1664
 02  1 30  0 36 30.0000000  0  7 04 27 20 01 08 24 13
  20811410.566   -25559045.399 6 -11053007.22847  20811415.6374
  22121252.208   -12480380.670 7  -9539037.87446  22121258.2374
  23900899.967   -10996711.422 5  -8433857.81045  23900907.2544
  22205629.205    -8906428.790 7  -6780326.79046  22205635.2644
  23980190.436    -2547518.475 5  -1753152.69445  23980196.7694
  22340817.208   -16098999.361 8 -12346811.36246  22340822.3064
  20538811.811   -23330678.334 8 -17948360.37247  20538815.5594
 02  1 30  0 37  0.0000000  0  7 04 27 20 01 08 24 13
  20812899.750   -25551219.781 6 -11046909.36747  20812904.4554
  22106880.907   -12555902.332 7  -9597885.90546  22106888.1224
  23915858.280   -10918104.995 5  -8372606.06445  23915865.1844
  22218546.257    -8838549.240 7  -6727433.63246  22218552.1334
  23957392.857    -2667319.943 5  -1846504.32645  23957398.4744
  22327114.328   -16171008.455 7 -12402922.34146  22327120.3724
  20542497.292   -23311310.941 8 -17933268.90247  20542501.0704
 02  1 30  0 37 30.0000000  0  7 04 27 20 01 08 24 13
  20814497.118   -25542825.754 6 -11040368.57747  20814501.9294
  22092578.998   -12631059.502 7  -9656449.93646  22092585.2304
  23930846.041   -10839343.581 5  -8311233.59645  23930852.6414
  22231495.832    -8770498.819 7  -6674407.34946  22231501.7044
  23934608.691    -2787050.474 3  -1939800.70145  23934619.2354
  22313489.600   -16242606.548 7 -12458713.02846  22313495.2444
  20546252.926   -23291574.965 8 -17917890.21347  20546256.7264
 02  1 30  0 38  0.0000000  0  7 04 27 20 01 08 24 13
  20816202.363   -25533864.683 7 -11033385.92847  20816206.9484
  22078346.506   -12705851.796 7  -9714729.60346  22078352.3344
  23945862.915   -10760429.230 5  -8249742.00145  23945870.3614
  22244477.302    -8702280.852 7  -6621250.50046  22244482.8554
  23911838.381    -2906708.965 3  -2033041.01845  23911849.7994
  22299943.284   -16313792.468 7 -12514182.56146  22299949.0884
  20550078.090   -23271473.494 8 -17902226.71447  20550081.7544
 02  1 30  0 38 30.0000000  0  7 04 27 20 01 08 24 13
  20818016.352   -25524332.054 6 -11025957.91047  20818021.4894
  22064184.696   -12780272.496 8  -9772719.66846  22064189.6204
  23960909.775   -10681357.785 5  -8188127.92345  23960917.5444
  22257491.311    -8633891.903 7  -6567960.42146  22257497.1454
  23889083.036    -3026287.928 3  -2126219.18245  23889085.0834
  22286476.766   -16384559.347 6 -12569325.58646  22286483.5104
  20553973.692   -23251001.970 8 -17886274.87647  20553977.1484
 02  1 30  0 39  0.0000000  0  7 04 27 20 01 08 24 13
  20819936.955   -25514239.301 6 -11018093.44547  20819942.1454
  22050091.764   -12854330.971 7  -9830427.48746  22050097.2514
  23975984.486   -10602140.632 6  -8126400.22545  23975991.5344
  22270535.399    -8565344.869 7  -6514547.17546  22270541.4784
  23866341.038    -3145796.040 2  -2219342.32345  23866349.0934
  22273088.299   -16454916.236 7 -12624149.12146  22273094.8344
  20557937.039   -23230174.433 8 -17870045.61747  20557941.6274
 02  1 30  0 39 30.0000000  0  7 04 27 20 01 08 24 13
  20821965.816   -25503577.642 7 -11009785.67647  20821971.3934
  22036069.880   -12928016.199 7  -9887844.52146  22036075.8874
  23991088.446   -10522769.482 5  -8064552.64545  23991094.3104
  22283610.944    -8496632.570 7  -6461005.10646  22283616.6794
  23843614.641    -3265221.607 1  -2312401.00545  23843622.8194
  22259779.983   -16524851.820 7 -12678644.38446  22259785.5714
  20561969.530   -23208983.453 8 -17853533.14947  20561973.4174
 02  1 30  0 40  0.0000000  0  7 04 27 20 01 08 24 13
  20824102.193   -25492350.894 6 -11001037.55947  20824107.7074
  22022118.730   -13001329.846 7  -9944972.01046  22022124.6214
  24006220.778   -10443248.400 5  -8002588.17945  24006226.9094
  22296716.949    -8427760.080 7  -6407338.25746  22296721.7814
  23820903.919    -3384565.617 1  -2405396.08045  23820920.3984
  22246551.455   -16594367.924 7 -12732812.75746  22246557.2774
  20566070.386   -23187433.127 8 -17836740.69347  20566073.6964
 02  1 30  0 40 30.0000000  0  7 04 27 20 01 08 24 13
  20826346.332   -25480557.999 6 -10991848.30847  20826351.0994
  22008238.860   -13074268.849 7 -10001807.57646  22008244.8894
  24021381.747   -10363576.609 5  -7940506.37945  24021389.3144
  22309853.316    -8358727.820 7  -6353546.86046  22309858.7874
  23798210.056    -3503824.211 1  -2498324.82044  23798212.9834
  22233403.607   -16663460.433 7 -12786651.04346  22233409.9224
  20570239.474   -23165524.435 8 -17819668.98747  20570243.4544
 02  1 30  0 41  0.0000000  0  8 10 04 27 20 01 08 24 13
  25255340.584      -55899.30013
  20828698.334   -25468198.272 8 -10982217.37047  20828703.1944
  21994430.825   -13146830.492 8 -10058349.08946  21994437.0714
  24036571.452   -10283753.697 5  -7878306.79545  24036577.5384
  22323020.024    -8289536.409 7  -6299631.49246  22323025.6134
  23775532.961    -3622993.621 2  -2591184.00145  23775539.6274
  22220337.029   -16732126.205 7 -12840156.83446  22220343.2444
  20574476.772   -23143257.134 8 -17802317.83747  20574480.4884
 02  1 30  0 41 30.0000000  0  8 10 04 27 20 01 08 24 13
  25236559.528     -154568.351 3
  20831157.629   -25455274.453 8 -10972146.85947  20831162.7374
  21980694.474   -13219015.457 8 -10114597.06546  21980701.3454
  24051789.445   -10203782.589 5  -7815991.68545  24051796.3414
  22336216.266    -8220189.759 7  -6245595.14446  22336221.5584
  23752872.804    -3742073.699 3  -2683973.66545  23752883.3454
  22207351.533   -16800365.346 7 -12893330.16346  22207357.2764
  20578781.553   -23120635.409 7 -17784690.52347  20578784.9524
 02  1 30  0 42  0.0000000  0  8 10 04 27 20 01 08 24 13
  25217777.410     -253261.051 3    -61522.45355  25217782.8594
  20833724.175   -25441787.053 7 -10961637.21447  20833729.5974
  21967030.110   -13290822.136 8 -10170550.28746  21967036.4544
  24067035.630   -10123664.218 6  -7753561.82445  24067042.2884
  22349441.638    -8150689.968 7  -6191439.48346  22349447.3064
  23730230.019    -3861062.323 3  -2776691.99345  23730233.2164
  22194447.549   -16868176.188 7 -12946169.79646  22194452.9504
  20583153.388   -23097661.344 8 -17766788.65947  20583157.7244
 02  1 30  0 42 30.0000000  0  8 10 04 27 20 01 08 24 13
  25198991.116     -351979.668 3   -138445.96245  25198997.7714
  20836397.377   -25427739.405 7 -10950691.00647  20836403.2444
  21953437.590   -13362251.306 7 -10226209.34246  21953443.4104
  24082309.339   -10043401.530 6  -7691019.54345  24082315.5324
  22362695.334    -8081041.386 7  -6137167.86846  22362701.2614
  23707605.056    -3979959.504 5  -2869338.99445  23707607.1124
  22181625.041   -16935558.952 7 -12998675.85546  22181630.7534
  20587591.512   -23074338.814 7 -17748615.25247  20587595.2104
 02  1 30  0 43  0.0000000  0  8 10 04 27 20 01 08 24 13
  25180202.470     -450712.366 3   -215380.37245  25180207.5904
  20839179.232   -25413120.821 6 -10939299.90547  20839183.9164
  21939919.310   -13433290.230 8 -10281564.31546  21939925.0224
  24097612.271    -9962984.386 5  -7628356.80645  24097619.1884
  22375979.133    -8011234.516 7  -6082772.94146  22375985.7134
  23684999.444    -4098751.428 4  -2961904.08145  23685004.2634
  22168886.480   -17002500.594 7 -13050838.20246  22168892.6744
  20592097.762   -23050658.413 8 -17730163.01447  20592101.6994
 02  1 30  0 43 30.0000000  0  8 10 04 27 20 01 08 24 13
  25161411.161     -549459.748 4   -292326.33245  25161416.6134
  20842069.464   -25397932.744 6 -10927465.06447  20842074.0584
  21926475.327   -13503938.381 7 -10336614.77846  21926481.1744
  24112944.214    -9882414.374 4  -7565575.03845  24112948.7734
  22389292.574    -7941272.049 7  -6028256.71946  22389298.1124
  23662414.188    -4217436.642 4  -3054386.02645  23662420.9234
  22156232.020   -17069000.228 7 -13102656.10346  22156238.6234
  20596671.583   -23026622.658 8 -17711433.84247  20596676.0824
 02  1 30  0 44  0.0000000  0  8 10 04 27 20 01 08 24 13
  25142615.048     -648231.851 3   -369291.54145  25142623.8434
  20845065.849   -25382186.662 7 -10915195.40647  20845070.9454
  21913103.974   -13574204.943 7 -10391367.91446  21913109.9994
  24128303.130    -9801702.918 5  -7502682.98145  24128311.2514
  22402633.211    -7871166.565 7  -5973629.07846  22402638.9194
  23639847.736    -4336023.553 5  -3146791.31145  23639854.7884
  22143659.990   -17135066.784 7 -13154136.52046  22143666.1344
  20601310.647   -23002244.340 8 -17692437.75547  20601314.5794
 02  1 30  0 44 30.0000000  0  8 10 04 27 20 01 08 24 13
  25123814.992     -747025.411 3   -446273.47445  25123819.8084
  20848168.848   -25365880.181 8 -10902489.06547  20848174.4534
  21899806.171   -13644085.312 7 -10445820.12246  21899812.3244
  24143689.458    -9720847.837 5  -7439679.08145  24143695.2874
  22416001.265    -7800916.856 6  -5918889.08846  22416008.2214
  23617300.968    -4454506.696 5  -3239115.71745  23617307.2504
  22131171.428   -17200694.771 7 -13205275.19146  22131177.2884
  20606015.198   -22977521.672 8 -17673173.34247  20606019.1234
 02  1 30  0 45  0.0000000  0  8 10 04 27 20 01 08 24 13
  25105011.403     -845836.910 3   -523269.41245  25105018.5734
  20851378.975   -25349010.897 6 -10889344.17747  20851384.4574
  21886582.776   -13713574.869 8 -10499967.81046  21886589.0334
  24159103.472    -9639847.012 5  -7376561.60845  24159110.3554
  22429397.046    -7730521.424 7  -5864035.51246  22429404.2554
  23594775.011    -4572880.453 4  -3331354.97145  23594785.0474
  22118767.228   -17265879.406 8 -13256068.40146  22118772.8634
  20610785.500   -22952453.666 7 -17653639.84447  20610789.2814
 02  1 30  0 45 30.0000000  0  8 10 04 27 20 01 08 24 13
  25086204.858     -944664.402 3   -600277.83745  25086208.1834
  20854696.353   -25331578.168 7 -10875760.25847  20854701.6134
  21873434.297   -13782670.638 8 -10553808.62246  21873439.5144
  24174545.383    -9558699.500 5  -7313329.82645  24174553.5874
  22442820.467    -7659980.767 6  -5809068.79646  22442826.4904
  23572270.752    -4691141.252 5  -3423506.15145  23572276.8424
  22106448.014   -17330617.192 7 -13306513.40346  22106454.1394
  20615621.453   -22927040.568 8 -17633837.43547  20615625.5634
 02  1 30  0 46  0.0000000  0  8 10 04 27 20 01 08 24 13
  25067396.564    -1043502.829 5   -677294.70645  25067404.9554
  20858121.714   -25313577.698 7 -10861733.92947  20858126.8224
  21860361.902   -13851366.210 7 -10607337.60446  21860367.6104
  24190015.915    -9477401.173 5  -7249980.54345  24190022.2704
  22456272.113    -7589291.788 7  -5753986.48946  22456278.3444
  23549789.283    -4809281.596 5  -3515563.51145  23549797.7884
  22094215.037   -17394901.553 7 -13356605.09246  22094221.2094
  20620523.670   -22901279.154 8 -17613763.60047  20620527.9244
 02  1 30  0 46 30.0000000  0  8 10 04 27 20 01 08 24 13
  25048585.739    -1142354.881 5   -754322.21645  25048590.0294
  20861654.254   -25295013.737 8 -10847268.51547  20861659.8794
  21847365.293   -13919663.472 7 -10660556.21646  21847371.1904
  24205514.360    -9395956.482 5  -7186517.18145  24205520.5314
  22469751.012    -7518459.746 7  -5698792.70446  22469758.2544
  23527330.672    -4927302.444 5  -3607527.72845  23527337.9844
  22082068.117   -17458733.965 7 -13406344.65546  22082074.0644
  20625491.221   -22875174.498 8 -17593422.31147  20625494.9014
 02  1 30  0 47  0.0000000  0  8 10 04 27 20 01 08 24 13
  25029771.593    -1241224.076 4   -831363.06945  25029777.7934
  20865293.162   -25275891.161 6 -10832367.82747  20865299.2024
  21834444.017   -13987564.978 8 -10713466.43846  21834449.6874
  24221039.776    -9314370.126 5  -7122943.46345  24221044.5004
  22483256.088    -7447490.388 7  -5643491.93246  22483261.1994
  23504894.327    -5045205.586 5  -3699400.18545  23504899.8244
  22070006.740   -17522116.558 7 -13455733.67146  22070012.7644
  20630522.968   -22848732.552 8 -17572818.19447  20630527.1464
 02  1 30  0 47 30.0000000  0  8 10 04 27 20 01 08 24 13
  25010954.091    -1340110.387 4   -908417.25245  25010962.9134
  20869038.208   -25256211.113 6 -10817032.74547  20869043.2584
  21821598.285   -14055069.606 8 -10766067.43547  21821604.2724
  24236591.813    -9232643.328 5  -7059260.22745  24236598.7834
  22496786.910    -7376385.862 7  -5588085.83946  22496791.7154
  23482480.833    -5162988.747 5  -3791179.22045  23482487.6954
  22058031.280   -17585047.797 7 -13504770.99346  22058037.1154
  20635618.532   -22821955.154 6 -17551952.69447  20635622.0244
 02  1 30  0 48  0.0000000  0  8 10 04 27 20 01 08 24 13
  24992135.340    -1439003.518 5   -985476.73945  24992141.0764
  20872891.020   -25235964.593 6 -10801256.24947  20872896.0784
  21808830.216   -14122166.214 8 -10818350.48547  21808836.7214
  24252172.338    -9150767.139 5  -6995460.64245  24252178.3914
  22510344.940    -7305138.070 7  -5532568.06246  22510350.4124
  23460092.514    -5280639.528 4  -3882855.08645  23460099.7424
  22046143.913   -17647516.084 7 -13553447.59546  22046150.7464
  20640779.462   -22794834.473 7 -17530819.70447  20640782.4294
 02  1 30  0 48 30.0000000  0  8 10 04 27 20 01 08 24 13
  24973314.505    -1537907.559 5  -1062544.81245  24973323.2694
  20876850.518   -25215157.267 6 -10785042.75747  20876855.8084
  21796139.185   -14188858.051 8 -10870318.11547  21796144.8754
  24267780.325    -9068746.962 5  -6931548.88245  24267786.5584
  22523929.035    -7233753.325 7  -5476943.62446  22523933.6664
  23437728.897    -5398160.782 5  -3974430.01645  23437736.7074
  22034344.198   -17709523.931 7 -13601765.39346  22034350.4024
  20646004.478   -22767376.778 7 -17509424.08947  20646007.7104
 02  1 30  0 49  0.0000000  0  8 10 04 27 20 01 08 24 13
  24954491.051    -1636825.201 5  -1139623.42945  24954500.2014
  20880915.951   -25193793.367 7 -10768395.57847  20880921.4234
  21783524.760   -14255147.227 8 -10921971.97947  21783530.3744
  24283414.826    -8986587.101 5  -6867528.23145  24283421.9394
  22537538.144    -7162237.076 7  -5421216.66746  22537543.6884
  23415389.807    -5515553.077 5  -4065904.50145  23415397.4104
  22022631.754   -17771073.316 7 -13649725.95346  22022638.1174
  20651292.648   -22739587.334 7 -17487769.99147  20651295.6814
 02  1 30  0 49 30.0000000  0  8 10 04 27 20 01 08 24 13
  24935665.765    -1735751.815 4  -1216708.90645  24935671.1324
  20885088.017   -25171869.174 6 -10751311.84147  20885093.5744
  21770988.104   -14321027.696 8 -10973307.37547  21770994.0124
  24299076.679    -8904283.730 5  -6803395.83145  24299083.9314
  22551172.825    -7090586.356 6  -5365384.96946  22551178.3324
  23393076.601    -5632809.717 5  -4157273.23045  23393082.6954
  22011007.823   -17832157.623 7 -13697324.10046  22011014.5774
  20656644.436   -22711463.405 8 -17465855.21847  20656648.2224
 02  1 30  0 50  0.0000000  0  8 10 04 27 20 01 08 24 13
  24916839.513    -1834683.265 4  -1293798.36445  24916847.1444
  20889367.185   -25149382.178 6 -10733789.52647  20889372.5654
  21758530.146   -14386494.506 7 -11024320.43647  21758535.7854
  24314766.364    -8821834.160 5  -6739149.41445  24314772.7324
  22564833.428    -7018799.312 7  -5309447.02046  22564838.4754
  23370790.371    -5749924.438 5  -4248531.38845  23370796.9804
  21999473.424   -17892771.452 7 -13744555.64546  21999479.2004
  20662060.260   -22683003.018 7 -17443678.29147  20662063.8344
 02  1 30  0 50 30.0000000  0  8 10 04 27 20 01 08 24 13
  24898010.968    -1933627.989 5  -1370898.09645  24898019.7364
  20893751.540   -25126342.398 6 -10715836.46947  20893756.5374
  21746149.400   -14451555.376 7 -11075017.17847  21746155.6684
  24330481.876    -8739248.137 5  -6674796.69445  24330488.4974
  22578517.935    -6946886.748 6  -5253411.26546  22578524.1724
  23348529.801    -5866904.082 5  -4339684.29245  23348537.7124
  21988027.098   -17952922.317 7 -13791426.44446  21988033.4434
  20667537.987   -22654217.182 8 -17421247.78447  20667541.8994
 02  1 30  0 51  0.0000000  0  8 10 04 27 20 01 08 24 13
  24879181.852    -2032575.873 4  -1448000.22945  24879190.2544
  20898242.724   -25102741.200 6 -10697445.94447  20898247.8324
  21733848.041   -14516199.264 7 -11125389.01347  21733854.2534
  24346225.023    -8656516.912 5  -6610330.84045  24346232.6144
  22592227.860    -6874840.689 7  -5197271.52046  22592232.6624
  23326297.340    -5983736.442 5  -4430722.42545  23326304.7494
  21976671.074   -18012598.620 7 -13837927.44046  21976677.3304
  20673079.208   -22625097.815 8 -17398557.38047  20673083.3764
 02  1 30  0 51 30.0000000  0  8 10 04 27 20 01 08 24 13
  24860350.566    -2131535.366 5  -1525111.47745  24860355.4464
  20902838.815   -25078588.615 7 -10678625.76647  20902843.9184
  21721624.588   -14580433.955 8 -11175441.99547  21721630.6164
  24361993.890    -8573650.698 5  -6545759.82945  24361999.1244
  22605961.108    -6802671.998 6  -5141036.16046  22605966.1564
  23304091.501    -6100428.492 5  -4521651.23245  23304098.5524
  21965403.918   -18071808.038 8 -13884064.62646  21965409.6354
  20678681.795   -22595655.897 8 -17375615.62647  20678686.1164
 02  1 30  0 52  0.0000000  0  8 10 04 27 20 01 08 24 13
  24841517.727    -2230502.294 4  -1602228.51345  24841521.3924
  20907540.321   -25053882.065 7 -10659373.93147  20907545.7214
  21709479.992   -14644254.357 8 -11225172.14447  21709485.7414
  24377789.183    -8490646.576 5  -6481081.36045  24377795.8304
  22619718.107    -6730378.452 6  -5084703.55846  22619723.3404
  23281913.732    -6216973.615 6  -4612465.53245  23281919.1754
  21954226.716   -18130544.568 7 -13929833.31346  21954232.3524
  20684346.220   -22565889.217 6 -17352420.81347  20684349.9074
 02  1 30  0 52 30.0000000  0  8 10 04 27 20 01 08 24 13
  24822684.338    -2329472.066 5  -1679347.61545  24822689.3614
  20912347.900   -25028618.216 6 -10639687.84647  20912353.2924
  21697415.267   -14707655.019 8 -11274575.22947  21697420.7814
  24393611.397    -8407501.086 5  -6416292.65545  24393617.2944
  22633499.282    -6657957.907 6  -5028271.96346  22633505.4124
  23259765.023    -6333365.666 6  -4703160.56645  23259769.0714
  21943140.606   -18188802.541 7 -13975229.10546  21943146.8174
  20690072.840   -22535795.751 8 -17328971.34847  20690076.5714
 02  1 30  0 53  0.0000000  0  8 10 04 27 20 01 08 24 13
  24803849.666    -2428447.982 3  -1756471.65145  24803861.8034
  20917260.576   -25002801.922 6 -10619571.27847  20917265.7034
  21685429.903   -14770638.365 8 -11323653.13747  21685436.0384
  24409459.675    -8324218.799 5  -6351397.41345  24409464.0864
  22647303.589    -6585415.697 6  -4971745.59646  22647309.4414
  23237645.140    -6449605.844 5  -4793737.25745  23237652.2844
  21932145.171   -18246583.750 7 -14020253.41646  21932150.8904
  20695860.652   -22505380.782 6 -17305271.37447  20695863.8334
 02  1 30  0 53 30.0000000  0  8 10 04 27 20 01 08 24 13
  24785014.734    -2527426.174 4  -1833597.44945  24785020.0034
  20922278.721   -24976431.237 7 -10599022.72247  20922284.5754
  21673524.767   -14833199.973 8 -11372402.40947  21673531.1584
  24425334.339    -8240797.432 5  -6286393.77345  24425340.2054
  22661131.392    -6512750.384 6  -4915123.30146  22661137.6364
  23215555.373    -6565688.500 6  -4884191.23045  23215561.8704
  21921241.356   -18303883.605 7 -14064902.66846  21921248.1174
  20701709.887   -22474642.992 8 -17281319.86647  20701714.0434
 02  1 30  0 54  0.0000000  0  8 10 04 27 20 01 08 24 13
  24766178.351    -2626411.135 4  -1910728.50245  24766184.8564
  20927401.171   -24949512.673 6 -10578047.23947  20927406.7074
  21661699.138   -14895343.991 8 -11420826.28947  21661705.0164
  24441234.171    -8157243.172 5  -6221286.65145  24441238.5244
  22674981.323    -6439968.886 6  -4858410.45346  22674988.1794
  23193494.955    -6681616.665 6  -4974524.81046  23193502.0454
  21910428.411   -18360705.688 7 -14109179.59346  21910435.1904
  20707619.175   -22443589.577 7 -17257122.40447  20707623.2454
 02  1 30  0 54 30.0000000  0  8 10 04 27 20 01 08 24 13
  24747342.062    -2725396.083 4  -1987859.57345  24747349.1594
  20932628.921   -24922040.679 6 -10556640.51347  20932633.4464
  21649954.467   -14957062.573 8 -11468918.65047  21649960.3294
  24457160.384    -8073550.547 5  -6156071.63445  24457166.8164
  22688854.231    -6367066.474 6  -4801603.40146  22688861.2174
  23171465.670    -6797381.293 6  -5064730.95645  23171471.6964
  21899708.001   -18417042.028 7 -14153078.08746  21899714.8374
  20713589.481   -22412215.410 8 -17232674.99947  20713593.6314
 02  1 30  0 55  0.0000000  0  8 10 04 27 20 01 08 24 13
  24728505.694    -2824381.439 5  -2064990.96045  24728509.4244
  20937961.531   -24894017.566 7 -10534804.34947  20937966.5064
  21638290.813   -15018355.422 8 -11516679.27647  21638296.4694
  24473112.588    -7989721.310 5  -6090750.15445  24473119.1974
  22702749.587    -6294045.864 6  -4744704.22946  22702755.2914
  23149467.777    -6912981.091 6  -5154808.65746  23149473.7974
  21889080.258   -18472891.417 8 -14196597.07246  21889086.3954
  20719620.236   -22380523.498 6 -17207979.99947  20719623.6644
 02  1 30  0 55 30.0000000  0  8 10 04 27 20 01 08 24 13
  24709669.233    -2923367.659 5  -2142123.03245  24709674.5914
  20943398.665   -24865445.545 6 -10512540.47147  20943403.8014
  21626708.155   -15079222.509 8 -11564108.14447  21626713.8894
  24489090.448    -7905757.502 5  -6025323.89645  24489097.7474
  22716666.943    -6220909.699 6  -4687715.01446  22716674.4044
  23127501.400    -7028414.800 6  -5244756.98345  23127507.9044
  21878545.170   -18528253.767 8 -14239736.55246  21878550.5784
  20725710.915   -22348516.820 8 -17183039.72947  20725715.4474
 02  1 30  0 56  0.0000000  0  8 10 04 27 20 01 08 24 13
  24690832.630    -3022354.722 5  -2219255.71345  24690841.0684
  20948939.940   -24836326.292 6 -10489850.14147  20948945.6684
  21615206.645   -15139663.150 8 -11611204.72047  21615213.0574
  24505093.563    -7821660.540 5  -5959793.79445  24505101.1874
  22730605.907    -6147660.136 6  -4630637.45546  22730611.5674
  23105566.970    -7143680.342 6  -5334574.24246  23105572.7244
  21868103.060   -18583127.356 8 -14282495.17046  21868108.9014
  20731861.094   -22316197.432 6 -17157855.77847  20731864.3554
 02  1 30  0 56 30.0000000  0  8 10 04 27 20 01 08 24 13
  24671995.345    -3121345.315 5  -2296391.21745  24672003.0414
  20954584.321   -24806664.814 6 -10466737.30047  20954589.5024
  21603785.870   -15199679.654 8 -11657970.81547  21603792.0284
  24521121.277    -7737434.693 5  -5894163.30545  24521127.6804
  22744565.468    -6074302.219 6  -4573475.45046  22744571.1844
  23083664.358    -7258778.803 6  -5424261.28046  23083672.0554
  21857753.504   -18637514.557 7 -14324874.81746  21857759.6454
  20738069.750   -22283570.705 7 -17132432.36247  20738073.3594
 02  1 30  0 57  0.0000000  0  8 10 04 27 20 01 08 24 13
  24653158.414    -3220333.886 5  -2373525.10245  24653166.7254
  20960332.714   -24776456.766 7 -10443198.59447  20960337.9794
  21592446.993   -15259265.726 8 -11704401.48547  21592452.8064
  24537174.264    -7653075.708 5  -5828429.10545  24537179.4644
  22758546.306    -6000832.321 6  -4516226.17746  22758552.2054
  23061795.088    -7373702.454 6  -5513812.14446  23061803.0234
  21847497.802   -18691408.351 7 -14366869.96746  21847503.6524
  20744337.574   -22250633.051 6 -17106766.64147  20744340.6724
 02  1 30  0 57 30.0000000  0  8 10 04 27 20 01 08 24 13
  24634322.215    -3319318.411 5  -2450655.85845  24634331.2004
  20966185.081   -24745702.371 7 -10419234.16347  20966190.5444
  21581190.481   -15318418.838 8 -11750494.78947  21581196.2524
  24553252.709    -7568583.147 5  -5762590.81345  24553259.5834
  22772548.368    -5927251.040 6  -4458890.15346  22772555.6014
  23039959.754    -7488447.911 6  -5603224.12746  23039965.4274
  21837336.504   -18744806.016 7 -14408478.55846  21837342.7474
  20750664.362   -22217385.472 8 -17080859.42847  20750668.2084
 02  1 30  0 58  0.0000000  0  8 10 04 27 20 01 08 24 13
  24615486.587    -3418299.592 5  -2527784.07045  24615494.3754
  20972140.923   -24714404.263 7 -10394846.04047  20972146.3614
  21570016.321   -15377139.176 8 -11796250.86947  21570021.9804
  24569356.066    -7483959.254 3  -5696650.11645  24569364.2654
  22786571.072    -5853561.386 6  -4401469.62446  22786577.1074
  23018158.513    -7603014.171 6  -5692496.46946  23018165.5994
  21827269.736   -18797706.987 7 -14449700.10146  21827275.3844
  20757049.712   -22183830.387 6 -17054712.61747  20757052.8404
 02  1 30  0 58 30.0000000  0  8 10 04 27 20 01 08 24 13
  24596651.564    -3517278.328 5  -2604910.32145  24596659.2294
  20978199.757   -24682565.060 6 -10370036.27047  20978204.6784
  21558924.472   -15435427.119 8 -11841670.03147  21558930.6364
  24585484.001    -7399206.356 4  -5630608.94445  24585485.8474
  22800613.809    -5779766.347 6  -4343967.04546  22800619.9534
  22996391.644    -7717400.009 6  -5781628.26446  22996399.7634
  21817297.477   -18850111.312 7 -14490534.64846  21817303.3304
  20763492.858   -22149971.270 8 -17028328.88347  20763496.4444
 02  1 30  0 59  0.0000000  0  8 10 04 27 20 01 08 24 13
  24577817.586    -3616251.454 5  -2682032.12745  24577823.4824
  20984361.793   -24650183.667 6 -10344804.05147  20984366.6374
  21547915.627   -15493278.897 8 -11886749.30347  21547921.7054
  24601636.734    -7314322.766 4  -5564465.99645  24601643.5014
  22814676.760    -5705864.912 6  -4286381.51646  22814682.0104
  22974659.986    -7831600.529 6  -5870615.61946  22974665.6444
  21807420.483   -18902015.051 7 -14530979.10846  21807426.4014
  20769994.043   -22115807.412 6 -17001707.71747  20769996.9274
 02  1 30  0 59 30.0000000  0  8 10 04 27 20 01 08 24 13
  24558983.712    -3715223.950 5  -2759153.53345  24558988.6774
  20990625.637   -24617266.911 7 -10319154.63547  20990630.7994
  21536988.939   -15550699.062 8 -11931492.26547  21536994.7594
  24617813.204    -7229315.151 4  -5498226.34145  24617822.1034
  22828758.596    -5631864.362 6  -4228718.77946  22828765.4224
  22952962.855    -7945618.887 6  -5959461.01146  22952968.6084
  21797638.085   -18953421.845 7 -14571036.36146  21797644.9724
  20776551.787   -22081346.204 8 -16974854.82047  20776555.9164
 02  1 30  1  0  0.0000000  0  8 10 04 27 20 01 08 24 13
  24540151.613    -3814187.511 5  -2836267.90245  24540155.6784
  20996992.506   -24583808.711 7 -10293083.33447  20996997.7614
  21526146.070   -15607678.940 8 -11975892.15147  21526151.8654
  24634014.503    -7144176.803 3  -5431884.76645  24634022.2554
  22842860.467    -5557758.661 6  -4170974.08346  22842866.0584
  22931302.305    -8059445.369 6  -6048156.92346  22931310.0984
  21787952.009   -19004322.699 7 -14610699.36446  21787958.2744
  20783167.257   -22046581.677 6 -16947765.59547  20783170.1764
 02  1 30  1  0 30.0000000  0  8 10 04 27 20 01 08 24 13
  24521322.482    -3913134.844 5  -2913369.73945  24521329.8764
  21003463.458   -24549803.700 7 -10266585.95547  21003469.0464
  21515388.502   -15664210.529 8 -12019942.71047  21515394.3564
  24650241.785    -7058901.809 4  -5365436.81045  24650250.1094
  22856983.418    -5483542.310 6  -4113143.18346  22856988.4374
  22909680.059    -8173070.450 6  -6136695.87946  22909686.0174
  21778363.744   -19054709.455 7 -14649961.77746  21778370.3714
  20789841.343   -22011508.782 8 -16920436.05947  20789845.8584
 02  1 30  1  1  0.0000000  0  8 10 04 27 20 01 08 24 13
  24502493.582    -4012081.224 5  -2990470.76145  24502501.4254
  21010035.098   -24515269.348 7 -10239676.09447  21010040.9464
  21504713.337   -15720308.842 8 -12063655.65647  21504718.9544
  24666491.917    -6973506.965 4  -5298895.38745  24666499.5544
  22871124.022    -5409233.096 6  -4055239.89546  22871129.4544
  22888093.657    -8286507.673 6  -6225088.49346  22888099.4064
  21768870.521   -19104596.751 7 -14688834.98946  21768876.4114
  20796570.755   -21976145.552 6 -16892880.30947  20796574.0644
 02  1 30  1  1 30.0000000  0  8 10 04 27 20 01 08 24 13
  24483666.251    -4111019.539 5  -3067565.53045  24483673.8844
  21016708.494   -24480200.594 6 -10212349.82047  21016714.3574
  21494121.976   -15775966.591 8 -12107025.29447  21494127.5444
  24682765.853    -6887987.127 4  -5232256.57445  24682776.3944
  22885283.116    -5334826.517 6  -3997260.77346  22885288.1954
  22866544.676    -8399748.638 6  -6313328.13946  22866550.0324
  21759473.919   -19153976.364 7 -14727312.61246  21759480.0094
  20803356.282   -21940487.227 8 -16865094.57247  20803360.6844
 02  1 30  1  2  0.0000000  0  8 10 04 27 20 01 08 24 13
  24464841.238    -4209945.396 5  -3144650.55945  24464846.4074
  21023483.981   -24444595.435 6 -10184605.57447  21023489.5474
  21483615.340   -15831179.049 8 -12150047.96747  21483621.4254
  24699064.055    -6802339.398 4  -5165518.14945  24699071.4594
  22899461.122    -5260320.402 6  -3939204.05946  22899466.9724
  22845034.094    -8512787.022 6  -6401409.93745  22845040.3374
  21750174.846   -19202843.587 7 -14765390.95446  21750180.4974
  20810198.402   -21904531.678 7 -16837077.29347  20810201.9614
 02  1 30  1  2 30.0000000  0  8 10 04 27 20 01 08 24 13
  24446018.640    -4308858.211 5  -3221725.49745  24446026.2524
  21030361.151   -24408455.551 8 -10156444.62347  21030366.7464
  21473193.609   -15885945.416 8 -12192723.02547  21473199.4544
  24715386.395    -6716564.988 5  -5098680.96745  24715394.7694
  22913657.748    -5185716.243 6  -3881070.97446  22913664.1364
  22823562.429    -8625620.903 5  -6489332.38845  22823568.4354
  21740973.483   -19251197.189 8 -14803069.08546  21740979.7914
  20817096.549   -21868281.478 8 -16808830.40347  20817101.5044
 02  1 30  1  3  0.0000000  0  8 10 04 27 20 01 08 24 13
  24427198.712    -4407757.825 5  -3298790.03545  24427208.3154
  21037339.780   -24371782.639 6 -10127868.38047  21037345.2444
  21462856.916   -15940265.117 8 -12235050.04747  21462862.5904
  24731732.624    -6630665.237 4  -5031746.20245  24731738.1244
  22927872.719    -5111016.112 6  -3822863.10346  22927878.3774
  22802130.209    -8738247.995 5  -6577093.70446  22802137.5694
  21731870.122   -19299035.772 8 -14840345.88246  21731875.8414
  20824050.546   -21831738.108 8 -16780355.04347  20824054.9534
 02  1 30  1  3 30.0000000  0  9 10 04 27 20 01 08 24 13 02
  24408381.289    -4506644.657 5  -3375844.61345  24408388.6744
  21044419.412   -24334579.264 7 -10098878.76047  21044424.7994
  21452605.230   -15994138.082 8 -12277028.96347  21452610.7634
  24748102.392    -6544641.933 5  -4964715.07345  24748107.3834
  22942105.430    -5036222.624 6  -3764582.48146  22942111.5084
  22780737.593    -8850666.922 6  -6664692.81146  22780743.6194
  21722864.865   -19346358.810 8 -14877220.97846  21722871.1764
  20831059.678   -21794904.723 8 -16751653.67847  20831063.6594
  24928939.024      -40067.59613
 02  1 30  1  4  0.0000000  0  9 10 04 27 20 01 08 24 13 02
  24389565.328    -4605522.689 4  -3452892.42545  24389573.6574
  21051598.640   -24296852.159 7 -10069481.03547  21051604.5174
  21442437.794   -16047568.261 8 -12318662.85047  21442443.8184
  24764494.366    -6458501.200 4  -4897592.42445  24764500.1484
  22956354.693    -4961342.138 6  -3706234.08046  22956360.4314
  22759384.006    -8962880.462 6  -6752131.88645  22759390.5424
  21713956.977   -19393170.042 8 -14913697.24846  21713962.9754
  20838122.829   -21757787.750 7 -16722731.37547  20838126.7974
  24915497.835     -110702.165 4
 02  1 30  1  4 30.0000000  0  9 10 04 27 20 01 08 24 13 02
  24370752.831    -4704382.025 3  -3529925.56645  24370758.7834
  21058879.079   -24258593.216 8 -10039668.90947  21058885.2214
  21432356.523   -16100545.495 8 -12359943.79247  21432362.1214
  24780910.422    -6372234.485 5  -4830371.62445  24780918.1274
  22970622.031    -4886366.861 6  -3647811.81746  22970627.5714
  22738071.822    -9074876.635 6  -6839401.60145  22738079.3884
  21705148.571   -19439458.580 8 -14949766.25046  21705154.4714
  20845241.345   -21720379.638 7 -16693582.18847  20845244.9284
  24902077.380     -181226.706 4     -7321.15555  24902082.7104
 02  1 30  1  5  0.0000000  0  9 10 04 27 20 01 08 24 13 02
  24351943.125    -4803227.600 4  -3606947.95745  24351949.6354
  21066259.389   -24219809.724 7 -10009448.04147  21066265.0054
  21422360.606   -16153074.315 8 -12400875.32047  21422366.5614
  24797349.215    -6285848.396 5  -4763057.91445  24797357.3994
  22984906.085    -4811303.906 6  -3589321.20646  22984911.7304
  22716800.331    -9186658.725 6  -6926504.47145  22716807.4934
  21696438.792   -19485229.029 7 -14985431.55046  21696445.1004
  20852413.891   -21682687.745 7 -16664211.91247  20852417.3634
  24888677.352     -251644.313 4    -62192.08645  24888681.0874
 02  1 30  1  5 30.0000000  0  9 10 04 27 20 01 08 24 13 02
  24333137.531    -4902050.897 4  -3683953.03045  24333145.1814
  21073740.602   -24180495.823 7  -9978813.85547  21073746.1034
  21412451.615   -16205146.197 8 -12441450.78147  21412457.3534
  24813811.906    -6199336.146 3  -4695645.81645  24813817.5684
  22999207.995    -4736147.165 6  -3530757.56346  22999213.4934
  22695571.499    -9298216.643 6  -7013432.65346  22695578.6164
  21687829.324   -19530472.141 7 -15020685.93746  21687835.7614
  20859641.500   -21644706.303 7 -16634615.97547  20859644.9614
  24875299.254     -321945.391 2   -116972.05945  24875304.4004
 02  1 30  1  6  0.0000000  0  9 10 04 27 20 01 08 24 13 02
  24314335.617    -5000854.867 3  -3760943.05045  24314344.3954
  21081321.763   -24140656.911 6  -9947770.57147  21081327.0174
  21402628.992   -16256764.189 8 -12481672.56047  21402634.7524
  24830297.845    -6112702.697 5  -4628139.16745  24830305.1814
  23013526.722    -4660902.038 6  -3472124.99146  23013532.9404
  22674385.103    -9409551.865 6  -7100187.32146  22674393.1624
  21679319.650   -19575190.689 8 -15055531.55446  21679325.8764
  20866923.162   -21606440.908 8 -16604798.79547  20866927.4114
  24861943.345     -392131.673 3   -171662.70545  24861953.9754
 02  1 30  1  6 30.0000000  0  9 10 04 27 20 01 08 24 13 02
  24295538.148    -5099635.900 3  -3837915.28145  24295542.9914
  21089003.131   -24100291.199 8  -9916316.78247  21089008.5024
  21392893.547   -16307924.110 8 -12521537.41647  21392899.5214
  24846807.197    -6025945.602 5  -4560536.30145  24846815.1514
  23027862.605    -4585566.690 6  -3413422.15146  23027868.6084
  22653242.112    -9520658.820 6  -7186764.10346  22653249.6074
  21670910.767   -19619379.594 7 -15089964.47346  21670916.6374
  20874259.137   -21567889.956 8 -16574759.09447  20874263.2754
  24848610.446     -462197.514 4   -226259.40245  24848617.9844
 02  1 30  1  7  0.0000000  0  9 10 04 27 20 01 08 24 13 02
  24276744.620    -5198397.135 5  -3914871.97445  24276750.6254
  21096783.532   -24059404.584 8  -9884457.09547  21096788.8144
  21383244.708   -16358629.085 8 -12561047.76847  21383250.6224
  24863339.164    -5939069.928 5  -4492840.95245  24863345.8644
  23042214.555    -4510146.757 6  -3354653.39146  23042220.6414
  22632142.314    -9631539.118 6  -7273164.32146  22632151.1624
  21662602.188   -19663041.526 8 -15123986.75846  21662608.0364
  20881648.366   -21529059.212 8 -16544501.35947  20881652.3524
  24835300.045     -532144.759 4   -280763.80345  24835309.7324
 02  1 30  1  7 30.0000000  0  9 10 04 27 20 01 08 24 13 02
  24257955.185    -5297136.392 4  -3991811.62345  24257961.0964
  21104663.066   -24017997.335 8  -9852191.73647  21104668.5514
  21373682.836   -16408876.949 8 -12600201.91147  21373688.8194
  24879893.742    -5852075.492 5  -4425053.07745  24879897.8304
  23056582.607    -4434642.344 6  -3295818.84046  23056588.4474
  22611086.361    -9742188.986 6  -7359384.95746  22611093.2574
  21654394.283   -19706174.332 8 -15157596.73647  21654400.0384
  20889090.818   -21489949.011 7 -16514025.89847  20889094.5194
  24822012.790     -601969.832 5   -335172.90545  24822023.7914
 02  1 30  1  8  0.0000000  0  9 10 04 27 20 01 08 24 13 02
  24239170.893    -5395847.749 4  -4068729.46445  24239176.8084
  21112642.359   -23976065.816 8  -9819517.86647  21112648.1364
  21364209.110   -16458661.651 8 -12638995.16047  21364215.6674
  24896471.724    -5764957.913 5  -4357169.28845  24896479.0964
  23070967.472    -4359049.645 6  -3236915.44146  23070973.6704
  22590075.609    -9852600.852 6  -7445420.11446  22590081.5634
  21646288.334   -19748771.391 8 -15190789.26547  21646294.3304
  20896587.066   -21450555.945 8 -16483329.98747  20896591.4834
  24808750.120     -671665.107 4   -389480.86145  24808758.7604
 02  1 30  1  8 30.0000000  0  9 10 04 27 20 01 08 24 13 02
  24220390.430    -5494538.584 4  -4145631.35045  24220398.7454
  21120719.481   -23933620.429 8  -9786443.56647  21120725.1714
  21354822.070   -16507990.887 8 -12677433.51647  21354828.0444
  24913071.302    -5677726.621 4  -4289196.89445  24913075.8324
  23085367.226    -4283378.510 6  -3177950.93746  23085373.2644
  22569109.062    -9962780.935 6  -7531274.72446  22569115.5834
  21638283.011   -19790839.820 8 -15223569.86847  21638289.0624
  20904135.192   -21410890.362 8 -16452421.76847  20904139.5814
  24795511.037     -741236.711 3   -443692.53145  24795520.1064
 02  1 30  1  9  0.0000000  0  9 10 04 27 20 01 08 24 13 02
  24201614.550    -5593206.352 5  -4222515.25045  24201621.1804
  21128894.487   -23890660.978 8  -9752968.68447  21128900.4494
  21345522.246   -16556861.831 8 -12715514.73747  21345527.5574
  24929692.565    -5590380.711 2  -4221135.11245  24929698.5274
  23099781.990    -4207628.359 6  -3118924.83546  23099788.0764
  22548187.429   -10072724.837 6  -7616945.26746  22548193.9884
  21630378.885   -19832376.387 8 -15255936.03047  21630384.8534
  20911735.256   -21370951.737 7 -16421300.74047  20911739.6684
  24782296.254     -810680.496 3   -497804.60045  24782303.7264
 02  1 30  1  9 30.0000000  0  9 10 04 27 20 01 08 24 13 02
  24182844.501    -5691844.180 5  -4299375.81445  24182849.1554
  21137168.136   -23847182.704 8  -9719089.50547  21137173.7804
  21336310.981   -16605267.209 8 -12753233.18647  21336316.8364
  24946336.734    -5502914.645 2  -4152979.72845  24946344.0084
  23114212.719    -4131794.365 6  -3059833.43146  23114220.4344
  22527312.333   -10182423.705 6  -7702424.84946  22527318.4094
  21622577.372   -19873373.757 8 -15287882.01947  21622583.2304
  20919388.133   -21330735.656 8 -16389963.55447  20919392.3054
  24769107.363     -879988.043 3   -551810.40145  24769119.9184
 02  1 30  1 10  0.0000000  0  9 10 04 27 20 01 08 24 13 02
  24164078.782    -5790458.913 5  -4376218.41045  24164085.7964
  21145538.649   -23803195.457 8  -9684813.75347  21145544.3864
  21327186.918   -16653214.233 8 -12790594.47147  21327192.8084
  24963001.986    -5415337.278 2  -4084737.68945  24963003.8604
  23128657.674    -4055885.802 6  -3000683.88846  23128663.7784
  22506482.778   -10291883.306 6  -7787718.00546  22506490.7024
  21614877.216   -19913838.405 8 -15319412.91347  21614883.0584
  20927092.002   -21290251.525 6 -16358417.47247  20927095.4344
  24755943.514     -949164.822 5   -605714.32945  24755951.8344
 02  1 30  1 10 30.0000000  0  9 10 04 27 20 01 08 24 13 02
  24145318.855    -5889042.079 5  -4453036.45445  24145327.8764
  21154007.161   -23758693.266 6  -9650136.74147  21154012.2984
  21318151.658   -16700694.524 8 -12827592.07047  21318156.9504
  24979689.767    -5327641.958 4  -4016403.68245  24979694.2134
  23143117.984    -3979896.429 6  -2941471.40646  23143123.3044
  22485700.754   -10401093.377 6  -7872816.70746  22485708.7514
  21607280.059   -19953761.627 8 -15350521.93847  21607285.9634
  20934847.992   -21249493.529 8 -16326657.99947  20934852.3174
  24742806.446    -1018200.939 5   -659508.68545  24742815.0304
 02  1 30  1 11  0.0000000  0  9 10 04 27 20 01 08 24 13 02
  24126564.549    -5987596.648 5  -4529832.18245  24126571.6464
  21162572.621   -23713681.657 7  -9615062.79747  21162578.1894
  21309204.621   -16747711.196 8 -12864228.41447  21309210.3464
  24996399.368    -5239833.623 5  -3947981.72045  24996405.9324
  23157592.664    -3903831.659 6  -2882200.16746  23157599.8124
  22464965.987   -10510055.331 6  -7957722.07246  22464972.3044
  21599785.404   -19993146.164 8 -15381211.18947  21599791.7974
  20942655.038   -21208467.268 7 -16294689.48347  20942658.5524
  24729695.867    -1087097.776 5   -713194.54745  24729699.8974
 02  1 30  1 11 30.0000000  0  9 10 04 27 20 01 08 24 13 02
  24107816.320    -6086118.060 4  -4606602.06345  24107822.8104
  21171235.326   -23668159.033 8  -9579590.66347  21171240.8414
  21300346.658   -16794259.863 8 -12900500.08747  21300353.0024
  25013130.891    -5151909.703 5  -3879469.51845  25013135.8504
  23172082.136    -3827689.150 6  -2822868.35346  23172088.2144
  22444279.518   -10618763.349 6  -8042429.57146  22444285.6804
  21592394.238   -20031986.918 8 -15411476.71246  21592400.0474
  20950513.554   -21167170.658 7 -16262510.30847  20950517.3474
  24716612.751    -1155849.640 4   -766767.39645  24716620.6444
 02  1 30  1 12  0.0000000  0  9 10 04 27 20 01 08 24 13 02
  24089074.408    -6184606.892 5  -4683346.51245  24089082.5174
  21179994.619   -23622128.494 8  -9543722.73447  21180000.4564
  21291577.669   -16840341.166 8 -12936407.58747  21291583.8554
  25029883.840    -5063872.513 5  -3810869.07445  25029890.8054
  23186585.821    -3751471.696 6  -2763478.14146  23186591.1274
  22423641.579   -10727216.335 6  -8126938.35846  22423648.1194
  21585106.486   -20070284.259 8 -15441318.79447  21585112.6044
  20958422.938   -21125606.657 8 -16230122.77647  20958427.1404
  24703557.481    -1224455.682 5   -820226.61745  24703567.2334
 02  1 30  1 12 30.0000000  0  9 10 04 27 20 01 08 24 13 02
  24070338.808    -6283063.045 5  -4760065.55045  24070346.6354
  21188850.036   -23575592.851 8  -9507461.22447  21188855.6524
  21282897.627   -16885955.171 8 -12971950.94947  21282903.7574
  25046657.897    -4975723.848 4  -3742181.74445  25046660.5754
  23201103.300    -3675181.514 6  -2704031.28946  23201109.5744
  22403052.387   -10835412.784 6  -8211247.24546  22403059.3284
  21577922.222   -20108037.960 8 -15470737.27547  21577928.3664
  20966382.626   -21083778.101 6 -16197529.08547  20966386.2104
  24690530.195    -1292914.385 5   -873571.02945  24690537.2024
 02  1 30  1 13  0.0000000  0  9 10 04 27 20 01 08 24 13 02
  24051609.499    -6381486.245 5  -4836758.89545  24051616.4464
  21197801.213   -23528554.350 8  -9470807.88647  21197806.6674
  21274306.498   -16931101.894 8 -13007130.18347  21274312.0654
  25063452.861    -4887465.252 3  -3673408.87145  25063458.7224
  23215634.310    -3598820.772 6  -2644529.44146  23215639.6174
  22382512.349   -10943351.079 6  -8295354.97146  22382519.3124
  21570841.523   -20145247.564 8 -15499731.79247  21570847.5244
  20974392.298   -21041687.014 8 -16164730.85147  20974396.4394
  24677531.234    -1361224.044 5   -926799.35545  24677539.5624
 02  1 30  1 13 30.0000000  0  9 10 04 27 20 01 08 24 13 02
  24032887.566    -6479871.222 5  -4913422.50145  24032893.1154
  21206848.514   -23481010.698 8  -9433760.90947  21206854.0134
  21265805.255   -16975776.094 8 -13041941.22647  21265810.6994
  25080269.233    -4799093.207 1  -3604547.55545  25080277.5274
  23230179.385    -3522386.150 6  -2584970.00846  23230185.5174
  22362022.859   -11051023.960 6  -8379255.87646  22362028.3014
  21563865.398   -20181907.302 8 -15528297.81647  21563871.3064
  20982452.401   -20999330.915 8 -16131726.08947  20982456.4624
  24664561.908    -1429377.943 5   -979906.24645  24664570.8344
 02  1 30  1 14  0.0000000  0  9 10 04 27 20 01 08 24 13 02
  24014172.354    -6578219.826 5  -4990057.78345  24014178.8044
  21215991.102   -23432966.281 8  -9396323.72847  21215997.0194
  21257393.564   -17019979.760 8 -13076385.63047  21257399.4174
  25097106.798    -4710611.683 2  -3535600.87745  25097116.8174
  23244737.670    -3445881.695 6  -2525356.17746  23244743.7654
  22341583.738   -11158432.128 7  -8462950.49746  22341590.5944
  21556993.514   -20218019.122 8 -15556436.90047  21556999.9664
  20990562.125   -20956713.925 7 -16098518.04047  20990565.5784
  24651622.197    -1497376.474 5  -1032892.17445  24651632.1044
 02  1 30  1 14 30.0000000  0  9 10 04 27 20 01 08 24 13 02
  23995464.269    -6676531.145 4  -5066663.93645  23995471.5524
  21225228.554   -23384423.371 8  -9358498.10347  21225234.3364
  21249071.531   -17063712.557 8 -13110463.12747  21249077.1864
  25113965.001    -4622021.764 4  -3466569.83545  25113970.9464
  23259308.983    -3369308.893 5  -2465689.12146  23259315.9244
  22321195.419   -11265573.394 6  -8546437.16146  22321201.7654
  21550226.168   -20253581.754 8 -15584148.02547  21550231.9574
  20998721.159   -20913838.009 8 -16065108.25147  20998724.9024
  24638712.565    -1565217.580 5  -1085755.29545  24638720.6014
 02  1 30  1 15  0.0000000  0  9 10 04 27 20 01 08 24 13 02
  23976762.155    -6774811.528 4  -5143245.97445  23976768.6624
  21234559.177   -23335390.838 8  -9320290.95947  21234564.2804
  21240837.902   -17106980.765 8 -13144178.59647  21240843.8744
  25130842.302    -4533331.344 4  -3397460.51545  25130849.8704
  23273891.697    -3292676.164 6  -2405975.30646  23273897.4464
  22300857.104   -11372452.274 6  -8629719.39046  22300863.4294
  21543562.210   -20288601.205 8 -15611435.90547  21543567.7134
  21006927.839   -20870711.618 7 -16031503.27247  21006930.9894
  24625831.947    -1632905.933 5  -1138499.40345  24625839.0234
 02  1 30  1 15 30.0000000  0  9 10 04 27 20 01 08 24 13 02
  23958068.079    -6873049.738 4  -5219795.15045  23958074.8394
  21243984.567   -23285860.256 8  -9281695.71647  21243989.5034
  21232694.727   -17149773.549 8 -13177523.59147  21232699.8044
  25147740.594    -4444531.254 4  -3328265.52845  25147749.2944
  23288487.529    -3215974.739 6  -2346207.98746  23288493.8994
  22280571.100   -11479056.064 7  -8712787.23346  22280577.2774
  21537003.775   -20323066.149 8 -15638291.70847  21537009.7794
  21015183.773   -20827326.454 8 -15997696.67347  21015188.1004
  24612982.662    -1700428.953 5  -1191114.67945  24612987.4944
 02  1 30  1 16  0.0000000  0  9 10 04 27 20 01 08 24 13 02
  23939381.916    -6971246.567 5  -5296312.14745  23939390.8044
  21253503.934   -23235835.741 8  -9242715.60447  21253509.6404
  21224641.753   -17192092.278 8 -13210499.20447  21224646.7784
  25164658.905    -4355624.613 4  -3258987.67345  25164667.0644
  23303095.848    -3139207.781 6  -2286389.61246  23303102.3664
  22260337.340   -11585384.714 7  -8795640.65546  22260342.9134
  21530550.611   -20356977.738 8 -15664716.31847  21530557.1704
  21023488.245   -20783686.037 8 -15963691.15047  21023492.1784
  24600164.942    -1767786.489 5  -1243601.07445  24600171.6694
 02  1 30  1 16 30.0000000  0  9 10 04 27 20 01 08 24 13 02
  23920703.510    -7069401.740 5  -5372796.63945  23920711.6924
  21263116.813   -23185319.624 8  -9203352.42347  21263122.7044
  21216678.975   -17233936.813 8 -13243105.31247  21216684.5024
  25181597.236    -4266612.633 3  -3189627.78145  25181606.2194
  23317716.300    -3062377.089 6  -2226521.54546  23317721.8574
  22240156.346   -11691436.027 7  -8878278.00846  22240162.5934
  21524202.813   -20390335.640 8 -15690709.48047  21524208.6704
  21031840.933   -20739792.373 8 -15929488.29147  21031845.0894
  24587379.138    -1834976.685 5  -1295957.07445  24587386.6484
 02  1 30  1 17  0.0000000  0  9 10 04 27 20 01 08 24 13 02
  23902033.671    -7167511.610 4  -5449245.88545  23902042.2684
  21272823.259   -23134311.599 8  -9163605.93147  21272829.2254
  21208806.961   -17275304.126 8 -13275339.56447  21208812.4634
  25198555.978    -4177493.674 3  -3120184.41745  25198558.8424
  23332349.065    -2985481.423 5  -2166602.86846  23332355.5964
  22220029.109   -11797205.026 6  -8960695.35546  22220036.1664
  21517961.100   -20423136.146 8 -15716268.32147  21517966.7704
  21040241.972   -20695644.742 7 -15895087.55747  21040245.4854
  24574625.979    -1901994.819 5  -1348178.99445  24574633.9234
 02  1 30  1 17 30.0000000  0  9 10 04 27 20 01 08 24 13 02
  23883373.889    -7265569.362 5  -5525654.46245  23883380.7694
  21282624.151   -23082807.521 8  -9123472.92147  21282629.8534
  21201026.987   -17316187.683 8 -13307196.86947  21201032.8104
  25215535.992    -4088262.993 2  -3050654.04544  25215547.2924
  23346995.095    -2908516.015 6  -2106629.85545  23347001.0794
  22199957.108   -11902683.598 6  -9042886.39346  22199963.7844
  21511826.745   -20455372.463 8 -15741387.53447  21511832.3954
  21048692.178   -20651238.686 8 -15860485.43247  21048695.8894
  24561907.174    -1968832.758 5  -1400260.45145  24561916.7074
 02  1 30  1 18  0.0000000  0  9 10 04 27 20 01 08 24 13 02
  23864722.122    -7363585.509 5  -5602030.56745  23864727.4674
  21292516.885   -23030821.066 8  -9082964.03247  21292522.8444
  21193336.998   -17356598.606 8 -13338685.88647  21193342.7994
  25232534.993    -3998933.095 2  -2981046.33945  25232554.3244
  23361651.941    -2831493.731 6  -2046612.46145  23361658.8144
  22179938.665   -12007881.032 6  -9124858.39046  22179945.8914
  21505797.821   -20487054.722 8 -15766075.03147  21505803.6544
  21057189.036   -20606587.436 8 -15825692.25947  21057192.5364
  24549220.686    -2035499.671 5  -1452208.61345  24549227.4624
 02  1 30  1 18 30.0000000  0  9 10 04 27 20 01 08 24 13 02
  23846078.539    -7461558.243 5  -5678372.90145  23846086.3304
  21302501.243   -22978353.400 8  -9042080.14747  21302506.8284
  21185737.305   -17396535.260 8 -13369805.32847  21185742.7994
  25249552.820    -3909504.336 2
  23376319.492    -2754414.868 5  -1986551.06545  23376325.8584
  22159974.370   -12112793.987 7  -9206608.73046  22159980.8404
  21499874.604   -20518181.679 8 -15790329.80447  21499880.2224
  21065732.368   -20561691.788 8 -15790708.62647  21065736.9154
  24536567.267    -2101992.473 5  -1504021.15145  24536575.6484
 02  1 30  1 19  0.0000000  0  9 10 04 27 20 01 08 24 13 02
  23827444.568    -7559480.853 5  -5754676.15245  23827451.2674
  21312577.787   -22925400.859 8  -9000818.46247  21312583.3394
  21178229.041   -17435991.511 8 -13400550.43947  21178234.9584
  25266590.269    -3819972.012 3
  23390998.677    -2677275.118 6  -1926442.15845  23391005.8064
  22140065.758   -12217414.457 7  -9288131.12946  22140071.7554
  21494058.300   -20548746.626 8 -15814146.64847  21494063.8774
  21074323.000   -20516547.466 8 -15755531.22247  21074326.9894
  24523948.684    -2168303.164 5  -1555691.80345  24523956.3084
 02  1 30  1 19 30.0000000  0  9 10 04 27 20 01 08 24 13 02
  23808819.808    -7657353.859 5  -5830940.79645  23808827.1294
  21322745.943   -22871967.005 8  -8959181.72247  21322751.5184
  21170812.028   -17474968.252 8 -13430921.91847  21170818.0774
  25283646.911    -3730338.333 4
  23405688.985    -2600077.126 5  -1866287.92145  23405695.0794
  22120212.972   -12321741.507 7  -9369424.87746  22120219.0444
  21488348.798   -20578750.037 8 -15837525.93247  21488354.5404
  21082960.307   -20471157.912 8 -15720162.75747  21082964.4624
  24511365.021    -2234431.045 5  -1607219.99545  24511374.2034
 02  1 30  1 20  0.0000000  0  9 10 04 27 20 01 08 24 13 02
  23790206.054    -7755169.496 5  -5907160.70345  23790213.9164
  21333006.557   -22818047.284 8  -8917166.38747  21333011.8794
  21163487.580   -17513458.510 8 -13460914.30847  21163493.0144
  25300724.050    -3640597.854 4
  23420391.433    -2522815.537 6  -1806084.11946  23420398.7674
  22100417.773   -12425766.130 7  -9450482.98346  22100424.2444
  21482747.511   -20608184.670 7 -15860462.01747  21482754.0714
  21091645.330   -20425517.651 8 -15684598.90747  21091650.5804
  24498817.857    -2300367.166 5  -1658598.78745  24498825.3934
 02  1 30  1 20 30.0000000  0  9 10 04 27 20 01 08 24 13 02
  23771600.553    -7852941.794 5  -5983346.88145  23771607.5994
  21343356.369   -22763658.761 8  -8874785.76047  21343362.3434
  21156252.926   -17551476.765 8 -13490538.90547  21156258.6264
  25317818.459    -3550766.644 4     44339.21255  25317826.2984
  23435102.897    -2445506.543 6  -1745843.36746  23435108.8794
  22080677.668   -12529501.136 7  -9531315.40346  22080683.9874
  21477251.815   -20637064.440 7 -15882965.73547  21477258.2544
  21100374.857   -20379643.691 8 -15648852.98247  21100378.5384
  24486304.834    -2366124.115 5  -1709837.93545  24486313.4394
 02  1 30  1 21  0.0000000  0  9 10 04 27 20 01 08 24 13 02
  23753005.398    -7950659.448 5  -6059490.49545  23753012.3564
  21353796.921   -22708793.269 8  -8832033.47147  21353802.7734
  21149110.140   -17589012.237 8 -13519787.30147  21149115.5844
  25334931.860    -3460835.429 3    114415.54345  25334936.5924
  23449825.104    -2368140.936 5  -1685558.52145  23449832.6334
  22060995.101   -12632933.696 7  -9611912.17746  22061000.9174
  21471863.855   -20665378.302 8 -15905028.47546  21471869.6504
  21109150.585   -20333527.090 8 -15612917.96147  21109154.9754
  24473828.245    -2431689.407 5  -1760927.66145  24473835.2154
 02  1 30  1 21 30.0000000  0  9 10 04 27 20 01 08 24 13 02
  23734421.526    -8048317.846 5  -6135587.80945  23734427.3204
  21364328.474   -22653449.608 8  -8788908.58447  21364334.2724
  21142059.940   -17626061.244 8 -13548656.64047  21142065.9594
  25352064.653    -3370801.573 2    184571.69145  25352072.3084
  23464558.453    -2290716.586 5  -1625227.88545  23464564.4104
  22041371.071   -12736058.307 7  -9692268.93446  22041376.6814
  21466584.464   -20693121.838 8 -15926646.81446  21466590.4754
  21117972.872   -20287165.939 8 -15576792.40347  21117976.5584
  24461389.103    -2497057.463 5  -1811863.83245  24461394.0634
 02  1 30  1 22  0.0000000  0  9 10 04 27 20 01 08 24 13 02
  23715847.924    -8145922.772 5  -6211643.54245  23715854.7084
  21374949.395   -22597636.394 8  -8745417.79546  21374955.4474
  21135101.135   -17662629.964 8 -13577151.72347  21135106.8994
  25369215.508    -3280672.996 2    254801.87543  25369227.5474
  23479301.523    -2213241.268 6  -1564857.56845  23479307.2554
  22021804.818   -12838879.010 7  -9772388.90046  22021811.7024
  21461412.364   -20720301.295 7 -15947825.61946  21461418.2224
  21126840.164   -20240568.406 6 -15540482.64347  21126843.6474
  24448986.669    -2562232.371 5  -1862649.41245  24448993.4294
 02  1 30  1 22 30.0000000  0  8 10 04 27 01 08 24 13 02
  23697285.943    -8243466.911 6  -6287651.91545  23697292.4964
  21385660.382   -22541349.768 8  -8701558.10546  21385665.8044
  21128234.996   -17698711.799 8 -13605267.42747  21128240.4384
  23494055.220    -2135710.211 5  -1504443.73345  23494060.3064
  22002298.066   -12941387.468 7  -9852265.57846  22002305.6524
  21456348.920   -20746909.813 8 -15968559.54246  21456355.2084
  21135753.254   -20193730.097 7 -15503985.26247  21135756.8184
  24436622.511    -2627205.986 5  -1913278.19245  24436631.1094
 02  1 30  1 23  0.0000000  0  8 10 04 27 01 08 24 13 02
  23678735.317    -8340951.266 5  -6363613.69845  23678742.1734
  21396460.644   -22484594.254 8  -8657333.06747  21396465.6384
  21121461.162   -17734308.619 8 -13633005.19447  21121466.8344
  23508818.820    -2058126.914 6  -1443989.27445  23508824.3104
  21982850.764   -13043583.624 7  -9931898.90046  21982857.0154
  21451393.902   -20772948.707 8 -15988849.59846  21451400.1124
  21144711.338   -20146655.012 8 -15467303.37947  21144715.0304
  24424296.607    -2691978.565 5  -1963750.26545  24424305.3184
 02  1 30  1 23 30.0000000  0  8 10 04 27 01 08 24 13 02
  23660195.499    -8438378.485 5  -6439530.94345  23660201.9174
  21407349.101   -22427375.521 8  -8612747.07347  21407354.6204
  21114779.007   -17769423.729 8 -13660367.60147  21114784.7354
  23523591.454    -1980496.071 5  -1383497.76245  23523599.2584
  21963462.627   -13145468.905 7 -10011289.97446  21963469.0094
  21446546.778   -20798420.770 8 -16008697.96646  21446552.6124
  21153713.517   -20099348.019 7 -15430440.77847  21153717.3044
  24412008.861    -2756551.309 5  -2014066.66345  24412016.5374
 02  1 30  1 24  0.0000000  0  8 10 04 27 01 08 24 13 02
  23641667.640    -8535742.446 5  -6515398.91245  23641676.6114
  21418326.200   -22369690.713 8  -8567797.89447  21418332.1454
  21108189.554   -17804051.589 8 -13687350.33447  21108195.0474
  23538374.021    -1902813.625 5  -1322966.05945  23538380.6674
  21944135.099   -13247035.619 7 -10090432.82546  21944141.0164
  21441808.565   -20823320.290 7 -16028100.20446  21441814.8584
  21162760.531   -20051805.581 8 -15393394.73247  21162764.5244
  24399760.593    -2820916.811 5  -2064221.53645  24399769.2354
 02  1 30  1 24 30.0000000  0  8 10 04 27 01 08 24 13 02
  23623151.173    -8633046.642 5  -6591220.33945  23623158.9774
  21429390.633   -22311546.843 8  -8522491.01746  21429396.4804
  21101691.944   -17838196.537 8 -13713956.76947  21101697.7654
  23553165.245    -1825085.593 6  -1262398.79345  23553171.6494
  21924867.625   -13348286.524 7 -10169329.59146  21924873.5564
  21437178.438   -20847651.471 7 -16047059.58646  21437184.8224
  21171851.130   -20004034.155 7 -15356170.24447  21171854.7544
  24387551.192    -2885077.549 5  -2114216.87845  24387558.3074
 02  1 30  1 25  0.0000000  0  8 10 04 27 01 08 24 13 02
  23604647.064    -8730285.586 5  -6666990.84545  23604653.2394
  21440542.841   -22252941.417 8  -8476824.48346  21440548.8074
  21095287.166   -17871853.592 8 -13740183.03247  21095292.9834
  23567965.810    -1747308.326 6  -1201793.13745  23567973.5674
  21905661.627   -13449214.456 7 -10247974.69746  21905668.7194
  21432657.576   -20871408.559 7 -16065571.61846  21432663.5974
  21180985.904   -19956030.665 7 -15318764.93547  21180989.5204
  24375382.009    -2949026.709 5  -2164047.35245  24375388.3204
 02  1 30  1 25 30.0000000  0  8 10 04 27 01 08 24 13 02
  23586154.980    -8827461.819 5  -6742712.53845  23586162.0414
  21451781.772   -22193880.584 8  -8430803.08046  21451787.1004
  21088974.530   -17905026.495 8 -13766032.03047  21088980.5124
  23582774.816    -1669486.767 6  -1141152.97745  23582779.2724
  21886516.795   -13549821.127 7 -10326369.48246  21886523.1354
  21428245.276   -20894595.538 8 -16083639.38946  21428251.1894
  21190163.809   -19907800.574 8 -15281183.05547  21190168.4464
  24363252.679    -3012765.957 5  -2213714.24145  24363259.0204
 02  1 30  1 26  0.0000000  0  8 10 04 27 01 08 24 13 02
  23567675.538    -8924571.830 5  -6818382.58545  23567682.5354
  21463107.475   -22134364.090 8  -8384426.62446  21463113.2654
  21082754.587   -17937712.477 8 -13791501.61447  21082760.5624
  23597592.429    -1591619.763 5  -1080477.39045  23597599.2404
  21867433.958   -13650101.807 7 -10404510.23746  21867439.7484
  21423942.154   -20917208.841 8 -16101260.14647  21423948.3184
  21199385.041   -19859342.701 8 -15243423.67347  21199388.6254
  24351164.261    -3076290.427 5  -2263213.80045  24351169.9694
 02  1 30  1 26 30.0000000  0  8 10 04 27 01 08 24 13 02
  23549208.619    -9021616.145 5  -6894001.49345  23549215.8424
  21474518.968   -22074396.421 8  -8337698.55746  21474524.8424
  21076627.054   -17969912.969 8 -13816592.88547  21076632.9754
  23612418.127    -1513710.314 6  -1019768.81445  23612423.8134
  21848413.285   -13750055.939 7 -10482396.54846  21848419.2584
  21419747.951   -20939249.757 8 -16118434.88747  21419754.0194
  21208648.887   -19810660.739 8 -15205489.66747  21208653.1474
  24339116.841    -3139599.928 4  -2312545.82545  24339125.4674
 02  1 30  1 27  0.0000000  0  8 10 04 27 01 08 24 13 02
  23530755.181    -9118589.176 5  -6969564.81745  23530761.9484
  21486016.771   -22013975.032 8  -8290616.98446  21486021.8274
  21070592.781   -18001623.182 8 -13841302.11747  21070598.3644
  23627252.540    -1435754.889 5   -959024.33745  23627258.3784
  21829456.060   -13849676.820 7 -10560023.17846  21829462.6694
  21415663.613   -20960713.245 8 -16135159.69847  21415669.6744
  21217956.008   -19761751.382 8 -15167378.49147  21217960.1434
  24327111.594    -3202687.663 4  -2361705.03845  24327121.6594
 02  1 30  1 27 30.0000000  0  8 10 04 27 01 08 24 13 02
  23512315.836    -9215488.571 5  -7045070.71245  23512322.5214
  21497600.746   -21953101.078 7  -8243182.78446  21497606.5834
  21064652.071   -18032841.671 8 -13865628.20747  21064657.3984
  23642095.744    -1357753.287 5   -898243.90045  23642102.4804
  21810562.890   -13948960.910 7 -10637387.35946  21810570.2204
  21411689.481   -20981597.586 8 -16151433.24946  21411695.6154
  21227306.322   -19712614.971 8 -15129090.37947  21227310.0484
  24315149.300    -3265550.101 5  -2410688.76445  24315155.0784
 02  1 30  1 28  0.0000000  0  8 10 04 27 01 08 24 13 02
  23493890.150    -9312316.117 5  -7120520.74645  23493896.0814
  21509269.774   -21891779.997 8  -8195400.12346  21509275.8984
  21058804.409   -18063571.280 8 -13889573.34947  21058810.3264
  23656946.952    -1279709.757 5   -837430.81145  23656954.6144
  21791733.696   -14047908.946 7 -10714489.70146  21791740.9974
  21407825.095   -21001905.089 8 -16167257.29346  21407831.4534
  21236698.965   -19663256.263 8 -15090629.05047  21236703.4474
  24303229.716    -3328188.260 5  -2459497.72645  24303236.8644
 02  1 30  1 28 30.0000000  0  8 10 04 27 01 08 24 13 02
  23475478.684    -9409068.586 5  -7195912.24645  23475484.8204
  21521023.947   -21830011.743 8  -8147269.07946  21521028.3714
  21053050.199   -18093809.796 8 -13913135.81647  21053056.0624
  23671806.406    -1201623.325 6   -776584.26545  23671812.5534
  21772969.324   -14146516.584 7 -10791326.76346  21772975.2414
  21404070.839   -21021633.751 8 -16182630.27046  21404076.6084
  21246134.096   -19613674.351 8 -15051993.81647  21246137.8694
  24291353.647    -3390597.701 5  -2508128.42245  24291361.8864
 02  1 30  1 29  0.0000000  0  8 10 04 27 01 08 24 13 02
  23457081.575    -9505745.494 5  -7271244.87345  23457087.5924
  21532862.464   -21767799.816 8  -8098792.26546  21532868.2694
  21047389.315   -18123557.814 8 -13936316.07147  21047394.5274
  23686673.704    -1123495.789 6   -715705.69745  23686678.0044
  21754269.872   -14244782.621 7 -10867897.63546  21754275.5934
  21400426.781   -21040783.330 8 -16197552.01446  21400432.7774
  21255611.244   -19563871.678 7 -15013186.53047  21255614.7944
  24279521.416    -3452777.177 6  -2556579.92245  24279529.8464
 02  1 30  1 29 30.0000000  0  8 10 04 27 01 08 24 13 02
  23438700.338    -9602338.708 5  -7346512.25245  23438707.1764
  21544786.373   -21705139.564 8  -8049966.17746  21544791.8284
  21041823.106   -18152808.497 7 -13959108.80547  21041828.2324
  23701549.864    -1045321.588 5   -654790.79945  23701553.9394
  21735637.139   -14342698.025 7 -10944195.34546  21735642.7974
  21396894.277   -21059346.751 8 -16212017.03547  21396900.4994
  21265131.356   -19513843.359 8 -14974203.44747  21265135.2774
  24267734.442    -3514717.815 5  -2604845.27245  24267742.4004
 02  1 30  1 30  0.0000000  0  8 10 04 27 01 08 24 13 02
  23420333.569    -9698856.234 5  -7421720.68845  23420339.8554
  21556793.338   -21642042.452 8  -8000799.61046  21556799.4244
  21036349.857   -18181570.549 8 -13981520.78047  21036355.0354
  23716432.876     -967110.719 5   -593847.27045  23716437.7004
  21717069.923   -14440269.112 7 -11020224.74446  21717076.2044
  21393471.681   -21077332.758 8 -16226032.12647  21393477.6704
  21274692.477   -19463599.319 8 -14935052.25147  21274696.1684
  24255991.563    -3576426.233 5  -2652929.68045  24256000.3184
 02  1 30  1 30 30.0000000  0  8 10 04 27 01 08 24 13 02
  23401981.939    -9795294.435 5  -7496867.31545  23401988.3874
  21568883.604   -21578508.171 8  -7951292.42046  21568888.7984
  21030970.070   -18209841.336 8 -14003549.95847  21030975.5184
  23731323.260     -888861.591 6   -532874.01445  23731327.5604
  21698569.045   -14537491.547 7 -11095982.47246  21698576.0044
  21390159.589   -21094738.076 8 -16239594.72047  21390165.3604
  21284294.816   -19413138.695 8 -14895732.26647  21284299.3674
  24244293.831    -3637897.753 5  -2700829.52845  24244302.2414
 02  1 30  1 31  0.0000000  0  8 10 04 27 01 08 24 13 02
  23383645.399    -9891652.896 5  -7571951.79245  23383651.7464
  21581056.220   -21514540.334 7  -7901447.37546  21581061.9684
  21025683.599   -18237621.719 8 -14025196.99147  21025689.1924
  23746220.531     -810576.210 6   -471872.43645  23746224.8514
  21680134.813   -14634363.843 7 -11171467.36746  21680141.6224
  21386957.921   -21111563.149 8 -16252705.18247  21386963.7214
  21293937.913   -19362463.890 8 -14856245.41047  21293942.0694
  24232641.405    -3699131.166 5  -2748543.79345  24232650.0894
 02  1 30  1 31 30.0000000  0  8 10 04 27 01 08 24 13 02
  23365325.373    -9987925.286 5  -7646969.22045  23365332.9214
  21593311.976   -21450136.241 8  -7851262.43946  21593316.8564
  21020491.446   -18264906.419 8 -14046457.78447  21020497.2994
  23761125.481     -732250.553 5   -410839.52545  23761130.4404
  21661768.669   -14730878.659 7 -11246673.65446  21661774.7424
  21383867.553   -21127803.102 8 -16265359.69346  21383873.3914
  21303622.459   -19311571.348 8 -14816588.91247  21303626.1514
  24221035.683    -3760119.311 5  -2796066.90845  24221044.5004
 02  1 30  1 32  0.0000000  0  8 10 04 27 01 08 24 13 02
  23347020.924   -10084115.663 5
  21605649.239   -21385303.679 8  -7800743.57546  21605654.8684
  21015392.642   -18291700.723 8 -14067336.45047  21015398.5394
  23776036.849     -653891.127 6   -349780.26345  23776039.5854
  21643469.883   -14827039.338 7 -11321603.96546  21643475.4804
  21380887.562   -21143462.913 7 -16277562.15946  21380893.6064
  21313347.115   -19260468.051 8 -14776768.15547  21313350.5644
  24209476.169    -3820865.356 5  -2843401.44245  24209483.6824
 02  1 30  1 32 30.0000000  0  8 10 04 27 01 08 24 13 02
  23328731.978   -10180224.945 6    -27448.99855  23328736.6044
  21618067.222   -21320047.112 8  -7749894.33746  21618073.1264
  21010386.785   -18318006.757 8 -14087834.64347  21010392.5804
  23790954.018     -575501.094 6   -288697.13945  23790958.6074
  21625238.464   -14922845.894 7 -11396258.39946  21625245.3324
  21378017.727   -21158544.000 7 -16289313.65446  21378023.5544
  21323111.219   -19209157.455 8 -14736785.89447  21323115.1854
  24197962.595    -3881369.298 5  -2890547.33145  24197970.3154
 02  1 30  1 33  0.0000000  0  8 10 04 27 01 08 24 13 02
  23310460.700   -10276241.553 6   -102267.13245  23310466.2414
  21630567.341   -21254358.581 7  -7698708.50146  21630573.1654
  21005475.834   -18343814.066 8 -14107944.22147  21005481.6364
  23805878.778     -497071.012 5   -227582.85645  23805883.8074
  21607076.933   -15018285.502 8 -11470626.90846  21607082.5984
  21375260.061   -21173035.651 8 -16300605.85846  21375265.8254
  21332916.489   -19157630.509 7 -14696635.03047  21332919.8484
  24186497.499    -3941618.353 5  -2937494.62945  24186503.7604
 02  1 30  1 33 30.0000000  0  8 10 04 27 01 08 24 13 02
  23292205.806   -10372172.179 6   -177018.20645  23292211.4904
  21643147.633   -21188248.569 7  -7647194.25746  21643153.4654
  21000658.237   -18369130.674 8 -14127671.43447  21000664.0584
  23820809.376     -418609.862 5   -166444.35145  23820813.2294
  21588984.082   -15113364.068 7 -11544714.07246  21588989.6564
  21372613.097   -21186945.684 8 -16311444.86647  21372619.4184
  21342761.110   -19105896.701 8 -14656322.98047  21342764.7984
  24175079.839    -4001618.528 5  -2984247.96745  24175086.8974
 02  1 30  1 34  0.0000000  0  8 10 04 27 01 08 24 13 02
  23273968.495   -10468010.377 6   -251697.27346  23273973.5404
  21655808.653   -21121714.556 7  -7595349.59746  21655814.5304
  20995934.991   -18393951.492 8 -14147012.31547  20995940.5924
  23835746.639     -340113.709 5   -105278.58345  23835750.7904
  21570961.320   -15208074.302 7 -11618514.26246  21570968.0464
  21370077.877   -21200268.659 8 -16321826.43247  21370083.9354
  21352645.750   -19053952.590 8 -14615847.05347  21352649.4864
  24163710.867    -4061362.603 5  -3030801.76945  24163718.3484
 02  1 30  1 34 30.0000000  0  8 10 04 27 01 08 24 13 02
  23255747.061   -10563764.602 6   -326310.90245  23255751.3774
  21668548.023   -21054768.876 8  -7543184.14746  21668553.4564
  20991304.252   -18418286.203 8 -14165974.40047  20991309.8604
  23850688.569     -261593.364 6    -44093.90145  23850694.2874
  21553007.155   -15302423.925 7 -11692033.42046  21553012.9304
  21367652.407   -21213014.637 8 -16331758.37847  21367658.5134
  21362568.324   -19001808.980 8 -14575215.65446  21362572.4034
  24152389.075    -4120858.250 5  -3077161.89945  24152395.6754
 02  1 30  1 35  0.0000000  0  8 10 04 27 01 08 24 13 02
  23237542.866   -10659427.704 5   -400853.55045  23237547.6814
  21681366.478   -20987407.600 8  -7490694.88546  21681372.4894
  20986767.187   -18442128.601 8 -14184552.88047  20986772.9334
  23865636.178     -183043.271 5     17113.88045  23865641.1464
  21535123.188   -15396404.526 7 -11765265.03946  21535129.3514
  21365337.977   -21225176.913 8 -16341235.50247  21365344.1844
  21372529.711   -18949461.436 8 -14534425.35646  21372533.6814
  24141116.174    -4180097.136 5  -3123321.98745  24141123.1254
 02  1 30  1 35 30.0000000  0  8 10 04 27 01 08 24 13 02
  23219357.350   -10754992.234 5   -475319.38845  23219362.6114
  21694264.603   -20919627.511 8  -7437879.26046  21694270.0854
  20982324.903   -18465472.880 8 -14202743.21047  20982330.9034
  23880590.358     -104458.611 6     78348.72445  23880595.9674
  21517311.043   -15490007.997 7 -11838202.77846  21517317.1874
  21363135.809   -21236749.320 8 -16350252.97846  21363141.8794
  21382530.784   -18896905.487 8 -14493472.68746  21382535.2064
  24129893.694    -4239071.414 5  -3169275.91145  24129901.1524
 02  1 30  1 36  0.0000000  0  8 10 04 27 01 08 24 13 02
  23201191.580   -10850453.359 5   -549704.57245  23201197.4674
  21707242.671   -20851427.462 7  -7384736.41046  21707248.6134
  20977978.063   -18488315.618 8 -14220542.74147  20977984.0414
  23895551.552      -25836.775 5    139612.51045  23895557.8924
  21499571.669   -15583228.761 7 -11910842.31046  21499577.9734
  21361046.645   -21247728.128 8 -16358807.90546  21361052.8414
  21392571.920   -18844139.057 8 -14452355.99547  21392575.8574
  24118722.752    -4297775.220 5  -3215019.07545  24118729.5334
 02  1 30  1 36 30.0000000  0  8 10 04 27 01 08 24 13 02
  23183044.521   -10945816.758 6   -624013.67745  23183050.2034
  21720298.773   -20782817.233 7  -7331273.92746  21720304.8194
  20973725.281   -18510664.084 8 -14237957.10747  20973731.0734
  23910518.278       52814.078 5    200898.80245  23910523.7204
  21481904.232   -15676071.782 7 -11983187.52446  21481910.3424
  21359069.098   -21258120.516 8 -16366905.89146  21359075.1424
  21402651.482   -18791170.687 8 -14411081.93646  21402655.5434
  24107602.318    -4356213.725 6  -3260555.52945  24107610.2524
 02  1 30  1 37  0.0000000  0  8 10 04 27 01 08 24 13 02
  23164914.918   -11041088.683 5   -698251.49345  23164919.9974
  21733431.000   -20713807.111 7  -7277499.85346  21733436.9784
  20969565.106   -18532525.900 8 -14254992.27047  20969571.0774
  23925488.987      131485.325 5    262200.98545  23925495.1774
  21464307.581   -15768542.595 7 -12055242.64846  21464313.2764
  21357201.677   -21267934.048 8 -16374552.82946  21357207.4704
  21412767.752   -18738009.193 8 -14369657.41846  21412771.7874
  24096531.220    -4414392.575 6  -3305889.64545  24096538.3304
 02  1 30  1 37 30.0000000  0  8 10 04 27 01 08 24 13 02
  23146804.677   -11136258.129 5   -772409.44745  23146809.4764
  21746640.769   -20644389.390 7  -7223408.14546  21746646.8574
  20965499.419   -18553891.275 8 -14271640.60247  20965505.0904
  23940465.187      210185.768 4    323525.97945  23940471.6314
  21446784.064   -15860629.097 8 -12126998.30746  21446789.9484
  21355446.287   -21277158.843 8 -16381741.00246  21355452.3624
  21422922.391   -18684646.063 8 -14328075.73246  21422925.2294
  24085511.851    -4472299.573 5  -3351011.94545  24085518.8954
 02  1 30  1 38  0.0000000  0  8 10 04 27 01 08 24 13 02
  23128713.703   -11231325.500 5   -846487.86645  23128719.4384
  21759927.211   -20574568.742 7  -7169002.49146  21759933.0304
  20961527.797   -18574762.278 8 -14287903.70647  20961533.2624
  23955446.642      288912.828 6    384871.62845  23955453.8794
  21429333.774   -15952331.032 8 -12198454.28046  21429339.1924
  21353802.661   -21285796.178 7 -16388471.39846  21353808.3244
  21433114.784   -18631084.626 7 -14286339.56346  21433119.7344
  24074544.281    -4529934.565 5  -3395922.28545  24074549.5184
 02  1 30  1 38 30.0000000  0  8 10 04 27 01 08 24 13 02
  23110642.308   -11326290.398 4   -920486.45545  23110651.5484
  21773289.640   -20504348.889 7  -7114285.77746  21773295.5584
  20957650.015   -18595139.991 8 -14303782.42647  20957655.3144
  23970432.655      367664.368 6    446236.37945  23970437.6654
  21411956.850   -16043647.348 8 -12269609.77646  21411962.7364
  21352270.529   -21293847.343 7 -16394745.03646  21352276.6974
  21443344.455   -18577327.295 8 -14244450.72946  21443348.0524
  24063628.650    -4587296.312 5  -3440619.74145  24063634.9684
 02  1 30  1 39  0.0000000  0  8 10 04 27 01 08 24 13 02
  23092591.924   -11421145.817 5   -994399.69845  23092599.1744
  21786728.641   -20433726.501 7  -7059255.37846  21786734.3664
  20953867.204   -18615018.663 8 -14319272.28447  20953872.7964
  23985424.233      446445.259 5    507624.04845  23985429.9504
  21394654.784   -16134570.228 8 -12340458.73446  21394661.1224
  21350850.992   -21301306.832 8 -16400557.63146  21350857.6284
  21453612.218   -18523369.851 8 -14202405.97746  21453616.3124
  24052766.456    -4644377.100 5  -3485098.24445  24052773.3454
 02  1 30  1 39 30.0000000  0  8 10 04 27 01 08 24 13 02
  23074562.980   -11515888.340 5  -1068225.01646  23074570.8794
  21800244.157   -20362702.219 8  -7003911.85046  21800249.8444
  20950179.705   -18634396.556 8 -14334371.93347  20950185.2454
  24000421.605      525256.723 5    569035.57845  24000427.4474
  21377428.322   -16225095.682 7 -12410998.00346  21377434.4104
  21349544.537   -21308172.464 8 -16405907.49746  21349550.7224
  21463918.223   -18469211.502 8 -14160204.68846  21463922.7384
  24041958.415    -4701173.058 5  -3529354.76545  24041965.8614
 02  1 30  1 40  0.0000000  0  8 10 04 27 01 08 24 13 02
  23056554.396   -11610524.140 6  -1141967.13846  23056561.2764
  21813834.221   -20291286.298 7  -6948263.12746  21813840.3354
  20946586.037   -18653281.417 8 -14349087.39247  20946591.6384
  24015423.115      604090.332 4    630464.31045  24015428.1404
  21360276.429   -16315229.273 8 -12481231.91446  21360281.9004
  21348349.709   -21314451.665 8 -16410800.39146  21348355.3374
  21474260.643   -18414861.645 8 -14117854.15746  21474264.7574
  24031203.568    -4757689.514 5  -3573393.52845  24031210.7984
 02  1 30  1 40 30.0000000  0  8 10 04 27 01 08 24 13 02
  23038566.190   -11705052.853 5  -1215625.83246  23038572.5834
  21827498.096   -20219482.603 8  -6892312.24246  21827504.0644
  20943085.874   -18671674.785 8 -14363419.87347  20943091.5074
  24030428.446      682943.619 5    691908.43345  24030434.8734
  21343199.306   -16404970.015 7 -12551159.74246  21343205.2164
  21347266.194   -21320145.705 8 -16415237.32846  21347272.2954
  21484639.115   -18360322.378 8 -14075356.03046  21484642.7364
  24020502.200    -4813925.620 5  -3617213.79545  24020509.3704
 02  1 30  1 41  0.0000000  0  8 10 04 27 01 08 24 13 02
  23020598.197   -11799475.245 5  -1289201.71246  23020606.2714
  21841234.896   -20147295.505 7  -6836062.61646  21841240.8104
  20939678.859   -18689578.610 8 -14377370.89447  20939684.7024
  24045437.037      761814.034 5    753365.81645  24045441.9214
  21326196.952   -16494317.795 7 -12620781.33346  21326202.2054
  21346293.631   -21325256.524 8 -16419219.79046  21346299.4384
  21495053.039   -18305596.915 8 -14032712.83446  21495056.9964
  24009854.198    -4869881.213 5  -3660815.50345  24009861.3214
 02  1 30  1 41 30.0000000  0  8 10 04 27 01 08 24 13 02
  23002653.166   -11893777.052 6  -1362683.60645  23002658.8304
  21855046.566   -20074714.913 7  -6779506.39846  21855053.0594
  20936367.353   -18706980.492 8 -14390930.77747  20936372.8984
  24060451.175      840713.580 5    814845.95945  24060456.9934
  21309272.156   -16583257.803 7 -12690085.21946  21309278.4134
  21345434.336   -21329771.965 7 -16422738.32646  21345440.1694
  21505504.587   -18250673.877 7 -13989915.64846  21505507.4534
  23999262.380    -4925541.490 5  -3704187.12645  23999270.4044
 02  1 30  1 42  0.0000000  0  8 10 04 27 01 08 24 13 02
  22984729.895   -11987964.626 6  -1436076.47346  22984735.3744
  21868931.088   -20001751.231 7  -6722651.59346  21868937.9114
  20933149.846   -18723888.475 8 -14404105.82147  20933155.3194
  24075469.260      919633.712 5    876342.18145  24075477.0094
  21292423.940   -16671795.639 8 -12759075.70346  21292430.3594
  21344686.863   -21333699.794 8 -16425798.98246  21344693.2694
  21515991.951   -18195562.665 8 -13946971.85946  21515996.2774
  23988725.693    -4980912.262 6  -3747333.14445  23988734.4474
 02  1 30  1 42 30.0000000  0  8 10 04 27 01 08 24 13 02
  22966828.520   -12082036.338 6  -1509379.08346  22966834.7114
  21882888.027   -19928406.955 7  -6665500.24946  21882893.3434
  20930026.328   -18740302.607 8 -14416896.04147  20930031.5944
  24090491.025      998573.601 5    937853.73745  24090497.1574
  21275652.604   -16759929.214 8 -12827751.14746  21275658.0914
  21344051.245   -21337039.938 8 -16428401.70847  21344057.9464
  21526514.996   -18140263.912 8 -13903881.96946  21526518.6514
  23978244.481    -5035991.317 6  -3790251.85245  23978253.1584
 02  1 30  1 43  0.0000000  0  8 10 04 27 01 08 24 13 02
  22948949.941   -12175988.633 6  -1582588.62946  22948955.4774
  21896917.278   -19854682.712 7  -6608052.83546  21896922.9274
  20926997.134   -18756221.148 8 -14429300.07947  20927002.9454
  24105516.701     1077534.214 5    999381.46245  24105523.3354
  21258959.005   -16847654.485 8 -12896108.49047  21258965.2504
  21343527.972   -21339790.030 8 -16430544.64547  21343534.4274
  21537073.740   -18084777.391 7 -13860645.65946  21537077.1544
  23967819.513    -5090774.534 5  -3832940.01545  23967825.9194
 02  1 30  1 43 30.0000000  0  8 10 04 27 01 08 24 13 02
  22931093.441   -12269825.176 6  -1655707.98246  22931100.1094
  21911017.389   -19780586.133 7  -6550315.24146  21911023.0664
  20924061.229   -18771649.509 8 -14441322.16947  20924066.9484
  24120545.281     1156509.986 5   1060921.00245  24120551.3614
  21242342.554   -16934974.505 8 -12964150.02347  21242348.8234
  21343115.930   -21341955.705 8 -16432232.19247  21343121.7214
  21547667.070   -18029109.212 7 -13817267.87646  21547672.2494
  23957450.196    -5145264.977 5  -3875400.09445  23957456.4004
 02  1 30  1 44  0.0000000  0  8 10 04 27 01 08 24 13 02
  22913259.893   -12363541.540 6  -1728733.69346  22913265.9284
  21925188.426   -19706117.293 7  -6492287.60246  21925194.5104
  20921219.082   -18786585.184 8 -14452960.34347  20921224.6124
  24135577.197     1235502.779 5   1122473.81445  24135583.8354
  21225804.160   -17021884.415 8 -13031871.98947  21225810.3194
  21342815.606   -21343534.235 8 -16433462.22646  21342821.4374
  21558295.210   -17973258.040 8 -13773747.49946  21558298.5814
  23947137.581    -5199457.723 5  -3917628.16345  23947144.2634
 02  1 30  1 44 30.0000000  0  8 10 04 27 01 08 24 13 02
  22895449.680   -12457135.038 6  -1801663.65046  22895455.9384
  21939430.019   -19631277.347 7  -6433970.77346  21939435.6874
  20918470.890   -18801027.007 8 -14464213.69947  20918476.3074
  24150612.322     1314512.929 5   1184040.18645  24150616.2234
  21209344.434   -17108380.891 8 -13099271.78547  21209350.4424
  21342627.235   -21344524.199 8 -16434233.62646  21342633.0114
  21568958.164   -17917223.843 8 -13730084.46346  21568962.0804
  23936882.267    -5253349.510 5  -3959621.73345  23936889.3694
 02  1 30  1 45  0.0000000  0  8 10 04 27 01 08 24 13 02
  22877662.839   -12550605.458 6  -1874497.68746  22877668.1864
  21953741.485   -19556070.301 7  -6375367.90446  21953747.1754
  20915816.302   -18814976.817 8 -14475083.66247  20915822.2034
  24165650.379     1393538.425 5   1245618.43945  24165655.7754
  21192963.453   -17194463.411 8 -13166349.04147  21192969.8534
  21342550.376   -21344927.771 7 -16434548.11346  21342556.2774
  21579655.479   -17861009.044 7 -13686280.74346  21579660.3644
  23926684.423    -5306939.859 6  -4001380.42645  23926691.0884
 02  1 30  1 45 30.0000000  0  8 10 04 27 01 08 24 13 02
  22859900.188   -12643948.737 6  -1947232.68446  22859906.0604
  21968122.784   -19480496.300 7  -6316479.10046  21968128.9124
  20913255.842   -18828432.033 8 -14485568.22647  20913261.0294
  24180691.710     1472581.186 5   1307210.14645  24180697.8184
  21176662.201   -17280127.160 8 -13233099.97247  21176668.5464
  21342585.607   -21344742.408 7 -16434403.70246  21342591.4554
  21590387.422   -17804612.180 8 -13642335.14746  21590391.8194
  23916544.871    -5360223.833 6  -4042900.32945  23916551.6794
 02  1 30  1 46  0.0000000  0  8 10 04 27 01 08 24 13 02
  22842161.590   -12737165.924 6  -2019869.41146  22842167.7514
  21982572.895   -19404560.665 7  -6257308.48846  21982578.8704
  20910788.895   -18841395.920 8 -14495669.93647  20910794.1334
  24195735.689     1551637.732 5   1368812.62245  24195743.8224
  21160440.426   -17365372.964 8 -13299525.22547  21160446.5954
  21342732.458   -21343971.007 8 -16433802.64646  21342738.7104
  21601153.226   -17748037.431 8 -13598250.93246  21601157.5504
  23906463.391    -5413202.208 5  -4084182.09445  23906470.6264
 02  1 30  1 46 30.0000000  0  8 10 04 27 01 08 24 13 02
  22824447.683   -12830253.385 6  -2092405.07646  22824454.3014
  21997091.666   -19328263.916 7  -6197856.50346  21997097.3344
  20908415.797   -18853866.638 8 -14505387.36247  20908421.2634
  24210782.571     1630709.463 5   1430426.92745  24210787.8344
  21144298.995   -17450196.401 8 -13365621.39147  21144305.1834
  21342991.225   -21342611.595 8 -16432743.38946  21342996.9814
  21611953.158   -17691283.479 7 -13554027.07146  21611958.3174
  23896440.840    -5465870.824 5  -4125222.54945  23896449.0944
 02  1 30  1 47  0.0000000  0  8 10 04 27 01 08 24 13 02
  22806759.502   -12923205.394 6  -2164835.17646  22806765.0304
  22011679.394   -19251604.871 7  -6138122.18146  22011684.8764
  20906137.202   -18865840.734 7 -14514717.82947  20906142.6494
  24225832.920     1709799.583 3   1492055.46945  24225840.1774
  21128239.023   -17534591.927 8 -13431384.12247  21128245.0304
  21343362.447   -21340660.856 7 -16431223.35346  21343368.3444
  21622787.594   -17634348.026 8 -13509661.79446  21622791.3084
  23886478.374    -5518223.951 5  -4166017.15645  23886485.3214
 02  1 30  1 47 30.0000000  0  8 10 04 27 01 08 24 13 02
  22789097.059   -13016022.300 6  -2237160.00046  22789102.1064
  22026335.267   -19174587.935 7  -6078108.98446  22026341.0684
  20903952.718   -18877320.334 7 -14523662.96447  20903957.9994
  24240886.311     1788905.387 4   1553696.25245  24240892.2254
  21112260.609   -17618559.064 8 -13496813.03247  21112266.5314
  21343845.735   -21338120.902 7 -16429244.16946  21343852.0364
  21633655.986   -17577234.093 8 -13465157.41546  21633660.8864
  23876575.984    -5570261.332 5  -4206565.72045  23876583.7644
 02  1 30  1 48  0.0000000  0  8 10 04 27 01 08 24 13 02
  22771459.792   -13108706.602 6  -2309381.49446  22771466.3624
  22041057.902   -19097219.974 7  -6017822.29046  22041063.4684
  20901861.460   -18888309.902 7 -14532226.24847  20901866.5224
  24255941.825     1868022.261 5   1615345.69145  24255950.0214
  21096363.239   -17702100.255 8 -13561910.03947  21096369.1014
  21344440.341   -21334996.052 8 -16426809.22446  21344446.3154
  21644557.364   -17519946.860 7 -13420518.02546  21644561.7774
  23866733.195    -5621985.156 6  -4246869.93545  23866740.5644
 02  1 30  1 48 30.0000000  0  8 10 04 27 01 08 24 13 02
  22753847.917   -13201257.381 6  -2381498.94746  22753854.0034
  22055846.756   -19019504.266 7  -5957264.65246  22055852.7094
  20899863.252   -18898810.409 8 -14540408.44447  20899868.1944
  24270999.135     1947148.809 5   1677002.75045  24271007.8084
  21080547.231   -17785213.936 8 -13626673.91547  21080553.1354
  21345146.128   -21331287.281 8 -16423919.29547  21345152.1704
  21655491.376   -17462488.075 8 -13375744.95646  21655494.9534
  23856950.306    -5673393.908 6  -4286928.62345  23856957.2284
 02  1 30  1 49  0.0000000  0  8 10 04 27 01 08 24 13 02
  22736261.943   -13293672.047 6  -2453510.35246  22736269.9804
  22070701.479   -18941442.319 7  -5896437.22146  22070707.7724
  20897958.246   -18908821.154 8 -14548209.01147  20897963.2114
  24286058.281     2026285.337 5   1738667.54645  24286065.3854
  21064813.106   -17867897.276 8 -13691102.44347  21064819.0284
  21345963.189   -21326993.753 8 -16420573.69947  21345969.4724
  21666458.036   -17404857.857 8 -13330838.29946  21666462.0034
  23847227.971    -5724484.568 5  -4326739.49245  23847235.2684
 02  1 30  1 49 30.0000000  0  8 10 04 27 01 08 24 13 02
  22718702.838   -13385945.632 6  -2525411.81546  22718710.7514
  22085622.183   -18863033.579 7  -5835339.54446  22085628.4004
  20896147.003   -18918339.208 8 -14555625.66747  20896152.5314
  24301119.968     2105434.744 4   1800342.28945  24301126.7574
  21049161.877   -17950144.896 8 -13755191.47147  21049168.4644
  21346891.985   -21322112.921 8 -16416770.47446  21346898.3134
  21677457.746   -17347053.987 7 -13285796.33346  21677461.5574
  23837567.292    -5775251.692 5  -4366298.27645  23837573.3354
 02  1 30  1 50  0.0000000  0  8 10 04 27 01 08 24 13 02
  22701170.122   -13478080.754 6  -2597205.39846  22701176.1124
  22100607.513   -18784285.012 7  -5773977.07046  22100613.2344
  20894428.612   -18927369.479 7 -14562662.23647  20894434.0574
  24316183.042     2184591.778 4   1862023.12345  24316189.7244
  21033593.104   -18031959.142 8 -13818942.79247  21033599.2214
  21347931.662   -21316649.370 8 -16412513.16646  21347937.8364
  21688489.463   -17289081.926 7 -13240623.30646  21688492.5284
  23827967.711    -5825697.879 6  -4405606.98345  23827975.0224
 02  1 30  1 50 30.0000000  0  8 10 04 27 01 08 24 13 02
  22683665.535   -13570067.749 6  -2668883.55346  22683671.7404
  22115658.572   -18705191.401 7  -5712345.67946  22115663.6024
  20892804.511   -18935904.312 7 -14569312.74347  20892809.7974
  24331249.037     2263764.038 4
  21018108.681   -18113330.130 8 -13882348.71447  21018114.4924
  21349083.723   -21310595.408 8 -16407795.81246  21349089.5954
  21699554.465   -17230935.065 7 -13195314.08046  21699558.9204
  23818431.136    -5875813.113 6  -4444657.75345  23818437.8034
 02  1 30  1 51  0.0000000  0  8 10 04 27 01 08 24 13 02
  22666188.269   -13661911.178 6  -2740449.84746  22666194.3054
  22130773.565   -18625761.769 7  -5650452.48146  22130779.6004
  20891273.409   -18943950.393 8 -14575582.41347  20891278.6254
  24346316.565     2342944.355 3
  21002707.812   -18194262.127 8 -13945412.56647  21002712.9524
  21350346.816   -21303957.981 8 -16402623.83046  21350352.6624
  21710651.364   -17172620.558 7 -13149874.22946  21710655.3994
  23808956.565    -5925601.672 5  -4483453.98445  23808963.7504
 02  1 30  1 51 30.0000000  0  8 10 04 27 01 08 24 13 02
  22648738.809   -13753608.138 6  -2811902.00346  22648745.0584
  22145952.180   -18545997.407 7  -5588298.47346  22145958.1594
  20889835.436   -18951506.988 8 -14581470.65747  20889841.0434
  24361385.852     2422133.430 5     24679.30655  24361391.8514
  20987391.086   -18274751.933 8 -14008131.84247  20987397.0184
  21351721.121   -21296736.069 8 -16396996.42747  21351727.2754
  21721780.136   -17114138.436 7 -13104303.74846  21721784.4944
  23799544.912    -5975060.068 5  -4521993.02645  23799553.7254
 02  1 30  1 52  0.0000000  0  8 10 04 27 01 08 24 13 02
  22631317.384   -13845157.883 6  -2883239.43546  22631323.8914
  22161193.800   -18465902.324 7  -5525886.78946  22161200.7044
  20888490.243   -18958575.978 8 -14586978.96447  20888496.0454
  24376456.468     2501329.453 5     86390.36145  24376465.1784
  20972158.603   -18354799.066 8 -14070506.18847  20972164.4304
  21353206.297   -21288931.605 8 -16390915.06247  21353212.4894
  21732940.390   -17055490.947 7 -13058604.40846  21732944.5874
  23790196.248    -6024187.939 6  -4560274.43046  23790204.8494
 02  1 30  1 52 30.0000000  0  8 10 04 27 01 08 24 13 02
  22613923.481   -13936563.330 6  -2954464.43046  22613930.0584
  22176497.001   -18385483.696 7  -5463222.93146  22176503.5084
  20887236.928   -18965162.069 8 -14592110.97047  20887242.5654
  24391527.288     2580527.316 5    148103.02745  24391537.5544
  20957009.880   -18434405.899 8 -14132537.45047  20957015.6834
  21354801.476   -21280549.097 8 -16384383.29146  21354807.6054
  21744131.126   -16996683.190 7 -13012780.19846  21744135.0804
  23780910.024    -6072987.467 6  -4598299.98846  23780918.1794
 02  1 30  1 53  0.0000000  0  8 10 04 27 01 08 24 13 02
  22596558.342   -14027817.880 6  -3025571.83746  22596564.4894
  22191862.274   -18304739.189 7  -5400305.19346  22191868.7664
  20886076.390   -18971260.782 8 -14596863.20547  20886082.3274
  24406599.433     2659731.527 5    209820.48045  24406605.2964
  20941946.278   -18513565.413 8 -14194220.16947  20941952.2424
  21356507.355   -21271584.796 7 -16377398.13846  21356513.2474
  21755353.013   -16937711.797 7 -12966828.49346  21755356.9964
  23771687.486    -6121451.903 6  -4636064.43245  23771694.1714
 02  1 30  1 53 30.0000000  0  8 10 04 27 01 08 24 13 02
  22579222.605   -14118918.332 6  -3096559.18046  22579228.7684
  22207289.215   -18223670.199 7  -5337134.58846  22207296.1314
  20885008.744   -18976871.316 8 -14601235.03647  20885014.5214
  24421672.861     2738942.755 4    271543.49445  24421680.6004
  20926968.392   -18592274.691 7 -14255552.04447  20926973.8924
  21358324.093   -21262037.622 7 -16369958.80246  21358329.8244
  21766606.119   -16878576.302 7 -12920748.90346  21766610.3524
  23762529.244    -6169578.005 5  -4673565.23345  23762535.7924
 02  1 30  1 54  0.0000000  0  8 10 04 27 01 08 24 13 02
  22561916.884   -14209860.801 6  -3167423.38746  22561922.0904
  22222777.843   -18142277.094 7  -5273711.39846  22222783.3514
  20884034.331   -18981991.933 8 -14605225.12147  20884040.2494
  24436748.049     2818162.429 5    333273.03345  24436754.8404
  20912076.936   -18670529.597 8 -14316529.85447  20912082.5224
  21360252.072   -21251905.885 8 -16362063.96346  21360258.4094
  21777890.681   -16819275.604 7 -12874540.58146  21777894.9754
  23753436.337    -6217361.549 6  -4710799.15745  23753444.5854
 02  1 30  1 54 30.0000000  0  8 10 04 27 01 08 24 13 02
  22544640.177   -14300650.460 6  -3238168.54146  22544645.5574
  22238326.183   -18060569.950 6  -5210043.56146  22238331.9844
  20883151.681   -18986630.232 8 -14608839.36847  20883157.4784
  24451823.317     2897383.161 5    395003.41145  24451830.5134
  20897270.985   -18748335.177 8 -14377157.54847  20897276.7904
  21362289.912   -21241197.161 8 -16353719.54946  21362296.7714
  21789205.146   -16759817.768 7 -12828209.84246  21789208.7894
  23744407.639    -6264807.772 6  -4747770.15345  23744415.0204
 02  1 30  1 55  0.0000000  0  8 10 04 27 01 08 24 13 02
  22527394.694   -14391276.022 6  -3308785.81946  22527400.4904
  22253935.606   -17978541.696 7  -5146125.44846  22253942.0054
  20882362.521   -18990777.190 8 -14612070.75247  20882367.9024
  24466900.518     2976613.931 5    456741.58345  24466907.8844
  20882552.742   -18825679.942 8 -14437426.15247  20882558.5204
  21364439.222   -21229902.846 8 -16344918.82447  21364445.9674
  21800551.134   -16700194.189 7 -12781749.90946  21800555.1984
  23735445.264    -6311905.096 6  -4784469.33845  23735452.2604
 02  1 30  1 55 30.0000000  0  8 10 04 27 01 08 24 13 02
  22510178.642   -14481746.518 6  -3379282.27746  22510184.4234
  22269603.698   -17896205.760 7  -5081967.62646  22269608.6914
  20881664.745   -18994443.944 8 -14614927.95147  20881669.7734
  24481977.395     3055843.655 5    518479.01745  24481983.0874
  20867920.482   -18902572.788 8 -14497342.64647  20867926.3544
  21366697.929   -21218033.698 8 -16335670.18446  21366704.0734
  21811926.472   -16640416.447 7 -12735169.86346  21811930.7934
  23726547.659    -6358662.260 6  -4820903.44045  23726555.2394
 02  1 30  1 56  0.0000000  0  8 10 04 27 01 08 24 13 02
  22492994.002   -14572051.495 6  -3449649.74546  22493001.1894
  22285331.365   -17813556.426 7  -5017565.56246  22285338.1244
  20881059.857   -18997622.668 8 -14617404.87447  20881064.8904
  24497055.585     3135079.938 5    580221.48545  24497061.7384
  20853376.122   -18979003.606 8 -14556899.09547  20853381.8904
  21369067.332   -21205582.390 7 -16325967.89846  21369073.1974
  21823332.484   -16580477.614 7 -12688464.27546  21823336.1924
  23717716.800    -6405069.081 6  -4857064.57946  23717723.7444
 02  1 30  1 56 30.0000000  0  8 10 04 27 01 08 24 13 02
  22475841.264   -14662189.520 6  -3519887.15346  22475848.0474
  22301118.221   -17730596.462 7  -4952921.48046  22301124.0244
  20880547.679   -19000314.134 7 -14619502.09947  20880552.7264
  24512134.792     3214322.194 5    641968.59545  24512140.8644
  20838920.050   -19054970.617 8 -14616094.13347  20838926.0584
  21371547.346   -21192549.504 7 -16315812.40446  21371553.2184
  21834768.931   -16520378.718 7 -12641633.98346  21834772.4994
  23708952.888    -6451123.751 6  -4892951.27246  23708960.2034
 02  1 30  1 57  0.0000000  0  8 10 04 27 01 08 24 13 02
  22458719.610   -14752164.443 6  -3589997.46946  22458725.8674
  22316962.468   -17647334.655 7  -4888042.17946  22316968.2704
  20880126.989   -19002524.787 8 -14621224.68547  20880131.7134
  24527214.041     3293564.230 5    703715.56645  24527221.3924
  20824551.483   -19130477.989 7 -14674931.03647  20824557.7414
  21374136.796   -21178941.993 8 -16305209.15746  21374143.0344
  21846234.634   -16460126.082 7 -12594683.89046  21846239.0224
  23700255.138    -6496830.198 5  -4928566.67645  23700263.0464
 02  1 30  1 57 30.0000000  0  8 10 04 27 01 08 24 13 02
  22441629.189   -14841975.241 6  -3659979.90246  22441635.1064
  22332863.423   -17563774.533 6  -4822930.43746  22332869.9284
  20879797.503   -19004256.192 8 -14622573.81947  20879802.2554
  24542292.843     3372804.503 4    765461.19845  24542295.2414
  20810270.564   -19205524.671 8 -14733408.95447  20810276.3334
  21376835.342   -21164761.405 8 -16294159.37247  21376841.4734
  21857729.191   -16399721.830 7 -12547615.65246  21857734.1604
  23691623.892    -6542187.326 5  -4963909.85145  23691631.8894
 02  1 30  1 58  0.0000000  0  8 10 04 27 01 08 24 13 02
  22424570.988   -14931616.561 6  -3729830.24546  22424576.8624
  22348821.315   -17479915.209 7  -4757585.53546  22348827.3304
  20879559.809   -19005505.265 8 -14623547.11147  20879564.2934
  24557371.929     3452046.258 3    827207.90345  24557378.4294
  20796078.361   -19280105.008 7 -14791523.47447  20796083.6614
  21379643.493   -21150004.615 8 -16282660.58446  21379649.9744
  21869253.065   -16339163.410 7 -12500427.30146  21869256.8194
  23683060.246    -6587189.806 6  -4998976.69545  23683066.9184
 02  1 30  1 58 29.9990000  0  8 10 04 27 01 08 24 13 02
  22407546.578   -15021080.054 6  -3799542.03446  22407552.3814
  22364835.751   -17395758.800 6  -4692009.15446  22364841.3694
  20879414.411   -19006269.291 8 -14624142.45647  20879419.2424
  24572451.486     3531289.578 2    888955.90545  24572460.1344
  20781976.291   -19354211.793 8 -14849268.99047  20781982.0004
  21382561.640   -21134669.547 8 -16270711.18046  21382567.8704
  21880806.322   -16278450.783 7 -12453118.75746  21880811.0964
  23674565.335    -6631830.804 6  -5033761.81745  23674570.8904
 02  1 30  1 58 59.9990000  0  8 10 04 27 01 08 24 13 02
  22390554.273   -15110375.006 6  -3869122.49746  22390560.5704
  22380906.328   -17311307.348 6  -4626202.88446  22380911.4274
  20879360.259   -19006553.933 8 -14624364.23847  20879365.6284
  24587531.464     3610534.391 4    950705.05345  24587539.6864
  20767962.842   -19427852.807 8 -14906651.58247  20767968.8924
  21385588.865   -21118761.183 8 -16258315.07746  21385595.1414
  21892388.670   -16217585.270 7 -12405691.12246  21892392.3734
  23666138.008    -6676116.388 5  -5068270.03945  23666144.8304
 02  1 30  1 59 29.9990000  0  8 10 04 27 01 08 24 13 02
  22373595.270   -15199495.685 7  -3938567.16046  22373600.7994
  22397032.153   -17226565.520 6  -4560170.33246  22397038.3274
  20879397.377   -19006358.842 8 -14624212.20747  20879402.9664
  24602611.249     3689778.571 4   1012453.67345  24602616.2224
  20754039.007   -19501023.072 8 -14963667.34847  20754045.0084
  21388725.124   -21102279.924 7 -16245472.55446  21388731.9154
  21903999.724   -16156568.852 7 -12358145.85546  21904004.1264
  23657779.122    -6720042.466 6  -5102498.10346  23657785.7904
 02  1 30  1 59 59.9990000  0  8 10 04 27 01 08 24 13 02
  22356670.012   -15288438.791 6  -4007873.45446  22356675.3994
  22413213.017   -17141534.797 6  -4493912.64946  22413219.3594
  20879525.878   -19005683.353 8 -14623685.84647  20879531.5984
  24617691.058     3769022.914 5   1074202.50445  24617696.6554
  20740205.340   -19573719.536 7 -15020313.92247  20740211.2374
  21391970.632   -21085224.922 8 -16232182.95746  21391977.1464
  21915639.546   -16095401.218 7 -12310482.76046  21915644.0684
  23649489.212    -6763605.863 6  -5136443.55546  23649496.0134
 02  1 30  2  0 29.9990000  0  8 10 04 27 01 08 24 13 02
  22339778.441   -15377204.280 6  -4077041.35546  22339784.4444
  22429448.026   -17056219.615 6  -4427433.31146  22429453.3914
  20879745.348   -19004529.853 8 -14622787.01547  20879751.2504
  24632770.547     3848265.256 5   1135949.66745  24632773.2664
  20726461.814   -19645942.206 7 -15076591.29947  20726467.6084
  21395324.897   -21067598.556 8 -16218448.15646  21395331.2234
  21927307.577   -16034085.377 7 -12262704.19446  21927312.1894
  23641268.400    -6806806.306 6  -5170106.18646  23641275.4364
 02  1 30  2  0 59.9990000  0  8 10 04 27 01 08 24 13 02
  22322921.053   -15465790.139 6  -4146069.28346  22322927.1794
  22445736.586   -16970622.667 6  -4360734.42246  22445742.9564
  20880055.644   -19002899.138 8 -14621516.31247  20880061.6444
  24647849.544     3927505.057 5   1197694.96145  24647858.7854
  20712808.715   -19717689.406 7 -15132498.17347  20712814.3684
  21398787.543   -21049402.168 7 -16204269.15246  21398793.2394
  21939003.645   -15972622.152 7 -12214810.77846  21939008.6094
  23633117.033    -6849642.084 6  -5203484.67546  23633123.1714
 02  1 30  2  1 29.9990000  0  8 10 04 27 01 08 24 13 02
  22306098.417   -15554193.484 6  -4214954.98146  22306104.3634
  22462078.429   -16884745.694 6  -4293817.35246  22462083.7454
  20880456.802   -19000790.934 8 -14619873.53347  20880462.3674
  24662927.941     4006742.963 3   1259438.71045  24662934.5284
  20699246.614   -19788958.433 8 -15188032.45647  20699252.4804
  21402358.672   -21030635.524 8 -16189645.81546  21402364.6994
  21950727.802   -15911011.311 7 -12166802.34546  21950732.8914
  23625035.610    -6892110.393 6  -5236576.84146  23625041.9934
 02  1 30  2  1 59.9990000  0  8 10 04 27 01 08 24 13 02
  22289311.206   -15642410.947 6  -4283695.81846  22289317.6114
  22478473.300   -16798590.280 6  -4226683.32146  22478480.0124
  20880948.989   -18998204.554 7 -14617858.16747  20880954.3554
  24678006.224     4085979.745 3   1321181.60845  24678013.0244
  20685776.157   -19859746.055 8 -15243191.60947  20685781.8894
  21406038.441   -21011298.333 8 -16174577.88346  21406044.7074
  21962480.124   -15849252.472 7 -12118678.60246  21962483.9544
  23617024.712    -6934208.125 6  -5269380.24346  23617031.9514
 02  1 30  2  2 29.9990000  0  8 10 04 27 01 08 24 13 02
  22272558.859   -15730445.119 7  -4352293.85846  22272564.0654
  22494919.759   -16712163.450 6  -4159337.75146  22494927.2164
  20881531.189   -18995145.134 8 -14615474.19747  20881536.3364
  24693083.401     4165210.867 4   1382920.08345  24693088.5474
  20672396.788   -19930055.106 8 -15297977.85047  20672402.2674
  21409825.804   -20991395.816 8 -16159069.44146  21409831.8024
  21974259.582   -15787351.005 7 -12070443.69346  21974263.7434
  23609083.755    -6975937.909 6  -5301896.88046  23609090.5584
 02  1 30  2  2 59.9990000  0  8 10 04 27 01 08 24 13 02
  22255841.550   -15818294.891 7  -4420748.19646  22255846.9224
  22511417.168   -16625468.843 6  -4091783.53146  22511423.8614
  20882203.077   -18991614.266 8 -14612722.86047  20882208.4904
  24708159.352     4244434.909 4   1444653.07345  24708165.6894
  20659108.606   -19999884.906 8 -15352390.66247  20659114.5444
  21413720.381   -20970929.892 8 -16143121.98747  21413726.6474
  21986065.919   -15725308.384 7 -12022098.83346  21986070.0284
  23601212.982    -7017298.719 6  -5334126.04745  23601220.3504
 02  1 30  2  3 29.9990000  0  8 10 04 27 01 08 24 13 02
  22239161.555   -15905948.828 7  -4489049.94646  22239167.2564
  22527966.858   -16538499.611 6  -4024015.35146  22527973.2634
  20882966.331   -18987603.192 8 -14609597.34047  20882972.1384
  24723235.668     4323660.909 4   1506387.51345  24723241.3874
  20645913.779   -20069224.125 7 -15406421.19847  20645919.8174
  21417723.812   -20949891.980 8 -16126728.84646  21417730.0244
  21997900.704   -15663116.256 7 -11973637.45246  21997905.0464
  23593414.517    -7058279.570 6  -5366059.11945  23593421.2144
 02  1 30  2  3 59.9990000  0  8 10 04 27 01 08 24 13 02
  22222517.477   -15993414.140 7  -4557204.72846  22222523.5794
  22544566.489   -16451267.825 6  -3956042.55146  22544572.6914
  20883819.074   -18983121.844 8 -14606105.36547  20883824.8684
  24738310.520     4402879.423 3   1568116.17845  24738317.7594
  20632810.868   -20138080.297 8 -15460075.32847  20632816.6974
  21421834.150   -20928291.941 8 -16109897.68046  21421840.1864
  22009762.047   -15600784.645 7 -11925067.36746  22009765.8544
  23585686.989    -7098887.845 6  -5397701.91346  23585693.9584
 02  1 30  2  4 29.9990000  0  8 10 04 27 01 08 24 13 02
  22205910.840   -16080682.586 6  -4625206.09646  22205917.7494
  22561216.844   -16363769.931 6  -3887862.41146  22561223.8214
  20884762.337   -18978164.838 8 -14602242.75147  20884768.0534
  24753385.132     4482096.369 5   1629843.64145  24753391.0274
  20619801.365   -20206445.652 8 -15513347.02247  20619807.2514
  21426052.407   -20906124.852 8 -16092624.64746  21426058.4344
  22021651.010   -15538307.909 7 -11876384.19146  22021655.3754
  23578031.886    -7139115.455 6  -5429048.07846  23578039.4584
 02  1 30  2  4 59.9990000  0  8 10 04 27 01 08 24 13 02
  22189342.351   -16167750.436 6  -4693051.16546  22189348.2524
  22577917.717   -16276006.629 6  -3819475.45646  22577924.5874
  20885796.363   -18972730.915 8 -14598008.50947  20885801.6144
  24768459.349     4561313.084 3   1691570.81145  24768467.2594
  20606885.943   -20274316.656 7 -15566233.49847  20606891.9244
  21430378.824   -20883389.905 8 -16074909.15347  21430385.4514
  22033567.731   -15475685.138 7 -11827587.24546  22033571.6564
  23570449.921    -7178958.780 6  -5460094.79546  23570457.4514
 02  1 30  2  5 29.9990000  0  8 10 04 27 01 08 24 13 02
  22172811.247   -16254621.803 6  -4760743.09446  22172817.1754
  22594667.305   -16187987.146 6  -3750888.87046  22594673.5944
  20886919.823   -18966827.064 8 -14593408.10147  20886925.0384
  24783532.485     4640523.061 3   1753292.79145  24783539.9314
  20594063.749   -20341697.670 8 -15618738.14747  20594069.6874
  21434811.997   -20860093.983 8 -16056756.52546  21434817.9254
  22045510.930   -15412923.208 7 -11778681.83046  22045515.1084
  23562940.235    -7218422.226 6  -5490845.47746  23562947.2864
 02  1 30  2  5 59.9990000  0  8 10 04 27 01 08 24 13 02
  22156318.380   -16341292.168 6  -4828278.42746  22156324.3434
  22611465.573   -16099711.407 6  -3682102.62846  22611471.4784
  20888133.013   -18960451.679 8 -14588440.26747  20888137.8684
  24798604.876     4719728.414 4   1815011.20345  24798612.9534
  20581335.505   -20408584.790 8 -15670857.94347  20581341.3234
  21439352.026   -20836235.969 8 -16038165.86546  21439357.6994
  22057480.942   -15350020.437 7 -11729666.69946  22057485.0434
  23555503.698    -7257501.608 6  -5521296.88546  23555509.5584
 02  1 30  2  6 29.9990000  0  8 10 04 27 01 08 24 13 02
  22139863.058   -16427765.106 6  -4895659.89746  22139869.7164
  22628310.976   -16011188.154 6  -3613123.51646  22628318.4304
  20889434.700   -18953611.193 8 -14583110.00447  20889439.9034
  24813675.272     4798922.984 5   1876721.07545  24813681.3064
  20568700.489   -20474982.147 7 -15722596.14147  20568706.4584
  21443997.628   -20811822.830 7 -16019142.65646  21444003.7214
  22069476.465   -15286983.499 7 -11680547.03546  22069480.0564
  23548139.406    -7296200.990 6  -5551452.21646  23548146.9254
 02  1 30  2  6 59.9990000  0  8 10 04 27 01 08 24 13 02
  22123446.666   -16514033.813 6  -4962882.23646  22123452.7404
  22645204.016   -15922414.753 6  -3543949.45046  22645211.6224
  20890825.713   -18946301.263 8 -14577413.95547  20890830.8494
  24828744.508     4878111.976 4   1938426.77445  24828749.7074
  20556159.948   -20540883.074 6 -15773947.49547  20556165.2764
  21448749.765   -20786850.368 8 -15999683.59847  21448755.8774
  22081498.358   -15223808.161 7 -11631319.48746  22081502.3804
  23540848.697    -7334513.328 6  -5581305.95946  23540856.1194
 02  1 30  2  7 29.9990000  0  8 10 04 27 01 08 24 13 02
  22107070.235   -16600092.783 6  -5029941.16046  22107076.4624
  22662144.703   -15833391.070 6  -3474580.37146  22662151.5634
  20892306.514   -18938519.626 8 -14571350.34847  20892311.2424
  24843813.151     4957298.153 4   2000130.18945  24843818.6244
  20543714.811   -20606282.707 7 -15824908.22247  20543720.3924
  21453608.783   -20761316.349 8 -15979786.98747  21453615.2634
  22093547.071   -15160491.985 7 -11581982.24746  22093551.3804
  23533632.681    -7372433.767 6  -5610854.30346  23533640.7724
 02  1 30  2  7 59.9990000  0  8 10 04 27 01 08 24 13 02
  22090733.798   -16685941.409 7  -5096836.15646  22090739.1674
  22679132.264   -15744121.207 6  -3405019.48946  22679138.7144
  20893876.627   -18930268.717 8 -14564921.06047  20893881.3364
  24858880.856     5036479.471 3   2061829.93645  24858886.7414
  20531365.028   -20671181.121 6 -15875478.39647  20531370.8564
  21458574.070   -20735223.668 8 -15959455.04646  21458580.6034
  22105622.084   -15097037.330 7 -11532537.09546  22105626.0084
  23526491.283    -7409962.307 6  -5640097.28646  23526498.8214
 02  1 30  2  8 29.9990000  0  8 10 04 27 01 08 24 13 02
  22074436.731   -16771583.045 7  -5163569.87546  22074441.5844
  22696165.211   -15654612.912 6  -3335272.79346  22696172.5364
  20895534.947   -18921554.215 8 -14558130.53347  20895539.7094
  24873946.788     5115650.662 5   2123521.67645  24873952.5854
  20519109.958   -20735581.897 6 -15925660.80647  20519115.9714
  21463644.499   -20708578.522 8 -15938692.63946  21463651.3284
  22117722.399   -15033449.698 7 -11482988.31346  22117727.2284
  23519423.806    -7447102.182 6  -5669037.38346  23519430.8324
 02  1 30  2  8 59.9990000  0  8 10 04 27 01 08 24 13 02
  22058178.833   -16857018.660 7  -5230143.06846  22058184.1204
  22713242.396   -15564872.071 6  -3265344.91846  22713248.6794
  20897280.704   -18912380.225 8 -14550981.96747  20897285.6764
  24889010.110     5194808.139 5   2185202.77245  24889017.1074
  20506949.301   -20799486.506 7 -15975456.58647  20506955.1054
  21468819.204   -20681385.294 8 -15917503.14546  21468825.4234
  22129847.275   -14969733.156 7 -11433339.09646  22129851.4324
  23512429.807    -7483855.143 6  -5697675.97246  23512435.9754
 02  1 30  2  9 29.9990000  0  8 10 04 27 01 08 24 13 02
  22041962.045   -16942238.290 6  -5296547.93346  22041968.0024
  22730364.724   -15474893.730 6  -3195231.95646  22730370.7074
  20899115.231   -18902739.759 7 -14543469.90847  20899119.8764
  24904072.203     5273959.568 4   2246879.04945  24904080.9754
  20494884.830   -20862885.723 7 -16024858.55747  20494890.7514
  21474099.515   -20653636.916 8 -15895881.05646  21474105.3624
  22141998.028   -14905880.704 7 -11383583.94546  22142002.9604
  23505511.291    -7520211.618 6  -5726005.64746  23505519.3954
 02  1 30  2  9 59.9990000  0  8 10 04 27 01 08 24 13 02
  22025786.966   -17027238.690 7  -5362781.98846  22025792.9514
  22747532.017   -15384679.347 6  -3124935.07446  22747538.6154
  20901038.561   -18892632.534 8 -14535594.14047  20901043.7144
  24919133.312     5353105.890 5   2308551.44845  24919138.6934
  20482917.043   -20925776.747 8 -16073864.54447  20482922.9074
  21479485.468   -20625333.658 8 -15873826.58546  21479491.5774
  22154174.755   -14841891.739 7 -11333722.44146  22154179.3074
  23498668.875    -7556168.724 6  -5754024.13946  23498676.1524
 02  1 30  2 10 29.9990000  0  8 10 04 27 01 08 24 13 02
  22009652.107   -17112028.004 7  -5428851.55946  22009657.7144
  22764741.734   -15294241.864 6  -3054464.33246  22764747.6874
  20903048.627   -18882069.600 8 -14527363.26247  20903054.2314
  24934191.544     5432236.662 5   2370211.67345  24934196.0914
  20471044.244   -20988168.425 8 -16122481.40347  20471050.0704
  21484974.748   -20596487.212 8 -15851348.87746  21484980.6604
  22166375.381   -14777777.066 7 -11283762.98046  22166379.1714
  23491900.821    -7591735.070 6  -5781738.11846  23491906.8704
 02  1 30  2 10 59.9990000  0  8 10 04 27 01 08 24 13 02
  21993558.592   -17196600.258 7  -5494752.00346  21993564.6674
  22781994.126   -15203579.975 6  -2983818.75446  22782000.9134
  20905145.984   -18871047.847 8 -14518774.87447  20905151.7324
  24949247.524     5511355.816 5   2431862.85345  24949254.3464
  20459267.474   -21050055.347 8 -16170704.97147  20459273.2744
  21490567.957   -20567094.755 8 -15828445.68746  21490574.6214
  22178600.494   -14713533.710 7 -11233703.22446  22178604.6504
  23485208.137    -7626905.039 6  -5809143.27146  23485214.6744
 02  1 30  2 11 29.9990000  0  8 10 04 27 01 08 24 13 02
  21977507.851   -17280947.672 7  -5560477.24246  21977513.5664
  22799289.799   -15112690.914 6  -2912996.13846  22799296.6714
  20907331.513   -18859562.712 8 -14509825.41047  20907337.3464
  24964302.209     5590468.488 5   2493509.11245  24964307.8484
  20447588.219   -21111430.160 6 -16218529.47047  20447593.9394
  21496265.909   -20537152.357 8 -15805113.98447  21496272.5304
  22190851.049   -14649156.632 7 -11183539.28046  22190855.8234
  23478592.312    -7661671.396 5  -5836233.90746  23478600.1254
 02  1 30  2 11 59.9990000  0  8 10 04 27 01 08 24 13 02
  21961499.884   -17365070.089 7  -5626027.17246  21961505.9184
  22816627.786   -15021579.188 6  -2842000.01946  22816633.7634
  20909604.657   -18847616.990 8 -14500517.04547  20909610.4504
  24979355.108     5669572.501 4   2555148.50245  24979363.2304
  20436006.286   -21172293.652 6 -16265955.53247  20436011.6874
  21502067.917   -20506662.831 7 -15781355.94646  21502073.9204
  22203126.493   -14584648.481 7 -11133273.20546  22203129.8664
  23472053.126    -7696034.640 5  -5863010.38746  23472061.6274
 02  1 30  2 12 29.9990000  0  8 10 04 27 01 08 24 13 02
  21945534.704   -17448967.438 6  -5691401.72946  21945540.6144
  22834007.206   -14930249.776 6  -2770834.31746  22834013.8154
  20911964.887   -18835213.606 8 -14490852.05347  20911970.5614
  24994406.070     5748665.781 4   2616779.59345  24994411.9834
  20424521.578   -21232646.317 6 -16312983.57747  20424527.5084
  21507973.283   -20475629.530 7 -15757174.17946  21507979.2234
  22215426.441   -14520011.924 7 -11082907.06946  22215430.5174
  23465590.706    -7729994.896 6  -5889472.90746  23465597.3574
 02  1 30  2 12 59.9990000  0  8 10 04 27 01 08 24 13 02
  21929612.934   -17532636.459 7  -5756598.35546  21929618.0734
  22851427.695   -14838704.416 6  -2699500.30246  22851433.2174
  20914412.220   -18822352.576 8 -14480830.45947  20914417.8554
  25009455.170     5827748.817 5   2678402.66345  25009460.0084
  20413134.523   -21292485.848 6 -16359611.76547  20413140.0674
  21513982.161   -20444052.685 8 -15732568.88246  21513988.5644
  22227750.862   -14455246.876 7 -11032440.79746  22227755.7214
  23459205.442    -7763549.833 6  -5915619.55546  23459212.1284
 02  1 30  2 13 29.9990000  0  8 10 04 27 01 08 24 13 02
  21913734.726   -17616076.983 7  -5821616.91746  21913739.6334
  22868888.449   -14746947.643 6  -2628001.57246  22868894.9814
  20916946.151   -18809036.762 8 -14470454.49147  20916951.6504
  25024501.896     5906819.563 5   2740016.20345  25024506.0254
  20401844.983   -21351812.862 6 -16405840.59147  20401850.5314
  21520093.864   -20411935.572 7 -15707542.57746  21520100.4794
  22240099.274   -14390355.650 7 -10981876.22346  22240103.3444
  23452897.156    -7796699.871 6  -5941450.71746  23452902.5274
 02  1 30  2 13 59.9990000  0  8 10 04 27 01 08 24 13 02
  21897900.082   -17699288.763 7  -5886457.22846  21897905.1684
  22886388.624   -14654984.118 6  -2556341.73246  22886394.8734
  20919566.054   -18795269.203 8 -14459726.50847  20919571.5394
  25039545.841     5985875.546 5   2801618.25445  25039551.2684
  20390652.846   -21410627.824 6 -16451670.40847  20390658.3784
  21526307.630   -20379281.913 7 -15682098.18246  21526313.9134
  22252471.068   -14325341.577 7 -10931215.90546  22252475.8804
  23446665.841    -7829445.457 6  -5966966.76246  23446672.2434
 02  1 30  2 14 29.9990000  0  8 10 04 27 01 08 24 13 02
  21882109.653   -17782267.969 7  -5951116.33146  21882114.2794
  22903927.923   -14562814.814 6  -2484521.52346  22903933.6984
  20922272.102   -18781048.885 8 -14448645.73047  20922277.5804
  25054587.138     6064918.510 4   2863210.04145  25054594.4224
  20379558.779   -21468927.364 6 -16497098.59447  20379564.0164
  21532623.793   -20346090.744 8 -15656234.99946  21532629.9644
  22264866.717   -14260202.125 7 -10880457.94046  22264870.8104
  23440512.162    -7861783.235 6  -5992165.00046  23440519.4454
 02  1 30  2 14 59.9990000  0  8 10 04 27 01 08 24 13 02
  21866363.803   -17865012.758 7  -6015592.79246  21866369.2664
  22921505.746   -14470443.001 6  -2412543.53246  22921512.7294
  20925063.998   -18766377.379 8 -14437213.37847  20925069.5864
  25069625.929     6143948.171 4   2924791.46345  25069631.6174
  20368562.929   -21526710.786 7 -16542124.63247  20368568.3994
  21539041.848   -20312364.003 8 -15629954.46146  21539047.9324
  22277285.816   -14194939.111 7 -10829603.65746  22277290.2684
  23434436.252    -7893712.043 6  -6017044.49346  23434442.8034
 02  1 30  2 15 29.9990000  0  8 10 04 27 01 08 24 13 02
  21850662.713   -17947522.305 7  -6079885.95646  21850668.6064
  22939121.322   -14377872.534 6  -2340410.74446  22939127.2514
  20927941.345   -18751256.767 8 -14425431.07047  20927947.2464
  25084661.879     6222962.893 4   2986361.41345  25084669.4614
  20357665.315   -21583978.028 6 -16586748.43647  20357671.0644
  21545561.118   -20278104.881 7 -15603259.04346  21545568.1174
  22289728.061   -14129554.469 6 -10778654.59346  22289733.1104
  23428438.252    -7925231.482 6  -6041605.06046  23428443.4124
 02  1 30  2 15 59.9990000  0  8 10 04 27 01 08 24 13 02
  21835006.668   -18029795.064 7  -6143994.58746  21835012.8354
  22956774.124   -14285106.629 6  -2268125.66546  22956780.8554
  20930903.837   -18735688.638 8 -14413300.05447  20930909.7464
  25099694.963     6301961.897 3   3047918.96445  25099700.5014
  20346866.076   -21640728.273 6 -16630969.40147  20346871.8334
  21552181.433   -20243315.014 8 -15576150.07946  21552187.5404
  22302193.181   -14064049.599 6 -10727611.85646  22302198.2024
  23422518.347    -7956340.665 6  -6065845.94346  23422525.0564
 02  1 30  2 16 29.9990000  0  8 10 04 27 01 08 24 13 02
  21819396.069   -18111829.272 7  -6207917.32446  21819401.7034
  22974463.487   -14192148.608 6  -2195690.90045  22974470.2084
  20933951.228   -18719674.503 8 -14400821.49047  20933957.1904
  25114724.954     6380944.569 3   3109463.80145  25114733.5334
  20336165.388   -21696960.670 6 -16674786.82947  20336171.2894
  21558902.472   -20207996.091 8 -15548628.88646  21558908.2584
  22314681.050   -13998425.281 7 -10676476.01346  22314685.7494
  23416676.757    -7987038.598 6  -6089766.37846  23416683.6024
 02  1 30  2 16 59.9990000  0  7 10 04 27 08 24 13 02
  21803831.877   -18193619.735 7  -6271650.13646  21803837.5244
  22992189.412   -14098998.198 5  -2123106.17845  22992195.9804
  20937083.864   -18703212.479 8 -14387993.93547  20937089.6734
  20325564.018   -21752671.037 6 -16718197.48747  20325570.2434
  21565724.266   -20172147.270 7 -15520694.79446  21565731.2454
  22327192.084   -13932679.436 6 -10625245.51446  22327196.6044
  23410914.133    -8017321.028 6  -6113363.00446  23410920.3254
 02  1 30  2 17 29.9990000  0  7 10 04 27 08 24 13 02
  21788314.878   -18275162.115 7  -6335189.66546  21788320.9914
  23009951.844   -14005655.901 6  -2050371.94045  23009956.6724
  20940301.977   -18686301.192 8 -14374816.30747  20940307.3184
  20315062.667   -21807855.876 6 -16761198.63647  20315068.1734
  21572647.074   -20135767.664 8 -15492347.05647  21572654.0854
  22339726.644   -13866810.091 7 -10573918.77746  22339731.4864
  23405231.229    -8047184.027 6  -6136632.80046  23405237.9534
 02  1 30  2 17 59.9990000  0  7 10 04 27 08 24 13 02
  21772844.466   -18356459.564 7  -6398538.32846  21772850.0084
  23027749.337   -13912129.521 6  -1977494.28245  23027755.6864
  20943604.353   -18668947.044 8 -14361293.59247  20943609.9514
  20304660.573   -21862519.235 6 -16803793.46447  20304665.9014
  21579669.734   -20098863.881 8 -15463590.89847  21579676.5264
  22352283.607   -13800823.048 7 -10522500.33046  22352287.5574
  23399627.535    -8076631.447 6  -6159578.82346  23399634.4284
 02  1 30  2 18 29.9990000  0  7 10 04 27 08 24 13 02
  21757421.157   -18437509.513 7  -6461694.11646  21757427.4164
  23045581.364   -13818421.730 5  -1904475.30845  23045588.8334
  20946990.829   -18651150.810 8 -14347426.38547  20946996.6324
  20294358.037   -21916659.429 6 -16845980.61947  20294363.6984
  21586791.756   -20061437.271 7 -15434427.37146  21586798.6844
  22364862.849   -13734718.907 7 -10470990.64846  22364867.0454
  23394103.334    -8105661.594 6  -6182199.68546  23394110.9114
 02  1 30  2 18 59.9990000  0  7 10 04 27 08 24 13 02
  21742046.849   -18518302.253 7  -6524649.46846  21742052.5044
  23063448.727   -13724528.010 6  -1831311.37945  23063453.9974
  20950462.635   -18632906.200 8 -14333209.80447  20950468.5784
  20284156.630   -21970268.128 7 -16887753.60747  20284162.4814
  21594014.357   -20023481.831 7 -15404851.73346  21594021.2854
  22377465.690   -13668490.829 6 -10419384.37046  22377470.8654
  23388660.146    -8134265.943 6  -6204488.74446  23388667.2734
 02  1 30  2 19 29.9990000  0  7 10 04 27 08 24 13 02
  21726719.931   -18598845.883 7  -6587410.70846  21726725.5324
  23081349.164   -13630460.823 5  -1758012.36045  23081354.5304
  20954017.648   -18614224.433 8 -14318652.56747  20954023.4254
  20274054.688   -22023354.247 7 -16929119.39747  20274060.5584
  21601335.486   -19985009.518 8 -15374873.35846  21601342.0964
  22390090.091   -13602149.550 7 -10367689.90846  22390093.2484
  23383296.328    -8162453.188 6  -6226452.81346  23383302.2834
 02  1 30  2 19 59.9990000  0  7 10 04 27 08 24 13 02
  21711442.004   -18679131.673 7  -6649971.04346  21711447.8954
  23099283.226   -13536216.872 5  -1684575.55445  23099289.7364
  20957656.857   -18595100.245 8 -14303750.59647  20957662.8714
  20264053.651   -22075910.110 6 -16970071.99347  20264059.5164
  21608755.858   -19946015.561 7 -15344488.49546  21608761.8204
  22402737.095   -13535689.246 7 -10315902.66946  22402741.5184
  23378013.414    -8190215.425 6  -6248085.68146  23378019.6634
 02  1 30  2 20 29.9990000  0  7 10 04 27 08 24 13 02
  21696213.482   -18759157.829 7  -6712329.07646  21696218.8194
  23117250.360   -13441799.135 5  -1611003.34945  23117255.8614
  20961379.972   -18575535.143 8 -14288505.05347  20961385.2884
  20254153.645   -22127935.000 6 -17010610.83047  20254159.2684
  21616275.008   -19906502.165 8 -15313698.84246  21616281.6604
  22415406.579   -13469110.925 7 -10264023.48346  22415411.5064
  23372811.467    -8217551.869 6  -6269386.77346  23372816.8854
 02  1 30  2 20 59.9990000  0  7 10 04 27 08 24 13 02
  21681034.469   -18838923.927 7  -6774484.47046  21681040.0934
  23135249.692   -13347211.981 5  -1537299.10845  23135255.0364
  20965186.492   -18555531.725 8 -14272917.96647  20965191.6334
  20244354.548   -22179429.479 6 -17050736.37947  20244360.1374
  21623892.516   -19866472.311 8 -15282506.78646  21623899.0084
  22428098.211   -13402416.428 7 -10212053.78946  22428101.5614
  23367690.409    -8244462.633 6  -6290356.15946  23367696.8664
 02  1 30  2 21 29.9990000  0  7 10 04 27 08 24 13 02
  21665904.847   -18918430.511 7  -6836437.64846  21665910.8874
  23153280.236   -13252460.989 6  -1463467.20245  23153286.6564
  20969075.627   -18535094.160 8 -14256992.57347  20969080.6764
  20234656.013   -22230395.357 6 -17090450.02947  20234661.6034
  21631607.319   -19825930.520 7 -15250915.78346  21631613.0044
  22440811.205   -13335609.546 7 -10159996.43846  22440815.1444
  23362650.050    -8270949.412 6  -6310995.17946  23362657.4694
 02  1 30  2 21 59.9990000  0  7 10 04 27 08 24 13 02
  21650825.765   -18997671.698 7  -6898184.02346  21650832.1754
  23171342.165   -13157545.272 5  -1389506.94345  23171350.4814
  20973047.896   -18514219.744 8 -14240726.79047  20973053.1594
  20225058.998   -22280827.722 8 -17129747.95547  20225064.9704
  21639419.985   -19784874.560 7 -15218924.14846  21639426.2904
  22453546.172   -13268687.101 7 -10107849.14546  22453549.4814
  23357691.407    -8297007.215 6  -6331299.95746  23357697.3764
 02  1 30  2 22 29.9990000  0  7 10 04 27 08 24 13 02
  21635797.796   -19076644.127 7  -6959720.96246  21635803.7474
  23189435.127   -13062466.495 6  -1315419.62445  23189441.3164
  20977103.281   -18492908.585 8 -14224120.67647  20977109.3014
  20215563.952   -22330724.490 7 -17168628.52347  20215569.8114
  21647330.336   -19743305.763 7 -15186532.97046  21647337.2614
  22466303.209   -13201648.550 6 -10055611.36746  22466307.0924
  23352814.847    -8322633.686 6  -6351268.61446  23352821.0664
 02  1 30  2 22 59.9990000  0  7 10 04 27 08 24 13 02
  21620820.109   -19155352.299 7  -7021051.98746  21620825.4674
  23207557.355   -12967233.930 6  -1241212.50345  23207563.5104
  20981240.284   -18471168.521 8 -14207180.35447  20981245.8724
  20206169.746   -22380091.337 6 -17207096.16547  20206175.3024
  21655336.656   -19701232.093 7 -15153748.28946  21655343.7694
  22479080.961   -13134500.988 7 -10003288.57846  22479084.7384
  23348019.253    -8347834.003 6  -6370905.17746  23348025.4254
 02  1 30  2 23 29.9990000  0  7 10 04 27 08 24 13 02
  21605894.976   -19233784.278 7  -7082167.79246  21605900.7354
  23225710.200   -12871840.561 6  -1166880.06245  23225715.7294
  20985460.530   -18448990.927 8 -14189899.10447  20985465.9154
  20196878.453   -22428917.401 6 -17245142.43547  20196884.3684
  21663440.526   -19658645.864 7 -15120564.21846  21663446.7814
  22491881.123   -13067235.418 6  -9950873.87146  22491885.3094
  23343306.926    -8372597.151 6  -6390201.09846  23343312.8244
 02  1 30  2 23 59.9990000  0  7 10 04 27 08 24 13 02
  21591021.862   -19311942.803 7  -7143070.52746  21591027.5324
  23243892.182   -12776294.030 6  -1092428.27045  23243899.5014
  20989762.908   -18426381.697 8 -14172281.51047  20989768.4154
  20187689.313   -22477206.585 7 -17282770.36947  20187695.2924
  21671640.788   -19615553.398 7 -15086985.73846  21671646.5484
  22504702.805   -12999856.895 6  -9898371.19246  22504706.6234
  23338677.127    -8396926.955 6  -6409159.35146  23338683.3324
 02  1 30  2 24 29.9990000  0  7 10 04 27 08 24 13 02
  21576200.721   -19389828.192 7  -7203760.43346  21576206.7414
  23262102.233   -12680599.817 6  -1017861.42845  23262107.7374
  20994146.648   -18403344.939 8 -14154330.78247  20994152.2844
  20178602.025   -22524960.643 6 -17319981.31147  20178607.9184
  21679936.498   -19571959.269 8 -15053016.30846  21679942.7934
  22517545.314   -12932368.962 6  -9845783.19346  22517549.3404
  23334129.493    -8420824.936 6  -6427781.12846  23334135.9234
 02  1 30  2 24 59.9990000  0  7 10 04 27 08 24 13 02
  21561432.176   -19467437.253 7  -7264235.01146  21561438.0644
  23280340.120   -12584759.337 6   -943180.57945  23280346.1554
  20998611.759   -18379880.574 8 -14136046.84847  20998617.4394
  20169617.043   -22572177.105 6 -17356773.34147  20169622.3074
  21688327.767   -19527863.973 8 -15018656.36246  21688334.6364
  22530408.865   -12864770.722 6  -9793109.29746  22530412.6024
  23329664.495    -8444288.503 6  -6446064.38346  23329672.4754
 02  1 30  2 25 29.9990000  0  7 10 04 27 08 24 13 02
  21546717.411   -19544763.943 7  -7324489.57746  21546723.5434
  23298606.028   -12488771.918 5   -868385.26745  23298613.4204
  21003158.672   -18355986.331 8 -14117427.94747  21003163.9914
  20160735.107   -22618851.987 6 -17393143.36947  20160740.9464
  21696814.516   -19483265.930 7 -14983904.65246  21696820.4374
  22543294.003   -12797059.237 7  -9740347.07946  22543297.6964
  23325282.952    -8467313.086 6  -6464005.56846  23325290.1124
 02  1 30  2 25 59.9990000  0  7 10 04 27 08 24 13 02
  21532054.698   -19621817.018 7  -7384530.89746  21532061.0154
  23316897.190   -12392651.294 5   -793486.10445  23316904.1454
  21007785.065   -18331674.499 8 -14098483.65947  21007790.6194
  20151954.323   -22664995.265 6 -17429099.15747  20151960.1254
  21705394.454   -19438177.821 8 -14948771.09946  21705400.3594
  22556198.458   -12729246.141 6  -9687505.75346  22556202.3454
  23320983.173    -8489908.520 6  -6481612.38846  23320989.7224
 02  1 30  2 26 29.9990000  0  7 10 04 27 08 24 13 02
  21517446.762   -19698582.246 7  -7444347.93246  21517452.9514
  23335215.463   -12296388.096 6   -718475.88245  23335223.4414
  21012492.988   -18306934.193 8 -14079205.49147  21012498.4954
  20143277.241   -22710593.712 6 -17464630.40747  20143282.9384
  21714069.680   -19392589.523 7 -14913247.83246  21714076.3554
  22569124.438   -12661319.663 6  -9634576.05246  22569128.6284
  23316767.514    -8512061.642 6  -6498874.53246  23316773.9194
 02  1 30  2 26 59.9990000  0  7 10 04 27 08 24 13 02
  21502893.558   -19775060.070 7  -7503941.03046  21502899.3744
  23353559.872   -12199987.621 6   -643358.68845  23353567.0754
  21017281.731   -18281769.213 8 -14059596.41447  21017286.4474
  20134703.484   -22755649.231 6 -17499738.57547  20134709.2874
  21722839.068   -19346506.042 7 -14877338.62946  21722846.3414
  22582071.302   -12593283.365 6  -9581560.78246  22582076.3174
  23312635.801    -8533773.727 6  -6515793.01446  23312642.5124
 02  1 30  2 27 29.9990000  0  7 10 04 27 08 24 13 02
  21488395.004   -19851250.675 7  -7563310.32246  21488400.4424
  23371929.454   -12103455.129 5   -568138.58145  23371937.0044
  21022150.570   -18256183.362 8 -14039659.37747  21022155.9164
  20126232.688   -22800163.478 6 -17534424.98147  20126238.2934
  21731701.865   -19299931.613 7 -14841046.88246  21731707.8484
  22595038.569   -12525139.785 6  -9528461.91246  22595043.5234
  23308587.776    -8555046.242 6  -6532368.96146  23308594.0794
 02  1 30  2 27 59.9990000  0  7 10 04 27 08 24 13 02
  21473951.004   -19927154.552 7  -7622456.17646  21473956.5614
  23390323.144   -12006796.085 5   -492819.94145  23390328.6014
  21027098.713   -18230180.740 8 -14019397.58447  21027104.4014
  20117864.537   -22844138.206 7 -17568690.97847  20117870.5034
  21740657.276   -19252870.547 7 -14804375.95946  21740663.4254
  22608025.630   -12456892.221 6  -9475282.02946  22608029.9264
  23304623.086    -8575880.979 6  -6548603.78446  23304630.2384
 02  1 30  2 28 29.9990000  0  7 10 04 27 08 24 13 02
  21459562.668   -20002765.764 7  -7681373.99446  21459568.2534
  23408741.057   -11910009.861 6   -417402.15445  23408747.3184
  21032126.598   -18203758.929 8 -13998809.14347  21032132.1724
  20109599.827   -22887569.299 7 -17602533.38347  20109605.5924
  21749705.536   -19205321.676 7 -14767324.91446  21749712.5394
  22621033.051   -12388537.794 6  -9422018.85946  22621037.4844
  23300742.520    -8596273.455 6  -6564493.98146  23300749.8374
 02  1 30  2 28 59.9990000  0  7 10 04 27 08 24 13 02
  21445230.740   -20078080.412 7  -7740060.69246  21445236.5354
  23427183.023   -11813097.083 5   -341885.71545  23427187.9864
  21037234.307   -18176917.523 8 -13977893.75547  21037239.8064
  20101439.104   -22930454.014 7 -17635950.02647  20101445.1404
  21758846.645   -19157284.850 7 -14729893.63746  21758853.9584
  22634061.096   -12320075.084 6  -9368671.32746  22634065.3584
  23296946.681    -8616220.725 6  -6580037.26046  23296952.6704
 02  1 30  2 29 29.9990000  0  7 10 04 27 08 24 13 02
  21430955.439   -20153097.754 8  -7798515.75946  21430961.4384
  23445648.269   -11716062.070 5   -266274.08045  23445653.9914
  21042421.351   -18149659.233 8 -13956653.51847  21042426.7624
  20093382.264   -22972792.921 6 -17668941.37647  20093387.8794
  21768079.987   -19108763.634 7 -14692084.93046  21768087.1924
  22647109.379   -12251506.134 7  -9315240.98546  22647113.1784
  23293235.433    -8635723.146 6  -6595233.93646  23293240.9004
 02  1 30  2 29 59.9990000  0  7 10 04 27 08 24 13 02
  21416737.161   -20227815.671 8  -7856737.50546  21416742.8334
  23464136.198   -11618907.789 6   -190569.48645  23464142.3484
  21047687.440   -18121985.645 8 -13935089.67947  21047693.1764
  20085429.365   -23014585.595 6 -17701507.07047  20085434.8964
  21777405.048   -19059760.121 7 -14653900.39746  21777412.0744
  22660177.701   -12182831.814 6  -9261728.53546  22660181.8394
  23289609.010    -8654779.719 6  -6610083.18146  23289616.6454
 02  1 30  2 30 29.9990000  0  7 10 04 27 08 24 13 02
  21402575.748   -20302234.586 8  -7914726.25146  21402581.2544
  23482645.760   -11521639.361 5   -114775.94245  23482651.5534
  21053031.888   -18093900.439 8 -13913205.09547  21053037.4214
  20077580.093   -23055833.758 6 -17733648.48047  20077585.5914
  21786821.064   -19010278.734 7 -14615343.49546  21786828.0124
  22673265.640   -12114054.287 6  -9208135.70546  22673269.5034
  23286067.190    -8673391.890 6  -6624586.12846  23286074.6994
 02  1 30  2 30 59.9990000  0  7 10 04 27 08 24 13 02
  21388470.721   -20376357.004 7  -7972483.96246  21388475.8644
  23501175.543   -11424264.344 5    -38899.36545  23501182.3584
  21058453.468   -18065409.908 8 -13891004.67547  21058458.4734
  20069833.590   -23096541.694 6 -17765368.92747  20069838.9434
  21796326.677   -18960326.775 7 -14576419.93246  21796333.2194
  22686372.039   -12045179.500 6  -9154467.07546  22686376.5624
  23282609.175    -8691563.885 6  -6638746.09946  23282616.2424
 02  1 30  2 31 29.9990000  0  7 10 04 27 08 24 13 02
  21374424.485   -20450169.945 7  -8030000.51946  21374430.1644
  23519727.193   -11326774.959 5     37066.29745  23519733.2744
  21063954.000   -18036504.573 8 -13868481.04347  21063958.4434
  20062192.096   -23136697.823 6 -17796659.38547  20062197.0114
  21805923.510   -18909895.273 7 -14537122.69746  21805929.9184
  22699498.882   -11976197.155 6  -9100714.63346  22699503.5774
  23279237.249    -8709283.770 6  -6652553.76546  23279243.4694
 02  1 30  2 31 59.9990000  0  7 10 04 27 08 24 13 02
  21360436.283   -20523677.795 7  -8087279.33646  21360442.1174
  23538298.846   -11229180.408 5    113113.94445  23538305.4194
  21069531.956   -18007192.301 8 -13845640.31547  21069537.4604
  20054654.506   -23176308.125 6 -17827524.53447  20054659.3264
  21815609.895   -18858992.840 7 -14497458.49546  21815616.5824
  22712644.967   -11907114.025 6  -9046883.64446  22712649.1124
  23275950.299    -8726557.105 6  -6666013.48246  23275957.2464
 02  1 30  2 32 29.9990000  0  7 10 04 27 08 24 13 02
  21346505.678   -20596883.388 7  -8144322.65746  21346511.6264
  23556889.076   -11131488.289 5    189237.63245  23556896.6874
  21075186.092   -17977479.527 8 -13822487.48747  21075191.7984
  20047219.981   -23215376.875 6 -17857967.69247  20047224.8844
  21825384.548   -18807626.713 7 -14457432.97446  21825391.0364
  22725809.168   -11837935.909 6  -8992978.64546  22725814.4174
  23272747.502    -8743388.059 6  -6679128.45946  23272753.5114
 02  1 30  2 32 59.9990000  0  7 10 04 27 08 24 13 02
  21332635.110   -20669773.607 7  -8201120.22546  21332641.1914
  23575499.336   -11033690.759 5    265443.43445  23575506.6114
  21080918.173   -17947357.117 8 -13799015.46447  21080922.9204
  20039890.613   -23253892.882 6 -17887980.13547  20039895.6484
  21835249.092   -18755788.314 7 -14417039.45046  21835255.5004
  22738993.388   -11768652.635 6  -8938991.75246  22738997.4574
  23269630.982    -8759765.154 6  -6691889.80246  23269636.8944
 02  1 30  2 33 29.9990000  0  7 10 04 27 08 24 13 02
  21318824.366   -20742349.434 8  -8257672.80046  21318829.8894
  23594128.462   -10935794.035 5    341726.54945  23594136.5914
  21086727.332   -17916829.707 8 -13775227.88147  21086732.5234
  20032665.920   -23291858.822 6 -17917563.98147  20032671.4544
  21845202.517   -18703483.064 7 -14376282.17146  21845208.8424
  22752196.948   -11699267.670 6  -8884925.58946  22752201.6404
  23266600.367    -8775690.605 6  -6704299.19846  23266607.4314
 02  1 30  2 33 59.9990000  0  7 10 04 27 08 24 13 02
  21305075.001   -20814602.796 8  -8313974.11646  21305080.5654
  23612777.114   -10837794.711 5    418089.61945  23612783.8724
  21092614.444   -17885892.743 8 -13751121.14547  21092619.7164
  20025547.158   -23329268.123 6 -17946714.07247  20025552.9234
  21855245.492   -18650707.259 7 -14335158.17446  21855251.8124
  22765420.824   -11629775.880 6  -8830776.13246  22765425.7004
  23263656.977    -8791157.853 6  -6716351.56846  23263664.0694
 02  1 30  2 34 29.9990000  0  7 10 04 27 08 24 13 02
  21291385.521   -20886541.623 8  -8370030.34747  21291390.9664
  23631442.930   -10739705.554 5    494522.61345  23631448.3484
  21098577.284   -17854557.676 8 -13726704.20147  21098582.5074
  20018532.485   -23366130.537 6 -17975438.02147  20018537.9474
  21865375.578   -18597473.373 7 -14293677.25546  21865382.3594
  22778663.077   -11560187.515 6  -8776551.46946  22778667.2884
  23260799.097    -8806176.165 6  -6728054.11846  23260806.1584
 02  1 30  2 34 59.9990000  0  7 10 04 27 08 24 13 02
  21277757.278   -20958158.409 8  -8425835.63547  21277763.3084
  23650126.305   -10641524.006 5    571027.70445  23650134.1124
  21104616.689   -17822820.401 8 -13701973.85347  21104621.6234
  20011623.019   -23402440.030 6 -18003731.11947  20011628.1184
  21875593.497   -18543777.937 7 -14251836.67246  21875599.6894
  22791924.615   -11490497.774 6  -8722247.80246  22791930.3284
  23258027.866    -8820739.266 6  -6739401.94046  23258034.5194
 02  1 30  2 35 29.9990000  0  7 10 04 27 08 24 13 02
  21264190.849   -21029450.344 7  -8481387.78147  21264196.8884
  23668826.879   -10543252.131 5    647603.08245  23668834.2304
  21110732.492   -17790681.769 8 -13676930.75347  21110737.2584
  20004818.982   -23438195.397 6 -18031592.42647  20004824.2594
  21885899.014   -18489622.538 7 -14209637.73546  21885905.2384
  22805205.483   -11420706.647 6  -8667865.12746  22805209.9894
  23255343.492    -8834845.749 6  -6750393.97346  23255349.8534
 02  1 30  2 35 59.9990000  0  7 10 04 27 08 24 13 02
  21250685.685   -21100420.409 8  -8536689.13347  21250692.1464
  23687543.132   -10444897.973 5    724242.65045  23687551.4604
  21116923.378   -17758148.508 8 -13651580.15547  21116928.6824
  19998119.448   -23473401.522 6 -18059025.76847  19998124.8024
  21896290.480   -18435014.698 7 -14167086.18246  21896298.0754
  22818504.613   -11350819.308 6  -8613407.53146  22818508.1424
  23252745.144    -8848499.915 6  -6761033.56846  23252751.4134
 02  1 30  2 36 29.9990000  0  7 10 04 27 08 24 13 02
  21237241.319   -21171071.138 8  -8591741.63847  21237247.5054
  23706273.592   -10346469.046 5    800940.43145  23706280.0734
  21123188.152   -17725226.864 8 -13625926.90747  21123192.8494
  19991523.611   -23508062.629 6 -18086034.41147  19991529.1044
  21906766.703   -18379961.557 7 -14124187.67446  21906773.9344
  22831820.961   -11280841.500 6  -8558879.37446  22831826.4174
  23250232.104    -8861705.929 6  -6771323.93746  23250238.2334
 02  1 30  2 36 59.9990000  0  7 10 04 27 08 24 13 02
  21223859.274   -21241394.432 8  -8646538.99547  21223864.8784
  23725018.863   -10247962.351 5    877698.83845  23725025.7574
  21129527.640   -17691912.499 8 -13599967.66147  21129532.8024
  19985032.680   -23542172.586 6 -18112613.60347  19985038.5324
  21917328.415   -18324459.675 7 -14080939.50746  21917335.4764
  22845155.507   -11210767.651 6  -8504276.43246  22845159.8284
  23247805.562    -8874457.282 6  -6781260.03046  23247811.6474
 02  1 30  2 37 29.9990000  0  7 10 04 27 08 24 13 02
  21210539.826   -21311388.799 8  -8701080.04447  21210545.3834
  23743778.225   -10149381.353 5    954515.14545  23743784.8484
  21135941.412   -17658207.782 8 -13573704.23147  21135947.3084
  19978646.581   -23575731.788 6 -18138763.63047  19978652.5834
  21927974.976   -18268512.164 7 -14037344.06246  21927981.8424
  22858508.124   -11140599.347 6  -8449599.88646  22858514.7814
  23245465.489    -8886754.249 6  -6790842.00946  23245470.9824
 02  1 30  2 37 59.9990000  0  7 10 04 27 08 24 13 02
  21197284.030   -21381048.714 8  -8755360.48247  21197289.7624
  23762551.934   -10050725.304 5   1031389.89145  23762556.2844
  21142429.837   -17624110.647 8 -13547135.02347  21142435.3234
  19972366.038   -23608736.314 6 -18164481.40847  19972371.8354
  21938706.646   -18212117.339 7 -13993400.09746  21938713.9334
  22871879.464   -11070332.861 6  -8394846.79946  22871885.0254
  23243212.657    -8898592.440 6  -6800066.54546  23243219.0754
 02  1 30  2 38 29.9990000  0  7 10 04 27 08 24 13 02
  21184091.387   -21450376.642 8  -8809382.24247  21184097.0874
  23781338.390    -9952001.794 5   1108317.26245  23781344.4504
  21148991.766   -17589627.435 8 -13520264.98447  21148996.2794
  19966190.187   -23641190.549 6 -18189770.37747  19966195.6714
  21949521.893   -18155283.017 7 -13949113.64446  21949528.6894
  22885268.400   -10999973.919 6  -8340021.67946  22885273.4704
  23241046.347    -8909975.999 6  -6808936.83246  23241051.8644
 02  1 30  2 38 59.9990000  0  7 10 04 27 08 24 13 02
  21170963.077   -21519366.478 8  -8863140.55647  21170968.8644
  23800137.977    -9853209.597 5   1185298.10045  23800146.3184
  21155627.639   -17554755.757 8 -13493092.24947  21155633.3284
  19960119.812   -23673090.532 6 -18214627.48847  19960125.2234
  21960421.045   -18098007.514 7 -13904483.40846  21960427.7154
  22898675.541   -10929519.105 6  -8285121.87246  22898680.1764
  23238967.442    -8920900.532 6  -6817449.45146  23238973.2094
 02  1 30  2 39 29.9990000  0  7 10 04 27 08 24 13 02
  21157899.674   -21588015.131 8  -8916633.00247  21157905.2294
  23818950.302    -9754350.355 5   1262331.21545  23818955.0694
  21162337.416   -17519495.740 8 -13465616.90547  21162342.3904
  19954155.234   -23704434.521 6 -18239051.34347  19954161.1324
  21971404.079   -18040291.359 7 -13859509.83246  21971410.8074
  22912101.083   -10858967.318 6  -8230146.47646  22912105.3254
  23236976.265    -8931364.052 6  -6825602.83346  23236983.2094
 02  1 30  2 39 59.9990000  0  7 10 04 27 08 24 13 02
  21144900.325   -21656327.024 8  -8969863.04047  21144906.0164
  23837773.583    -9655433.460 5   1339409.25745  23837776.9694
  21169119.493   -17483855.653 8 -13437845.42447  21169124.4914
  19948295.229   -23735228.980 6 -18263047.00047  19948300.6504
  21982469.177   -17982144.082 7 -13814200.27546  21982476.5914
  22925543.662   -10788325.990 6  -8175101.33845  22925547.3554
  23235071.704    -8941372.774 6  -6833401.79246  23235078.6274
 02  1 30  2 40 29.9990000  0  7 10 04 27 08 24 13 02
  21131965.639   -21724299.029 8  -9022828.22047  21131971.3284
  23856607.556    -9556460.655 5   1416530.85545  23856612.7134
  21175973.770   -17447836.272 8 -13409778.37947  21175979.2034
  19942540.000   -23765472.786 6 -18286613.56947  19942545.1434
  21993616.028   -17923567.139 7 -13768555.92946  21993622.7224
  22939003.426   -10717594.622 6  -8119986.02346  22939007.8414
  23233253.880    -8950925.289 6  -6840845.25946  23233259.3804
 02  1 30  2 40 59.9990000  0  7 10 04 27 08 24 13 02
  21119096.461   -21791926.857 8  -9075525.21346  21119102.3754
  23875452.000    -9457432.839 4   1493695.34245  23875458.0504
  21182900.297   -17411437.125 8 -13381415.40247  21182906.2634
  19936889.981   -23795163.828 6 -18309749.42347  19936895.4854
  22004844.539   -17864561.198 7 -13722577.33646  22004850.9954
  22952480.634   -10646771.691 6  -8064799.36946  22952484.2004
  23231523.359    -8960018.910 6  -6847931.16446  23231528.6644
 02  1 30  2 41 29.9990000  0  7 10 04 27 08 24 13 02
  21106292.690   -21859211.163 8  -9127954.54347  21106298.2374
  23894305.867    -9358355.363 5   1570898.45745  23894312.8264
  21189898.255   -17374662.591 8 -13352759.93047  21189903.5114
  19931344.661   -23824304.500 6 -18332456.42447  19931350.2184
  22016153.688   -17805131.665 7 -13676268.67246  22016160.6294
  22965974.638   -10575860.379 6  -8009543.81746  22965978.9094
  23229879.774    -8968655.974 6  -6854661.28246  23229886.5464
 02  1 30  2 41 59.9990000  0  7 10 04 27 08 24 13 02
  21093554.842   -21926149.088 8  -9180113.96447  21093560.2454
  23913168.762    -9259230.520 4   1648138.55045  23913178.0534
  21196967.519   -17337513.399 8 -13323812.51647  21196972.7864
  19925904.188   -23852894.147 6 -18354734.05547  19925909.9734
  22027543.019   -17745280.110 7 -13629631.12346  22027550.1334
  22979485.475   -10504860.618 6  -7954219.38446  22979489.9764
  23228323.382    -8976835.176 6  -6861034.67546  23228330.9854
 02  1 30  2 42 29.9990000  0  7 10 04 27 08 24 13 02
  21080884.437   -21992732.025 8  -9231996.77147  21080889.9154
  23932041.406    -9160054.577 4   1725418.41345  23932050.5114
  21204108.973   -17299984.758 8 -13294569.40247  21204114.3434
  19920569.865   -23880926.074 6 -18376577.10647  19920575.2474
  22039013.603   -17685001.977 7 -13582661.17346  22039021.2544
  22993014.349   -10433766.153 6  -7898821.13446  22993019.8784
  23226855.400    -8984549.661 6  -6867045.95046  23226861.8334
 02  1 30  2 42 59.9990000  0  7 10 04 27 08 24 13 02
  21068281.034   -22058962.798 8  -9283605.15047  21068286.7804
  23950922.282    -9060835.123 5   1802732.24945  23950929.4664
  21211321.394   -17262083.070 8 -13265035.62147  21211327.2034
  19915340.838   -23908404.745 6 -18397989.05947  19915346.2034
  22050563.800   -17624305.319 7 -13535365.10846  22050570.3934
  23006560.229   -10362582.246 6  -7843353.20846  23006566.1234
  23225474.962    -8991803.558 6  -6872698.27946  23225479.9044
 02  1 30  2 43 29.9990000  0  7 10 04 27 08 24 13 02
  21055745.051   -22124839.615 8  -9334937.73347  21055750.8884
  23969810.884    -8961575.326 5   1880077.43945  23969816.1384
  21218604.386   -17223810.599 8 -13235212.90047  21218609.3884
  19910216.968   -23935330.879 6 -18418970.44747  19910222.5514
  22062193.106   -17563192.831 6 -13487745.03446  22062199.4984
  23020122.876   -10291310.272 6  -7787816.66246  23020128.0604
  23224182.102    -8998597.028 6  -6877991.86546  23224187.8874
 02  1 30  2 43 59.9990000  0  8 10 04 27 26 08 24 13 02
  21043277.080   -22190359.242 8  -9385991.98147  21043282.8624
  23988706.844    -8862276.993 5   1957452.66845  23988715.7224
  21225957.831   -17185167.871 8 -13205101.68547  21225963.3234
  24762348.624      -74196.53413
  19905198.467   -23961703.318 6 -18439520.39447  19905204.0634
  22073901.266   -17501666.038 7 -13439802.09146  22073909.0024
  23033702.502   -10219949.308 6  -7732210.74946  23033707.0534
  23222977.137    -9004928.800 6  -6882925.69946  23222982.7614
 02  1 30  2 44 29.9990000  0  8 10 04 27 26 08 24 13 02
  21030878.036   -22255516.627 8  -9436763.97247  21030883.6124
  24007610.200    -8762939.571 5   2034858.41145  24007618.8394
  21233382.091   -17146153.236 8 -13174700.66847  21233387.8464
  24743943.519     -170912.734 3
  19900285.960   -23987518.690 6 -18459636.25647  19900291.6784
  22085688.406   -17439724.318 7 -13391535.84446  22085694.6054
  23047299.543   -10148496.582 6  -7676533.35846  23047303.1654
  23221860.804    -9010795.235 6  -6887496.92046  23221867.0554
 02  1 30  2 44 59.9990000  0  8 10 04 27 26 08 24 13 02
  21018548.374   -22320309.359 8  -9487251.81147  21018554.2364
  24026520.550    -8663565.550 5   2112292.67945  24026524.4234
  21240876.831   -17106768.138 8 -13144010.96947  21240882.0774
  24725552.838     -267555.467 4
  19895479.500   -24012776.864 6 -18479317.93247  19895484.8614
  22097554.077   -17377370.021 6 -13342948.13646  22097560.5234
  23060914.007   -10076952.199 6  -7620784.53345  23060918.8884
  23220833.115    -9016195.730 6  -6891705.05146  23220839.2384
 02  1 30  2 45 29.9990000  0  8 10 04 27 26 08 24 13 02
  21006288.099   -22384737.606 8  -9537455.63247  21006293.5324
  24045436.746    -8564160.452 5   2189751.15745  24045442.5534
  21248441.337   -17067016.607 8 -13113035.76147  21248445.8074
  24707175.990     -364126.628 5
  19890778.644   -24037480.170 6 -18498567.24747  19890783.8504
  22109497.163   -17314608.570 6 -13294043.11846  22109504.1164
  23074545.314   -10005319.216 6  -7564966.64745  23074550.7004
  23219893.659    -9021132.408 6  -6895551.77446  23219899.9864
 02  1 30  2 45 59.9990000  0  8 10 04 27 26 08 24 13 02
  20994096.889   -22448802.866 8  -9587376.59947  20994102.8104
  24064357.594    -8464730.317 3   2267229.03044  24064363.0114
  21256074.567   -17026903.874 8 -13081779.08247  21256079.6454
  24688812.075     -460629.249 4    -47616.88255  24688815.8444
  19886182.683   -24061632.221 6 -18517387.02147  19886187.6444
  22121516.791   -17251445.556 7 -13244825.24446  22121522.8624
  23088192.756    -9933601.415 6  -7509082.70245  23088197.3684
  23219041.922    -9025608.354 6  -6899039.51046  23219048.6454
 02  1 30  2 46 29.9990000  0  8 10 04 27 26 08 24 13 02
  20981974.844   -22512504.596 8  -9637014.29547  20981980.5674
  24083282.791    -8365279.018 4   2344723.48745  24083285.2224
  21263775.865   -16986433.157 8 -13050243.45047  21263781.0754
  24670460.984     -557064.652 3   -122761.22245  24670466.4334
  19881691.343   -24085234.414 6 -18535778.31147  19881696.3074
  22133612.040   -17187885.108 6 -13195297.68646  22133619.2584
  23101855.969    -9861800.823 6  -7453134.24745  23101860.3404
  23218277.624    -9029624.819 6  -6902169.19246  23218283.0094
 02  1 30  2 46 59.9990000  0  8 10 04 27 26 08 24 13 02
  20969923.994   -22575832.454 8  -9686360.66947  20969929.5114
  24102212.648    -8265801.752 3   2422238.24345  24102221.2894
  21271546.531   -16945597.982 8 -13018423.83847  21271550.7354
  24652124.206     -653424.100 2   -197846.41445  24652131.1664
  19877306.111   -24108278.919 6 -18553735.05147  19877311.0944
  22145783.798   -17123921.859 6 -13145456.21446  22145791.0904
  23115536.381    -9789909.953 6  -7397115.42245  23115539.9504
  23217602.324    -9033173.209 6  -6904934.13346  23217607.7344
 02  1 30  2 47 29.9990000  0  9 10 04 27 28 26 08 24 13 02
  20957943.254   -22638791.687 8  -9735419.80347  20957948.8214
  24121145.724    -8166308.738 4   2499764.94943  24121143.1454
  21279384.789   -16904407.645 7 -12986327.46347  21279390.6784
  23826706.064      -98621.935 5
  24633800.608     -749714.981 2   -272878.18545  24633806.5654
  19873025.537   -24130773.389 6 -18571263.22247  19873030.5914
  22158030.204   -17059566.105 6 -13095308.92546  22158036.7954
  23129232.506    -9717936.705 6  -7341032.43345  23129236.7424
  23217014.612    -9036261.090 6  -6907340.26446  23217021.6894
 02  1 30  2 47 59.9990000  0  9 10 04 27 28 26 08 24 13 02
  20946034.002   -22701375.227 8  -9784186.19147  20946039.8534
  24140082.131    -8066796.896 1   2577306.87144  24140092.3514
  21287291.373   -16862858.169 8 -12953951.24047  21287297.2514
  23807306.114     -200561.596 3    -15879.09655  23807315.4484
  24615491.211     -845931.406 3   -347851.81144  24615496.9154
  19868850.701   -24152712.239 6 -18588358.43247  19868856.0434
  22170351.936   -16994814.971 6 -13044853.56446  22170358.8154
  23142945.307    -9645875.962 6  -7284881.21645  23142951.3774
  23216515.688    -9038882.662 6  -6909383.05046  23216522.1864
 02  1 30  2 48 29.9990000  0  8 10 27 28 26 08 24 13 02
  20934195.958   -22763584.612 8  -9832661.04047  20934201.5044
  21295265.199   -16820955.246 8 -12921299.61147  21295270.2284
  23787923.327     -302415.625 3    -95245.83945  23787930.7474
  24597194.983     -942076.795 2   -422770.08345  24597204.3064
  19864780.802   -24174099.778 6 -18605024.03047  19864786.2294
  22182747.741   -16929674.978 7 -12994095.12846  22182754.7024
  23156673.891    -9573732.364 6  -7228665.44946  23156679.3054
  23216104.801    -9041041.818 6  -6911065.49846  23216111.2324
 02  1 30  2 48 59.9990000  0  8 10 27 28 26 08 24 13 02
  20922429.957   -22825415.533 8  -9880840.96847  20922435.7304
  21303306.449   -16778698.297 7 -12888372.12547  21303312.4664
  23768558.369     -404178.600 5   -174541.60545  23768561.3184
  24578913.116    -1038148.378 3   -497630.89645  24578922.0864
  19860816.244   -24194933.674 6 -18621258.19647  19860821.4724
  22195217.449   -16864146.477 6 -12943033.98546  22195224.7214
  23170418.637    -9501503.683 6  -7172383.40646  23170423.2134
  23215782.432    -9042735.877 6  -6912385.48846  23215789.2274
 02  1 30  2 49 29.9990000  0  8 10 27 28 26 08 24 13 02
  20910736.924   -22886863.118 7  -9928722.21347  20910741.9504
  21311415.272   -16736086.124 8 -12855167.81247  21311420.0404
  23749211.813     -505844.648 5   -253761.85345  23749215.7504
  24560645.799    -1134143.240 3   -572431.94945  24560655.4714
  19856957.516   -24215211.238 6 -18637058.87547  19856962.5554
  22207761.052   -16798229.302 6 -12891669.96746  22207767.8814
  23184179.973    -9429187.431 6  -7116033.11745  23184185.2564
  23215549.148    -9043961.689 6  -6913340.63346  23215556.3924
 02  1 30  2 49 59.9990000  0  8 10 27 28 26 08 24 13 02
  20899115.777   -22947932.776 8  -9976308.95947  20899121.2264
  21319589.962   -16693127.818 8 -12821693.81547  21319594.3814
  23729882.802     -607418.319 5   -332910.14145  23729886.9134
  24542391.692    -1230068.043 4   -647178.37545  24542398.8644
  19853203.188   -24234940.138 6 -18652432.03247  19853208.5094
  22220376.607   -16731933.932 6 -12840011.27746  22220382.2604
  23197956.362    -9356791.917 6  -7059621.04845  23197962.1684
  23215403.640    -9044726.518 6  -6913936.59846  23215409.5484
 02  1 30  2 50 29.9990000  0  8 10 27 28 26 08 24 13 02
  20887567.486   -23008619.292 8 -10023597.14147  20887573.5154
  21327830.793   -16649821.977 8 -12787949.00247  21327836.7894
  23710572.621     -708893.561 5   -411981.75945  23710577.9344
  24524151.785    -1325919.448 5   -721867.64645  24524156.2864
  19849553.796   -24254117.572 6 -18667375.49047  19849559.0484
  22233064.354   -16665259.699 7 -12788057.39446  22233071.6434
  23211748.417    -9284313.969 5  -7003144.78845  23211753.9174
  23215346.441    -9045027.118 6  -6914170.79946  23215353.2324
 02  1 30  2 50 59.9990000  0  8 10 27 28 26 08 24 13 02
  20876093.284   -23068916.442 8 -10070581.92447  20876099.1584
  21336138.210   -16606166.353 8 -12753931.63547  21336142.4724
  23691282.593     -810263.397 5   -490971.15045  23691288.9764
  24505926.630    -1421693.095 4   -796496.25145  24505934.1274
  19846010.124   -24272739.732 6 -18681886.26347  19846015.4154
  22245824.419   -16598205.447 6 -12735807.34246  22245832.0504
  23225556.862    -9211750.252 6  -6946601.64645  23225560.5794
  23215378.256    -9044859.424 6  -6914040.08746  23215384.9664
 02  1 30  2 51 29.9990000  0  8 10 27 28 26 08 24 13 02
  20864692.970   -23128825.443 8 -10117264.25647  20864698.7474
  21344511.290   -16562165.745 8 -12719645.46047  21344516.2244
  23672012.330     -911528.228 5   -569878.76845  23672017.7094
  24487715.583    -1517392.034 5   -871066.77445  24487720.6284
  19842571.485   -24290809.898 6 -18695966.88447  19842576.3994
  22258655.567   -16530776.908 6 -12683265.64846  22258663.0374
  23239380.977    -9139104.523 5  -6889994.61945  23239385.7684
  23215498.637    -9044226.510 6  -6913546.89546  23215504.6334
 02  1 30  2 51 59.9990000  0  8 10 27 28 26 08 24 13 02
  20853366.912   -23188344.280 8 -10163642.55447  20853372.2944
  21352949.608   -16517822.131 8 -12685091.98747  21352954.9434
  23652762.598    -1012685.331 5   -648702.51445  23652768.7664
  24469518.920    -1613015.869 3   -945578.72445  24469527.6244
  19839237.744   -24308328.747 6 -18709617.90647  19839242.6274
  22271557.472   -16462977.251 6 -12630434.79346  22271565.0784
  23253220.639    -9066377.065 6  -6833323.89645  23253225.2694
  23215707.556    -9043128.542 6  -6912691.33446  23215713.8064
 02  1 30  2 52 29.9990000  0  8 10 27 28 26 08 24 13 02
  20842115.335   -23247471.722 8 -10209715.87747  20842120.7994
  21361452.689   -16473137.982 8 -12650273.17647  21361457.4964
  23633533.896    -1113732.360 4   -727440.40845  23633538.9874
  24451336.463    -1708564.753 4  -1020032.22845  24451343.6144
  19836008.739   -24325297.156 6 -18722840.02547  19836013.6394
  22284529.399   -16394809.907 6 -12577317.40046  22284536.4074
  23267075.590    -8993569.007 6  -6776590.41045  23267080.5424
  23216004.949    -9041566.061 6  -6911473.76746  23216010.9404
 02  1 30  2 52 59.9990000  0  8 10 27 28 26 08 24 13 02
  20830938.053   -23306208.796 7 -10255485.01747  20830943.2254
  21370019.643   -16428118.195 7 -12615192.81547  21370024.9074
  23614326.188    -1214669.662 5   -806092.81945  23614333.0024
  24433167.889    -1804041.683 5  -1094429.67845  24433176.2664
  19832883.825   -24341718.709 6 -18735636.03047  19832888.9664
  22297570.182   -16326280.464 6 -12523917.86246  22297577.7834
  23280945.097    -8920684.070 5  -6719797.01045  23280950.2994
  23216390.141    -9039542.163 6  -6909896.70546  23216396.2414
 02  1 30  2 53 29.9990000  0  8 10 27 28 26 08 24 13 02
  20819835.862   -23364551.267 7 -10300946.68647  20819841.1184
  21378650.580   -16382762.126 8 -12579850.42647  21378655.4624
  23595140.401    -1315491.982 5   -884655.61645  23595144.7514
  24415013.227    -1899443.857 2  -1168768.92745  24415023.8454
  19829863.380   -24357591.321 6 -18748004.27347  19829868.7354
  22310679.689   -16257389.535 6 -12470236.64346  22310687.2184
  23294829.574    -8847720.349 6  -6662942.19645  23294834.4434
  23216863.538    -9037054.693 6  -6907958.38546  23216870.0874
 02  1 30  2 53 59.9990000  0  8 10 27 28 26 08 24 13 02
  20808809.842   -23422493.473 8 -10346096.47847  20808815.3504
  21387345.939   -16337067.707 7 -12544244.38347  21387351.6024
  23575977.609    -1416192.496 5   -963123.48745  23575983.6604
  24396873.650    -1994767.030 3  -1243046.68345  24396883.5494
  19826948.057   -24372911.413 6 -18759941.99147  19826953.5894
  22323858.090   -16188136.474 6 -12416273.29346  22323864.6574
  23308729.725    -8774674.315 6  -6606023.29045  23308733.5204
  23217425.849    -9034099.609 6  -6905655.69746  23217431.3904
 02  1 30  2 54 29.9990000  0  8 10 27 28 26 08 24 13 02
  20797859.738   -23480036.575 8 -10390935.25747  20797865.5404
  21396104.738   -16291039.886 8 -12508378.54347  21396110.3194
  23556837.964    -1516771.355 4  -1041496.66045  23556846.7434
  24378748.901    -2090014.085 5  -1317265.01045  24378753.3604
  19824137.100   -24387682.932 6 -18771452.25947  19824142.7694
  22337104.241   -16118527.185 6 -12362032.32946  22337111.0894
  23322644.902    -8701549.679 5  -6549043.08245  23322650.2394
  23218076.541    -9030680.017 6  -6902991.05946  23218081.8724
 02  1 30  2 54 59.9990000  0  8 10 27 28 26 08 24 13 02
  20786986.325   -23537176.400 8 -10435459.78347  20786991.3714
  21404927.035   -16244678.538 8 -12472252.82547  21404931.9344
  23537722.531    -1617223.991 5  -1119771.38445  23537727.1304
  24360638.735    -2185182.765 3  -1391422.34145  24360646.2174
  19821430.883   -24401903.988 6 -18782533.60247  19821436.1524
  22350418.148   -16048562.270 6 -12307514.26946  22350424.6034
  23336575.421    -8628344.786 6  -6492000.35345  23336581.0354
  23218816.026    -9026794.018 6  -6899962.99446  23218822.4204
 02  1 30  2 55 29.9990000  0  8 10 27 28 26 08 24 13 02
  20776189.098   -23593916.069 8 -10479672.52147  20776194.7704
  21413811.480   -16197990.626 8 -12435872.62247  21413816.4784
  23518630.494    -1717552.537 5  -1197949.43545  23518637.9134
  24342542.682    -2280277.697 4  -1465522.17245  24342549.9604
  19818828.331   -24415580.436 6 -18793190.56447  19818834.0074
  22363798.253   -15978249.679 6 -12252725.28846  22363806.9224
  23350520.096    -8555065.331 5  -6434899.47045  23350525.8404
  23219643.223    -9022447.007 6  -6896575.69846  23219648.2154
 02  1 30  2 55 59.9990000  0  8 10 27 28 26 08 24 13 02
  20765470.276   -23650243.765 8 -10523564.24547  20765476.2844
  21422759.586   -16150968.028 8 -12399231.63947  21422764.3354
  23499564.612    -1817744.223 5  -1276020.85945  23499572.4384
  24324462.631    -2375288.845 5  -1539556.75945  24324469.8904
  19816331.260   -24428702.721 6 -18803415.70747  19816336.9794
  22377245.773   -15907582.323 6 -12197659.85246  22377253.4194
  23364480.575    -8481702.184 5  -6377733.44345  23364487.0934
  23220559.958    -9017629.182 6  -6892821.54546  23220566.1414
 02  1 30  2 56 29.9990000  0  8 10 27 28 26 08 24 13 02
  20754828.085   -23706168.817 8 -10567142.18347  20754833.9744
  21431768.833   -16103624.032 7 -12362340.23046  21431774.5044
  23480523.260    -1917807.505 5  -1353992.23645  23480527.7714
  24306396.215    -2470227.331 4  -1613534.69045  24306401.9314
  19813937.327   -24441282.941 6 -18813218.45247  19813943.1754
  22390758.052   -15836574.898 6 -12142329.44846  22390765.7574
  23378454.858    -8408266.462 5  -6320510.85245  23378459.6534
  23221564.082    -9012352.042 6  -6888709.47746  23221570.3944
 02  1 30  2 56 59.9990000  0  8 10 27 28 26 08 24 13 02
  20744265.084   -23761677.567 8 -10610395.75947  20744270.7334
  21440841.196   -16055948.197 7 -12325190.22746  21440847.0934
  23461509.041    -2017727.434 4  -1431851.87645  23461516.5524
  24288346.169    -2565080.336 5  -1687446.00145  24288353.1854
  19811648.754   -24453309.294 7 -18822589.62447  19811654.5804
  22404336.878   -15765218.362 6 -12086726.98946  22404343.3034
  23392445.281    -8334746.668 5  -6263222.72845  23392450.5794
  23222657.947    -9006603.555 6  -6884230.10646  23222663.6964
 02  1 30  2 57 29.9990000  0  8 10 27 28 26 08 24 13 02
  20733780.845   -23816772.676 8 -10653327.01247  20733786.4344
  21449975.431   -16007947.209 8 -12287786.85346  21449980.0664
  23442521.841    -2117505.933 5  -1509601.30845  23442529.2744
  24270311.634    -2659852.652 4  -1761294.39445  24270316.0614
  19809464.493   -24464787.395 7 -18831533.57847  19809470.2674
  22417980.600   -15693520.255 6 -12030858.36546  22417987.7184
  23406450.700    -8261148.137 5  -6205873.26345  23406455.0524
  23223840.566    -9000388.903 6  -6879387.49346  23223846.3394
 02  1 30  2 57 59.9990000  0  8 10 27 28 26 08 24 13 02
  20723375.715   -23871452.242 8 -10695934.46247  20723381.6744
  21459171.231   -15959622.773 7 -12250131.45746  21459177.0364
  23423562.070    -2217140.216 5  -1587238.37545  23423569.2184
  24252292.133    -2754543.870 2  -1835079.57245  24252307.4964
  19807384.512   -24475717.526 7 -18840050.55247  19807390.2614
  22431688.845   -15621483.094 6 -11974725.55746  22431696.3844
  23420471.017    -8187471.414 6  -6148462.91245  23420477.6524
  23225111.923    -8993708.084 6  -6874181.64146  23225119.1144
 02  1 30  2 58 29.9990000  0  8 10 27 28 26 08 24 13 02
  20713050.528   -23925711.711 8 -10738214.57447  20713056.4314
  21468428.762   -15910974.087 8 -12212223.39747  21468433.6544
  23404630.865    -2316624.393 5  -1664758.47445  23404636.5064
  24234288.631    -2849150.843 2  -1908799.26745  24234295.9484
  19805409.212   -24486097.771 6 -18848139.03747  19805414.8244
  22445461.672   -15549107.263 6 -11918328.88046  22445469.2364
  23434506.568    -8113714.420 6  -6090989.97745  23434511.6444
  23226472.439    -8986558.628 6  -6868610.63946  23226478.0724
 02  1 30  2 58 59.9990000  0  8 10 27 28 26 08 24 13 02
  20702804.567   -23979554.590 8 -10780170.06847  20702810.5804
  21477746.675   -15862008.467 7 -12174068.38046  21477753.0174
  23385727.681    -2415961.517 5  -1742163.97845  23385732.3944
  24216300.704    -2943679.102 4  -1982457.61045  24216308.9144
  19803537.369   -24495934.384 6 -18855803.91947  19803542.7914
  22459297.180   -15476401.774 6 -11861675.27646  22459304.8624
  23448556.292    -8039882.967 6  -6033459.02045  23448559.6814
  23227921.015    -8978946.321 6  -6862678.95346  23227927.1414
 02  1 30  2 59 29.9990000  0  8 10 27 28 26 08 24 13 02
  20692638.146   -24032979.497 8 -10821799.85747  20692644.1244
  21487124.442   -15812728.139 8 -12135668.10746  21487129.8694
  23366852.844    -2515149.022 5  -1819452.88545  23366856.3254
  24198327.680    -3038128.436 4  -2056054.34145  24198332.9854
  19801768.806   -24505228.229 6 -18863045.87647  19801774.1044
  22473194.715   -15403369.450 6 -11804767.00846  22473201.7504
  23462619.984    -7965977.536 5  -5975870.44545  23462626.2394
  23229457.531    -8970871.827 6  -6856387.11346  23229464.1544
 02  1 30  2 59 59.9990000  0  8 10 27 28 26 08 24 13 02
  20682551.990   -24085982.834 7 -10863101.16747  20682558.0284
  21496562.085   -15763133.179 7 -12097022.69947  21496567.5434
  23348007.443    -2614182.007 5  -1896621.43045  23348013.9344
  24180369.806    -3132496.730 5  -2129587.97945  24180377.7654
  19800103.721   -24513978.169 6 -18869863.99747  19800109.1584
  22487154.338   -15330011.424 6 -11747604.98546  22487161.6874
  23476697.949    -7891997.090 5  -5918223.34545  23476703.0514
  23231082.261    -8962333.658 6  -6849733.97646  23231088.4224
 02  1 30  3  0 29.9990000  0  8 10 27 28 26 08 24 13 02
  20672547.055   -24138559.419 8 -10904069.93747  20672553.2404
  21506059.840   -15713222.322 7 -12058131.10246  21506065.9694
  23329192.608    -2713054.617 5  -1973665.00045  23329199.3844
  24162428.216    -3226780.454 5  -2203055.71145  24162434.7194
  19798542.630   -24522181.736 6 -18876256.38147  19798548.3274
  22501175.929   -15256327.692 6 -11690189.10846  22501183.4124
  23490790.769    -7817938.670 5  -5860515.54545  23490797.1584
  23232795.815    -8953328.820 6  -6842717.18646  23232800.8394
 02  1 30  3  0 59.9990000  0  8 10 27 28 26 08 24 13 02
  20662621.939   -24190716.121 8 -10944711.51447  20662627.6204
  21515615.623   -15663006.099 7 -12019001.59846  21515620.3054
  23310407.172    -2811772.661 5  -2050588.12045  23310414.4394
  24144500.994    -3320988.248 4  -2276464.21845  24144505.2904
  19797083.717   -24529848.386 6 -18882230.37147  19797088.8294
  22515257.265   -15182329.998 6 -11632528.61046  22515265.2674
  23504896.656    -7743811.894 5  -5802754.46945  23504897.9494
  23234596.414    -8943866.248 6  -6835343.75546  23234602.0274
 02  1 30  3  1 29.9990000  0  8 10 27 28 26 08 24 13 02
  20652779.370   -24242438.735 8 -10985014.83447  20652784.8594
  21525231.562   -15612474.000 7 -11979625.94846  21525236.7594
  23291654.178    -2910321.007 5  -2127379.06245  23291660.2164
  24126590.401    -3415107.356 3  -2349803.79945  24126600.4514
  19795729.166   -24536966.577 6 -18887776.98947  19795734.1444
  22529400.151   -15108009.144 6 -11574616.28346  22529408.5624
  23519017.964    -7669604.435 5
  23236486.470    -8933933.963 6  -6827604.33446  23236493.4064
 02  1 30  3  1 59.9990000  0  8 10 27 28 26 08 24 13 02
  20643018.681   -24293731.448 8 -11024983.18647  20643024.3784
  21534906.120   -15561633.788 7 -11940010.19646  21534911.4974
  23272932.833    -3008702.632 6  -2204040.02145  23272937.8144
  24108695.930    -3509143.229 4  -2423078.38445  24108704.7604
  19794477.741   -24543542.960 6 -18892901.43647  19794482.4704
  22543602.899   -15033373.659 6 -11516458.78946  22543610.6994
  23533153.372    -7595322.635 5
  23238464.754    -8923538.329 6  -6819503.80246  23238471.6654
 02  1 30  3  2 29.9990000  0  8 10 27 28 26 08 24 13 02
  20633340.749   -24344589.271 8 -11064612.65347  20633345.9404
  21544639.546   -15510484.381 7 -11900153.53146  21544645.1834
  23254244.164    -3106911.604 5  -2280566.44345  23254249.5204
  24090817.911    -3603092.671 4  -2496285.59145  24090826.3894
  19793329.863   -24549575.245 6 -18897601.90947  19793334.7264
  22557865.291   -14958424.018 6 -11458056.49446  22557875.0824
  23547303.437    -7520963.963 5     38633.11855  23547307.3754
  23240531.678    -8912676.694 6  -6811040.14146  23240538.4164
 02  1 30  3  2 59.9990000  0  8 10 27 28 26 08 24 13 02
  20623745.403   -24395013.133 8 -11103903.96647  20623751.1174
  21554430.868   -15459030.637 7 -11860059.71046  21554437.3204
  23235588.394    -3204948.238 5  -2356958.59645  23235593.9644
  24072955.858    -3696958.233 4  -2569427.53345  24072963.4854
  19792284.806   -24555067.141 6 -18901881.28947  19792289.7694
  22572186.496   -14883165.710 6 -11399413.71246  22572194.6214
  23561467.480    -7446531.902 5     96632.06445  23561473.4474
  23242686.586    -8901352.437 6  -6802216.01246  23242692.3774
 02  1 30  3  3 29.9990000  0  8 10 27 28 26 08 24 13 02
  20614232.679   -24445002.957 6 -11142857.07947  20614238.4754
  21564279.482   -15407275.728 8 -11819731.20046  21564284.5944
  23216965.681    -3302810.933 5  -2433215.18145  23216970.7174
  24055109.692    -3790741.251 4  -2642505.13945  24055115.5984
  19791342.099   -24560021.030 6 -18905741.44847  19791347.2994
  22586565.528   -14807603.537 6 -11340534.16246  22586572.5624
  23575645.129    -7372028.367 6    154686.73345  23575649.3044
  23244929.194    -8889567.296 6  -6793032.77646  23244934.9504
 02  1 30  3  3 59.9990000  0  8 10 27 28 26 08 24 13 02
  20604802.342   -24494559.974 7 -11181472.94947  20604808.0904
  21574184.495   -15355224.699 7 -11779171.97246  21574190.3664
  23198376.027    -3400499.977 5  -2509336.52145  23198381.6534
  24037278.615    -3884444.397 3  -2715520.34845  24037287.2284
  19790501.035   -24564440.600 6 -18909185.23847  19790506.7284
  22601001.171   -14731743.697 6 -11281422.58546  22601008.8544
  23589835.640    -7297456.800 5    212794.43645  23589839.6944
  23247258.750    -8877325.040 6  -6783493.33846  23247265.5404
 02  1 30  3  4 29.9990000  0  8 10 27 28 26 08 24 13 02
  20595456.259   -24543673.879 8 -11219743.51047  20595462.1014
  21584147.062   -15302871.032 8 -11738376.89746  21584151.7524
  23179821.550    -3498004.196 6  -2585313.76445  23179826.5964
  24019464.300    -3978058.839 3  -2788466.67745  24019464.2424
  19789763.053   -24568318.548 6 -18912207.00047  19789768.8264
  22615494.650   -14655580.520 6 -11222074.72646  22615501.2954
  23604040.508    -7222809.625 6    270961.05245  23604047.5514
  23249676.890    -8864617.542 6  -6773591.36546  23249682.8764
 02  1 30  3  4 59.9990000  0  8 10 27 28 26 08 24 13 02
  20586194.443   -24592344.858 8 -11257668.94947  20586200.0314
  21594166.452   -15250218.678 7 -11697349.10446  21594172.0974
  23161302.408    -3595322.680 5  -2661146.33245  23161307.5464
  24001666.592    -4071586.452 4  -2861345.25945  24001674.2564
  19789127.634   -24571657.755 6 -18914808.97547  19789133.0084
  22630044.780   -14579119.060 6 -11162494.38146  22630053.2794
  23618259.470    -7148088.465 5    329185.26745  23618267.0404
  23252183.087    -8851447.523 6  -6763328.99146  23252189.4914
 02  1 30  3  5 29.9990000  0  8 10 27 28 26 08 24 13 02
  20577017.448   -24640570.176 8 -11295247.11747  20577023.2984
  21604242.591   -15197268.144 7 -11656088.92646  21604248.4074
  23142819.430    -3692451.428 6  -2736831.03545  23142825.7464
  23983885.501    -4165025.629 3  -2934154.89745  23983897.1774
  19788594.800   -24574457.954 6 -18916990.94247  19788599.8864
  22644651.314   -14502361.675 6 -11102683.46646  22644658.7024
  23632492.681    -7073293.061 5    387467.35045  23632498.3654
  23254777.455    -8837814.042 6  -6752705.49646  23254782.8554
 02  1 30  3  5 59.9990000  0  7 10 27 28 08 24 13 02
  20567925.625   -24688348.106 8 -11332476.69547  20567931.6844
  21614375.059   -15144021.395 7 -11614597.97846  21614380.0394
  23124373.096    -3789387.604 6  -2812365.67145  23124379.3924
  19788164.363   -24576719.963 6 -18918753.53947  19788169.7544
  22659313.530   -14425311.362 6 -11042644.30046  22659321.1234
  23646739.890    -6998423.843 5    445806.92445  23646745.2344
  23257459.856    -8823717.630 6  -6741721.27746  23257465.8314
 02  1 30  3  6 29.9990000  0  8 10 27 28 26 08 24 13 02
  20558918.859   -24735679.061 8 -11369357.96147  20558924.5224
  21624563.222   -15090482.342 7 -11572879.21646  21624568.9774
  23105963.446    -3886130.422 6  -2887749.68045  23105969.4864
  23948374.023      -90150.937 4
  19787835.724   -24578446.731 6 -18920099.04647  19787840.8814
  22674030.597   -14347973.026 6 -10982380.70146  22674037.6264
  23661000.694    -6923483.059 5    504202.26745  23661005.4654
  23260229.823    -8809160.892 6  -6730378.30946  23260235.6344
 02  1 30  3  6 59.9990000  0  8 10 27 28 26 08 24 13 02
  20549997.748   -24782559.874 8 -11405888.46447  20550003.5554
  21634806.853   -15036651.717 7 -11530933.29246  21634811.1864
  23087591.403    -3982675.853 5  -2962979.86845  23087597.3184
  23930642.843     -183325.973 3
  19787608.968   -24579638.090 6 -18921027.36547  19787614.0124
  22688802.140   -14270348.310 6 -10921893.94946  22688808.7104
  23675275.155    -6848470.237 5    562653.77745  23675280.4544
  23263087.547    -8794143.160 6  -6718676.17146  23263093.3914
 02  1 30  3  7 29.9990000  0  8 10 27 28 26 08 24 13 02
  20541161.718   -24828993.560 7 -11442070.56247  20541167.1384
  21645104.671   -14982536.437 7 -11488765.54546  21645110.6614
  23069256.620    -4079025.944 6  -3038057.82245  23069263.0614
  23912927.964     -276417.058 3    -38675.58155  23912933.2994
  19787483.018   -24580299.853 6 -18921543.02647  19787488.1714
  22703626.523   -14192445.641 6 -10861190.62446  22703633.6294
  23689562.362    -6773390.490 5    621157.41245  23689567.7414
  23266032.004    -8778670.021 6  -6706619.18546  23266038.2124
 02  1 30  3  7 59.9990000  0  8 10 27 28 26 08 24 13 02
  20532413.255   -24874966.911 7 -11477893.96347  20532419.1924
  21655458.523   -14928126.575 7 -11446368.24446  21655463.6134
  23050961.751    -4175166.109 6  -3112972.16845  23050968.3754
  23895231.609     -369412.381 4   -111139.40045  23895238.0764
  19787459.902   -24580421.340 6 -18921637.68047  19787465.1974
  22718505.435   -14114256.393 6 -10800263.95546  22718512.9464
  23703864.463    -6698232.601 5    679722.01045  23703872.6674
  23269065.262    -8762730.311 6  -6694198.60546  23269071.2414
 02  1 30  3  8 29.9990000  0  8 10 27 28 26 08 24 13 02
  20523751.116   -24920486.648 8 -11513363.88447  20523757.0674
  21665866.469   -14873432.527 7 -11403749.52146  21665872.3204
  23032705.724    -4271101.839 6  -3187727.23545  23032713.1744
  23877551.761     -462319.923 4   -183534.84145  23877558.0144
  19787537.819   -24580011.913 6 -18921318.64047  19787543.6514
  22733436.864   -14035791.860 6 -10739122.81546  22733444.5944
  23718179.952    -6623005.158 6    738340.71745  23718183.8094
  23272185.545    -8746333.002 6  -6681421.45946  23272191.8504
 02  1 30  3  8 59.9990000  0  8 10 27 28 26 08 24 13 02
  20515175.478   -24965551.922 6 -11548479.66847  20515181.4814
  21676327.999   -14818456.878 7 -11360911.34746  21676333.4504
  23014488.911    -4366831.299 5  -3262321.58445  23014495.0904
  23859888.693     -555139.957 5   -255862.09345  23859891.9114
  19787716.416   -24579073.422 6 -18920587.33547  19787722.3494
  22748419.807   -13957055.894 6 -10677770.16046  22748427.2174
  23732508.312    -6547709.788 5    797012.39745  23732512.0914
  23275392.669    -8729479.469 6  -6668288.81546  23275398.8184
 02  1 30  3  9 29.9990000  0  8 10 27 28 26 08 24 13 02
  20506686.823   -25010160.319 7 -11583239.44347  20506692.9954
  21686842.920   -14763200.777 7 -11317854.67546  21686847.8444
  22996312.146    -4462350.870 5  -3336752.37345  22996317.8804
  23842242.610     -647871.779 5   -328120.55545  23842245.6334
  19787995.615   -24577606.225 6 -18919444.06047  19788000.9384
  22763453.812   -13878051.319 6 -10616208.21646  22763461.4724
  23746849.640    -6472346.132 5    855737.34345  23746853.6404
  23278686.609    -8712169.674 6  -6654800.65546  23278690.8504
 02  1 30  3  9 59.9990000  0  8 10 27 28 26 08 24 13 02
  20498286.047   -25054306.875 8 -11617639.36747  20498291.7984
  21697411.420   -14707663.179 7 -11274578.59146  21697416.8444
  22978176.371    -4557654.852 5  -3411015.18845  22978183.0144
  23824613.867     -740511.944 5   -400307.63145  23824619.2614
  19788375.756   -24575608.366 6 -18917887.27747  19788381.3004
  22778539.003   -13798778.173 6 -10554436.95446  22778547.1994
  23761204.457    -6396911.394 5    914517.61045  23761208.9424
  23282067.800    -8694401.350 6  -6640955.22446  23282074.3754
 02  1 30  3 10 29.9990000  0  8 10 27 28 26 08 24 13 02
  20489972.852   -25097992.843 8 -11651680.37547  20489978.5044
  21708032.566   -14651848.837 7 -11231086.92246  21708036.7584
  22960081.649    -4652743.234 6  -3485109.99645  22960088.3104
  23807001.767     -833063.000 3   -472425.24445  23807006.8164
  19788856.117   -24573083.818 6 -18915920.08447  19788861.3984
  22793674.170   -13719242.413 6 -10492461.09446  22793681.0114
  23775572.166    -6321409.046 6    973350.55245  23775575.9374
  23285535.551    -8676178.178 6  -6626755.32546  23285541.6874
 02  1 30  3 10 59.9990000  0  8 10 27 28 26 08 24 13 02
  20481747.078   -25141219.253 8 -11685363.29047  20481752.4714
  21718705.531   -14595762.174 7 -11187383.01446  21718711.3114
  22942028.004    -4747615.509 6  -3559036.40545  22942033.5514
  23789406.229     -925527.099 4   -544475.21045  23789414.5014
  19789436.027   -24570036.223 6 -18913545.32947  19789440.8474
  22808858.275   -13639449.351 6 -10430284.76746  22808865.3004
  23789952.049    -6245841.760 5   1032234.11445  23789956.3744
  23289089.345    -8657503.116 6  -6612203.30646  23289094.8314
 02  1 30  3 11 29.9990000  0  8 10 27 28 26 08 24 13 02
  20473610.670   -25183976.420 8 -11718680.56747  20473616.5144
  21729431.482   -14539396.820 7 -11143461.96746  21729435.9314
  22924017.586    -4842260.899 5  -3632786.02945  22924023.8404
  23771829.104    -1017895.809 5   -616450.67045  23771837.5494
  19790116.842   -24566458.538 6 -18910757.51147  19790121.8514
  22824092.396   -13559394.068 6 -10367904.06246  22824100.3564
  23804345.766    -6170201.900 5   1091174.20445  23804350.4374
  23292730.472    -8638368.671 6  -6597293.35646  23292736.9394
 02  1 30  3 11 59.9990000  0  8 10 27 28 26 08 24 13 02
  20465563.641   -25226264.073 6 -11751631.99347  20465569.1144
  21740209.775   -14482756.501 7 -11099326.65846  21740215.2034
  22906050.578    -4936678.314 6  -3706358.00245  22906057.7874
  23754269.814    -1110170.636 4   -688353.01845  23754281.5004
  19790898.030   -24562353.478 6 -18907558.75647  19790903.1734
  22839375.525   -13479081.533 6 -10305322.88946  22839381.9934
  23818752.889    -6094491.770 5   1150169.07845  23818758.7434
  23296458.557    -8618777.433 6  -6582027.42246  23296465.5944
 02  1 30  3 12 29.9990000  0  8 10 27 28 26 08 24 13 02
  20457606.058   -25268081.602 6 -11784217.07747  20457611.6634
  21751039.813   -14425844.198 7 -11054979.39946  21751045.3014
  22888127.196    -5030865.834 6  -3779750.81646  22888133.2884
  23736727.804    -1202352.050 1   -760182.62145  23736742.9334
  19791779.128   -24557723.310 6 -18903950.82647  19791784.8024
  22854706.649   -13398516.083 6 -10242544.63446  22854713.0064
  23833173.140    -6018712.708 5   1209217.59245  23833179.8634
  23300273.273    -8598731.024 6  -6566406.85946  23300278.7654
 02  1 30  3 12 59.9990000  0  8 10 27 28 26 08 24 13 02
  20449738.745   -25309424.670 7 -11816432.46847  20449744.4734
  21761921.791   -14368658.873 7 -11010419.42146  21761926.9764
  22870248.618    -5124817.818 6  -3852960.09945  22870255.0104
  23719204.457    -1294436.917 3   -831937.04645  23719215.3584
  19792760.474   -24552566.181 6 -18899932.26047  19792765.8544
  22870085.968   -13317697.418 6 -10179569.10146  22870092.2984
  23847606.974    -5942862.207 5   1268321.85045  23847610.8164
  23304174.974    -8578227.409 6  -6550429.99746  23304181.1484
 02  1 30  3 13 29.9990000  0  8 10 27 28 26 08 24 13 02
  20441960.285   -25350300.632 8 -11848283.87147  20441965.8324
  21772853.724   -14311211.220 7 -10965655.02646  21772859.3414
  22852413.742    -5218540.471 6  -3925990.70546  22852419.9874
  23701698.134    -1386434.122 5   -903623.06445  23701704.9394
  19793840.098   -24546892.402 6 -18895511.12947  19793845.2174
  22885511.006   -13236638.265 6 -10116406.15846  22885516.8364
  23862052.682    -5866949.408 5   1327474.57345  23862060.0204
  23308161.776    -8557276.468 6  -6534104.55446  23308167.1244
 02  1 30  3 13 59.9990000  0  8 10 27 28 26 08 24 13 02
  20434272.514   -25390700.234 7 -11879764.07947  20434277.8154
  21783836.658   -14253495.585 7 -10920681.81346  21783842.1934
  22834624.568    -5312023.335 6  -3998834.45746  22834630.1404
  23684209.758    -1478335.480 2   -975234.46745  23684214.6384
  19795019.299   -24540695.490 7 -18890682.37147  19795024.9014
  22900982.626   -13155334.016 6 -10053052.25446  22900988.2124
  23876511.673    -5790967.603 5   1386681.12745  23876518.0314
  23312235.091    -8535871.207 6  -6517425.14846  23312239.0854
 02  1 30  3 14 29.9990000  0  8 10 27 28 26 08 24 13 02
  20426675.421   -25430623.297 7 -11910872.96247  20426680.8874
  21794869.957   -14195515.113 7 -10875502.22846  21794875.9414
  22816881.304    -5405264.884 6  -4071490.16646  22816886.0674
  23666739.173    -1570141.807 2
  19796297.579   -24533978.063 6 -18885448.01147  19796303.0464
  22916500.120   -13073789.006 6  -9989510.76046  22916507.0124
  23890983.490    -5714917.610 5   1445940.84645  23890988.6444
  23316394.446    -8514013.605 6  -6500393.26146  23316399.8244
 02  1 30  3 14 59.9990000  0  8 10 27 28 26 08 24 13 02
  20419168.876   -25470070.373 8 -11941610.94547  20419174.7154
  21805952.867   -14137273.957 7 -10830119.51046  21805958.6464
  22799184.023    -5498264.576 6  -4143957.43946  22799189.4814
  23649286.995    -1661855.123 3
  19797674.326   -24526743.285 7 -18879810.51747  19797680.0244
  22932062.417   -12992008.380 6  -9925785.62645  22932071.0214
  23905467.788    -5638802.789 5   1505251.00545  23905473.3884
  23320639.208    -8491706.792 6  -6483011.28246  23320645.7704
 02  1 30  3 15 29.9990000  0  8 10 27 28 26 08 24 13 02
  20411753.173   -25509040.063 8 -11971976.94647  20411759.1214
  21817084.961   -14078774.180 7 -10784535.25646  21817089.9494
  22781533.189    -5591019.846 6  -4216234.22846  22781538.7104
  23631852.618    -1753475.444 3
  19799149.211   -24518992.808 6 -18873771.16347  19799155.0934
  22947668.991   -12909995.565 6  -9861879.61246  22947676.9234
  23919964.369    -5562623.584 5   1564611.34545  23919973.1204
  23324969.341    -8468951.893 6  -6465280.20146  23324976.0924
 02  1 30  3 15 59.9990000  0  8 10 27 28 26 08 24 13 02
  20404430.016   -25547523.417 8 -12001963.95847  20404435.7194
  21828267.394   -14020010.180 7 -10738745.15646  21828271.7484
  22763930.877    -5683520.345 6  -4288312.48946  22763936.5544
  23614437.054    -1844994.717 2
  19800723.392   -24510720.329 7 -18867325.05347  19800729.2324
  22963320.450   -12827746.557 6  -9797789.47146  22963328.8414
  23934474.599    -5486372.704 5   1624027.63945  23934480.1634
  23329386.061    -8445742.164 6  -6447194.72646  23329392.9104
 02  1 30  3 16 29.9990000  0  7 10 27 28 08 24 13 02
  20397198.319   -25585526.061 8 -12031576.39847  20397204.2344
  21839498.371   -13960991.113 7 -10692756.27546  21839505.2584
  22746376.251    -5775770.203 6  -4360195.45046  22746381.4024
  19802395.330   -24501934.206 6 -18860478.72347  19802400.7894
  22979014.983   -12745271.514 6  -9733523.24746  22979021.7674
  23948996.892    -5410057.723 5   1683493.78245  23949001.1254
  23333887.793    -8422085.544 6  -6428760.95146  23333893.3104
 02  1 30  3 16 59.9990000  0  7 10 27 28 08 24 13 02
  20390058.836   -25623044.190 8 -12060811.29447  20390064.8844
  21850777.994   -13901716.251 7 -10646568.06646  21850783.2184
  22728870.320    -5867764.472 6  -4431879.29946  22728876.1354
  19804165.275   -24492633.144 6 -18853231.13047  19804170.2424
  22994752.484   -12662571.189 6  -9669081.48446  22994759.7054
  23963531.672    -5333676.688 5   1743011.39445  23963535.7054
  23338474.822    -8397980.485 6  -6409977.80546  23338480.3224
 02  1 30  3 17 29.9990000  0  7 10 27 28 08 24 13 02
  20383011.359   -25660079.087 7 -12089669.64947  20383016.9664
  21862105.426   -13842190.378 7 -10600184.29446  21862111.2354
  22711413.057    -5959503.259 6  -4503364.04546  22711418.5234
  19806032.347   -24482821.637 6 -18845585.79747  19806037.2904
  23010531.656   -12579651.568 6  -9604468.83645  23010538.0194
  23978078.430    -5257232.886 5   1802577.99345  23978082.8664
  23343146.420    -8373430.835 6  -6390848.20046  23343152.6164
 02  1 30  3 17 59.9990000  0  7 10 27 28 08 24 13 02
  20376056.748   -25696626.024 6 -12118147.79147  20376062.3594
  21873480.910   -13782412.160 7 -10553603.86246  21873485.6894
  22694005.552    -6050980.354 6  -4574644.86046  22694010.5694
  19807996.955   -24472497.584 6 -18837541.07047  19808002.2024
  23026352.476   -12496512.752 6  -9539685.40046  23026360.0154
  23992637.742    -5180723.304 5   1862195.80045  23992643.1904
  23347903.108    -8348434.227 6  -6371370.31246  23347908.9014
 02  1 30  3 18 29.9990000  0  7 10 27 28 08 24 13 02
  20369195.767   -25732680.978 7 -12146242.58347  20369201.6634
  21884904.492   -13722381.007 7 -10506826.33646  21884910.5294
  22676648.786    -6142190.641 6  -4645717.78146  22676653.8384
  19810059.275   -24461659.977 6 -18829096.16847  19810064.6874
  23042214.836   -12413155.503 6  -9474731.74646  23042222.4484
  24007209.928    -5104145.751 5   1921866.57645  24007215.3844
  23352745.194    -8322989.206 6  -6351543.02746  23352751.4724
 02  1 30  3 18 59.9990000  0  8 10 23 27 28 08 24 13 02
  20362429.297   -25768239.196 7 -12173950.28647  20362434.8404
  25087439.491      -35276.04915
  21896376.384   -13662095.811 7 -10459850.86246  21896381.8694
  22659343.866    -6233128.340 6  -4716578.32546  22659348.7814
  19812219.625   -24450307.131 6 -18820249.78747  19812225.4234
  23058118.752   -12329579.816 5  -9409607.89245  23058126.4744
  24021795.435    -5027497.860 4   1981592.12045  24021802.2444
  23357672.983    -8297093.692 6  -6331364.69246  23357678.3724
 02  1 30  3 19 29.9990000  0  8 10 23 27 28 08 24 13 02
  20355756.313   -25803305.937 8 -12201275.02347  20355762.1244
  25067298.331     -141114.962 4
  21907895.049   -13601564.746 7 -10412683.80546  21907900.5004
  22642090.182    -6323796.869 6  -4787229.03946  22642095.1784
  19814476.608   -24438446.560 6 -18811007.77147  19814481.6604
  23074062.443   -12245795.107 6  -9344321.15145  23074068.3254
  24036393.291    -4950786.335 5   2041367.30145  24036401.6624
  23362684.998    -8270755.072 6  -6310841.12246  23362691.7324
 02  1 30  3 19 59.9990000  0  8 10 23 27 28 08 24 13 02
  20349176.400   -25837883.475 8 -12228218.56247  20349182.2954
  25047157.773     -246953.549 4    -16491.61955  25047164.8584
  21919459.386   -13540793.611 7 -10365329.68346  21919464.4724
  22624887.469    -6414197.281 6  -4857670.82946  22624893.1984
  19816829.189   -24426083.662 6 -18801374.33747  19816834.1114
  23090044.507   -12161808.691 5  -9278877.29745  23090050.7234
  24051002.447    -4874015.274 5   2101188.85545  24051006.3934
  23367780.401    -8243978.101 6  -6289975.91146  23367788.3664
 02  1 30  3 20 29.9990000  0  8 10 23 27 28 08 24 13 02
  20342691.031   -25871964.104 8 -12254774.89847  20342696.8844
  25027018.741     -352783.862 4    -98956.77845  25027026.3964
  21931070.269   -13479777.967 7 -10317785.04146  21931075.4044
  22607737.459    -6504320.918 6  -4927896.99146  22607742.1994
  19819278.298   -24413213.525 6 -18791345.64547  19819283.7934
  23106065.611   -12077617.537 6  -9213273.79845  23106072.7364
  24065623.977    -4797178.804 5   2161061.36945  24065629.3534
  23372960.304    -8216757.446 6  -6268765.02546  23372967.3264
 02  1 30  3 20 59.9990000  0  8 10 23 27 28 08 24 13 02
  20336301.009   -25905543.931 7 -12280940.99247  20336306.6864
  25006882.205     -458601.897 4   -181412.36245  25006890.4344
  21942727.828   -13418517.132 7 -10270049.33146  21942732.5344
  22590641.188    -6594162.553 6  -4997903.47246  22590645.7774
  19821824.113   -24399835.251 6 -18780920.99747  19821829.3364
  23122125.557   -11993222.257 6  -9147511.26446  23122134.1544
  24080258.337    -4720274.964 5   2220986.44445  24080263.9224
  23378224.879    -8189091.781 6  -6247207.33746  23378231.2634
 02  1 30  3 21 29.9990000  0  8 10 23 27 28 08 24 13 02
  20330004.646   -25938631.659 7 -12306723.63747  20330010.5794
  24986746.458     -564416.024 4   -263865.03945  24986751.6874
  21954429.790   -13357023.087 7 -10222131.88646  21954435.7064
  22573597.228    -6683729.362 6  -5067695.78346  22573602.0954
  19824464.478   -24385960.133 6 -18770109.21847  19824469.9374
  23138221.806   -11908636.098 5  -9081600.02345  23138230.1704
  24094903.620    -4643314.168 5   2280955.82345  24094912.0384
  23383572.029    -8160992.170 6  -6225311.52846  23383576.9524
 02  1 30  3 21 59.9990000  0  8 10 23 27 28 08 24 13 02
  20323803.200   -25971220.417 7 -12332117.46847  20323809.0444
  24966612.880     -670219.018 4   -346308.87245  24966619.3204
  21966176.829   -13295292.082 7 -10174029.80146  21966182.7014
  22556607.178    -6773012.822 6  -5137267.30946  22556612.3634
  19827200.132   -24371583.989 6 -18758907.00747  19827205.2054
  23154354.876   -11823856.560 6  -9015538.11445  23154360.8734
  24109560.511    -4566291.424 5   2340973.47845  24109564.7494
  23389002.668    -8132453.857 5  -6203073.89045  23389009.2914
 02  1 30  3 22 29.9990000  0  8 10 23 27 28 08 24 13 02
  20317698.107   -26003302.854 6 -12357116.77947  20317703.8274
  24946482.925     -776003.444 5   -428738.34145  24946489.9194
  21977969.678   -13233320.119 7 -10125739.95446  21977974.7344
  22539672.613    -6862004.411 6  -5206611.42246  22539678.0834
  19830031.959   -24356702.352 6 -18747310.92047  19830036.7974
  23170525.324   -11738880.754 5  -8949323.27746  23170533.8014
  24124230.347    -4489200.577 5   2401044.21945  24124236.2794
  23394517.705    -8103472.189 6  -6180490.76046  23394524.0084
 02  1 30  3 22 59.9990000  0  8 10 23 27 28 08 24 13 02
  20311689.432   -26034878.716 7 -12381721.34447  20311695.0874
  24926356.652     -881768.699 5   -511152.82345  24926360.7264
  21989807.817   -13171110.187 7 -10077264.69746  21989813.1784
  22522793.817    -6950702.676 6  -5275726.93846  22522799.1494
  19832959.508   -24341317.856 6 -18735323.00347  19832965.0174
  23186732.189   -11653713.157 6  -8882958.92045  23186740.6304
  24138912.903    -4412043.274 5   2461166.68645  24138919.9424
  23400116.820    -8074049.340 6  -6157563.88646  23400122.6594
 02  1 30  3 23 29.9990000  0  8 10 23 27 28 08 24 13 02
  20305776.527   -26065951.345 7 -12405933.79047  20305782.4214
  24906233.225     -987517.929 4   -593554.86345  24906238.7704
  22001690.034   -13108668.936 6 -10028609.18646  22001696.2884
  22505970.507    -7039109.464 6  -5344615.34046  22505976.8284
  19835981.605   -24325436.842 6 -18722948.18347  19835986.4424
  23202974.132   -11568361.700 6  -8816451.35845  23202981.1204
  24153607.190    -4334824.733 5   2521336.90645  24153614.6324
  23405798.667    -8044191.200 6  -6134297.76146  23405806.1014
 02  1 30  3 23 59.9990000  0  8 10 23 27 28 08 24 13 02
  20299959.874   -26096518.155 7 -12429752.09447  20299965.1504
  24886113.453    -1093248.338 5   -675942.18145  24886116.2714
  22013616.104   -13045997.015 7  -9979773.91346  22013621.5884
  22489203.477    -7127220.792 6  -5413273.51646  22489208.9264
  19839098.168   -24309059.382 6 -18710186.51947  19839103.6764
  23219250.624   -11482828.258 6  -8749801.93845  23219259.0694
  24168313.282    -4257544.423 5   2581555.28145  24168320.1604
  23411563.412    -8013897.561 6  -6110692.32646  23411570.0004
 02  1 30  3 24 29.9990000  0  8 10 23 27 28 08 24 13 02
  20294238.558   -26126583.799 7 -12453179.84647  20294243.7064
  24865996.473    -1198963.855 5   -758317.98445  24866003.1834
  22025584.669   -12983101.930 7  -9930764.77146  22025590.6424
  22472492.067    -7215039.781 6  -5481703.87546  22472497.3494
  19842307.776   -24292192.892 6 -18697043.79847  19842312.2924
  23235559.959   -11397122.020 6  -8683017.96345  23235566.7124
  24183029.975    -4180208.102 5   2641817.32445  24183035.8114
  23417409.720    -7983175.207 6  -6086752.81146  23417416.2144
 02  1 30  3 24 59.9990000  0  8 10 23 27 28 08 24 13 02
  20288614.737   -26156136.967 7 -12476208.27847  20288620.2644
  24845884.424    -1304653.006 4   -840673.16945  24845889.0454
  22037597.199   -12919975.768 7  -9881575.54446  22037602.9874
  22455838.689    -7302553.679 6  -5549896.53846  22455844.4354
  19845612.031   -24274828.866 6 -18683513.38147  19845617.3734
  23251903.555   -11311236.198 6  -8616093.97845  23251911.1614
  24197759.163    -4102806.286 5   2702130.38445  24197764.1964
  23423339.173    -7952015.487 6  -6062472.48646  23423344.1594
 02  1 30  3 25 29.9990000  0  8 10 23 27 28 08 24 13 02
  20283088.671   -26185176.512 8 -12498836.50847  20283094.6324
  24825777.652    -1410314.298 5   -923006.76345  24825787.7274
  22049653.333   -12856620.516 7  -9832207.82346  22049659.2474
  22439243.878    -7389760.035 6  -5617849.53446  22439249.6654
  19849010.608   -24256969.061 8 -18669596.63947  19849016.2664
  23268280.638   -11225174.182 6  -8549032.71345  23268289.4564
  24212500.705    -4025339.509 5   2762493.98145  24212504.8834
  23429351.537    -7920419.998 6  -6037852.62846  23429357.4904
 02  1 30  3 25 59.9990000  0  8 10 23 27 28 08 24 13 02
  20277659.662   -26213706.066 8 -12521067.32847  20277665.5744
  24805675.790    -1515950.718 5  -1005320.89745  24805682.5374
  22061751.799   -12793042.730 7  -9782666.70446  22061756.5594
  22422707.122    -7476661.230 6  -5685564.72746  22422712.8504
  19852502.308   -24238620.000 6 -18655298.67047  19852507.2814
  23284689.688   -11138944.108 5  -8481840.51145  23284698.3804
  24227253.467    -3947813.290 5   2822903.95345  24227257.3674
  23435445.769    -7888394.364 6  -6012897.59146  23435451.4574
 02  1 30  3 26 29.9990000  0  8 10 23 27 28 08 24 13 02
  20272328.724   -26241720.440 7 -12542896.71747  20272334.5334
  24785579.789    -1621556.611 5  -1087611.21545  24785584.9664
  22073893.009   -12729240.405 7  -9732950.60946  22073899.1484
  22406229.779    -7563250.374 6  -5753036.76046  22406235.0214
  19856087.615   -24219779.100 6 -18640617.45147  19856092.4984
  23301130.931   -11052545.015 6  -8414516.56845  23301138.6004
  24242018.206    -3870223.807 5   2883363.25545  24242025.2644
  23441622.346    -7855935.819 5  -5987605.23346  23441628.8154
 02  1 30  3 26 59.9990000  0  8 10 23 27 28 08 24 13 02
  20267096.006   -26269218.757 6 -12564323.97847  20267101.3154
  24765489.704    -1727130.629 5  -1169876.71345  24765499.2804
  22086076.524   -12665215.640 7  -9683061.18646  22086081.8494
  22389812.244    -7649525.040 6  -5820263.69946  22389817.9264
  19859766.125   -24200448.378 6 -18625554.53647  19859771.7654
  23317603.724   -10965980.632 6  -8347063.84745  23317609.6864
  24256794.945    -3792571.498 5   2943871.48145  24256799.3164
  23447881.126    -7823045.831 6  -5961976.67646  23447887.6374
 02  1 30  3 27 29.9990000  0  8 10 23 27 28 08 24 13 02
  20261961.362   -26296201.693 6 -12585349.64047  20261966.8734
  24745405.567    -1832673.293 5  -1252117.79045  24745410.1054
  22098301.594   -12600972.357 6  -9633001.49446  22098307.4004
  22373454.650    -7735484.634 6  -5887245.11746  22373459.7504
  19863537.186   -24180631.270 6 -18610112.62547  19863542.6704
  23334106.815   -10879256.065 5  -8279486.26445  23334114.6454
  24271583.115    -3714859.384 5   3004426.27545  24271589.0254
  23454221.387    -7789727.699 6  -5936014.52246  23454227.6744
 02  1 30  3 27 59.9990000  0  8 10 23 27 28 08 24 13 02
  20256924.605   -26322670.009 8 -12605974.30747  20256930.2424
  24725327.259    -1938184.633 4  -1334334.37945  24725332.4214
  22110567.493   -12536514.578 6  -9582774.67346  22110573.5134
  22357157.124    -7821128.542 6  -5953980.58246  22357162.0534
  19867400.070   -24160331.615 6 -18594294.70847  19867405.2734
  23350639.505   -10792376.349 5  -8211787.86245  23350646.2834
  24286382.291    -3637089.186 5   3065026.36045  24286388.1174
  23460642.466    -7755984.755 6  -5909721.28346  23460648.9814
 02  1 30  3 28 29.9990000  0  8 10 23 27 28 08 24 13 02
  20251986.533   -26348619.532 8 -12626194.71447  20251992.5284
  24705256.040    -2043659.988 5  -1416523.08645  24705263.6904
  22122874.468   -12471840.845 7  -9532379.56646  22122879.4964
  22340920.710    -7906451.105 6  -6020465.65546  22340926.0754
  19871355.108   -24139547.718 6 -18578099.45447  19871360.4744
  23367201.789   -10705341.791 5  -8143968.80445  23367209.2694
  24301193.100    -3559258.479 5   3125673.62145  24301196.9444
  23467144.724    -7721814.964 6  -5883095.45846  23467151.6384
 02  1 30  3 28 59.9990000  0  8 10 23 27 28 08 24 13 02
  20247149.611   -26374037.516 8 -12646000.94047  20247155.2594
  24685194.382    -2149085.922 5  -1498673.11445  24685202.3814
  22135224.423   -12406941.484 7  -9481808.65446  22135229.0174
  22324748.105    -7991438.344 6  -6086689.42946  22324754.8534
  19875404.137   -24118269.801 6 -18561519.25547  19875409.3874
  23383795.000   -10618143.951 5  -8076022.46945  23383802.1374
  24316017.636    -3481355.924 5   3186376.83845  24316020.5644
  23473730.082    -7687208.353 6  -5856129.23646  23473737.6204
 02  1 30  3 29 29.9990000  0  8 10 23 27 28 08 24 13 02
  20242410.314   -26398942.753 7 -12665407.61347  20242415.8384
  24665138.547    -2254480.626 5  -1580798.85145  24665143.6054
  22147613.169   -12341838.338 6  -9431078.94546  22147619.0914
  22308636.187    -8076107.095 7  -6152665.03446  22308642.6334
  19879543.103   -24096519.349 6 -18544570.85147  19879548.5654
  23400414.945   -10530806.165 6  -8007967.07945  23400421.8084
  24330852.011    -3403401.822 5   3247120.26045  24330857.7114
  23480394.594    -7652186.016 6  -5828839.12645  23480401.2534
 02  1 30  3 29 59.9990000  0  8 10 23 27 28 08 24 13 02
  20237770.274   -26423326.548 6 -12684407.98547  20237775.7584
  24645090.293    -2359834.867 5  -1662893.06245  24645096.6354
  22160041.798   -12276525.437 7  -9380185.76446  22160047.0184
  22292586.789    -8160447.282 7  -6218384.61646  22292592.0674
  19883773.137   -24074290.350 6 -18527249.54247  19883778.8364
  23417062.272   -10443323.883 5  -7939799.09545  23417071.3644
  24345697.422    -3325389.052 5   3307909.35945  24345699.1444
  23487139.454    -7616741.564 6  -5801220.07245  23487145.3714
 02  1 30  3 30 29.9990000  0  8 10 23 27 28 08 24 13 02
  20233229.733   -26447187.479 6 -12703000.93047  20233234.8054
  24625050.193    -2465146.715 5  -1744954.22445  24625058.4424
  22172510.020   -12211004.462 7  -9329130.47046  22172514.8334
  22276600.388    -8244456.042 6  -6283845.95446  22276606.2524
  19888093.929   -24051584.350 6 -18509556.54147  19888099.0904
  23433736.516   -10355700.049 5  -7871520.82045  23433744.9624
  24360553.794    -3247317.634 2   3368744.26045  24360557.4734
  23493964.495    -7580876.085 6  -5773272.93645  23493970.1404
 02  1 30  3 30 59.9990000  0  8 10 23 27 28 08 24 13 02
  20228789.398   -26470521.723 6 -12721183.46647  20228794.4014
  24605018.921    -2570411.652 4  -1826978.90245  24605025.1294
  22185018.006   -12145274.272 6  -9277912.16146  22185022.7704
  22260678.098    -8328127.817 6  -6349044.68046  22260683.7214
  19892505.748   -24028400.159 6 -18491490.94347  19892510.0984
  23450437.660   -10267935.052 6  -7803132.57145  23450444.8124
  24375421.873    -3169185.098 3   3429626.64645  24375428.2924
  23500869.952    -7544587.839 6  -5744996.36445  23500875.6464
 02  1 30  3 31 29.9990000  0  8 10 23 27 28 08 24 13 02
  20224447.874   -26493336.613 8 -12738961.32547  20224453.8654
  24584995.263    -2675636.079 4  -1908971.87545  24585002.5064
  22197563.792   -12079345.443 6  -9226539.06346  22197569.5814
  22244818.858    -8411468.724 7  -6413985.64146  22244824.8084
  19897006.629   -24004747.920 6 -18473060.62947  19897012.3064
  23467163.424   -10180040.648 5  -7734643.47245  23467172.0944
  24390299.958    -3091000.529 3   3490549.71345  24390306.3194
  23507853.919    -7507886.773 6  -5716398.12145  23507859.7434
 02  1 30  3 31 59.9990000  0  8 10 23 27 28 08 24 13 02
  20220206.678   -26515624.137 8 -12756328.22547  20220212.4464
  24564980.816    -2780811.371 4  -1990926.71545  24564988.5554
  22210148.489   -12013212.551 7  -9175006.97546  22210152.8294
  22229024.469    -8494468.835 7  -6478661.03346  22229029.6234
  19901597.607   -23980622.189 8 -18454261.36247  19901603.5254
  23483914.587   -10092012.612 5  -7666050.22745  23483924.6454
  24405189.223    -3012757.227 4   3551518.36845  24405195.9054
  23514917.539    -7470767.025 6  -5687473.61845  23514923.8954
 02  1 30  3 32 29.9990000  0  8 10 23 27 28 08 24 13 02
  20216066.288   -26537381.939 8 -12773282.35547  20216072.1054
  24544976.403    -2885934.432 4  -2072840.78745  24544982.0094
  22222771.889   -11946876.439 6  -9123316.49246  22222777.7674
  22213295.553    -8577124.714 7  -6543068.17646  22213300.7074
  19906278.533   -23956023.718 6 -18435093.70947  19906284.1034
  23500690.679   -10003853.571 5  -7597354.87145  23500698.5544
  24420089.921    -2934454.175 5   3612533.69645  24420095.2254
  23522060.802    -7433228.955 6  -5658223.19545  23522067.0964
 02  1 30  3 32 59.9990000  0  8 10 23 27 28 08 24 13 02
  20212026.991   -26558608.686 6 -12789822.66647  20212032.3664
  24524982.508    -2991003.233 4  -2154712.59745  24524989.8774
  22235433.682   -11880338.411 7  -9071468.71446  22235438.6044
  22197632.706    -8659433.285 6  -6607204.71746  22197637.9944
  19911049.132   -23930953.895 6 -18415558.77347  19911053.8854
  23517491.166    -9915566.221 5  -7528559.62345  23517499.3154
  24435001.909    -2856091.515 5   3673595.44845  24435004.1244
  23529283.466    -7395273.737 6  -5628647.67546  23529289.0334
 02  1 30  3 33 29.9990000  0  8 10 23 27 28 08 24 13 02
  20208087.369   -26579311.664 6 -12805954.87747  20208092.4604
  24504997.804    -3096023.767 5  -2236546.78945  24505004.4444
  22248132.021   -11813608.452 6  -9019471.34146  22248137.0844
  22182034.859    -8741400.004 6  -6671074.84746  22182039.9414
  19915907.658   -23905422.300 6 -18395664.03347  19915912.6474
  23534314.002    -9827161.562 5  -7459672.89245  23534324.8254
  24449923.600    -2777677.651 4   3734697.10845  24449928.0574
  23536583.762    -7356910.772 6  -5598754.44146  23536589.2244
 02  1 30  3 33 59.9990000  0  8 10 23 27 28 08 24 13 02
  20204248.990   -26599482.568 7 -12821672.47347  20204254.6544
  24485024.020    -3200987.579 5  -2318336.80045  24485030.9074
  22260867.849   -11746681.265 6  -8967320.31246  22260872.5064
  22166503.901    -8823015.350 6  -6734671.18546  22166510.1474
  19920855.021   -23879423.781 7 -18375405.44747  19920860.3584
  23551159.770    -9738636.223 5  -7390692.08445  23551166.9774
  24464856.394    -2699205.885 5   3795843.94945  24464863.1974
  23543962.689    -7318134.292 6  -5568539.02146  23543969.5844
 02  1 30  3 34 29.9990000  0  8 10 23 27 28 08 24 13 02
  20200510.961   -26619125.983 7 -12836979.02647  20200516.6814
  24465060.273    -3305898.251 5  -2400085.32245  24465067.2444
  22273639.775   -11679564.292 6  -8915021.36546  22273645.8154
  22151039.415    -8904282.097 7  -6797995.91146  22151044.8114
  19925889.848   -23852965.627 7 -18354788.71247  19925895.2334
  23568027.037    -9649998.530 5  -7321623.84845  23568034.5694
  24479799.025    -2620682.323 4   3857031.09045  24479806.2354
  23551418.932    -7278951.342 6  -5538006.81046  23551424.7264
 02  1 30  3 34 59.9990000  0  8 10 23 27 28 08 24 13 02
  20196874.571   -26638235.218 7 -12851869.33847  20196879.8234
  24445108.038    -3410748.016 5  -2481786.45845  24445117.0854
  22286448.595   -11612253.239 6  -8862571.22646  22286454.5524
  22135642.783    -8985192.063 6  -6861042.57146  22135647.6774
  19931012.944   -23826043.577 6 -18333810.49647  19931017.9714
  23584916.298    -9561245.655 5  -7252465.80745  23584923.1254
  24494752.612    -2542100.879 5   3918263.35045  24494753.4904
  23558953.370    -7239357.360 6  -5507154.38246  23558959.5934
 02  1 30  3 35 29.9990000  0  8 10 23 27 28 08 24 13 02
  20193340.346   -26656807.613 7 -12866341.33447  20193346.0684
  24425167.991    -3515533.388 5  -2563437.40645  24425175.1014
  22299294.272   -11544748.456 6  -8809970.09646  22299300.5694
  22120314.863    -9065740.837 6  -6923807.80346  22120319.8474
  19936224.262   -23798657.812 7 -18312470.92447  19936229.8304
  23601826.926    -9472379.341 5  -7183219.34745  23601834.7584
  24509717.241    -2463460.683 5   3979541.39045  24509724.0554
  23566566.039    -7199352.157 6  -5475981.45045  23566570.6074
 02  1 30  3 35 59.9990000  0  8 10 23 27 28 08 24 13 02
  20189907.340   -26674848.117 8 -12880398.88547  20189913.3064
  24405239.496    -3620258.447 5  -2645041.36645  24405246.1024
  22312175.380   -11477057.653 6  -8757224.05446  22312181.7134
  22105055.015    -9145932.046 7  -6986294.42646  22105059.1534
  19941522.303   -23770816.530 6 -18290776.41347  19941527.6664
  23618757.416    -9383409.031 5  -7113891.92045  23618762.9974
  24524691.965    -2384767.908 5   4040860.32945  24524697.3114
  23574255.620    -7158943.191 6  -5444493.98245  23574260.4854
 02  1 30  3 36 29.9990000  0  9 10 23 17 27 28 08 24 13 02
  20186576.627   -26692351.103 7 -12894037.57647  20186582.4214
  24385323.842    -3724916.498 5  -2726593.08845  24385330.4964
  24926002.747      -47773.73312
  22325092.484   -11409177.711 6  -8704330.57446  22325098.2574
  22089864.558    -9225758.253 7  -7048496.64246  22089870.4154
  19946907.681   -23742516.066 8 -18268724.10447  19946913.0674
  23635708.119    -9294332.708 5  -7044481.88645  23635714.2304
  24539677.529    -2306018.480 5   4102223.55845  24539684.7914
  23582022.653    -7118127.040 6  -5412689.17845  23582027.8804
 02  1 30  3 36 59.9990000  0  9 10 23 17 27 28 08 24 13 02
  20183348.049   -26709317.387 7 -12907258.06747  20183353.6614
  24365421.036    -3829507.294 5  -2808092.32745  24365427.9104
  24910019.548     -131767.092 2
  22338044.949   -11341111.958 6  -8651292.33646  22338050.9774
  22074743.783    -9305218.494 7  -7110413.69146  22074748.7864
  19952379.706   -23713760.152 7 -18246316.89647  19952385.3094
  23652678.018    -9205155.358 5  -6974993.02245  23652685.7464
  24554673.562    -2227214.183 5   4163629.52045  24554680.1914
  23589866.559    -7076906.707 5  -5380569.41845  23589871.3994
 02  1 30  3 37 29.9990000  0  9 10 23 17 27 28 08 24 13 02
  20180222.207   -26725743.923 8 -12920057.97947  20180227.7234
  24345531.637    -3934026.984 5  -2889536.21645  24345537.4664
  24894113.892     -215350.539 2
  22351032.825   -11272860.226 6  -8598109.16946  22351038.1264
  22059693.497    -9384308.418 7  -7172042.16846  22059697.6074
  19957938.508   -23684548.346 7 -18223554.45447  19957943.7934
  23669667.114    -9115877.788 5  -6905426.15545  23669674.2804
  24569680.316    -2148353.214 5   4225079.52045  24569686.1244
  23597787.446    -7035281.685 5  -5348134.34745  23597794.4504
 02  1 30  3 37 59.9990000  0  9 10 23 17 27 28 08 24 13 02
  20177199.533   -26741628.323 7 -12932435.44847  20177205.1964
  24325656.211    -4038472.095 5  -2970922.01645  24325662.6124
  24878287.234     -298519.889 2
  22364056.083   -11204422.694 6  -8544781.24346  22364062.0264
  22044714.437    -9463023.784 7  -7233378.77146  22044719.3374
  19963583.999   -23654881.091 8 -18200437.11247  19963589.8564
  23686674.842    -9026502.116 4  -6835782.82245  23686681.3674
  24584698.120    -2069434.243 5   4286574.73845  24584704.7134
  23605785.493    -6993251.989 6  -5315383.93445  23605791.8324
 02  1 30  3 38 29.9990000  0  9 10 23 17 27 28 08 24 13 02
  20174279.616   -26756972.732 7 -12944392.13647  20174285.5364
  24305794.790    -4142843.822 5  -3052250.67845  24305799.8784
  24862539.458     -381276.231 3
  22377113.754   -11135804.270 6  -8491312.35346  22377118.7774
  22029806.590    -9541364.912 7  -7294423.79346  22029812.7284
  19969315.298   -23624763.012 6 -18176968.47847  19969320.4334
  23703699.966    -8937034.109 5  -6766067.51645  23703710.2204
  24599726.257    -1990460.787 5   4348112.50245  24599730.3924
  23613859.701    -6950821.955 6  -5282321.55346  23613865.1374
 02  1 30  3 38 59.9990000  0  9 10 23 17 27 28 08 24 13 02
  20171463.347   -26771772.429 7 -12955924.37747  20171469.1414
  24285948.623    -4247136.477 5  -3133517.73845  24285954.0474
  24846871.027     -463613.293 1    -51299.73954  24846883.6324
  22390206.200   -11067002.909 6  -8437700.90946  22390213.4404
  22014971.085    -9619325.975 7  -7355172.66146  22014977.1484
  19975132.709   -23594192.386 8 -18153147.22147  19975138.9384
  23720742.882    -8847473.240 5  -6696279.82945  23720750.6984
  24614765.390    -1911429.598 5   4409695.25545  24614770.8264
  23622010.535    -6907989.422 6  -5248945.56146  23622016.9064
 02  1 30  3 39 29.9990000  0  9 10 23 17 27 28 08 24 13 02
  20168750.412   -26786028.968 8 -12967033.37447  20168756.0334
  24266117.471    -4351350.209 5  -3214723.22445  24266123.1274
  24831282.179     -545531.092 2
  22403332.694   -10998022.550 6  -8383949.97346  22403337.0954
  22000207.997    -9696906.640 7  -7415625.10546  22000213.1434
  19981035.447   -23563173.309 6 -18128976.48947  19981040.9984
  23737802.430    -8757825.206 5  -6626424.29945  23737809.1834
  24629815.115    -1832343.111 5   4471321.03845  24629821.7464
  23630237.225    -6864758.323 6  -5215258.97445  23630241.2284
 02  1 30  3 39 59.9990000  0  9 10 23 17 27 28 08 24 13 02
  20166140.434   -26799744.407 7 -12977720.73047  20166146.1684
  24246301.199    -4455486.083 5  -3295868.06145  24246307.6374
  24815773.285     -627029.887 2
  22416492.434   -10928867.616 6  -8330063.04146  22416497.9734
  21985517.205    -9774106.970 7  -7475781.15146  21985521.7474
  19987022.649   -23531710.160 6 -18104459.74847  19987027.3954
  23754877.387    -8668095.723 5  -6556505.26145  23754884.7424
  24644874.749    -1753204.508 5   4532987.44645  24644881.9434
  23638538.875    -6821132.706 6  -5181264.99245  23638544.9134
 02  1 30  3 40 29.9990000  0  9 10 23 17 27 28 08 24 13 02
  20163634.320   -26812914.172 6 -12987982.89147  20163639.7674
  24226500.799    -4559538.449 5  -3376947.77245  24226507.4094
  24800345.408     -708104.011 2
  22429685.764   -10859536.292 6  -8276038.63346  22429692.2614
  21970899.893    -9850921.022 7  -7535636.22146  21970905.6064
  19993094.665   -23499801.459 6 -18079595.83147  19993099.9784
  23771967.923    -8578284.503 5  -6486522.54545  23771975.9744
  24659944.915    -1674010.334 5   4594697.24345  24659952.0994
  23646915.961    -6777110.537 6  -5146962.00145  23646922.5364
 02  1 30  3 40 59.9990000  0  9 10 23 17 27 28 08 24 13 02
  20161230.694   -26825545.452 6 -12997825.44547  20161236.3364
  24206715.000    -4663513.322 5  -3457967.08145  24206719.8174
  24784997.373     -788759.096 2
  22442910.844   -10790038.140 6  -8221884.24246  22442916.5424
  21956355.097    -9927354.235 7  -7595194.54746  21956361.4384
  19999249.697   -23467456.631 6 -18054392.05947  19999255.1814
  23789071.886    -8488402.410 4  -6416484.59045  23789081.1514
  24675023.954    -1594768.927 4   4656443.80745  24675035.4064
  23655366.719    -6732701.422 6  -5112357.49545  23655372.2084
 02  1 30  3 41 29.9990000  0  9 10 23 17 27 28 08 24 13 02
  20158933.395   -26837617.973 6 -13007232.62047  20158938.5804
  24186947.825    -4767389.222 5  -3538909.31445  24186952.1864
  24769733.038     -868973.152 2
  22456171.020   -10720355.468 6  -8167586.04546  22456176.3314
  21941886.906   -10003384.879 7  -7654439.15546  21941892.2654
  20005491.033   -23434658.295 6 -18028834.91647  20005495.7994
  23806192.676    -8398432.550 5  -6346378.29545  23806200.5944
  24690115.643    -1515461.182 3   4718241.98345  24690124.5204
  23663894.495    -6687887.201 5  -5077437.30645  23663899.3514
 02  1 30  3 41 59.9990000  0  9 10 23 17 27 28 08 24 13 02
  20156739.671   -26849146.222 6 -13016215.67947  20156745.1144
  24167197.149    -4871179.400 5  -3619784.77745  24167203.4164
  24754550.245     -948758.972 3
  22469463.153   -10650504.900 6  -8113157.06646  22469467.9154
  21927492.938   -10079025.332 7  -7713379.71746  21927497.9634
  20011815.447   -23401423.205 6 -18002937.42947  20011820.6774
  23823326.463    -8308393.783 4  -6276218.24245  23823337.6624
  24705216.969    -1436102.630 2   4780079.90945  24705225.3694
  23672496.328    -6642684.461 5  -5042214.39845  23672503.2454
 02  1 30  3 42 29.9990000  0  9 10 23 17 27 28 08 24 13 02
  20154650.901   -26860122.768 7 -13024768.84147  20154656.3264
  24147464.474    -4974875.150 5  -3700586.69145  24147470.8644
  24739450.941    -1028107.777 3
  22482788.166   -10580481.558 6  -8058593.41646  22482792.7014
  21913175.007   -10154266.480 7  -7772009.16946  21913180.3704
  20018223.913   -23367746.628 6 -17976695.94647  20018229.6964
  23840474.078    -8218282.468 4  -6206001.66245  23840483.0524
  24720329.489    -1356686.834 5   4841962.32445  24720340.1074
  23681173.051    -6597088.199 5  -5006684.85145  23681179.8374
 02  1 30  3 42 59.9990000  0  9 10 23 17 27 28 08 24 13 02
  20152665.198   -26870557.631 6 -13032899.90947  20152670.6594
  24127748.184    -5078485.021 5  -3781321.59945  24127755.8184
  24724432.944    -1107027.977 2
  22496143.647   -10510298.036 6  -8003904.96246  22496149.1184
  21898931.516   -10229116.564 7  -7830333.88146  21898936.1314
  20024713.960   -23333641.072 7 -17950120.16547  20024719.2024
  23857632.884    -8128112.288 4  -6135739.20845  23857642.0724
  24735450.576    -1277224.680 3   4903880.73445  24735456.5234
  23689922.302    -6551110.691 5  -4970858.18945  23689928.6594
 02  1 30  3 43 29.9990000  0  9 10 23 17 27 28 08 24 13 02
  20150784.838   -26880439.031 6 -13040599.69947  20150790.3614
  24108050.811    -5181995.799 5  -3861979.34545  24108056.2514
  24709498.756    -1185506.110 3
  22509531.413   -10439944.725 6  -7949084.22746  22509536.2764
  21884764.969   -10303562.228 7  -7888343.44646  21884769.9044
  20031287.394   -23299097.346 6 -17923202.97947  20031292.8764
  23874804.640    -8037875.143 5  -6065424.60145  23874812.7304
  24750582.619    -1197705.268 4   4965843.95245  24750586.2504
  23698745.923    -6504742.190 5  -4934726.89345  23698751.5344
 02  1 30  3 43 59.9990000  0  9 10 23 17 27 28 08 24 13 02
  20149009.388   -26889769.103 7 -13047869.88747  20149014.9634
  24088372.084    -5285408.623 5  -3942560.76845  24088377.9474
  24694648.952    -1263543.056 4
  22522950.650   -10369426.230 6  -7894134.74646  22522956.7934
  21870675.328   -10377603.772 7  -7946038.13146  21870680.2524
  20037943.327   -23264120.226 8 -17895948.07447  20037949.1264
  23891987.900    -7947577.220 5  -5995062.58645  23891995.1064
  24765725.006    -1118132.331 5   5027848.83145  24765731.4944
  23707643.033    -6457987.505 6  -4898294.66645  23707649.5604
 02  1 30  3 44 29.9990000  0  9 10 23 17 27 28 08 24 13 02
  20147338.478   -26898549.709 7 -13054711.93247  20147344.3644
  24068711.794    -5388723.679 5  -4023066.02645  24068714.8654
  24679882.972    -1341138.750 2
  22536400.574   -10298746.484 6  -7839059.62146  22536405.1274
  21856662.538   -10451241.324 7  -8003418.00246  21856667.2034
  20044680.904   -23228713.886 7 -17868358.70147  20044686.5834
  23909181.537    -7857223.969 5  -5924657.52645  23909189.2754
  24780877.071    -1038507.956 4   5089893.62745  24780881.6034
  23716612.878    -6410850.408 5  -4861564.45345  23716618.9424
 02  1 30  3 44 59.9990000  0  9 10 23 17 27 28 08 24 13 02
  20145771.715   -26906783.105 6 -13061127.57147  20145777.5494
  24049069.821    -5491941.953 4  -4103495.84345  24049075.3244
  24665200.707    -1418294.088 1
  22549880.294   -10227910.327 6  -7783862.63446  22549885.3474
  21842726.426   -10524475.617 7  -8060483.64846  21842732.0314
  20051499.207   -23192883.481 7 -17840438.90647  20051504.9734
  23926384.618    -7766821.329 4  -5854213.92245  23926395.0384
  24796038.153     -958835.760 3   5151975.84445  24796046.3614
  23725654.624    -6363335.713 5  -4824540.00845  23725660.7864
 02  1 30  3 45 29.9990000  0  9 10 23 17 27 28 08 24 13 02
  20144310.292   -26914462.978 6 -13067111.89347  20144315.4804
  24029447.776    -5595055.786 5  -4183844.21645  24029453.8574
  24650603.362    -1495001.224 1
  22563390.538   -10156913.588 6  -7728540.50646  22563396.9284
  21828868.666   -10597298.324 7  -8117228.58446  21828873.8644
  20058398.980   -23156624.995 7 -17812185.52847  20058404.7524
  23943597.628    -7676366.709 5  -5783729.80045  23943605.3964
  24811209.446     -879110.629 4   5214099.37045  24811214.5764
  23734768.943    -6315439.206 5  -4787218.03245  23734776.3424
 02  1 30  3 45 59.9990000  0  9 10 23 17 27 28 08 24 13 02
  20142953.161   -26921594.788 6 -13072669.15447  20142958.5264
  24009844.978    -5698069.083 5  -4264114.28445  24009851.0734
  24636091.235    -1571263.744 3
  22576929.904   -10085763.837 6  -7673099.16346  22576935.3754
  21815088.580   -10669713.095 7  -8173655.65146  21815093.4174
  20065378.725   -23119946.233 8 -17783604.67047  20065384.3684
  23960818.701    -7585869.448 5  -5713212.44645  23960828.9614
  24826389.565     -799338.296 3   5276259.47045  24826396.1914
  23743954.552    -6267168.352 5  -4749604.40545  23743961.3024
 02  1 30  3 46 29.9990000  0  9 10 23 17 27 28 08 24 13 02
  20141701.631   -26928171.689 7 -13077794.02747  20141707.0454
  23990263.010    -5800973.472 5  -4344299.51045  23990268.9664
  24621665.381    -1647073.386 3     -9817.73554  24621681.2674
  22590499.272   -10014456.501 6  -7617535.01146  22590506.2224
  21801387.778   -10741711.451 7  -8229758.24546  21801392.8874
  20072439.195   -23082843.001 8 -17754693.04547  20072444.8634
  23978048.493    -7495325.991 4  -5642659.19145  23978054.7234
  24841579.859     -719513.023 3   5338461.03745  24841586.0764
  23753212.222    -6218518.696 5  -4711695.55645  23753218.9434
 02  1 30  3 46 59.9990000  0  9 10 23 17 27 28 08 24 13 02
  20140556.641   -26934188.762 6 -13082482.66147  20140562.0024
  23970702.943    -5903762.564 5  -4424394.91945  23970709.5924
  24607326.943    -1722423.373 3    -68532.05745  24607335.1924
  22604099.188    -9942988.674 6  -7561845.81046  22604104.0164
  21787767.550   -10813286.384 7  -8285530.89046  21787771.7814
  20079580.950   -23045312.562 8 -17725448.55547  20079586.2974
  23995287.414    -7404734.783 5  -5572068.67445  23995292.5994
  24856780.952     -639630.743 4   5400706.92244  24856783.3824
  23762542.576    -6169487.323 5  -4673489.30845  23762551.7234
 02  1 30  3 47 29.9990000  0  9 10 23 17 27 28 08 24 13 02
  20139517.139   -26939651.461 6 -13086739.33047  20139522.8434
  23951163.917    -6006440.410 5  -4504403.61345  23951169.1144
  24593075.110    -1797318.004 3   -126891.52245  24593078.6984
  22617728.112    -9871368.440 6  -7506037.84846  22617734.1724
  21774227.118   -10884441.953 7  -8340976.77746  21774231.6874
  20086802.473   -23007363.176 7 -17695877.60147  20086807.5044
  24012533.704    -7314105.390 4  -5501448.45645  24012539.5074
  24871991.664     -559697.905 4   5462992.08345  24871997.4724
  23771944.220    -6120082.011 6  -4634991.68345  23771950.2234
 02  1 30  3 47 59.9990000  0  9 10 23 17 27 28 08 24 13 02
  20138583.323   -26944558.830 8 -13090563.27147  20138589.3174
  23931646.553    -6109004.440 5  -4584323.60645  23931652.4084
  24578910.107    -1871754.340 2   -184893.90544  24578914.3414
  22631385.843    -9799596.723 6  -7450111.85046  22631391.3744
  21760766.994   -10955175.358 7  -8396093.68846  21760771.8534
  20094103.480   -22968996.223 6 -17665981.28247  20094108.3244
  24029786.754    -7223440.253 5  -5430800.29545  24029795.2224
  24887212.038     -479714.217 4   5525317.01845  24887219.8044
  23781416.762    -6070303.935 6  -4596203.57045  23781422.7974
 02  1 30  3 48 29.9990000  0  9 10 23 17 27 28 08 24 13 02
  20137755.959   -26948906.619 7 -13093951.16747  20137761.6484
  23912152.023    -6211448.856 5  -4664150.39445  23912158.9464
  24564833.642    -1945726.806 2   -242534.95644  24564839.9444
  22645072.735    -9727671.476 6  -7394066.22646  22645078.5654
  21747388.341   -11025480.373 7  -8450876.77646  21747392.7444
  20101484.244   -22930210.051 6 -17635758.27847  20101488.9414
  24047046.609    -7132738.900 5  -5360124.01945  24047053.1264
  24902442.868     -399676.561 5   5587683.93245  24902451.0454
  23790960.569    -6020151.199 6  -4557123.54245  23790965.7424
 02  1 30  3 48 59.9990000  0  9 10 23 17 27 28 08 24 13 02
  20137034.464   -26952698.123 7 -13096905.59047  20137040.3124
  23892679.916    -6313775.236 5  -4743885.22345  23892687.9804
  24550845.260    -2019236.716 3   -299815.42145  24550852.9554
  22658787.870    -9655598.019 6  -7337905.09746  22658793.6274
  21734090.973   -11095358.351 7  -8505327.14746  21734096.3554
  20108943.758   -22891010.048 6 -17605212.82447  20108948.1214
  24064312.160    -7042008.032 5  -5289424.72145  24064321.3314
  24917683.195     -319588.998 5   5650089.86445  24917690.2094
  23800574.618    -5969629.236 6  -4517755.76745  23800578.8204
 02  1 30  3 49 29.9990000  0  9 10 23 17 27 28 08 24 13 02
  20136418.065   -26955937.411 6 -13099429.71947  20136423.5244
  23873229.854    -6415986.204 5  -4823530.13445  23873238.0004
  24536944.610    -2092286.837 4   -356737.55645  24536951.8394
  22672530.070    -9583382.483 6  -7281633.25946  22672535.9104
  21720874.379   -11164811.905 7  -8559446.76846  21720878.7174
  20116480.789   -22851402.934 8 -17574350.14247  20116486.5744
  24081581.829    -6951255.239 5  -5218708.27845  24081586.7814
  24932932.067     -239456.185 5   5712530.94345  24932938.6474
  23810257.636    -5918744.172 6  -4478105.02145  23810261.8604
 02  1 30  3 49 59.9990000  0  9 10 23 17 27 28 08 24 13 02
  20135907.473   -26958620.598 7 -13101520.52047  20135912.9864
  23853802.868    -6518076.332 5  -4903080.86645  23853808.9814
  24523132.397    -2164871.675 3   -413297.23445  24523137.5464
  22686299.595    -9511023.063 6  -7225249.32546  22686306.2994
  21707739.575   -11233835.366 7  -8613231.25046  21707744.5974
  20124095.529   -22811387.274 6 -17543169.09747  20124100.5484
  24098855.846    -6860480.125 5  -5147974.49145  24098864.4784
  24948190.004     -159275.130 5   5775009.72245  24948193.2364
  23820010.081    -5867494.386 6  -4438170.12545  23820014.6504
 02  1 30  3 50 29.9990000  0  9 10 23 17 27 28 08 24 13 02
  20135502.879   -26960746.764 8 -13103177.28947  20135508.7774
  23834399.426    -6620042.845 5  -4982535.26545  23834406.3124
  24509409.028    -2236988.261 2   -469492.07945  24509411.5674
  22700096.393    -9438520.651 6  -7168753.93246  22700102.0204
  21694687.272   -11302425.537 7  -8666678.10146  21694692.4424
  20131787.813   -22770964.250 6 -17511670.65147  20131792.2934
  24116133.601    -6769685.142 5  -5077225.17045  24116140.4504
  24963457.010      -79045.415 3   5837526.39444  24963466.3204
  23829831.767    -5815880.907 6  -4397951.79345  23829833.7864
 02  1 30  3 50 59.9990000  0  9 10 23 17 27 28 08 24 13 02
  20135204.228   -26962316.247 8 -13104400.27647  20135210.2074
  23815019.630    -6721884.239 5  -5061892.18645  23815027.4174
  24495774.730    -2308635.628 2   -525321.29143  24495773.3894
  22713919.921    -9365877.751 6  -7112149.08246  22713924.5754
  21681717.676   -11370581.140 7  -8719786.32946  21681723.0634
  20139557.101   -22730136.371 6 -17479856.70847  20139562.3234
  24133414.372    -6678874.123 5  -5006463.41245  24133421.9084
  24978733.258        1231.748 2
  23839722.225    -5763906.114 5  -4357451.98745  23839727.8764
 02  1 30  3 51 29.9990000  0  9 10 23 17 27 28 08 24 13 02
  20135012.838   -26963321.992 7 -13105183.97447  20135018.5824
  23795665.108    -6823591.776 5  -5141144.81345  23795673.6164
  24482231.502    -2379804.971 2   -580777.88545  24482235.4844
  22727771.082    -9293089.510 6  -7055430.95146  22727776.3874
  21668832.464   -11438293.440 7  -8772549.15746  21668837.6694
  20147404.200   -22688899.525 8 -17447724.10547  20147409.8394
  24150698.985    -6588043.398 5  -4935686.30345  24150705.8114
  24994020.162       81562.745 3
  23849682.368    -5711565.238 5  -4316666.87445  23849690.5944
 02  1 30  3 51 59.9990000  0  9 10 23 17 27 28 08 24 13 02
  20134928.448   -26963765.499 6 -13105529.55447  20134933.7984
  23776336.241    -6925165.013 5  -5220292.81945  23776342.2494
  24468779.468    -2450495.849 2   -635861.86545  24468786.2604
  22741649.243    -9220159.034 6  -6998602.02446  22741654.6184
  21656031.768   -11505561.693 7  -8824965.94446  21656036.3084
  20155328.526   -22647256.943 8 -17415275.33347  20155334.1364
  24167986.356    -6497197.487 5  -4864897.33245  24167994.8684
  25009316.354      161945.542 2
  23859711.602    -5658861.675 5  -4275599.18145  23859717.5374
 02  1 30  3 52 29.9990000  0  9 10 23 17 27 28 08 24 13 02
  20134950.378   -26963650.248 8 -13105439.76447  20134956.3004
  23757032.745    -7026605.666 5  -5299337.42145  23757039.4724
  24455418.258    -2520710.281 3   -690574.41845  24455424.7164
  22755553.465    -9147091.542 6  -6941666.28946  22755559.7084
  21643315.216   -11572387.598 7  -8877038.05646  21643320.5034
  20163328.934   -22605214.498 6 -17382514.98647  20163334.2524
  24185275.367    -6406343.484 5  -4794102.03545  24185281.5104
  25024621.518      242376.084 2
  23869808.695    -5605800.853 5  -4234253.10645  23869815.1284
 02  1 30  3 52 59.9990000  0  8 10 23 17 27 28 08 24 02
  20135078.061   -26962979.120 7 -13104916.80847  20135083.7524
  23737754.325    -7127914.768 5  -5378279.54245  23737761.3804
  24442147.457    -2590449.336 4   -744916.54345  24442155.7284
  22769482.871    -9073891.902 6  -6884627.66246  22769487.7834
  21630682.656   -11638772.263 7  -8928766.35346  21630688.0084
  20171404.424   -22562777.478 8 -17349447.16947  20171410.0994
  24202564.818    -6315487.414 5  -4723305.24645  24202572.7474
  23879972.852    -5552387.849 5  -4192632.60645  23879980.5364
 02  1 30  3 53 29.9990000  0  8 10 23 17 27 28 08 24 02
  20135312.678   -26961746.194 6 -13103956.10147  20135318.1414
  23718502.389    -7229084.730 5  -5457113.27545  23718508.2744
  24428968.560    -2659705.568 4   -798882.58645  24428970.4094
  22783438.173    -9000556.258 6  -6827483.00946  22783444.1904
  21618135.496   -11704707.866 7  -8980144.69746  21618139.6574
  20179555.690   -22519942.193 8 -17316069.02847  20179560.9074
  24219855.071    -6224626.758 5  -4652504.75345  24219863.9904
  23890204.770    -5498618.959 6  -4150734.74245  23890211.0254
 02  1 30  3 53 59.9990000  0  9 10 23 17 27 28 26 08 24 02
  20135653.773   -26959953.684 8 -13102559.33947  20135659.7414
  23699276.883    -7330115.491 5  -5535838.50345  23699282.5584
  24415881.527    -2728479.139 4   -852472.42245  24415886.6514
  22797418.622    -8927088.288 6  -6770235.27546  22797423.9324
  21605673.713   -11770194.552 7  -9031173.25046  21605678.3894
  22351531.005      -13772.26813
  20187781.911   -22476712.984 8 -17282383.93447  20187787.4114
  24237145.213    -6133767.097 5  -4581705.08645  24237153.3664
  23900503.645    -5444498.036 5  -4108562.62545  23900509.3534
 02  1 30  3 54 29.9990000  0  9 10 23 17 27 28 26 08 24 02
  20136102.630   -26957594.901 7 -13100721.32247  20136108.6334
  23680079.483    -7430998.605 5  -5614448.68945  23680084.4524
  24402887.852    -2796761.930 2   -905679.83445  24402891.3684
  22811425.180    -8853483.396 6  -6712880.83346  22811431.8154
  21593298.980   -11835223.984 7  -9081845.50346  21593303.8654
  22335820.968      -96330.383 3
  20196083.882   -22433085.619 8 -17248388.58747  20196089.2064
  24254435.804    -6042904.814 5  -4510903.38345  24254443.6914
  23910870.348    -5390020.806 6  -4066112.81145  23910875.0004
 02  1 30  3 54 59.9990000  0  9 10 23 17 27 28 26 08 24 02
  20136659.349   -26954669.322 7 -13098441.66047  20136665.0354
  23660910.490    -7531732.127 5  -5692942.26545  23660915.4694
  24389987.431    -2864552.155 2   -958503.41845  24389995.2584
  22825457.525    -8779742.994 6  -6655420.76546  22825464.1274
  21581011.678   -11899793.896 7  -9132159.67546  21581016.6494
  22320138.352     -178743.068 2
  20204461.334   -22389061.811 8 -17214084.33347  20204466.6154
  24271726.156    -5952042.922 4  -4440101.97345  24271735.7824
  23921304.558    -5335188.719 6  -4023386.52245  23921308.1914
 02  1 30  3 55 29.9990000  0  9 10 23 17 27 28 26 08 24 02
  20137322.468   -26951184.572 8 -13095726.27247  20137328.3974
  23641768.963    -7632321.096 5  -5771323.29345  23641773.9984
  24377180.287    -2931854.943 4  -1010947.19845  24377184.7804
  22839514.041    -8705875.923 6  -6597862.01846  22839520.1474
  21568810.875   -11963909.455 7  -9182119.83146  21568815.8214
  22304482.152     -261017.118 3    -55555.06355  22304488.2284
  20212912.390   -22344651.178 8 -17179478.63447  20212917.7404
  24289014.717    -5861191.422 5  -4369308.67745  24289022.1474
  23931804.528    -5280011.079 5  -3980390.95945  23931810.0784
 02  1 30  3 55 59.9990000  0  9 10 23 17 27 28 26 08 24 02
  20138092.634   -26947137.134 8 -13092572.42147  20138098.5104
  23622656.049    -7732760.173 5  -5849587.50045  23622662.0144
  24364466.876    -2998665.308 4  -1063007.24645  24364467.9644
  22853594.965    -8631880.359 6  -6540203.14846  22853600.5664
  21556697.515   -12027565.410 7  -9231721.84546  21556702.8764
  22288853.047     -343148.580 5   -119553.52545  22288856.3394
  20221437.317   -22299852.300 8 -17144570.42447  20221442.5334
  24306301.303    -5770350.498 5  -4298523.65845  24306308.0064
  23942370.493    -5224486.382 5  -3937124.94145  23942376.7994
 02  1 30  3 56 29.9990000  0  9 10 23 17 27 28 26 08 24 02
  20138969.628   -26942528.570 8 -13088981.35147  20138975.5374
  23603571.793    -7833048.958 6  -5927734.55945  23603577.1014
  24351846.924    -3064983.394 3  -1114683.75145  24351852.7494
  22867699.657    -8557759.927 6  -6482446.97946  22867705.6074
  21544671.677   -12090761.702 7  -9280965.68446  21544676.8534
  22273250.698     -425138.717 5   -183441.93145  22273254.6784
  20230035.399   -22254669.088 8 -17109362.73547  20230041.6224
  24323584.866    -5679524.818 4  -4227750.48145  24323590.2014
  23953001.739    -5168618.407 5  -3893591.49545  23953009.2104
 02  1 30  3 56 59.9990000  0  9 10 23 17 27 28 26 08 24 02
  20139954.651   -26937352.414 7 -13084947.98647  20139960.3714
  23584517.642    -7933179.011 5  -6005757.91445  23584523.4824
  24339322.269    -3130800.942 2  -1165970.25045  24339326.5744
  22881828.962    -8483510.018 6  -6424589.90646  22881834.6894
  21532734.831   -12153490.158 7  -9329844.97146  21532739.5274
  22257676.552     -506980.782 5   -247214.92045  22257681.6444
  20238707.362   -22209097.582 7 -17073852.44647  20238712.5304
  24340866.174    -5588711.058 4  -4156986.68245  24340876.4774
  23963699.172    -5112402.888 5  -3849787.13945  23963705.5164
 02  1 30  3 57 29.9990000  0  9 10 23 17 27 28 26 08 24 02
  20141045.777   -26931618.648 7 -13080480.12147  20141051.5464
  23565492.108    -8033158.159 5  -6083663.77245  23565498.1064
  24326891.255    -3196126.196 3  -1216873.03545  24326897.8014
  22895980.814    -8409141.949 6  -6366640.83146  22895985.8634
  21520885.514   -12215758.413 7  -9378365.65846  21520890.7554
  22242128.930     -588683.738 6   -310879.53945  22242132.8844
  20247450.992   -22163149.480 8 -17038048.74547  20247456.1804
  24358142.746    -5497922.284 5  -4086242.18345  24358152.9584
  23974460.658    -5055851.386 6  -3805721.01045  23974463.6114
 02  1 30  3 57 59.9990000  0  9 10 23 17 27 28 26 08 24 02
  20142243.534   -26925324.454 8 -13075575.55647  20142249.6034
  23546496.390    -8132981.236 5  -6161448.00945  23546504.0874
  24314555.098    -3260954.021 4  -1267388.26345  24314562.1484
  22910155.388    -8334654.234 6  -6308598.43346  22910160.6914
  21509124.766   -12277561.437 7  -9426523.82946  21509130.3334
  22226608.340     -670244.078 5   -374433.04245  22226614.0024
  20256266.499   -22116823.726 8 -17001950.74647  20256272.2294
  24375414.577    -5407158.358 5  -4015517.18745  24375424.2714
  23985286.259    -4998962.772 5  -3761392.22245  23985290.5044
 02  1 30  3 58 29.9990000  0  9 10 23 17 27 28 26 08 24 02
  20143550.038   -26918458.668 8 -13070225.60147  20143555.8234
  23527532.900    -8232635.042 5  -6239100.34345  23527541.2454
  24302315.903    -3325271.955 4  -1317506.26345  24302320.6654
  22924354.513    -8260037.405 6  -6250455.51446  22924359.4084
  21497455.024   -12338886.314 7  -9474309.42146  21497459.9294
  22211117.218     -751650.280 6   -437866.47745  22211123.3734
  20265155.513   -22070111.546 8 -16965551.64047  20265160.9004
  24392683.184    -5316411.255 3  -3944805.19945  24392689.4504
  23996177.689    -4941727.880 5  -3716793.60345  23996183.1834
 02  1 30  3 58 59.9990000  0  9 10 23 17 27 28 26 08 24 02
  20144963.153   -26911032.659 7 -13064439.10947  20144968.6624
  23508599.806    -8332129.023 5  -6316628.12345  23508607.9664
  24290171.736    -3389089.961 3  -1367234.63445  24290174.9644
  22938575.630    -8185304.754 6  -6192222.30646  22938581.1784
  21485874.373   -12399742.874 7  -9521730.07946  21485879.0764
  22195653.359     -832913.142 6   -501188.18945  22195659.2464
  20274115.429   -22023026.801 8 -16928862.22347  20274120.9494
  24409945.874    -5225695.726 4  -3874117.82245  24409957.0494
  24007132.422    -4884160.161 5  -3671935.64345  24007137.5294
 02  1 30  3 59 29.9990000  0  9 10 23 17 27 28 26 08 24 02
  20146484.167   -26903039.726 8 -13058210.86347  20146490.1684
  23489698.902    -8431454.189 6  -6394024.34745  23489705.1144
  24278124.339    -3452399.092 3  -1416566.44345  24278130.1344
  22952819.865    -8110450.972 6  -6133894.70246  22952825.7944
  21474384.539   -12460122.128 7  -9568778.81046  21474389.1704
  22180218.146     -914025.280 6   -564392.39045  22180224.1114
  20283147.267   -21975564.231 7 -16891878.41447  20283152.4484
  24427203.207    -5135007.786 3  -3803452.08145  24427208.1414
  24018151.526    -4826254.602 5  -3626814.43545  24018158.2684
 02  1 30  3 59 59.9990000  0  9 10 23 17 27 28 26 08 24 02
  20148112.163   -26894484.625 8 -13051544.55647  20148118.1744
  23470829.702    -8530612.913 6  -6471290.88145  23470835.9754
  24266173.475    -3515202.588 4  -1465504.29545  24266180.6514
  22967086.019    -8035482.138 6  -6075477.43146  22967091.3724
  21462985.040   -12520026.888 8  -9615457.83146  21462989.8944
  22164810.944     -994990.751 6   -627482.34045  22164815.8784
  20292249.683   -21927730.928 8 -16854605.71747  20292255.0764
  24444453.841    -5044354.960 2  -3732813.63545  24444463.2284
  24029233.492    -4768017.925 5  -3581435.16545  24029237.9274
 02  1 30  4  0 29.9990000  0  9 10 23 17 27 28 26 08 24 02
  20149848.451   -26885360.493 7 -13044434.85147  20149854.2914
  23451993.839    -8629596.185 6  -6548420.65246  23451999.6544
  24254320.582    -3577491.752 4  -1514041.34045  24254325.4644
  22981374.972    -7960392.972 6  -6016966.42446  22981380.0474
  21451677.498   -12579448.469 7  -9661760.32646  21451682.3084
  22149433.068    -1075801.970 6   -690452.11045  22149437.5634
  20301423.528   -21879522.149 6 -16817040.41947  20301428.2334
  24461698.583    -4953733.398 3  -3662199.36445  24461715.4594
  24040379.373    -4709445.323 4  -3535794.19945  24040385.7334
 02  1 30  4  0 59.9990000  0  8 10 23 17 27 28 26 08 02
  20151692.037   -26875672.540 7 -13036885.80247  20151697.8404
  23433190.830    -8728407.039 6  -6625416.07146  23433196.8434
  24242564.232    -3639270.331 3  -1562180.50545  24242567.2994
  22995685.580    -7885190.136 6  -5958366.85146  22995690.4644
  21440461.230   -12638390.158 7  -9707688.87246  21440465.2964
  22134083.586    -1156463.701 6   -753305.36745  22134089.6504
  20310667.487   -21830945.070 8 -16779188.16247  20310672.9834
  24051587.970    -4650544.000 5  -3489897.11645  24051594.1454
 02  1 30  4  1 29.9990000  0  8 10 23 17 27 28 26 08 02
  20153643.924   -26865415.436 6 -13028893.26347  20153649.5544
  23414422.092    -8827037.832 6  -6702271.17546  23414427.1804
  24230906.768    -3700530.953 5  -1609916.09045  24230915.9084
  23010018.587    -7809869.671 6  -5899675.60846  23010025.0954
  21429337.710   -12696844.395 7  -9753237.60546  21429342.7854
  22118763.784    -1236969.409 6   -816037.02345  22118769.0234
  20319982.213   -21781996.087 8 -16741046.09347  20319987.9904
  24062859.645    -4591310.244 5  -3443740.90445  24062865.5724
 02  1 30  4  1 59.9990000  0  8 10 23 17 27 28 26 08 02
  20155703.351   -26854592.965 8 -13020460.18247  20155708.8644
  23395687.278    -8925489.897 6  -6778987.03846  23395692.2144
  24219347.580    -3761275.341 4  -1657249.46545  24219352.8644
  23024372.978    -7734436.662 6  -5840896.66946  23024377.9474
  21418306.646   -12754813.027 8  -9798407.95146  21418311.6444
  22103473.059    -1317322.211 6   -878649.55346  22103479.0964
  20329366.616   -21732680.828 8 -16702618.63147  20329372.1134
  24074193.623    -4531749.491 5  -3397329.95745  24074199.2534
 02  1 30  4  2 29.9980000  0  8 10 23 17 27 28 26 08 02
  20157869.440   -26843209.859 8 -13011590.23747  20157875.3684
  23376986.565    -9023762.104 6  -6855562.74345  23376991.4324
  24207886.353    -3821504.736 4  -1704181.52845  24207892.0994
  23038747.236    -7658899.491 6  -5782036.57445  23038752.3524
  21407367.859   -12812296.741 8  -9843200.43246  21407372.9684
  22088211.273    -1397523.181 6   -941143.77046  22088216.0714
  20338819.078   -21683007.918 8 -16663912.44947  20338824.0654
  24085588.498    -4471870.055 5  -3350670.64445  24085591.9994
 02  1 30  4  2 59.9980000  0  8 10 23 17 27 28 26 08 02
  20160142.565   -26831264.685 7 -13002282.33247  20160148.6504
  23358319.419    -9121857.981 5  -6932001.08745  23358326.7674
  24196522.974    -3881220.579 4  -1750713.40645  24196527.4654
  23053142.162    -7583253.842 5  -5723091.96046  23053148.6614
  21396521.115   -12869296.740 7  -9887615.98746  21396526.2614
  22072977.655    -1477576.294 6  -1003522.80446  22072983.4514
  20348340.019   -21632974.928 8 -16624925.70047  20348344.8364
  24097044.464    -4411669.053 5  -3303760.71445  24097047.5864
 02  1 30  4  3 29.9980000  0  8 10 23 17 27 28 26 08 02
  20162521.948   -26818761.054 7 -12992539.25047  20162527.5554
  23339686.257    -9219775.170 5  -7008300.13545  23339693.2294
  24185257.216    -3940422.335 3  -1796844.62945  24185265.6724
  23067556.440    -7507506.658 6  -5664068.19146  23067562.2854
  21385766.560   -12925812.355 8  -9931654.09846  21385771.2214
  22057772.287    -1557481.066 6  -1065786.21146  22057777.7514
  20357928.147   -21582588.737 8 -16585663.72847  20357933.6114
  24108560.224    -4351153.564 5  -3256605.81545  24108567.6384
 02  1 30  4  3 59.9980000  0  8 10 23 17 27 28 26 08 02
  20165009.162   -26805690.715 6 -12982354.58447  20165014.5494
  23321089.126    -9317502.709 5  -7084451.40045  23321095.7354
  24174091.350    -3999099.540 5  -1842567.19245  24174096.4704
  23081991.382    -7431650.664 6  -5604959.65046  23081996.5414
  21375106.162   -12981832.979 7  -9975306.50246  21375110.5144
  22042596.919    -1637228.178 6  -1127926.79646  22042603.1684
  20367584.819   -21531842.484 8 -16546121.20147  20367590.7134
  24120137.198    -4290316.713 5  -3209200.47445  24120144.3514
 02  1 30  4  4 29.9980000  0  8 10 23 17 27 28 26 08 02
  20167604.430   -26792052.622 7 -12971727.50947  20167610.3084
  23302528.781    -9415037.242 5  -7160452.28945  23302534.4904
  24163025.841    -4057249.663 5  -1887879.06745  24163032.3174
  23096446.977    -7355686.351 5  -5545766.74846  23096453.1544
  21364540.465   -13037355.792 7 -10018571.02546  21364546.1414
  22027451.936    -1716815.733 6  -1189943.05346  22027458.1504
  20377309.766   -21480737.518 8 -16506299.14547  20377315.4074
  24131774.935    -4229159.444 5  -3161545.43045  24131780.4004
 02  1 30  4  4 59.9980000  0  8 10 23 17 27 28 26 08 02
  20170305.709   -26777857.231 7 -12960666.17747  20170311.4594
  23284003.781    -9512386.631 6  -7236308.92845  23284009.0864
  24152059.021    -4114881.242 5  -1932786.84245  24152063.2524
  23110920.973    -7279625.229 6  -5486498.35046  23110926.1524
  21354067.943   -13092389.131 7 -10061454.12546  21354073.2634
  22012335.520    -1796253.170 6  -1251842.33846  22012341.6114
  20387100.719   -21429285.729 8 -16466206.83547  20387106.6714
  24143471.369    -4167693.744 5  -3113650.08545  24143476.0274
 02  1 30  4  5 29.9980000  0  8 10 23 17 27 28 26 08 02
  20173114.384   -26763097.467 8 -12949165.07947  20173120.3354
  23265515.810    -9609541.605 6  -7312014.02745  23265521.9404
  24141192.507    -4171985.641 5  -1977283.82245  24141195.7364
  23125414.393    -7203461.492 5  -5427150.05645  23125419.2894
  21343690.259   -13146923.990 7 -10103948.78746  21343695.1704
  21997249.138    -1875532.537 6  -1313618.42746  21997253.8034
  20396958.604   -21377482.007 8 -16425840.30147  20396963.7934
  24155227.511    -4105914.359 5  -3065510.27045  24155231.9174
 02  1 30  4  5 59.9980000  0  8 10 23 17 27 28 26 08 02
  20176031.103   -26747770.122 7 -12937221.71047  20176036.8744
  23247065.995    -9706496.284 6  -7387563.07046  23247071.2714
  24130427.123    -4228557.729 4  -2021365.99245  24130430.6354
  23139927.728    -7127193.245 5  -5367720.28145  23139934.4804
  21333408.410   -13200955.299 7 -10146051.08546  21333413.0284
  21982193.590    -1954649.804 6  -1375268.22346  21982199.3484
  20406883.702   -21325325.194 8 -16385198.63247  20406889.4664
  24167043.716    -4043819.734 5  -3017124.87845  24167049.1514
 02  1 30  4  6 29.9980000  0  8 10 23 17 27 28 26 08 02
  20179055.097   -26731879.075 7 -12924839.09147  20179060.9844
  23228654.115    -9803251.790 6  -7462956.93346  23228659.9004
  24119762.593    -4284599.512 5  -2065034.96145  24119769.4274
  23154460.149    -7050825.296 5  -5308212.79145  23154465.9464
  21323222.080   -13254484.800 7 -10187762.36246  21323227.2734
  21967168.358    -2033607.686 6  -1436793.77946  21967174.3194
  20416874.979   -21272820.600 8 -16344285.96647  20416879.9214
  24178918.941    -3981415.311 5  -2968498.03145  24178922.6484
 02  1 30  4  6 59.9980000  0  8 10 23 17 27 28 26 08 02
  20182185.959   -26715426.334 7 -12912018.77447  20182191.7554
  23210280.131    -9899807.558 5  -7538195.13346  23210286.1114
  24109199.135    -4340111.277 5  -2108291.00645  24109203.5974
  23169010.939    -6974360.611 5  -5248629.96245  23169016.3164
  21313131.298   -13307512.293 8 -10229082.45446  21313136.6664
  21952173.341    -2112406.947 7  -1498195.77546  21952178.8044
  20426931.753   -21219971.940 8 -16303105.18947  20426937.2394
  24190852.443    -3918704.674 5  -2919632.59945  24190857.0894
 02  1 30  4  7 29.9980000  0  8 10 23 17 27 28 26 08 02
  20185423.244   -26698414.293 7 -12898762.64447  20185429.0104
  23191943.996    -9996163.499 5  -7613277.64946  23191951.1054
  24098736.368    -4395093.793 5  -2151134.57345  24098743.3984
  23183579.411    -6897802.993 5  -5188974.69145  23183585.1084
  21303135.929   -13360038.359 8 -10270011.84446  21303140.4354
  21937208.182    -2191049.149 7  -1559475.37046  21937213.3594
  20437053.183   -21166783.536 8 -16261659.69847  20437058.2904
  24202843.297    -3855692.214 5  -2870531.97645  24202850.2154
 02  1 30  4  7 59.9980000  0  8 10 23 17 27 28 26 08 02
  20188766.914   -26680843.161 8 -12885070.87247  20188772.5124
  23173646.441   -10092317.056 5  -7688202.48446  23173654.8214
  24088374.552    -4449545.404 4  -2193564.37645  24088381.9364
  23198165.300    -6821153.511 5  -5129247.88645  23198172.5494
  21293236.314   -13412061.084 8 -10310549.00046  21293240.8454
  21922273.134    -2269533.298 6  -1620631.84146  21922279.2104
  20447238.890   -21113257.438 8 -16219951.03147  20447244.8134
  24214891.268    -3792379.512 5  -2821197.37745  24214896.3984
 02  1 30  4  8 29.9980000  0  8 10 23 17 27 28 26 08 02
  20192218.642   -26662704.255 8 -12870936.67647  20192224.1034
  23155389.738   -10188256.981 6  -7762960.86646  23155396.7314
  24078115.803    -4503455.356 3  -2235572.13645  24078119.5834
  23212770.202    -6744404.435 5  -5069443.47045  23212775.1814
  21283434.491   -13463569.985 8 -10350685.79246  21283439.3074
  21907370.105    -2347849.604 7  -1681657.50546  21907375.2784
  20457490.235   -21059386.296 8 -16177973.53647  20457495.4374
  24226997.719    -3728759.410 5  -2771623.27245  24227003.5034
 02  1 30  4  8 59.9980000  0  8 10 23 17 27 28 26 08 02
  20195778.096   -26643999.330 8 -12856361.42247  20195783.7844
  23137173.898   -10283982.289 6  -7837551.99346  23137180.8844
  24067959.978    -4556824.016 4  -2277158.17745  24067965.3554
  23227393.434    -6667558.582 5  -5009563.59745  23227400.2434
  21273730.507   -13514564.695 7 -10390421.90546  21273735.1674
  21892498.791    -2425998.699 6  -1742552.89646  21892504.6024
  20467806.495   -21005173.910 8 -16135730.09747  20467811.8044
  24239161.972    -3664835.264 5  -2721812.22445  24239167.8744
 02  1 30  4  9 29.9980000  0  8 10 23 17 27 28 26 08 02
  20199443.399   -26624738.078 8 -12841352.65847  20199449.2214
  23118997.319   -10379500.343 5  -7911981.59246  23119004.4674
  24057905.881    -4609659.310 5  -2318328.58145  24057912.0154
  23242033.090    -6590626.765 5  -4949616.80045  23242038.6204
  21264122.904   -13565052.848 7 -10429763.29246  21264127.8494
  21877657.641    -2503989.226 6  -1803324.69946  21877663.3344
  20478185.582   -20950631.510 8 -16093229.54947  20478190.7504
  24251382.054    -3600618.598 5  -2671773.25845  24251390.0554
 02  1 30  4  9 59.9980000  0  8 10 23 17 27 28 26 08 02
  20203215.740   -26604914.275 7 -12825905.54747  20203221.5974
  23100861.916   -10474801.831 5  -7986242.45746  23100868.7774
  24047954.766    -4661952.969 4  -2359076.89945  24047961.6514
  23256690.185    -6513603.673 5  -4889598.84845  23256696.0204
  21254613.254   -13615026.260 8 -10468703.58746  21254618.1464
  21862848.039    -2581813.817 6  -1863967.19546  21862853.3264
  20488628.341   -20895754.574 8 -16050468.29047  20488633.6734
  24263658.670    -3536104.683 5  -2621502.69145  24263665.3614
 02  1 30  4 10 29.9980000  0  8 10 23 17 27 28 26 08 02
  20207095.795   -26584524.575 6 -12810017.47647  20207101.3014
  23082768.985   -10569880.751 6  -8060329.90846  23082775.7744
  24038107.717    -4713700.273 5  -2399399.50845  24038111.4014
  23271365.096    -6436486.874 6  -4829507.83645  23271372.6194
  21245202.560   -13664479.612 8 -10507238.62346  21245207.2134
  21848070.946    -2659467.733 6  -1924476.71246  21848076.6924
  20499135.089   -20840541.319 8 -16007444.98947  20499140.3464
  24275992.084    -3471291.732 5  -2570999.06945  24275999.2094
 02  1 30  4 10 59.9980000  0  8 10 23 17 27 28 26 08 02
  20211081.436   -26563580.065 7 -12793697.09247  20211086.7364
  23064716.923   -10664745.137 6  -8134250.18646  23064723.3464
  24028362.895    -4764909.916 4  -2439303.17445  24028368.7324
  23286055.615    -6359287.943 5  -4769352.91245  23286061.9184
  21235889.177   -13713421.538 7 -10545375.15846  21235894.2094
  21833324.539    -2736960.516 6  -1984860.67846  21833329.7094
  20509703.473   -20785004.043 8 -15964169.18447  20509708.6554
  24288380.107    -3406192.206 5  -2520272.16345  24288385.9984
 02  1 30  4 11 29.9980000  0  8 10 23 17 27 28 26 08 02
  20215174.385   -26542071.516 8 -12776937.19947  20215180.2204
  23046707.983   -10759383.042 6  -8207993.99046  23046713.3364
  24018722.425    -4815571.196 4  -2478779.51545  24018728.2794
  23300763.299    -6281998.649 5  -4709127.51245  23300769.3084
  21226675.188   -13761841.037 8 -10583104.60446  21226679.9834
  21818610.784    -2814281.892 6  -2045111.08346  21818616.6204
  20520334.936   -20729135.391 8 -15920635.17047  20520340.8444
  24300824.244    -3340798.480 5  -2469315.98445  24300829.6674
 02  1 30  4 11 59.9980000  0  8 10 23 17 27 28 26 08 02
  20219373.655   -26520004.177 7 -12759741.87047  20219379.5254
  23028741.645   -10853797.063 6  -8281563.37146  23028747.9044
  24009185.584    -4865687.450 3  -2517831.28445  24009193.4164
  23315487.050    -6204625.323 5  -4648836.68345  23315492.0404
  21217560.009   -13809741.467 7 -10620429.59046  21217564.7904
  21803928.825    -2891435.918 6  -2105231.09246  21803934.1654
  20531028.149   -20672942.112 8 -15876848.19747  20531033.3464
  24313323.047    -3275117.337 5  -2418135.86345  24313329.0084
 02  1 30  4 12 29.9980000  0  8 10 23 17 27 28 26 08 02
  20223679.279   -26497378.063 6 -12742111.14247  20223684.9104
  23010818.482   -10947984.157 6  -8354955.89546  23010825.8734
  23999753.019    -4915256.921 4  -2556456.91245  23999760.7254
  23330226.663    -6127168.675 6  -4588480.84045  23330233.1464
  21208544.111   -13857120.392 8 -10657348.22946  21208549.5144
  21789278.976    -2968421.115 6  -2165219.53146  21789283.7014
  20541782.857   -20616425.620 8 -15832809.35947  20541788.6104
  24325876.203    -3209150.212 5  -2366732.88045  24325883.0454
 02  1 30  4 12 59.9980000  0  8 10 23 17 27 28 26 08 02
  20228091.362   -26474192.523 6 -12724044.50147  20228097.1964
  22992939.206   -11041940.753 6  -8428168.79546  22992946.3834
  23990424.734    -4964277.309 3  -2594654.59645  23990430.3494
  23344982.023    -6049628.584 5  -4528060.05245  23344987.6664
  21199627.883   -13903975.458 8 -10693858.63746  21199631.8004
  21774661.582    -3045235.547 6  -2225074.89846  21774666.5984
  20552598.879   -20559586.866 8 -15788519.42947  20552603.9744
  24338483.608    -3142897.689 5  -2315107.50145  24338489.6234
 02  1 30  4 13 29.9980000  0  8 10 23 17 27 28 26 08 02
  20232610.393   -26450444.915 7 -12705539.88547  20232616.2184
  22975104.865   -11135661.126 6  -8501197.65046  22975110.6544
  23981201.990    -5012743.851 4  -2632420.73945  23981208.2724
  23359753.689    -5972003.048 5  -4467572.66545  23359758.7684
  21190812.277   -13950301.653 8 -10729956.94546  21190816.5374
  21760077.622    -3121874.800 6  -2284793.78846  21760083.7034
  20563476.472   -20502424.524 8 -15743977.32247  20563482.9124
  24351145.532    -3076358.479 5  -2263258.77945  24351149.0654
 02  1 30  4 13 59.9980000  0  8 10 23 17 27 28 26 08 02
  20237234.937   -26426142.723 7 -12686603.10747  20237240.8514
  22957314.386   -11229150.291 6  -8574046.32546  22957320.0624
  23972083.184    -5060662.627 3  -2669760.07245  23972090.4174
  23374539.999    -5894300.514 5  -4407025.26345  23374545.0934
  21182096.170   -13996104.914 7 -10765647.78146  21182101.3094
  21745525.795    -3198345.428 6  -2344381.25446  21745530.5494
  20574413.891   -20444947.717 8 -15699190.20047  20574419.0174
  24363860.248    -3009541.759 5  -2211193.74045  24363864.6254
 02  1 30  4 14 29.9980000  0  8 10 23 17 27 28 26 08 02
  20241965.474   -26401283.535 7 -12667232.32747  20241971.4454
  22939569.014   -11322402.557 6  -8646710.42546  22939575.2394
  23963069.714    -5108029.070 4  -2706669.02445  23963074.8434
  23389341.381    -5816519.130 6  -4346416.42345  23389346.0824
  21173480.498   -14041380.509 8 -10800927.45146  21173485.3674
  21731006.795    -3274643.318 6  -2403834.13946  21731011.8954
  20585411.396   -20387155.313 8 -15654157.16347  20585416.5484
  24376627.947    -2942446.358 5  -2158911.63245  24376632.3234
 02  1 30  4 14 59.9980000  0  8 10 23 17 27 28 26 08 02
  20246803.636   -26375858.823 8 -12647420.88847  20246809.5364
  22921870.971   -11415406.460 6  -8719180.99946  22921876.8104
  23954163.329    -5154833.122 5  -2743139.73445  23954171.2014
  23404159.212    -5738651.078 5  -4285740.05045  23404163.9624
  21164967.303   -14086117.766 8 -10835787.63246  21164972.0424
  21716522.554    -3350758.677 6  -2463144.76546  21716528.0044
  20596470.331   -20329040.278 8 -15608872.71147  20596476.4294
  24389450.103    -2875065.146 5  -2106406.80645  24389455.5394
 02  1 30  4 15 29.9980000  0  8 10 23 17 27 28 26 08 02
  20251747.252   -26349879.809 8 -12627177.50047  20251753.0594
  22904218.683   -11508170.326 6  -8791464.52146  22904224.7794
  23945361.929    -5201084.301 4  -2779179.58645  23945367.2604
  23418991.276    -5660708.287 5  -4225005.47245  23418996.7034
  21156554.781   -14130325.968 8 -10870235.56246  21156559.0274
  21702071.253    -3426701.028 7  -2522320.61746  21702076.3544
  20607588.292   -20270615.321 8 -15563346.79147  20607592.3614
  24402324.364    -2807410.833 5  -2053689.15845  24402330.7484
 02  1 30  4 15 59.9980000  0  8 10 23 17 27 28 26 08 02
  20256797.712   -26323339.526 7 -12606496.77047  20256803.3114
  22886614.030   -11600683.867 6  -8863553.00946  22886620.2994
  23936667.487    -5246773.448 3  -2814781.59145  23936672.7594
  23433838.826    -5582683.968 5  -4164207.37345  23433845.1914
  21148244.633   -14173995.760 8 -10904263.93246  21148248.6144
  21687654.453    -3502461.821 6  -2581354.98146  21687660.1624
  20618766.362   -20211874.610 8 -15517574.79347  20618771.3274
  24415251.696    -2739477.581 5  -2000754.11545  24415256.9044
 02  1 30  4 16 29.9980000  0  8 10 23 17 27 28 26 08 02
  20261953.653   -26296244.990 8 -12585384.16447  20261959.6354
  22869056.142   -11692951.373 6  -8935449.75146  22869062.3464
  23928078.861    -5291906.193 3  -2849949.99345  23928083.0474
  23448700.343    -5504586.218 5  -4103352.03745  23448707.3564
  21140035.877   -14217132.692 7 -10937877.11246  21140040.8904
  21673271.102    -3578046.842 7  -2640252.37946  21673276.2894
  20630002.866   -20152826.624 8 -15471563.37747  20630007.5494
  24428230.389    -2671273.887 5  -1947608.34045  24428237.7874
 02  1 30  4 16 59.9980000  0  8 10 23 17 27 28 26 08 02
  20267213.634   -26268603.523 8 -12563845.36647  20267219.2974
  22851544.289   -11784976.750 6  -9007157.79846  22851549.9004
  23919595.277    -5336487.692 4  -2884688.87645  23919604.3724
  23463574.367    -5426422.733 5  -4042445.43045  23463577.9544
  21131927.651   -14259741.782 8 -10971078.99446  21131932.9544
  21658920.086    -3653461.572 7  -2699017.06246  21658925.7784
  20641296.154   -20093479.982 8 -15425319.22047  20641301.1654
  24441258.898    -2602808.200 5  -1894258.46345  24441268.7444
 02  1 30  4 17 29.9980000  0  8 10 23 17 27 28 26 08 02
  20272579.249   -26240407.102 6 -12541874.14547  20272585.1484
  22834080.595   -11876748.867 6  -9078668.53046  22834087.0394
  23911218.592    -5380508.411 5  -2918990.77245  23911226.5234
  23478462.450    -5348185.572 5  -3981481.46745  23478467.6564
  21123921.789   -14301812.716 8 -11003861.49646  21123926.0384
  21644603.386    -3728696.357 7  -2757641.54946  21644608.6004
  20652647.587   -20033827.656 8 -15378836.88347  20652652.5014
  24454338.669    -2534073.745 5  -1840699.14845  24454345.7764
 02  1 30  4 17 59.9980000  0  8 10 23 17 27 28 26 08 02
  20278049.020   -26211663.546 6 -12519476.58247  20278054.6324
  22816664.143   -11968272.643 6  -9149985.75946  22816671.1604
  23902947.452    -5423974.348 5  -2952860.37045  23902955.4774
  23493363.002    -5269883.373 6  -3920466.74945  23493368.4824
  21116017.214   -14343351.294 8 -11036229.19046  21116021.5374
  21630319.671    -3803757.520 7  -2816130.73346  21630325.0424
  20664055.419   -19973878.971 8 -15332123.63846  20664060.3524
  24467467.925    -2465079.799 5  -1786937.61245  24467471.8194
 02  1 30  4 18 29.9980000  0  8 10 23 17 27 28 26 08 02
  20283624.480   -26182364.432 8 -12496646.12047  20283630.3334
  22799297.176   -12059536.613 6  -9221100.51346  22799303.5444
  23894783.553    -5466875.507 3  -2986289.84845  23894789.8164
  23508277.367    -5191508.231 5  -3859395.27545  23508282.8524
  21108215.888   -14384347.370 8 -11068174.15946  21108220.3444
  21616070.939    -3878634.889 7  -2874476.72046  21616076.2704
  20675520.968   -19913626.909 7 -15285173.97346  20675526.5844
  24480647.713    -2395819.311 5  -1732968.40245  24480653.4574
 02  1 30  4 18 59.9980000  0  8 10 23 17 27 28 26 08 02
  20289304.753   -26152514.456 6 -12473386.39847  20289310.4494
  22781979.372   -12150542.086 6  -9292013.82946  22781986.0334
  23886726.765    -5509214.329 4  -3019281.27945  23886733.1464
  23523204.501    -5113065.140 5  -3798270.79645  23523209.5964
  21100517.307   -14424803.529 8 -11099698.41646  21100522.1344
  21601856.568    -3953331.496 7  -2932681.84046  21601861.7434
  20687043.207   -19853077.030 8 -15237992.25246  20687048.4974
  24493877.084    -2326297.950 5  -1678795.89845  24493882.4424
 02  1 30  4 19 29.9980000  0  8 10 23 17 27 28 26 08 02
  20295090.018   -26122112.836 6 -12449696.83847  20295095.4564
  22764711.481   -12241285.275 6  -9362722.75946  22764717.0724
  23878777.466    -5550988.705 4  -3051832.70645  23878786.3464
  23538144.643    -5034553.746 5  -3737093.16245  23538149.4124
  21092922.080   -14464716.753 8 -11130799.61646  21092926.9134
  21587677.104    -4027844.978 7  -2990744.28146  21587682.2234
  20698622.015   -19792230.073 8 -15190579.05647  20698627.7134
  24507156.068    -2256516.248 5  -1624420.49545  24507162.3154
 02  1 30  4 19 59.9980000  0  8 10 23 17 27 28 26 08 02
  20300978.929   -26091166.541 7 -12425582.86347  20300984.8284
  22747492.868   -12331769.741 6  -9433230.13046  22747497.9814
  23870934.716    -5592203.598 5  -3083948.20045  23870940.7034
  23553096.398    -4955981.358 5  -3675868.03745  23553103.3154
  21085429.278   -14504091.916 8 -11161481.54746  21085433.0254
  21573531.549    -4102180.393 7  -3048667.95246  21573537.3544
  20710255.853   -19731094.072 7 -15142940.60046  20710261.6154
  24520483.111    -2186482.292 5  -1569848.58045  24520489.2704
 02  1 30  4 20 29.9980000  0  8 10 23 17 27 28 26 08 02
  20306971.721   -26059674.377 7 -12401043.52747  20306977.6354
  22730324.290   -12421991.035 6  -9503532.41446  22730330.1824
  23863198.934    -5632855.913 5  -3115625.39245  23863205.3604
  23568060.038    -4877347.129 5  -3614594.69045  23568067.4304
  21078039.469   -14542925.803 8 -11191741.68547  21078043.2654
  21559420.460    -4176334.815 7  -3106450.60246  21559426.2754
  20721944.680   -19669668.882 7 -15095076.81746  20721950.4664
  24533858.142    -2116196.049 5  -1515080.07245  24533864.4504
 02  1 30  4 20 59.9980000  0  8 10 23 17 27 28 26 08 02
  20313068.856   -26027633.643 8 -12376076.73047  20313074.6794
  22713206.936   -12511943.219 6  -9573624.98346  22713212.5084
  23855570.808    -5672941.294 4  -3146860.77945  23855579.7884
  23583035.944    -4798648.743 5  -3553271.28745  23583041.4054
  21070753.497   -14581213.755 8 -11221576.42247  21070757.8834
  21545344.590    -4250303.828 7  -3164088.74346  21545349.6044
  20733688.725   -19607953.214 8 -15046986.67446  20733693.5154
  24547281.461    -2045656.126 5  -1460113.92745  24547284.3424
 02  1 30  4 21 29.9980000  0  8 10 23 17 27 28 26 08 02
  20319269.830   -25995047.399 6 -12350684.86947  20319275.4624
  22696140.822   -12601625.835 6  -9643507.54246  22696146.9734
  23848050.508    -5712460.916 5  -3177655.29345  23848055.0154
  23598023.432    -4719889.318 5  -3491900.30545  23598027.8804
  21063571.238   -14618956.670 8 -11250986.47247  21063575.5664
  21531303.762    -4324088.489 7  -3221583.25546  21531309.0774
  20745487.367   -19545950.762 7 -14998673.06446  20745493.1534
  24560752.241    -1974866.549 5  -1404953.21145  24560758.7804
 02  1 30  4 21 59.9980000  0  8 10 23 17 27 28 26 08 02
  20325574.492   -25961916.203 8 -12324868.35947  20325580.3794
  22679126.422   -12691036.492 6  -9713178.17246  22679132.9974
  23840637.976    -5751413.917 5  -3208008.24745  23840644.0914
  23613022.355    -4641069.939 5  -3430482.65545  23613027.2384
  21056492.965   -14656153.126 8 -11279970.70246  21056497.6674
  21517298.257    -4397687.763 7  -3278933.31746  21517303.4564
  20757340.199   -19483663.484 8 -14950137.53246  20757344.4834
  24574270.245    -1903829.200 4  -1349599.40745  24574275.4294
 02  1 30  4 22 29.9980000  0  8 10 23 17 27 28 26 08 02
  20331982.860   -25928239.988 7 -12298627.15647  20331988.6954
  22662164.570   -12780171.632 6  -9782634.10646  22662170.5924
  23833333.743    -5789798.283 5  -3237918.14245  23833340.7134
  23628032.568    -4562190.744 5  -3369018.40845  23628038.0174
  21049519.114   -14692800.959 8 -11308527.44047  21049523.2834
  21503328.411    -4471099.659 7  -3336137.38446  21503333.3904
  20769247.114   -19421092.301 8 -14901380.75746  20769252.0164
  24587835.137    -1832544.968 3  -1294053.29645  24587841.0284
 02  1 30  4 22 59.9980000  0  8 10 23 17 27 28 26 08 02
  20338494.102   -25894023.169 7 -12271964.71447  20338500.1144
  22645254.977   -12869032.365 6  -9851876.18746  22645261.0394
  23826137.178    -5827616.774 5  -3267387.12545  23826141.4984
  23643053.285    -4483256.295 5  -3307511.02545  23643060.1184
  21042649.175   -14728902.682 8 -11336658.61647  21042653.1924
  21489393.757    -4544326.704 7  -3393197.38746  21489398.9144
  20781207.054   -19358242.615 8 -14852406.99446  20781212.0764
  24601445.990    -1761019.274 4  -1238319.03445  24601454.1024
 02  1 30  4 23 29.9980000  0  8 10 23 17 27 28 26 08 02
  20345107.583   -25859268.907 8 -12244883.48647  20345113.2364
  22628397.719   -12957618.346 7  -9920904.17946  22628403.4644
  23819047.938    -5864870.527 4  -3296416.07945  23819056.6134
  23658083.880    -4404269.615 5  -3245963.07945  23658090.2734
  21035882.968   -14764459.096 8 -11364364.89047  21035887.4494
  21475494.078    -4617369.804 7  -3450114.07846  21475498.5174
  20793219.183   -19295118.484 8 -14803219.34046  20793223.6814
  24615102.108    -1689256.309 5  -1182399.85545  24615107.6864
 02  1 30  4 23 59.9980000  0  8 10 23 17 27 28 26 08 02
  20351824.432   -25823971.630 7 -12217379.14147  20351830.4944
  22611594.481   -13045920.316 6  -9989710.89646  22611599.3564
  23812067.674    -5901551.981 4  -3324999.04345  23812074.8904
  23673125.462    -4325225.352 4  -3184370.15445  23673131.4254
  21029222.053   -14799462.371 8 -11391640.14447  21029226.5804
  21461630.861    -4690221.543 7  -3506881.65346  21461635.9484
  20805284.438   -19231715.244 7 -14753814.24246  20805290.0154
  24628804.164    -1617251.529 4  -1126292.21145  24628812.5914
 02  1 30  4 24 29.9980000  0  8 10 23 17 27 28 26 08 02
  20358644.010   -25788134.663 6 -12189454.25047  20358649.4774
  22594845.077   -13133938.675 6 -10058296.61946  22594850.8944
  23805195.904    -5937663.398 4  -3353137.79345  23805200.5564
  23688177.314    -4246127.364 5  -3122735.36245  23688184.2834
  21022666.034   -14833914.396 8 -11418485.86447  21022671.0254
  21447803.754    -4762883.531 7  -3563501.36646  21447809.0154
  20817401.887   -19168037.562 7 -14704195.26746  20817407.4374
  24642551.237    -1545009.645 3  -1069999.71845  24642560.3244
 02  1 30  4 24 59.9980000  0  8 10 23 17 27 28 26 08 02
  20365566.805   -25751755.334 6 -12161106.72547  20365572.9444
  22578150.794   -13221667.090 6 -10126656.40746  22578156.2474
  23798433.414    -5973200.098 4  -3380828.76345  23798441.3104
  23703240.049    -4166972.768 5  -3061056.54345  23703245.8204
  21016215.822   -14867810.207 8 -11444898.14647  21016220.3214
  21434013.659    -4835351.123 7  -3619969.57946  21434019.4274
  20829571.937   -19104083.395 7 -14654360.84046  20829577.3564
  24656343.971    -1472528.516 3  -1013521.04345  24656349.2244
 02  1 30  4 25 29.9980000  0  8 10 23 17 27 28 26 08 02
  20372592.268   -25714836.418 7 -12132338.74647  20372598.0444
  22561511.810   -13309104.972 6 -10194789.81346  22561517.5714
  23791780.057    -6008163.005 4  -3408072.64645  23791787.8184
  23718312.901    -4087764.577 5  -2999335.89545  23718318.6394
  21009871.334   -14901150.541 8 -11470877.61047  21009875.9874
  21420260.377    -4907624.986 7  -3676286.86746  21420266.1164
  20841793.899   -19039856.579 8 -14604313.99046  20841798.8054
  24670181.617    -1399812.123 4   -956858.94445  24670187.3584
 02  1 30  4 25 59.9980000  0  8 10 23 17 27 28 26 08 02
  20379719.379   -25677383.040 7 -12103154.30047  20379724.9524
  22544927.757   -13396253.984 6 -10262698.11846  22544933.3534
  23785235.572    -6042555.750 5  -3434872.15245  23785241.3234
  23733394.999    -4008507.927 5  -2937577.50945  23733402.6064
  21003631.954   -14933938.544 8 -11496426.67747  21003636.8144
  21406543.352    -4979708.385 7  -3732455.70546  21406548.8454
  20854066.573   -18975363.258 7 -14554059.44546  20854072.1864
  24684062.744    -1326866.601 4   -900018.26745  24684071.5534
 02  1 30  4 26 29.9980000  0  8 10 23 17 27 28 26 08 02
  20386948.811   -25639392.124 7 -12073551.00047  20386954.6434
  22528400.110   -13483107.372 6 -10330376.06946  22528406.1784
  23778800.369    -6076373.401 5  -3461223.56545  23778805.0914
  23748486.919    -3929199.322 5  -2875778.63945  23748492.6994
  20997498.718   -14966168.929 8 -11521541.23547  20997503.2834
  21392863.589    -5051595.946 7  -3788471.98646  21392869.1804
  20866390.434   -18910600.951 7 -14503595.31946  20866395.4414
  24697987.684    -1253689.744 1   -842997.23745  24697992.6454
