     2              OBSERVATION DATA    G (GPS)             RINEX VERSION / TYPE
TRRINEXO V2.9.7 LHm ICC                 31-JAN-02 00:53     PGM / RUN BY / DATE
Rinex conversion                                            COMMENT
BIT 2 OF LLI (+4) FLAGS DATA COLLECTED UNDER "AS" CONDITION COMMENT
EBRE                                                        MARKER NAME
13410M001                                                   MARKER NUMBER
ICC                 ICC                                     OBSERVER / AGENCY
17999               TRIMBLE 4000SSI      7.29 / 3.07        REC # / TYPE / VERS
0220071796          TRM29659.00                             ANT # / TYPE
  4833520.3800    41536.8300  4147461.2800                  APPROX POSITION XYZ
        0.0000        0.0000        0.0000                  ANTENNA: DELTA H/E/N
     1     1                                                WAVELENGTH FACT L1/2
     5    C1    L1    L2    P2    P1                        # / TYPES OF OBSERV
    30                                                      INTERVAL
  2002     1    30     0     0    0.000000                  TIME OF FIRST OBS
                                                            END OF HEADER
 02  1 30  0  0  0.0000000  0  7 07 27 13 04 20 01 24
  23977945.834    -1008670.948 5   6408374.22345  23977954.3444
  23250680.352    -8107326.341 6  -6143840.71046  23250686.6944
  20447939.626   -20240993.874 8 -15558329.37447  20447942.3934
  20951749.208   -17287796.196 8  -8192354.00047  20951753.7444
  22937387.883    -4484547.281 6  -3337904.48746  22937393.2634
  21414213.878   -13212369.339 8 -10139606.76247  21414218.7074
  23505213.163    -7582902.342 6  -5728187.43946  23505219.0944
 02  1 30  0  0 30.0000000  0  7 07 27 13 04 20 01 24
  23995422.833     -916830.753 5   6479937.81945  23995431.5664
  23235719.357    -8185944.797 6  -6205101.79046  23235725.7114
  20449466.020   -20232972.399 8 -15552078.85647  20449468.7394
  20948431.956   -17305228.804 8  -8205937.85347  20948436.5044
  22952986.258    -4402577.198 6  -3274031.73646  22952992.1074
  21427341.861   -13143380.912 8 -10085849.54747  21427346.7034
  23490079.443    -7662430.815 6  -5790157.64146  23490084.8354
 02  1 30  0  1  0.0000000  0  7 07 27 13 04 20 01 24
  24012923.652     -824860.962 5   6551602.39445  24012932.5724
  23220798.011    -8264355.571 6  -6266201.00946  23220804.0954
  20451079.618   -20224493.056 8 -15545471.57247  20451082.3144
  20945212.444   -17322147.259 7  -8219121.06747  20945216.7934
  22968618.243    -4320431.023 6  -3210021.75646  22968623.0494
  21440526.615   -13074095.510 8 -10031860.91647  21440531.3504
  23474988.423    -7741734.320 6  -5851952.54046  23474993.9324
 02  1 30  0  1 30.0000000  0  7 07 27 13 04 20 01 24
  24030448.725     -732766.068 5   6623364.41045  24030458.9814
  23205916.921    -8342557.488 6  -6327137.48746  23205922.6184
  20452779.966   -20215558.411 8 -15538509.50647  20452782.7444
  20942091.021   -17338551.436 7  -8231903.53747  20942095.1834
  22984283.165    -4238110.135 6  -3145875.62446  22984288.5924
  21453767.111   -13004516.404 8  -9977643.43347  21453771.8594
  23459940.408    -7820811.822 6  -5913571.34046  23459945.8824
 02  1 30  0  2  0.0000000  0  7 07 27 13 04 20 01 24
  24047997.701     -640550.264 5   6695220.61845  24048008.2274
  23191075.551    -8420549.213 6  -6387910.20346  23191081.4234
  20454565.993   -20206170.762 8 -15531194.46347  20454568.8764
  20939067.312   -17354441.259 7  -8244285.21847  20939071.4034
  22999981.414    -4155616.390 6  -3081594.80446  22999987.1234
  21467062.708   -12934646.703 8  -9923199.50247  21467067.7254
  23444935.479    -7899661.358 6  -5975012.52246  23444941.2694
 02  1 30  0  2 30.0000000  0  7 07 27 13 04 20 01 24
  24065567.380     -548217.387 5   6767168.15945  24065578.1764
  23176274.385    -8498329.332 6  -6448518.00646  23176279.9064
  20456438.485   -20196331.736 8 -15523527.67147  20456441.5094
  20936141.519   -17369816.137 7  -8256265.64547  20936145.7274
  23015712.017    -4072950.904 6  -3017180.17646  23015717.4334
  21480413.230   -12864489.199 8  -9868531.32747  21480418.1894
  23429975.112    -7978281.687 6  -6036275.08046  23429980.4574
 02  1 30  0  3  0.0000000  0  7 07 27 13 04 20 01 24
  24083160.822     -455764.961 5   6839208.77245  24083170.8574
  23161515.256    -8575889.725 6  -6508954.59146  23161521.2814
  20458397.580   -20186036.655 8 -15515505.54047  20458400.4414
  20933314.967   -17384669.393 7  -8267839.60847  20933319.2574
  23031476.683    -3990108.276 6  -2952627.52946  23031481.8644
  21493819.380   -12794040.375 8  -9813636.15247  21493824.4324
  23415059.184    -8056665.395 6  -6097353.26146  23415064.8694
 02  1 30  0  3 30.0000000  0  7 07 27 13 04 20 01 24
  24100776.205     -363198.965 5   6911337.88745  24100786.3914
  23146797.321    -8653231.018 6  -6569220.44746  23146802.9124
  20460442.826   -20175289.881 8 -15507131.42647  20460445.6274
  20930587.443   -17399002.564 7  -8279008.31747  20930591.8274
  23047273.962    -3907091.847 6  -2887939.42146  23047279.1204
  21507279.737   -12723305.421 8  -9758518.01147  21507284.5084
  23400188.269    -8134812.955 6  -6158247.41546  23400193.7554
 02  1 30  0  4  0.0000000  0  7 07 27 13 04 20 01 24
  24118412.533     -270522.036 5   6983553.41345  24118422.8374
  23132121.961    -8730350.265 6  -6629313.29946  23132127.4004
  20462573.544   -20164091.987 8 -15498405.79747  20462576.3224
  20927959.242   -17412813.837 7  -8289770.34847  20927963.5084
  23063104.737    -3823901.649 6  -2823115.94746  23063109.9774
  21520794.447   -12652285.818 8  -9703178.06847  21520799.2064
  23385362.768    -8212721.005 6  -6218954.93846  23385368.0904
 02  1 30  0  4 30.0000000  0  7 07 27 13 04 20 01 24
  24136069.088     -177739.201 5   7055851.45845  24136080.0484
  23117489.327    -8807247.173 6  -6689232.90846  23117494.8604
  20464789.538   -20152446.189 8 -15489331.14247  20464792.3044
  20925430.274   -17426103.954 8  -8300126.28247  20925434.5994
  23078967.853    -3740540.024 6  -2758158.87846  23078973.2684
  21534362.209   -12580985.557 8  -9647619.41347  21534366.9214
  23370582.485    -8290389.155 6  -6279475.55046  23370587.7954
 02  1 30  0  5  0.0000000  0  7 07 27 13 04 20 01 24
  24153744.661      -84850.557 5   7128231.99945  24153751.7644
  23102899.330    -8883916.480 6  -6748975.15846  23102904.7344
  20467091.511   -20140350.429 8 -15479905.85747  20467094.2424
  20923001.036   -17438868.808 8  -8310072.92147  20923005.4794
  23094864.200    -3657004.311 6  -2693066.17646  23094870.0504
  21547983.933   -12509403.711 8  -9591841.35747  21547988.8564
  23355849.540    -8367812.355 6  -6339805.29046  23355855.0504
 02  1 30  0  5 30.0000000  0  7 07 27 13 04 20 01 24
  24171439.924        8138.277 5   7200690.58345  24171450.3104
  23088352.944    -8960358.495 6  -6808540.28746  23088358.9814
  20469478.013   -20127808.631 8 -15470133.01147  20469480.5564
  20920671.864   -17451109.858 8  -8319611.40247  20920676.2374
  23110793.334    -3573297.404 6  -2627840.05146  23110798.7624
  21561658.359   -12437544.974 8  -9535847.53447  21561663.0014
  23341162.872    -8444991.238 6  -6399944.63446  23341168.1354
 02  1 30  0  6  0.0000000  0  7 07 27 13 04 20 01 24
  24189154.608      101225.751 5   7273225.99045  24189166.3304
  23073850.576    -9036569.063 6  -6867925.06846  23073856.3794
  20471949.703   -20114819.873 8 -15460011.87747  20471952.3064
  20918442.576   -17462824.118 8  -8328739.39447  20918447.1134
  23126754.686    -3489418.072 6  -2562479.59246  23126759.9144
  21575384.973   -12365409.716 8  -9479638.23947  21575389.3814
  23326523.097    -8521921.616 6  -6459890.35446  23326528.9464
 02  1 30  0  6 30.0000000  0  7 07 27 13 04 20 01 24
  24206886.485      194408.311 4   7345835.58245  24206896.0394
  23059392.258    -9112546.692 6  -6927128.34846  23059398.0724
  20474506.188   -20101385.781 8 -15449543.74947  20474508.8964
  20916313.835   -17474011.140 7  -8337456.55447  20916318.1724
  23142749.375    -3405367.310 6  -2496985.55746  23142754.6154
  21589164.071   -12293000.582 8  -9423215.53547  21589168.6784
  23311931.562    -8598601.646 6  -6519640.99046  23311937.4114
 02  1 30  0  7  0.0000000  0  7 07 27 13 04 20 01 24
  24224635.946      287680.523 5   7418514.95645  24224646.7194
  23044978.709    -9188291.338 6  -6986150.08346  23044984.7814
  20477146.347   -20087510.563 8 -15438731.86747  20477148.9614
  20914285.040   -17484672.240 7  -8345763.90747  20914289.4004
  23158775.899    -3321147.733 6  -2431359.96246  23158780.0484
  21602994.338   -12220322.013 8  -9366582.88147  21602999.2264
  23297387.687    -8675031.079 6  -6579196.36546  23297392.9854
 02  1 30  0  7 30.0000000  0  7 07 27 13 04 20 01 24
  24242403.148      381044.305 5   7491265.67645  24242414.3194
  23030610.268    -9263795.742 6  -7044984.59546  23030616.3404
  20479871.507   -20073190.207 8 -15427573.12647  20479874.1804
  20912357.488   -17494801.224 7  -8353656.62447  20912362.0134
  23174835.613    -3236754.983 6  -2365599.42946  23174841.0174
  21616876.484   -12147371.202 8  -9309738.10247  21616881.4084
  23282892.738    -8751203.045 6  -6638551.11546  23282898.7754
 02  1 30  0  8  0.0000000  0  7 07 27 13 04 20 01 24
  24260186.117      474495.022 5   7564084.11445  24260197.1714
  23016287.851    -9339058.937 6  -7103631.17446  23016293.9934
  20482680.774   -20058427.381 8 -15416069.59547  20482683.5524
  20910531.489   -17504398.392 6  -8361134.93947  20910535.6624
  23190927.322    -3152190.760 6  -2299705.28446  23190932.8084
  21630809.701   -12074151.474 8  -9252683.77747  21630814.7764
  23268446.771    -8827116.161 6  -6697704.16846  23268452.8554
 02  1 30  0  8 30.0000000  0  7 07 27 13 04 20 01 24
  24277985.056      568030.165 5   7636968.33245  24277997.0364
  23002012.464    -9414078.260 6  -7162087.73946  23002018.4424
  20485574.029   -20043222.865 8 -15404221.90847  20485577.0184
  20908806.527   -17513462.353 7  -8368197.76647  20908810.7714
  23207052.096    -3067455.056 6  -2233677.52346  23207057.9224
  21644793.627   -12000664.409 8  -9195421.13547  21644798.5154
  23254050.636    -8902767.855 6  -6756653.50746  23254056.3104
 02  1 30  0  9  0.0000000  0  7 07 27 13 04 20 01 24
  24295800.110      661644.262 5   7709914.04245  24295810.5674
  22987783.106    -9488853.842 6  -7220354.36346  22987789.2484
  20488550.730   -20027580.103 8 -15392032.73447  20488553.5794
  20907182.737   -17521994.456 7  -8374846.15247  20907187.3444
  23223209.282    -2982550.537 6  -2167518.19446  23223214.6394
  21658827.985   -11926914.303 8  -9137953.52947  21658833.0724
  23239704.366    -8978157.985 6  -6815399.03846  23239709.3014
 02  1 30  0  9 30.0010000  0  7 07 27 13 04 20 01 24
  24313629.500      755337.436 5   7782921.42645  24313638.3854
  22973600.083    -9563385.763 6  -7278431.11846  22973605.9684
  20491610.819   -20011499.635 8 -15379502.48247  20491613.6794
  20905660.695   -17529993.739 7  -8381079.36047  20905665.1144
  23239398.226    -2897474.676 6  -2101225.35646  23239403.4304
  21672912.292   -11852900.800 8  -9080280.66447  21672917.3564
  23225407.756    -9053286.612 6  -6873940.81446  23225412.6214
 02  1 30  0 10  0.0010000  0  7 07 27 13 04 20 01 24
  24331472.011      849101.601 5   7855984.10945  24331481.9634
  22959465.087    -9637665.518 6  -7336311.36946  22959471.2064
  20494753.781   -19994982.818 8 -15366632.21547  20494756.5244
  20904240.272   -17537457.184 7  -8386895.02847  20904244.6094
  23255619.508    -2812232.360 6  -2034802.80446  23255624.9594
  21687045.492   -11778629.625 8  -9022407.02447  21687050.4504
  23211162.864    -9128145.459 6  -6932272.32346  23211168.0804
 02  1 30  0 10 30.0010000  0  7 07 27 13 04 20 01 24
  24349329.021      942937.185 5   7929102.41945  24349338.9734
  22945378.023    -9711693.147 6  -7393995.16646  22945384.0134
  20497979.769   -19978029.778 8 -15353422.03247  20497982.3724
  20902922.380   -17544384.046 7  -8392292.58547  20902926.8464
  23271872.460    -2726820.863 6  -1968248.41746  23271877.2774
  21701228.149   -11704100.143 8  -8964332.10747  21701233.0844
  23196968.701    -9202734.440 6  -6990393.60046  23196974.0814
 02  1 30  0 11  0.0010000  0  7 07 27 13 04 20 01 24
  24367198.801     1036840.527 5   8002273.49345  24367209.4804
  22931339.582    -9785466.763 6  -7451481.03046  22931345.3854
  20501288.414   -19960642.400 8 -15339873.41747  20501291.1574
  20901706.334   -17550773.902 6  -8397271.68847  20901710.7414
  23288157.928    -2641241.073 6  -1901562.91246  23288163.5784
  21715459.136   -11629314.802 8  -8906057.81847  21715463.8014
  23182826.846    -9277051.669 6  -7048303.10246  23182831.6764
 02  1 30  0 11 30.0010000  0  7 07 27 13 04 20 01 24
  24385079.622     1130807.189 5   8075493.93745  24385089.6334
  22917349.290    -9858985.593 6  -7508768.38246  22917355.1754
  20504679.222   -19942823.696 8 -15325988.70247  20504681.8834
  20900592.485   -17556627.316 6  -8401832.79247  20900596.8344
  23304475.378    -2555494.914 6  -1834747.76246  23304480.6294
  21729738.145   -11554277.215 8  -8847586.98047  21729742.8694
  23168736.264    -9351096.251 6  -7106000.15646  23168741.7504
 02  1 30  0 12  0.0010000  0  7 07 27 13 04 20 01 24
  24402972.538     1224835.795 5   8148762.66845  24402983.9904
  22903408.505    -9932245.513 7  -7565853.98046  22903414.1554
  20508152.411   -19924572.521 8 -15311766.99947  20508155.0254
  20899581.292   -17561941.307 6  -8405973.55847  20899585.5364
  23320823.929    -2469581.099 6  -1767802.01446  23320829.5914
  21744065.330   -11478987.538 8  -8788919.70447  21744070.4884
  23154698.917    -9424864.026 6  -7163481.49446  23154705.0714
 02  1 30  0 12 30.0010000  0  7 07 27 13 04 20 01 24
  24420877.516     1318922.754 4   8222076.83645  24420891.5824
  22889517.003   -10005245.089 6  -7622736.73146  22889522.9694
  20511707.135   -19905891.707 8 -15297210.51347  20511710.1014
  20898672.651   -17566715.854 7  -8409693.98147  20898677.0004
  23337204.608    -2383500.723 6  -1700726.46546  23337210.1764
  21758440.177   -11403448.368 8  -8730058.02247  21758445.1594
  23140714.519    -9498353.143 6  -7220745.72946  23140720.0524
 02  1 30  0 13  0.0010000  0  7 07 27 13 04 20 01 24
  24438793.047     1413068.906 4   8295437.17645  24438804.7694
  22875676.202   -10077978.050 6  -7679411.70346  22875682.2634
  20515344.584   -19886778.199 8 -15282316.86547  20515347.6554
  20897867.764   -17570945.932 6  -8412990.14547  20897872.0434
  23353617.700    -2297250.055 6  -1633518.18646  23353621.8504
  21772862.591   -11327657.879 8  -8671000.49547  21772867.4914
  23126783.786    -9571556.969 6  -7277787.64846  23126789.5764
 02  1 30  0 13 30.0010000  0  7 07 27 13 04 20 01 24
  24456719.091     1507268.713 5   8368839.20245  24456727.5784
  22861886.486   -10150444.645 7  -7735879.13046  22861892.2544
  20519063.226   -19867235.497 8 -15267088.78647  20519066.0404
  20897166.072   -17574633.096 6  -8415863.25647  20897170.3864
  23370062.275    -2210832.163 6  -1566179.62245  23370067.4914
  21787332.163   -11251620.583 8  -8611750.65746  21787337.2854
  23112908.072    -9644476.251 6  -7334607.84546  23112913.2424
 02  1 30  0 14  0.0010000  0  8 08 07 27 13 04 20 01 24
  24985299.909      -24112.80814
  24474654.422     1601517.637 5   8442279.56245  24474666.2964
  22848147.108   -10222644.145 6  -7792138.42846  22848152.9694
  20522863.091   -19847266.675 8 -15251528.64947  20522865.8694
  20896567.461   -17577778.124 7  -8418313.91747  20896571.7984
  23386538.792    -2124248.689 6  -1498712.01745  23386544.7594
  21801847.515   -11175339.899 7  -8552311.16646  21801852.8834
  23099086.374    -9717109.939 6  -7391205.49246  23099092.0954
 02  1 30  0 14 30.0010000  0  8 08 07 27 13 04 20 01 24
  24965626.926     -127492.590 5
  24492598.320     1695814.523 4   8515757.30045  24492609.2454
  22834459.567   -10294572.502 6  -7848186.44946  22834465.6044
  20526744.230   -19826871.410 8 -15235636.22147  20526746.8204
  20896072.775   -17580378.418 6  -8420340.11647  20896076.9484
  23403046.041    -2037498.464 6  -1431114.46145  23403051.4574
  21816409.812   -11098816.303 8  -8492682.39946  21816414.5724
  23085319.733    -9789454.050 6  -7447577.50746  23085325.3134
 02  1 30  0 15  0.0010000  0  8 08 07 27 13 04 20 01 24
  24945946.333     -230910.259 5    -24175.76155  24945956.9774
  24510551.896     1790157.913 4   8589271.26845  24510562.7514
  22820824.308   -10366225.740 7  -7904020.07746  22820830.2164
  20530706.564   -19806049.307 8 -15219411.19847  20530709.2614
  20895681.829   -17582431.409 6  -8421939.84447  20895686.0494
  23419586.332    -1950580.139 6  -1363385.90445  23419592.9324
  21831017.855   -11022049.868 8  -8432864.39646  21831022.8614
  23071608.875    -9861504.252 6  -7503720.49646  23071614.3024
 02  1 30  0 15 30.0010000  0  8 08 07 27 13 04 20 01 24
  24926258.859     -334365.305 5   -104789.29545  24926269.7724
  24528513.792     1884543.154 5   8662817.81645  24528524.5424
  22807241.726   -10437603.532 7  -7959639.09246  22807247.5874
  20534749.695   -19784803.353 8 -15202855.91547  20534752.3794
  20895395.399   -17583937.978 6  -8423113.79247  20895399.6894
  23436157.988    -1863496.014 6  -1295528.17345  23436163.6734
  21845671.504   -10945044.454 8  -8372860.18846  21845676.2644
  23057954.014    -9933259.977 6  -7559634.02246  23057959.3244
 02  1 30  0 16  0.0010000  0  8 08 07 27 13 04 20 01 24
  24906564.753     -437856.171 5   -185430.72245  24906577.6124
  24546481.812     1978966.078 5   8736393.74545  24546491.6004
  22793711.517   -10508704.352 7  -8015042.27746  22793717.2024
  20538872.809   -19763135.683 8 -15185972.00647  20538875.4584
  20895212.545   -17584898.319 7  -8423862.11047  20895216.8944
  23452761.183    -1776247.350 6  -1227542.23945  23452767.2444
  21860370.068   -10867802.925 7  -8312671.99446  21860375.4604
  23044355.719   -10004719.697 6  -7615316.90946  23044361.1584
 02  1 30  0 16 30.0010000  0  8 08 07 27 13 04 20 01 24
  24886864.076     -541381.571 5   -266099.10645  24886875.0124
  24564456.428     2073422.864 5   8809996.09745  24564466.5094
  22780234.089   -10579527.163 6  -8070228.82946  22780239.8684
  20543075.758   -19741049.006 8 -15168761.60047  20543078.3724
  20895133.863   -17585312.693 6  -8424184.99547  20895138.2004
  23469394.759    -1688835.692 6  -1159429.32545  23469400.4094
  21875113.050   -10790328.364 8  -8252302.21346  21875118.1374
  23030813.832   -10075882.208 6  -7670768.20246  23030819.5404
 02  1 30  0 17  0.0010000  0  8 08 07 27 13 04 20 01 24
  24867158.133     -644935.574 5   -346789.82745  24867166.4204
  24582437.102     2167913.897 4   8883625.03545  24582452.6924
  22766811.151   -10650066.292 7  -8125194.33946  22766817.1414
  20547358.814   -19718541.146 8 -15151222.99447  20547361.5694
  20895159.821   -17585176.817 6  -8424079.11747  20895164.1004
  23486060.234    -1601257.799 6  -1091186.86245  23486065.4394
  21889900.785   -10712619.321 8  -8191749.71046  21889905.3454
  23017329.870   -10146741.622 6  -7725983.31446  23017335.7894
 02  1 30  0 17 30.0010000  0  8 08 07 27 13 04 20 01 24
  24847446.599     -748516.160 5   -427501.22745  24847457.4424
  24600424.014     2262435.930 4   8957278.17345  24600438.2924
  22753441.985   -10720320.018 7  -8179937.45946  22753447.9164
  20551721.641   -19695613.973 8 -15133357.65347  20551724.5604
  20895290.349   -17584490.344 6  -8423544.19747  20895294.3934
  23502757.624    -1513514.640 6  -1022815.61745  23502763.4734
  21904732.163   -10634678.100 7  -8131016.29546  21904736.9694
  23003903.688   -10217295.977 6  -7780960.71246  23003909.4324
 02  1 30  0 18  0.0010000  0  7 08 27 13 04 20 01 24
  24827730.663     -852123.267 5   -508233.36345  24827740.2754
  22740127.446   -10790288.374 6  -8234458.20346  22740133.3664
  20556163.579   -19672270.650 8 -15115168.05147  20556166.4864
  20895525.375   -17583254.678 6  -8422581.33547  20895529.5604
  23519485.657    -1425608.533 6   -954317.39145  23519490.8974
  21919607.457   -10556508.766 7  -8070105.13246  21919612.6624
  22990536.127   -10287544.833 6  -7835700.04446  22990541.9774
 02  1 30  0 18 30.0010000  0  7 08 27 13 04 20 01 24
  24808009.240     -955754.980 5   -588984.67145  24808017.8804
  22726867.611   -10859969.880 7  -8288755.43746  22726873.6364
  20560684.635   -19648513.000 8 -15096655.60747  20560687.5424
  20895865.034   -17581469.977 7  -8421190.65547  20895869.3484
  23536244.362    -1337540.813 6   -885693.23045  23536249.7544
  21934525.597   -10478114.123 7  -8009018.41346  21934530.4974
  22977226.513   -10357486.952 6  -7890200.38746  22977232.2574
 02  1 30  0 19  0.0010000  0  7 08 27 13 04 20 01 24
  24788284.589    -1059408.804 5   -669753.24345  24788291.5054
  22713662.697   -10929362.140 7  -8342827.29146  22713668.5354
  20565283.955   -19624343.289 8 -15077822.06347  20565286.8154
  20896309.262   -17579135.280 6  -8419371.41747  20896313.7634
  23553034.045    -1249311.877 6   -816943.45646  23553039.7534
  21949485.907   -10399496.068 7  -7947757.59246  21949490.4784
  22963975.941   -10427119.502 6  -7944459.49746  22963981.3094
 02  1 30  0 19 30.0010000  0  7 08 27 13 04 20 01 24
  24768555.621    -1163081.534 5   -750536.60445  24768564.1314
  22700513.360   -10998462.134 7  -8396671.38846  22700519.1984
  20569961.693   -19599761.604 8 -15058667.49147  20569964.5414
  20896858.554   -17576249.178 7  -8417122.50547  20896863.0444
  23569854.185    -1160921.341 6   -748067.79346  23569859.3074
  21964489.006   -10320655.490 7  -7886323.38146  21964493.9884
  22950784.478   -10496439.458 6  -7998475.04546  22950790.3864
 02  1 30  0 20  0.0010000  0  7 08 27 13 04 20 01 24
  24748823.479    -1266769.169 5   -831331.56045  24748832.6344
  22687420.365   -11067266.116 7  -8450284.83446  22687426.0274
  20574717.845   -19574767.682 8 -15039191.70547  20574720.7764
  20897513.057   -17572809.586 6  -8414442.30547  20897517.5244
  23586705.489    -1072367.894 6   -679065.13745  23586710.1074
  21979533.723   -10241592.967 7  -7824716.23246  21979538.3184
  22937653.565   -10565442.647 6  -8052243.73446  22937658.8874
 02  1 30  0 20 30.0010000  0  7 08 27 13 04 20 01 24
  24729089.843    -1370470.574 5   -912137.28945  24729099.4434
  22674383.620   -11135773.493 7  -8503667.15746  22674389.0354
  20579551.925   -19549364.693 8 -15019397.16747  20579554.8794
  20898272.817   -17568817.262 6  -8411331.39747  20898277.1784
  23603586.777     -983653.562 6   -609937.09545  23603592.2754
  21994620.479   -10162312.006 7  -7762938.86646  21994625.4024
  22924583.347   -10634128.878 6  -8105765.46146  22924588.7744
 02  1 30  0 21  0.0010000  0  7 08 27 13 04 20 01 24
  24709353.654    -1474180.701 5   -992949.81645  24709362.0004
  22661404.573   -11203979.273 7  -8556814.46946  22661410.1884
  20584464.115   -19523550.792 8 -14999282.43347  20584466.9994
  20899138.106   -17564268.782 7  -8407787.12247  20899142.6664
  23620499.781     -894775.913 6   -540681.81745  23620505.1734
  22009749.233   -10082811.408 7  -7700990.35846  22009754.0744
  22911573.937   -10702492.248 6  -8159035.61446  22911579.2364
 02  1 30  0 21 30.0010000  0  7 08 27 13 04 20 01 24
  24689617.774    -1577895.623 5  -1073766.10445  24689627.6674
  22648483.607   -11271879.968 7  -8609724.05646  22648489.0114
  20589454.467   -19497326.335 8 -14978847.79747  20589457.1634
  20900109.802   -17559162.170 7  -8403807.95147  20900114.5854
  23637444.212     -805734.006 6   -471298.57045  23637448.8894
  22024919.329   -10003091.895 7  -7638871.26646  22024924.0294
  22898626.855   -10770529.191 6  -8212051.38146  22898632.6694
 02  1 30  0 22  0.0010000  0  7 08 27 13 04 20 01 24
  24669879.566    -1681617.500 5  -1154587.86945  24669889.0504
  22635620.139   -11339478.130 7  -8662397.91246  22635625.5434
  20594521.841   -19470697.447 8 -14958098.02447  20594524.6904
  20901187.252   -17553501.595 6  -8399397.11747  20901191.6134
  23654418.737     -716532.672 6   -401791.06245  23654424.7034
  22040129.878    -9923160.105 7  -7576586.76946  22040135.0004
  22885741.715   -10838242.193 6  -8264814.74446  22885746.9194
 02  1 30  0 22 30.0010000  0  7 08 27 13 04 20 01 24
  24650141.670    -1785339.026 5  -1235409.35245  24650150.5674
  22622815.725   -11406766.646 7  -8714830.48546  22622821.3634
  20599666.680   -19443660.383 8 -14937030.17147  20599669.5174
  20902370.857   -17547281.587 6  -8394550.36147  20902375.1714
  23671423.943     -627167.623 6   -332156.00545  23671430.0504
  22055381.234    -9843012.925 7  -7514134.43046  22055386.1344
  22872919.361   -10905623.742 7  -8317319.83046  22872924.7294
 02  1 30  0 23  0.0010000  0  7 08 27 13 04 20 01 24
  24630404.253    -1889059.364 5  -1316229.94245  24630412.0484
  22610069.760   -11473745.138 7  -8767021.47246  22610075.5744
  20604888.691   -19416218.802 8 -14915647.12947  20604891.6454
  20903660.816   -17540503.239 6  -8389268.53247  20903665.0014
  23688460.953     -537641.249 6   -262395.23645  23688465.6774
  22070673.044    -9762654.131 7  -7451517.18546  22070677.8274
  22860160.108   -10972673.602 6  -8369566.46746  22860165.5824
 02  1 30  0 23 30.0010000  0  7 08 27 13 04 20 01 24
  24610667.051    -1992775.339 5  -1397047.14745  24610676.2994
  22597383.688   -11540410.689 7  -8818968.60446  22597389.4914
  20610187.534   -19388373.039 8 -14893949.11047  20610190.3364
  20905057.037   -17533165.454 6  -8383550.78947  20905061.5274
  23705528.091     -447953.005 6   -192508.34345  23705533.9644
  22086005.169    -9682084.817 7  -7388735.91246  22086010.0214
  22847464.905   -11039388.363 7  -8421551.95346  22847469.5834
 02  1 30  0 24  0.0010000  0  7 08 27 13 04 20 01 24
  24590931.239    -2096486.594 5  -1477860.72345  24590939.5504
  22584757.102   -11606763.336 7  -8870671.92846  22584762.7994
  20615562.670   -19360126.759 8 -14871939.00647  20615565.4954
  20906559.573   -17525269.673 6  -8377398.23647  20906563.9114
  23722625.488     -358105.471 6   -122497.29545  23722630.5874
  22101375.923    -9601309.005 7  -7325793.72946  22101380.8354
  22834833.425   -11105767.604 7  -8473276.00746  22834838.0554
 02  1 30  0 24 30.0010000  0  7 08 27 13 04 20 01 24
  24571197.259    -2200186.787 5  -1558665.64045  24571202.7094
  22572191.404   -11672797.019 7  -8922126.65446  22572196.7384
  20621014.656   -19331476.952 8 -14849614.48247  20621017.6224
  20908169.203   -17516811.523 6  -8370807.48147  20908173.4464
  23739753.294     -268095.276 6    -52359.50345  23739758.8034
  22116786.799    -9520324.790 7  -7262689.15346  22116791.8524
  22822266.512   -11171805.027 7  -8524733.80846  22822272.5264
 02  1 30  0 25  0.0010000  0  7 08 27 13 04 20 01 24
  24551465.717    -2303876.954 5  -1639462.81545  24551473.4654
  22559685.800   -11738513.142 7  -8973333.99546  22559691.4504
  20626542.181   -19302429.927 8 -14826980.43547  20626545.0064
  20909884.978   -17507794.136 6  -8363780.95147  20909889.3394
  23756911.991     -177926.117 5     17902.14345  23756918.0404
  22132236.091    -9439137.541 7  -7199426.36846  22132241.1674
  22809764.924   -11237502.086 6  -8575926.25346  22809770.9374
 02  1 30  0 25 30.0010000  0  7 08 27 13 04 20 01 24
  24531736.062    -2407553.462 5  -1720249.29145  24531743.4364
  22547241.340   -11803908.748 7  -9024291.56746  22547247.1664
  20632145.130   -19272985.363 8 -14804036.61147  20632147.9194
  20911707.622   -17498216.411 6  -8356317.79647  20911711.9594
  23774101.661      -87597.746 6     88287.82345  23774107.1594
  22147724.229    -9357748.278 7  -7136006.17146  22147729.4104
  22797328.503   -11302855.467 6  -8626850.92946  22797334.3534
 02  1 30  0 26  0.0010000  0  7 08 27 13 04 20 01 24
  24512010.187    -2511214.203 5  -1801023.46845  24512019.9524
  22534858.592   -11868982.095 7  -9074998.02246  22534864.2074
  20637823.549   -19243144.912 8 -14780784.30347  20637826.5394
  20913637.042   -17488077.741 6  -8348417.53847  20913641.5194
  23791320.357        2889.378 6    158797.23845  23791324.1204
  22163250.113    -9276158.990 7  -7072430.11846  22163255.0374
  22784957.928   -11367862.834 7  -8677505.99646  22784963.7304
 02  1 30  0 26 30.0010000  0  7 08 27 13 04 20 01 24
  24492287.570    -2614854.700 5  -1881781.95245  24492295.1074
  22522537.607   -11933729.119 7  -9125450.21346  22522543.1864
  20643577.406   -19212908.251 8 -14757223.27347  20643580.3484
  20915673.447   -17477376.087 7  -8340078.58947  20915677.8664
  23808570.211       93536.723 5    229431.52945  23808575.6034
  22178814.063    -9194369.679 7  -7008698.18346  22178818.6464
  22772654.036   -11432519.931 6  -8727888.12646  22772659.8384
 02  1 30  0 27  0.0010000  0  7 08 27 13 04 20 01 24
  24472569.412    -2718473.674 5  -1962523.66745  24472577.7814
  22510278.895   -11998148.820 7  -9175647.33746  22510284.1464
  20649406.204   -19182277.430 8 -14733355.09047  20649409.1814
  20917816.897   -17466112.385 6  -8331301.68347  20917821.2464
  23825849.525      184342.589 5    300189.28845  23825853.8274
  22194415.707    -9112383.326 7  -6944812.72146  22194420.6074
  22760416.971   -11496826.006 7  -8777996.73546  22760422.8674
 02  1 30  0 27 30.0010000  0  7 08 27 13 04 20 01 24
  24452853.968    -2822071.448 4  -2043248.81045  24452862.3494
  22498082.185   -12062242.039 7  -9225590.06746  22498088.1054
  20655308.784   -19151258.248 8 -14709184.29647  20655311.7854
  20920066.690   -17454289.038 6  -8322088.69347  20920071.1094
  23843159.044      275303.483 5    371067.87845  23843164.2724
  22210053.746    -9030204.625 7  -6880777.37846  22210058.3884
  22748246.705   -11560780.974 7  -8827831.75246  22748252.4144
 02  1 30  0 28  0.0010000  0  7 08 27 13 04 20 01 24
  24433145.209    -2925642.128 5  -2123952.93145  24433153.4854
  22485948.924   -12126003.342 7  -9275274.15946  22485954.1404
  20661286.046   -19119848.392 8 -14684709.07447  20661288.9414
  20922423.931   -17441902.103 6  -8312436.53947  20922428.4214
  23860498.199      366422.454 5    442069.63845  23860503.6384
  22225728.541    -8947832.071 7  -6816590.98946  22225733.6174
  22736144.384   -11624379.512 7  -8877389.04246  22736149.7644
 02  1 30  0 28 30.0010000  0  7 08 27 13 04 20 01 24
  24413442.524    -3029182.482 5  -2204633.43745  24413449.1584
  22473878.958   -12189430.045 7  -9324697.52446  22473884.7844
  20667337.519   -19088047.859 8 -14659929.43047  20667340.4384
  20924888.555   -17428950.804 6  -8302344.62647  20924893.1744
  23877867.785      457699.934 5    513194.86745  23877873.6464
  22241440.094    -8865266.862 7  -6752254.47146  22241444.9594
  22724110.825   -11687618.242 7  -8926665.95546  22724115.9244
 02  1 30  0 29  0.0010000  0  7 08 27 13 04 20 01 24
  24393745.823    -3132689.790 5  -2285288.18745  24393752.5754
  22461873.333   -12252519.908 7  -9373858.40846  22461878.7954
  20673462.937   -19055858.611 7 -14634846.90347  20673465.6684
  20927460.564   -17415434.670 7  -8291812.58447  20927465.2064
  23895267.301      549135.494 5    584443.28345  23895272.2364
  22257188.274    -8782510.621 7  -6687769.09546  22257193.1974
  22712145.437   -11750494.899 7  -8975660.72846  22712151.0994
 02  1 30  0 29 30.0010000  0  7 08 27 13 04 20 01 24
  24374054.736    -3236163.199 5  -2365916.53245  24374061.8394
  22449931.816   -12315272.773 7  -9422756.71046  22449937.8764
  20679661.813   -19023283.585 7 -14609463.75347  20679664.8024
  20930139.707   -17401355.352 6  -8280841.69247  20930144.4074
  23912696.820      640727.001 5    655813.24345  23912702.2244
  22272972.093    -8699567.085 7  -6623137.77446  22272976.9344
  22700249.537   -11813009.098 7  -9024373.06846  22700254.9654
 02  1 30  0 30  0.0010000  0  7 08 27 13 04 20 01 24
  24354371.768    -3339598.801 5  -2446515.37245  24354379.5874
  22438055.111   -12377685.199 7  -9471389.72546  22438061.0314
  20685933.895   -18990323.354 7 -14583780.45247  20685936.6504
  20932926.538   -17386710.991 7  -8269430.51147  20932930.9344
  23930156.297      732475.315 5    727305.38845  23930161.1504
  22288791.054    -8616436.488 7  -6558360.69246  22288795.7784
  22688423.247   -11875156.444 7  -9072799.55246  22688428.6984
 02  1 30  0 30 30.0010000  0  7 08 27 13 04 20 01 24
  24334694.640    -3442997.232 5  -2527085.27945  24334703.0924
  22426243.165   -12439758.176 7  -9519758.24346  22426248.9914
  20692278.696   -18956981.594 7 -14557799.87347  20692281.2174
  20935820.133   -17371504.531 6  -8257581.32947  20935824.7524
  23947644.750      824377.025 6    798917.08445  23947650.0954
  22304645.079    -8533123.898 7  -6493441.80546  22304649.7324
  22676666.450   -11936937.878 7  -9120940.91646  22676672.1354
 02  1 30  0 31  0.0010000  0  7 08 27 13 04 20 01 24
  24315026.985    -3546351.989 5  -2607621.18545  24315032.5884
  22414496.647   -12501485.832 7  -9567857.66946  22414502.4034
  20698696.455   -18923256.283 8 -14531520.41647  20698699.2334
  20938821.645   -17355732.055 7  -8245291.09647  20938826.1584
  23965162.565      916435.302 5    870650.77645  23965167.9224
  22320533.795    -8449627.220 7  -6428379.46446  22320538.2154
  22664980.737   -11998347.414 7  -9168792.49246  22664986.3754
 02  1 30  0 31 30.0010000  0  7 08 27 13 04 20 01 24
  24295367.479    -3649660.535 5  -2688121.08045  24295374.9004
  22402816.464   -12562866.172 7  -9615686.46346  22402822.2204
  20705186.564   -18889150.297 7 -14504944.31047  20705189.5884
  20941930.827   -17339393.186 6  -8232559.52347  20941935.0704
  23982710.811     1008649.915 5    942506.29745  23982716.3564
  22336457.600    -8365948.169 7  -6363175.00546  22336462.2064
  22653366.237   -12059382.735 7  -9216352.46446  22653371.8764
 02  1 30  0 32  0.0010000  0  7 08 27 13 04 20 01 24
  24275717.644    -3752921.802 5  -2768584.20745  24275724.2094
  22391202.020   -12623898.548 7  -9663244.14146  22391208.0334
  20711749.023   -18854665.456 7 -14478072.99247  20711751.7194
  20945147.570   -17322489.164 6  -8219387.56647  20945151.5324
  24000287.479     1101018.909 5   1014482.10245  24000292.1804
  22352415.119    -8282089.995 7  -6297830.99246  22352419.8904
  22641822.799   -12120043.043 7  -9263620.22246  22641828.2624
 02  1 30  0 32 30.0010000  0  7 08 27 13 04 20 01 24
  24256076.533    -3856135.267 5  -2849010.06945  24256083.9184
  22379654.422   -12684583.179 7  -9710530.82846  22379660.3774
  20718382.594   -18819804.326 6 -14450908.46547  20718385.1024
  20948471.491   -17305022.102 6  -8205776.86847  20948475.4534
  24017894.101     1193539.715 5   1086576.15245  24017901.0054
  22368406.202    -8198056.675 7  -6232350.49946  22368411.2074
  22630350.926   -12180327.777 7  -9310595.32146  22630356.6934
 02  1 30  0 33  0.0010000  0  7 08 27 13 04 20 01 24
  24236446.174    -3959296.076 5  -2929394.89445  24236453.4894
  22368173.395   -12744915.582 7  -9757543.05846  22368178.8234
  20725087.825   -18784568.341 6 -14423451.85847  20725090.4864
  20951903.098   -17286989.543 6  -8191725.53647  20951907.1894
  24035529.149     1286214.388 5   1158790.16345  24035534.9524
  22384430.494    -8113847.507 7  -6166732.97546  22384435.3594
  22618951.382   -12240232.321 7  -9357274.16946  22618956.8334
 02  1 30  0 33 30.0010000  0  7 08 27 13 04 20 01 24
  24216824.841    -4062401.627 5  -3009736.61645  24216832.0974
  22356760.000   -12804893.898 7  -9804279.36746  22356765.6854
  20731864.438   -18748957.136 6 -14395702.86147  20731867.1464
  20955442.165   -17268391.071 6  -8177233.22647  20955446.4554
  24053193.597     1379042.210 5   1231123.46145  24053199.7394
  22400488.297    -8029464.318 7  -6100979.84246  22400493.0104
  22607624.755   -12299754.549 7  -9403655.11546  22607630.3114
 02  1 30  0 34  0.0010000  0  7 08 27 13 04 20 01 24
  24197215.460    -4165448.559 5  -3090032.70945  24197222.2944
  22345414.197   -12864515.507 7  -9850737.71946  22345420.1414
  20738712.064   -18712972.311 7 -14367662.74147  20738714.8314
  20959089.042   -17249226.401 6  -8162299.72647  20959093.2384
  24070887.906     1472023.262 5   1303576.21845  24070892.6184
  22416578.793    -7944908.200 7  -6035091.96446  22416583.5294
  22596371.438   -12358891.380 7  -9449735.74946  22596376.9004
 02  1 30  0 34 30.0010000  0  7 08 27 13 04 20 01 24
  24177618.104    -4268433.570 5  -3170280.49145  24177624.0124
  22334137.042   -12923777.738 7  -9896916.04346  22334142.6924
  20745630.553   -18676615.609 7 -14339332.83647  20745633.3084
  20962844.119   -17229494.438 6  -8146924.18347  20962848.4454
  24088610.724     1565158.179 5   1376148.80445  24088616.4214
  22432702.103    -7860180.130 7  -5969070.10646  22432707.1444
  22585191.778   -12417639.694 7  -9495513.64046  22585197.4874
 02  1 30  0 35  0.0010000  0  7 08 27 13 04 20 01 24
  24158032.175    -4371357.200 5  -3250480.50045  24158038.2474
  22322927.986   -12982681.687 7  -9942815.20246  22322933.4484
  20752618.851   -18639890.699 8 -14310716.01647  20752621.8994
  20966706.216   -17209198.330 6  -8131109.03947  20966710.4954
  24106362.257     1658443.351 6   1448838.51545  24106367.2624
  22448856.848    -7775284.882 7  -5902917.99046  22448861.8304
  22574086.350   -12476000.320 7  -9540989.44046  22574092.0474
 02  1 30  0 35 30.0010000  0  7 08 27 13 04 20 01 24
  24138459.172    -4474213.846 5  -3330628.35245  24138464.8694
  22311788.064   -13041222.558 7  -9988431.43246  22311793.3394
  20759677.780   -18602795.856 8 -14281810.94047  20759680.7924
  20970676.339   -17188334.976 6  -8114851.88847  20970680.5944
  24124142.969     1751881.323 5   1521647.28945  24124147.5064
  22465043.968    -7690221.229 7  -5836634.63946  22465048.5864
  22563055.266   -12533968.274 7  -9586159.25546  22563060.9284
 02  1 30  0 36  0.0010000  0  7 08 27 13 04 20 01 24
  24118899.177    -4577001.438 5  -3410722.37845  24118904.8744
  22300717.484   -13099399.083 7 -10033763.75146  22300723.1344
  20766806.594   -18565333.464 8 -14252619.46147  20766809.5724
  20974754.099   -17166905.262 6  -8098153.41647  20974758.4954
  24141952.767     1845471.014 5   1594574.24845  24141958.1134
  22481262.678    -7604991.663 7  -5770222.01046  22481267.4964
  22552099.341   -12591541.700 7  -9631021.65246  22552104.8624
 02  1 30  0 36 30.0010000  0  7 08 27 13 04 20 01 24
  24099352.950    -4679718.135 5  -3490761.16245  24099358.8004
  22289716.240   -13157209.802 7 -10078811.02046  22289721.8794
  20774005.041   -18527505.558 8 -14223143.17347  20774008.1714
  20978939.942   -17144909.622 6  -8081013.96747  20978944.3034
  24159790.936     1939211.392 5   1667618.66545  24159796.0244
  22497512.705    -7519598.345 7  -5703681.78646  22497517.5944
  22541218.908   -12648718.549 7  -9675575.03346  22541224.4654
 02  1 30  0 37  0.0010000  0  7 08 27 13 04 20 01 24
  24079820.348    -4782361.583 5  -3570742.89845  24079826.0224
  22278785.001   -13214653.150 7 -10123572.04346  22278790.6874
  20781272.632   -18489314.364 8 -14193383.78847  20781275.5164
  20983233.175   -17122348.364 6  -8063433.76947  20983237.5594
  24177657.786     2033101.410 5   1740779.68345  24177663.2724
  22513793.388    -7434043.429 7  -5637015.63046  22513798.3234
  22530414.320   -12705496.879 7  -9719817.86446  22530420.0174
 02  1 30  0 37 30.0010000  0  7 08 27 13 04 20 01 24
  24060303.016    -4884927.522 5  -3650664.22845  24060309.9914
  22267924.577   -13271725.545 7 -10168044.00546  22267930.2624
  20788609.297   -18450759.854 7 -14163341.31447  20788612.1344
  20987634.308   -17099220.150 6  -8045411.80147  20987638.6694
  24195553.221     2127142.438 5   1814058.35445  24195558.5424
  22530104.425    -7348326.875 7  -5570223.51946  22530109.5954
  22519686.338   -12761873.027 7  -9763747.31846  22519691.8134
 02  1 30  0 38  0.0010000  0  7 08 27 13 04 20 01 24
  24040799.893    -4987415.414 5  -3730524.72145  24040806.3524
  22257134.678   -13328427.347 7 -10212227.20046  22257139.8134
  20796014.243   -18411845.724 8 -14133018.61747  20796017.2444
  20992143.109   -17075526.856 6  -8026949.50847  20992147.3764
  24213476.662     2221331.900 5   1887452.69545  24213482.0664
  22546445.829    -7262452.527 7  -5503308.46546  22546450.8584
  22509034.651   -12817846.425 7  -9807362.93746  22509040.5714
 02  1 30  0 38 30.0010000  0  7 08 27 13 04 20 01 24
  24021312.681    -5089821.589 5  -3810321.58445  24021320.4414
  22246415.646   -13384755.707 7 -10256119.40746  22246421.2374
  20803488.029   -18372571.402 7 -14102415.25747  20803490.9474
  20996759.313   -17051267.829 7  -8008046.38247  20996763.9434
  24231427.975     2315670.132 5   1960962.92145  24231434.7974
  22562817.143    -7176420.978 7  -5436270.90646  22562822.2774
  22498460.824   -12873414.101 7  -9850662.41746  22498466.2744
 02  1 30  0 39  0.0010000  0  7 08 27 13 04 20 01 24
  24001840.978    -5192143.087 5  -3890052.44845  24001848.0584
  22235768.341   -13440708.334 7 -10299718.83046  22235773.9094
  20811029.782   -18332939.359 6 -14071533.13547  20811032.4674
  21001483.292   -17026442.753 7  -7988702.18547  21001488.0164
  24249408.717     2410157.386 5   2034589.28145  24249413.4414
  22579218.396    -7090233.457 7  -5369111.80746  22579223.2964
  22487964.401   -12928573.407 7  -9893643.68046  22487969.4774
 02  1 30  0 39 30.0010000  0  7 08 27 13 04 20 01 24
  23982386.279    -5294377.934 6  -3969715.82945  23982391.9174
  22225192.608   -13496283.921 7 -10343024.46946  22225197.8714
  20818639.206   -18292951.930 7 -14040374.09847  20818641.9964
  21006314.909   -17001052.452 6  -7968917.55047  21006319.2704
  24267417.384     2504792.319 5   2108330.74545  24267422.4714
  22595648.404    -7003892.463 7  -5301833.13046  22595653.3864
  22477545.917   -12983322.696 7  -9936305.45146  22477551.3794
 02  1 30  0 40  0.0010000  0  7 08 27 13 04 20 01 24
  23962948.507    -5396523.261 6  -4049309.41245  23962954.4384
  22214688.843   -13551480.296 7 -10386034.60746  22214694.7624
  20826316.235   -18252609.519 6 -14008938.46247  20826319.0604
  21011254.198   -16975096.817 6  -7948692.39047  21011258.5584
  24285454.421     2599574.773 5   2182187.14245  24285460.7154
  22612107.262    -6917399.402 7  -5234435.95846  22612112.3144
  22467205.861   -13037659.922 7  -9978646.13146  22467211.4064
 02  1 30  0 40 30.0010000  0  7 08 27 13 04 20 01 24
  23943528.560    -5498575.532 6  -4128830.50345  23943534.5154
  22204257.983   -13606294.938 7 -10428747.28946  22204263.3514
  20834060.409   -18211913.668 6 -13977227.41547  20834063.0704
  21016301.115   -16948575.282 6  -7928026.26547  21016305.5344
  24303518.746     2694504.928 5   2256158.64645  24303524.3844
  22628595.113    -6830755.096 7  -5166920.92646  22628600.1304
  22456944.743   -13091581.497 7 -10020662.93746  22456950.3814
 02  1 30  0 41  0.0010000  0  7 08 27 13 04 20 01 24
  23924127.227    -5600531.216 6  -4208276.35745  23924133.2994
  22193900.164   -13660725.216 7 -10471160.45046  22193905.7434
  20841871.771   -18170864.237 6 -13945240.84747  20841874.6314
  21021455.937   -16921487.088 6  -7906918.59647  21021460.3094
  24321611.532     2789583.395 5   2330245.72545  24321616.7024
  22645111.586    -6743960.271 7  -5099288.60846  22645116.7204
  22446763.563   -13145084.303 7 -10062353.42946  22446769.2844
 02  1 30  0 41 30.0010000  0  7 08 27 13 04 20 01 24
  23904744.581    -5702386.167 6  -4287643.70245  23904750.9114
  22183616.300   -13714767.810 7 -10513271.51746  22183621.5044
  20849750.507   -18129461.503 7 -13912978.98547  20849753.3444
  21026718.604   -16893830.907 6  -7885368.33047  21026723.0944
  24339733.102     2884811.167 5   2404449.13745  24339738.4014
  22661656.771    -6657014.860 7  -5031538.95946  22661661.7884
  22436662.870   -13198164.389 7 -10103714.53046  22436668.6144
 02  1 30  0 42  0.0010000  0  7 08 27 13 04 20 01 24
  23885380.984    -5804142.498 6  -4366934.23145  23885386.9864
  22173405.563   -13768425.490 7 -10555082.65647  22173410.7094
  20857695.061   -18087711.918 6 -13880446.83747  20857697.8404
  21032088.727   -16865611.522 6  -7863379.21147  21032093.0884
  24357881.339     2980183.100 5   2478764.91345  24357885.9354
  22678229.385    -6569925.296 7  -4963676.98146  22678234.5194
  22426642.040   -13250824.432 7 -10144748.32846  22426647.4674
 02  1 30  0 42 30.0010000  0  7 08 27 13 04 20 01 24
  23866037.556    -5905791.845 6  -4446141.39545  23866044.0154
  22163269.528   -13821690.912 8 -10596588.13647  22163274.8394
  20865706.544   -18045611.301 6 -13847641.15047  20865709.4394
  21037566.697   -16836824.023 6  -7840947.41147  21037570.8944
  24376058.794     3075704.409 5   2553197.04745  24376065.4994
  22694830.083    -6482687.770 7  -4895699.68346  22694835.4524
  22416702.543   -13303056.480 7 -10185448.61146  22416707.7604
 02  1 30  0 43  0.0010000  0  7 08 27 13 04 20 01 24
  23846714.497    -6007335.651 6  -4525266.32945  23846720.8504
  22153207.840   -13874566.314 8 -10637789.72147  22153213.0564
  20873783.665   -18003165.314 7 -13814566.34347  20873786.6544
  21043152.087   -16807472.623 6  -7818076.19647  21043156.5184
  24394263.179     3171370.386 5   2627741.95045  24394271.0454
  22711458.066    -6395307.863 7  -4827611.44646  22711463.0594
  22406844.199   -13354862.402 7 -10225816.85346  22406849.6024
 02  1 30  0 43 30.0010000  0  7 08 27 13 04 20 01 24
  23827412.213    -6108769.759 6  -4604305.79145  23827418.0504
  22143220.444   -13927048.546 8 -10678684.92647  22143225.8844
  20881926.788   -17960373.952 6 -13781222.41947  20881929.6134
  21048845.015   -16777556.079 6  -7794764.61747  21048849.2944
  24412494.627     3267182.055 5   2702400.34245  24412500.7694
  22728112.848    -6307785.624 6  -4759412.30846  22728118.1354
  22397067.562   -13406238.650 7 -10265850.28146  22397073.0594
 02  1 30  0 44  0.0010000  0  7 08 27 13 04 20 01 24
  23808130.863    -6210092.700 5  -4683258.61945  23808137.3814
  22133308.480   -13979136.983 8 -10719273.28047  22133313.8614
  20890134.710   -17917240.176 7 -13747611.67647  20890137.8164
  21054645.327   -16747075.902 6  -7771013.84647  21054649.4774
  24430756.405     3363137.817 5   2777171.01445  24430759.9804
  22744794.746    -6220123.773 6  -4691104.39946  22744800.1034
  22387372.929   -13457184.256 7 -10305548.15146  22387378.8484
 02  1 30  0 44 30.0010000  0  7 08 27 13 04 20 01 24
  23788871.464    -6311300.006 5  -4762121.36145  23788878.2054
  22123471.890   -14030828.222 8 -10759552.13647  22123477.5174
  20898407.964   -17873763.430 7 -13713733.68547  20898410.8944
  21060552.869   -16716030.797 6  -7746822.86747  21060557.1944
  24449042.526     3459238.814 5   2852054.90645  24449047.3674
  22761502.790    -6132322.320 6  -4622687.70546  22761508.0894
  22377761.055   -13507694.873 7 -10344907.06246  22377766.9744
 02  1 30  0 45  0.0010000  0  7 08 27 13 04 20 01 24
  23769634.793    -6412390.479 6  -4840893.07845  23769640.9714
  22113711.048   -14082121.932 8 -10799521.23647  22113716.5814
  20906746.006   -17829947.139 7 -13679591.12247  20906748.8904
  21066567.690   -16684422.572 6  -7722193.10147  21066571.9924
  24467357.794     3555483.080 5   2927050.39545  24467363.3854
  22778236.703    -6044384.059 6  -4554164.39946  22778241.3094
  22368232.088   -13557769.993 7 -10383926.63046  22368237.9144
 02  1 30  0 45 30.0010000  0  7 08 27 13 04 20 01 24
  23750420.434    -6513361.236 6  -4919571.48145  23750426.4474
  22104026.166   -14133016.089 8 -10839178.99647  22104031.2884
  20915148.342   -17785792.520 7 -13645184.92947  20915151.3194
  21072689.491   -16652251.463 6  -7697124.71547  21072693.8864
  24485699.451     3651870.501 5   3002157.39745  24485705.5354
  22794996.398    -5956310.447 6  -4485535.63246  22795001.4864
  22358786.632   -13607407.018 7 -10422604.82046  22358791.9534
 02  1 30  0 46  0.0010000  0  7 08 27 13 04 20 01 24
  23731229.563    -6614208.851 6  -4998153.94145  23731236.0114
  22094417.824   -14183508.178 8 -10878523.46647  22094423.1234
  20923614.961   -17741300.291 8 -13610515.66047  20923617.9854
  21078918.924   -16619516.902 6  -7671617.28247  21078923.2034
  24504069.287     3748401.388 5   3077376.24845  24504072.3934
  22811782.316    -5868102.232 6  -4416801.98746  22811787.4854
  22349424.894   -13656603.208 7 -10460939.50646  22349429.9114
 02  1 30  0 46 30.0010000  0  7 08 27 13 04 20 01 24
  23712062.597    -6714931.826 6  -5076639.28245  23712068.5294
  22084886.041   -14233597.722 8 -10917554.25547  22084891.3044
  20932145.142   -17696473.224 6 -13575585.47747  20932147.8974
  21085254.931   -16586220.721 6  -7645672.22147  21085258.9874
  24522465.243     3845073.844 5   3152705.36645  24522472.1364
  22828592.511    -5779762.369 7  -4347965.73946  22828597.2354
  22340147.167   -13705357.609 7 -10498929.92946  22340152.0674
 02  1 30  0 47  0.0010000  0  7 08 27 13 04 20 01 24
  23692919.696    -6815527.561 5  -5155025.46545  23692925.9794
  22075431.393   -14283282.942 8 -10956269.98447  22075436.6444
  20940738.944   -17651312.960 7 -13540395.66447  20940741.6754
  21091697.819   -16552363.384 6  -7619289.89647  21091702.0744
  24540888.395     3941887.473 5   3228144.51045  24540896.2844
  22845427.729    -5691292.201 7  -4279027.95146  22845432.1844
  22330954.180   -13753667.962 7 -10536574.35446  22330959.4674
 02  1 30  0 47 30.0010000  0  7 08 27 13 04 20 01 24
  23673801.819    -6915990.711 5  -5233308.34845  23673807.9844
  22066054.151   -14332559.722 8 -10994667.45247  22066059.4974
  20949396.258   -17605818.365 8 -13504945.33047  20949399.2364
  21098247.736   -16517942.870 6  -7592468.73247  21098252.0614
  24559337.926     4038844.183 5   3303695.19345  24559345.3234
  22862288.132    -5602690.921 6  -4209988.01346  22862293.8414
  22321846.042   -13801529.701 7 -10573869.19846  22321851.6344
 02  1 30  0 48  0.0010000  0  7 08 27 13 04 20 01 24
  23654709.886    -7016320.293 5  -5311487.17145  23654716.4864
  22056754.701   -14381428.373 8 -11032746.89747  22056759.9994
  20958116.564   -17559993.167 7 -13469237.39247  20958119.6244
  21104904.558   -16482961.556 6  -7565210.58347  21104909.1074
  24577815.346     4135941.511 5   3379355.43745  24577822.8844
  22879172.582    -5513961.806 6  -4140848.47646  22879177.8224
  22312823.785   -13848942.589 7 -10610814.29346  22312829.6224
 02  1 30  0 48 30.0010000  0  7 08 27 13 04 20 01 24
  23635643.507    -7116515.341 6  -5389561.12845  23635649.2394
  22047533.216   -14429888.446 8 -11070507.98047  22047538.7844
  20966899.207   -17513839.970 7 -13433273.86747  20966902.0794
  21111667.554   -16447421.332 6  -7537516.91847  21111672.0324
  24596319.341     4233177.873 5   3455123.92945  24596324.3114
  22896081.335    -5425107.598 6  -4071611.45046  22896086.5054
  22303887.027   -13895905.438 7 -10647408.70846  22303892.7594
 02  1 30  0 49  0.0010000  0  7 08 27 13 04 20 01 24
  23616603.533    -7216570.927 6  -5467526.46145  23616609.0074
  22038389.761   -14477936.427 8 -11107947.93847  22038394.9544
  20975744.408   -17467358.510 7 -13397054.56047  20975747.2804
  21118537.511   -16411320.686 6  -7509386.56247  21118541.8484
  24614849.060     4330554.529 5   3531001.75645  24614857.2304
  22913013.677    -5336128.006 7  -4002276.71646  22913018.2844
  22295036.537   -13942414.507 7 -10683649.53646  22295041.8004
 02  1 30  0 49 30.0010000  0  7 08 27 13 04 20 01 24
  23597590.584    -7316485.512 6  -5545381.92246  23597596.5984
  22029325.077   -14525571.648 8 -11145066.26947  22029329.8954
  20984651.589   -17420551.326 6 -13360581.43247  20984654.5074
  21125513.463   -16374661.150 6  -7480820.70347  21125517.7884
  24633405.443     4428070.179 5   3606987.93545  24633411.7854
  22929969.008    -5247025.445 6  -3932846.15346  22929974.3304
  22286272.769   -13988468.455 7 -10719535.71946  22286278.5244
 02  1 30  0 50  0.0010000  0  7 08 27 13 04 20 01 24
  23578605.046    -7416254.675 6  -5623124.06146  23578611.0724
  22020339.507   -14572790.831 8 -11181860.42047  22020344.9694
  20993620.474   -17373418.272 7 -13323854.37747  20993623.6754
  21132596.260   -16337441.803 6  -7451818.62647  21132600.5854
  24651989.089     4525725.854 5   3683083.25345  24651996.0284
  22946948.184    -5157799.721 7  -3863319.63046  22946953.4354
  22277596.332   -14034063.555 7 -10755064.35346  22277601.7004
 02  1 30  0 50 30.0010000  0  7 08 27 13 04 20 01 24
  23559647.520    -7515875.938 6  -5700750.99546  23559653.1934
  22011433.415   -14619592.471 8 -11218329.20047  22011438.8664
  21002651.305   -17325961.153 7 -13286874.81447  21002654.4824
  21139785.167   -16299663.378 6  -7422380.91047  21139789.6334
  24670599.036     4623521.021 5   3759287.23245  24670605.3314
  22963950.673    -5068452.420 6  -3793698.35546  22963955.2804
  22269007.407   -14079198.035 7 -10790234.06446  22269013.1044
 02  1 30  0 51  0.0010000  0  7 08 27 13 04 20 01 24
  23540718.746    -7615348.425 6  -5778261.98846  23540725.2404
  22002606.917   -14665977.024 8 -11254472.98747  22002611.8414
  21011743.186   -17278183.407 7 -13249645.40047  21011746.1634
  21147080.096   -16261328.597 6  -7392509.67147  21147084.5384
  24689234.757     4721453.236 5   3835598.00645  24689240.1964
  22980974.812    -4978987.070 6  -3723985.11946  22980979.7004
  22260506.417   -14123871.661 7 -10825044.67946  22260512.2434
 02  1 30  0 51 30.0010000  0  7 08 27 13 04 20 01 24
  23521818.663    -7714668.565 6  -5855654.20746  23521824.8644
  21993860.134   -14711941.800 8 -11290289.66447  21993865.5504
  21020895.884   -17230085.594 6 -13212166.57747  21020898.9554
  21154480.976   -16222436.941 6  -7362204.49947  21154485.4894
  24707896.706     4819522.601 5   3912015.65145  24707902.1924
  22998021.983    -4889404.008 6  -3654180.15646  22998027.2344
  22252093.651   -14168081.621 7 -10859493.98946  22252099.1484
 02  1 30  0 52  0.0010000  0  7 08 27 13 04 20 01 24
  23502948.325    -7813832.199 6  -5932924.49146  23502954.2914
  21985193.539   -14757484.070 8 -11325777.13147  21985198.8144
  21030109.390   -17181667.960 6 -13174438.55547  21030112.3674
  21161987.810   -16182988.045 6  -7331465.12047  21161992.2874
  24726584.563     4917729.851 5   3988540.76345  24726589.8734
  23015091.445    -4799703.431 6  -3584283.61146  23015096.5794
  22243769.523   -14211824.178 7 -10893579.09046  22243774.9274
 02  1 30  0 52 30.0010000  0  7 08 27 13 04 20 01 24
  23484107.305    -7912840.159 6  -6010073.50746  23484113.3424
  21976607.072   -14802605.539 8 -11360936.68947  21976612.0314
  21039382.928   -17132935.571 6 -13136465.26147  21039386.0224
  21169600.244   -16142985.644 6  -7300294.43447  21169604.5464
  24745298.318     5016071.425 5   4065170.50645  24745304.6834
  23032182.583    -4709890.232 6  -3514299.31646  23032187.2134
  22235534.324   -14255100.799 7 -10927301.12346  22235539.4934
 02  1 30  0 53  0.0010000  0  7 08 27 13 04 20 01 24
  23465297.542    -8011686.215 6  -6087096.32746  23465303.8134
  21968101.893   -14847301.141 8 -11395764.41147  21968106.7584
  21048716.608   -17083886.315 6 -13098245.06347  21048719.4804
  21177318.115   -16102426.970 6  -7268690.29547  21177322.6394
  24764038.830     5114550.212 5   4141907.23445  24764043.9884
  23049294.978    -4619962.341 6  -3444225.64346  23049300.4764
  22227389.001   -14297905.674 7 -10960655.56346  22227394.3694
 02  1 30  0 53 30.0010000  0  7 08 27 13 04 20 01 24
  23446519.140    -8110368.809 6  -6163991.77046  23446525.7274
  21959677.718   -14891570.714 8 -11430260.15147  21959683.0634
  21058110.221   -17034523.170 6 -13059780.27447  21058113.0694
  21185141.540   -16061314.281 6  -7236654.45547  21185145.9714
  24782804.175     5213164.337 5   4218749.38045  24782811.2794
  23066429.130    -4529922.487 6  -3374064.74746  23066434.4874
  22219333.051   -14340238.437 7 -10993642.12146  22219338.5484
 02  1 30  0 54  0.0010000  0  7 08 27 13 04 20 01 24
  23427772.432    -8208882.243 6  -6240755.44646  23427777.7424
  21951335.314   -14935409.624 8 -11464420.31647  21951341.0114
  21067563.672   -16984844.589 6 -13021069.70147  21067566.6614
  21193070.940   -16019645.176 6  -7204185.04747  21193075.2664
  24801596.646     5311916.538 5   4295699.08945  24801600.3624
  23083585.221    -4439768.840 6  -3303815.16346  23083590.2854
  22211368.358   -14382093.780 7 -11026256.67146  22211374.1024
 02  1 30  0 54 30.0010000  0  7 08 27 13 04 20 01 24
  23409057.781    -8307228.202 6  -6317388.58646  23409063.9824
  21943074.457   -14978820.814 8 -11498247.19047  21943079.8614
  21077076.283   -16934856.280 6 -12982117.77947  21077079.2494
  21201105.180   -15977424.776 6  -7171286.05347  21201109.7644
  24820414.141     5410801.570 5   4372752.34345  24820418.1384
  23100761.184    -4349507.438 6  -3233481.63046  23100766.1074
  22203493.833   -14423474.476 7 -11058501.36546  22203499.2024
 02  1 30  0 55  0.0010000  0  8 08 10 27 13 04 20 01 24
  23390374.679    -8405406.961 6  -6393891.43446  23390381.0324
  25022884.060      -29783.45915
  21934894.669   -15021805.588 8 -11531741.79147  21934900.0494
  21086646.592   -16884562.861 6 -12942928.09747  21086649.4054
  21209243.703   -15934656.915 6  -7137960.46347  21209248.4044
  24839255.227     5509816.120 5   4449906.51145  24839260.5024
  23117956.989    -4259142.570 6  -3163067.44246  23117962.5214
  22195709.647   -14464380.770 7 -11090376.39846  22195715.3554
 02  1 30  0 55 30.0010000  0  8 08 10 27 13 04 20 01 24
  23371724.623    -8503414.141 6  -6470260.59646  23371730.2034
  25007425.286     -111019.350 5
  21926796.752   -15064360.925 8 -11564901.77447  21926801.8284
  21096275.259   -16833964.368 6 -12903500.71347  21096278.2954
  21217486.651   -15891340.698 6  -7104207.59247  21217491.2114
  24858121.766     5608961.229 5   4527162.36145  24858131.4484
  23135172.600    -4168673.865 6  -3092572.38046  23135177.9454
  22188016.337   -14504809.580 7 -11121879.35946  22188022.0934
 02  1 30  0 56  0.0010000  0  8 08 10 27 13 04 20 01 24
  23353108.121    -8601245.508 6  -6546492.77746  23353114.0764
  24991966.335     -192257.575 5    -25318.99555  24991971.2354
  21918780.935   -15106484.016 8 -11597724.93347  21918785.9054
  21105961.970   -16783060.746 6 -12863835.55447  21105964.7364
  21225833.753   -15847475.541 6  -7070026.96847  21225838.2434
  24877013.913     5708237.706 5   4604520.62345  24877018.8254
  23152408.107    -4078101.315 6  -3021996.37546  23152413.5814
  22180414.858   -14544756.953 7 -11153007.17646  22180420.2624
 02  1 30  0 56 30.0010000  0  8 08 10 27 13 04 20 01 24
  23334525.166    -8698898.916 6  -6622586.27846  23334531.4494
  24976506.410     -273497.604 5    -88622.86745  24976511.3454
  21910847.668   -15148173.932 8 -11630210.55747  21910852.9084
  21115706.218   -16731854.138 6 -12823934.29947  21115709.0784
  21234285.162   -15803063.108 6  -7035419.89147  21234289.7924
  24895930.262     5807644.659 5   4681980.58545  24895937.5534
  23169663.104    -3987426.726 6  -2951340.86746  23169668.5554
  22172904.666   -14584221.996 7 -11183759.15446  22172909.6714
 02  1 30  0 57  0.0010000  0  8 08 10 27 13 04 20 01 24
  23315976.875    -8796369.249 6  -6698537.12246  23315982.7714
  24961047.698     -354736.580 5   -151925.93045  24961053.3254
  21902997.459   -15189427.010 8 -11662355.78447  21903002.9444
  21125508.290   -16680343.723 6 -12783796.32047  21125511.2444
  21242841.031   -15758101.660 6  -7000385.01547  21242845.4274
  24914872.808     5907183.622 5   4759543.39545  24914883.9204
  23186937.374    -3896649.136 6  -2880605.09546  23186942.1804
  22165487.460   -14623200.214 7 -11214131.78846  22165492.9814
 02  1 30  0 57 30.0010000  0  8 08 10 27 13 04 20 01 24
  23297464.574    -8893655.125 6  -6774344.24146  23297470.6114
  24945587.982     -435974.652 5   -215228.25945  24945594.4764
  21895230.533   -15230242.898 8 -11694160.34647  21895235.8444
  21135367.486   -16628532.595 6 -12743424.01847  21135370.4174
  21251501.080   -15712593.415 6  -6964924.07947  21251505.7104
  24933838.788     6006853.066 4   4837207.80845  24933844.2744
  23204230.577    -3805771.262 6  -2809791.17746  23204235.5474
  22158162.661   -14661691.006 7 -11244124.59946  22158168.1234
 02  1 30  0 58  0.0010000  0  8 08 10 27 13 04 20 01 24
  23278986.396    -8990755.828 6  -6850007.07246  23278992.5274
  24930129.459     -517212.743 5   -278530.59745  24930134.7464
  21887546.535   -15270622.021 8 -11725624.57247  21887551.7284
  21145283.534   -16576423.473 7 -12702819.51647  21145286.6054
  21260264.527   -15666541.095 6  -6929039.17747  21260269.1224
  24952829.260     6106650.616 4   4914972.11545  24952831.7454
  23221543.159    -3714796.252 6  -2738901.59046  23221548.1874
  22150931.065   -14699693.913 7 -11273737.25646  22150936.6334
 02  1 30  0 58 30.0010000  0  8 08 10 27 13 04 20 01 24
  23260545.089    -9087665.327 6  -6925520.89446  23260551.3494
  24914670.633     -598447.100 5   -341830.08145  24914676.8934
  21879946.209   -15310560.012 8 -11756745.05447  21879951.3444
  21155256.585   -16524015.118 6 -12661981.84247  21155259.5274
  21269131.845   -15619942.529 6  -6892728.62547  21269136.6864
  24971845.802     6206578.660 4   4992838.06245  24971849.8584
  23238873.721    -3623722.433 6  -2667934.97546  23238878.6214
  22143793.090   -14737204.193 7 -11302966.04046  22143798.6814
 02  1 30  0 59  0.0010000  0  8 08 10 27 13 04 20 01 24
  23242140.478    -9184383.576 6  -7000885.72746  23242146.3744
  24899212.582     -679679.490 5   -405128.05445  24899218.4084
  21872430.261   -15350058.053 8 -11787522.71647  21872435.4664
  21165285.707   -16471311.813 7 -12620914.33847  21165288.8374
  21278102.676   -15572801.456 6  -6855995.34547  21278107.2714
  24990885.121     6306634.030 4   5070803.32144  24990891.1704
  23256222.547    -3532553.675 6  -2596894.40646  23256228.0684
  22136748.339   -14774222.745 7 -11331811.65546  22136754.1654
 02  1 30  0 59 30.0010000  0  8 08 10 27 13 04 20 01 24
  23223772.619    -9280906.037 6  -7076097.98146  23223778.5974
  24883755.038     -760907.273 5   -468422.29645  24883762.7634
  21864998.297   -15389113.042 8 -11817955.14347  21865003.4904
  21175370.969   -16418313.262 7 -12579616.77547  21175373.8534
  21287176.725   -15525116.915 6  -6818838.57347  21287181.2744
  25009949.405     6406817.970 3   5148868.66344  25009948.2914
  23273589.511    -3441289.595 6  -2525779.56046  23273594.7744
  22129798.681   -14810745.493 7 -11360270.94346  22129804.3194
 02  1 30  1  0  0.0010000  0  8 08 10 27 13 04 20 01 24
  23205442.060    -9377233.209 6  -7151158.04646  23205447.8624
  24868299.291     -842132.490 5   -531714.64445  24868303.4174
  21857650.158   -15427726.560 8 -11848043.57347  21857655.5624
  21185511.627   -16365023.852 7 -12538092.56047  21185514.7224
  21296353.310   -15476892.976 6  -6781261.49547  21296357.9634
  25029038.306     6507126.994 3   5227031.51044  25029052.1974
  23290973.765    -3349934.366 6  -2454593.67746  23290978.9234
  22122942.393   -14846773.599 7 -11388344.77346  22122948.0794
 02  1 30  1  1  0.0010000  0  8 08 10 27 13 04 20 01 24
  23168895.381    -9569287.337 6  -7300810.50246  23168901.1724
  24837387.708    -1004569.449 5   -658288.78745  24837392.7484
  21843208.029   -15503621.094 8 -11907182.11247  21843212.9294
  21205958.250   -16257576.285 7 -12454367.20647  21205961.2514
  21315014.410   -15378828.792 6  -6704847.87547  21315019.2634
  25067285.042     6708120.187 2
  23325793.963    -3166952.592 6  -2312010.51146  23325798.8404
  22109515.066   -14917336.701 7 -11443329.00646  22109520.6224
 02  1 30  1  1 30.0010000  0  8 08 10 27 13 04 20 01 24
  23150680.555    -9665007.459 6  -7375397.57046  23150686.5454
  24821934.755    -1085777.522 5   -721567.72945  24821941.1444
  21836114.434   -15540897.923 8 -11936228.96147  21836119.4634
  21216263.901   -16203419.522 7 -12412167.13347  21216267.0434
  21324498.633   -15328988.836 6  -6666011.57447  21324503.2044
  25086444.382     6808804.899 2
  23343229.958    -3075327.414 6  -2240614.28046  23343234.6944
  22102944.358   -14951866.035 7 -11470234.96546  22102949.9384
 02  1 30  1  2  0.0010000  0  8 08 10 27 13 04 20 01 24
  23132505.286    -9760518.096 6  -7449821.39846  23132511.2174
  24806482.962    -1166976.356 5   -784839.49045  24806489.4094
  21829106.603   -15577725.027 8 -11964925.37347  21829111.6554
  21226624.397   -16148974.818 7 -12369742.69747  21226627.5034
  21334085.177   -15278610.842 6  -6626756.01747  21334089.8664
  25105628.097     6909615.361 2
  23360682.246    -2983613.299 6  -2169148.76846  23360687.4514
  22096469.694   -14985890.661 7 -11496747.66846  22096475.2394
 02  1 30  1  2 30.0010000  0  8 08 10 27 13 04 20 01 24
  23114369.651    -9855822.175 6  -7524084.24346  23114375.1964
  24791032.352    -1248170.268 5   -848107.42745  24791038.2254
  21822183.452   -15614106.429 8 -11993274.48547  21822188.3644
  21237038.147   -16094249.540 7 -12327099.63547  21237041.1834
  21343773.104   -15227701.219 6  -6587086.20447  21343777.8514
  25124835.050     7010545.617 2
  23378150.683    -2891816.654 6  -2097618.92646  23378155.3604
  22090090.278   -15019414.111 7 -11522869.83446  22090095.7414
 02  1 30  1  3  0.0010000  0  8 08 10 27 13 04 20 01 24
  23096273.989    -9950913.963 6  -7598181.69746  23096279.9214
  24775582.732    -1329355.599 5   -911368.70845  24775587.0464
  21815345.843   -15650038.216 8 -12021273.25547  21815350.8254
  21247505.944   -16039241.932 6 -12284236.56447  21247508.8044
  21353562.291   -15176258.169 6  -6547000.72347  21353567.0504
  25144064.934     7111597.750 1
  23395634.803    -2799936.114 6  -2026023.70046  23395639.9954
  22083807.203   -15052431.553 7 -11548597.70646  22083812.8884
 02  1 30  1  3 30.0010000  0  9 08 10 27 13 04 20 01 24 02
  23078220.320   -10045786.881 6  -7672108.58946  23078226.4394
  24760136.004    -1410527.751 5   -974619.65845  24760143.9754
  21808594.713   -15685515.152 8 -12048917.59647  21808599.5434
  21258027.670   -15983949.894 6 -12241151.86647  21258030.7644
  21363453.641   -15124279.018 6  -6506497.50447  21363458.3184
  25163316.319     7212775.255 1
  23413135.908    -2707969.062 6  -1954361.08446  23413140.5034
  22077621.784   -15084937.204 7 -11573926.78446  22077627.4804
  25330551.109      -50921.977 4
 02  1 30  1  4  0.0010000  0  9 08 10 27 13 04 20 01 24 02
  23060207.925   -10140442.961 6  -7745866.54246  23060214.1144
  24744691.156    -1491689.990 5  -1037862.94145  24744696.0444
  21801929.481   -15720540.443 8 -12076210.00947  21801934.3104
  21268602.544   -15928379.286 6 -12197850.09347  21268605.3104
  21373446.141   -15071769.630 6  -6465581.13047  21373450.7714
  25182594.236     7314072.876 1
  23430651.610    -2615921.153 6  -1882635.47446  23430656.7674
  22071532.808   -15116933.975 7 -11598859.33446  22071538.3304
  25320545.071     -103501.717 3
 02  1 30  1  4 30.0010000  0  9 08 10 27 13 04 20 01 24 02
  23042237.188   -10234880.448 6  -7819454.14646  23042243.4014
  24729248.353    -1572842.744 4  -1101098.78845  24729254.4254
  21795350.137   -15755114.287 8 -12103150.63947  21795355.0254
  21279229.625   -15872532.795 7 -12154333.36147  21279232.6494
  21383538.781   -15018732.206 6  -6424253.29647  21383543.5874
  25201892.493     7415488.897 1
  23448182.859    -2523794.932 6  -1810848.82546  23448188.6144
  22065540.856   -15148421.268 7 -11623394.88446  22065546.4364
  25310559.933     -155978.477 3    -16345.69255  25310565.1024
 02  1 30  1  5  0.0010000  0  8 08 10 27 13 04 01 24 02
  23024308.885   -10329093.897 6  -7892867.19346  23024314.4414
  24713808.558    -1653982.290 5  -1164324.35345  24713815.7674
  21788857.742   -15789232.535 8 -12129736.25647  21788863.0294
  21289909.543   -15816409.173 7 -12110600.68747  21289912.5444
  21393732.202   -14965165.180 6  -6382512.77947  21393736.9844
  23465729.305    -2431588.718 6  -1738999.85646  23465734.3224
  22059646.989   -15179394.863 7 -11647530.15846  22059652.4634
  25300594.771     -208346.504 4    -57151.89545  25300601.3704
 02  1 30  1  5 30.0010000  0  8 08 10 27 13 04 01 24 02
  23006422.942   -10423085.033 6  -7966106.98546  23006428.9554
  24698370.375    -1735111.978 5  -1227542.22345  24698374.9824
  21782451.217   -15822898.477 8 -12155969.43847  21782456.3524
  21300641.318   -15760014.454 7 -12066656.74947  21300644.2614
  21404025.308   -14911074.421 6  -6340364.16447  21404029.9624
  23483289.817    -2339308.280 6  -1667093.05446  23483293.9324
  22053850.326   -15209857.281 7 -11671267.11046  22053855.4954
  25290649.273     -260608.010 5    -97875.15045  25290657.8534
 02  1 30  1  6  0.0010000  0  8 08 10 27 13 04 01 24 02
  22988580.307   -10516846.966 6  -8039168.18446  22988586.0274
  24682934.344    -1816226.517 5  -1290748.30845  24682940.2284
  21776132.014   -15856106.886 8 -12181846.09347  21776137.2894
  21311424.856   -15703345.989 7 -12022499.51047  21311427.9034
  21414418.899   -14856456.949 6  -6297805.12047  21414423.5534
  23500864.895    -2246950.622 6  -1595126.07246  23500870.0414
  22048151.762   -15239802.869 7 -11694601.33246  22048157.2724
  25280725.789     -312756.444 4   -138510.26345  25280732.9874
 02  1 30  1  6 30.0010000  0  8 08 10 27 13 04 01 24 02
  22970781.926   -10610378.341 6  -8112049.72246  22970787.7764
  24667501.637    -1897326.559 5  -1353943.06745  24667507.8974
  21769899.680   -15888857.842 8 -12207366.29347  21769905.0014
  21322260.053   -15646406.462 6 -11978131.05047  21322262.9954
  21424911.994   -14801315.112 6  -6254837.48547  21424916.4724
  23518454.315    -2154518.209 6  -1523100.83446  23518459.4964
  22042551.832   -15269230.764 7 -11717532.16346  22042557.3644
  25270823.535     -364790.460 4   -179056.20745  25270837.0624
 02  1 30  1  7  0.0010000  0  8 08 10 27 13 04 01 24 02
  22953027.693   -10703678.297 6  -8184750.93046  22953033.3084
  24652071.183    -1978412.803 5  -1417127.09045  24652077.1844
  21763754.189   -15921152.084 8 -12232530.61247  21763759.4524
  21333146.229   -15589199.214 7 -11933553.97447  21333149.2764
  21435504.241   -14745652.287 6  -6211463.88447  21435508.9074
  23536056.984    -2062014.224 6  -1451019.83746  23536062.9854
  22037050.282   -15298141.095 7 -11740059.69246  22037055.8154
  25260944.060     -416709.315 4   -219512.44645  25260951.9494
 02  1 30  1  7 30.0010000  0  8 08 10 27 13 04 01 24 02
  22935318.480   -10796740.135 6  -8257266.59346  22935324.5174
  24636644.498    -2059480.269 5  -1480296.49745  24636649.7034
  21757696.710   -15952984.542 8 -12257335.10647  21757701.9264
  21344083.926   -15531721.791 7 -11888766.39347  21344086.8914
  21446196.227   -14689465.776 6  -6167682.21047  21446200.8934
  23553674.113    -1969435.831 6  -1378880.84146  23553679.2124
  22031648.405   -15326528.726 7 -11762179.93946  22031653.9734
  25251087.746     -468506.516 4   -259873.92445  25251092.8924
 02  1 30  1  8  0.0010000  0  8 08 10 27 13 04 01 24 02
  22917654.884   -10889561.621 6  -8329594.95346  22917660.8974
  24621221.412    -2140528.454 5  -1543450.83545  24621226.4644
  21751727.335   -15984354.591 8 -12281779.27847  21751732.2704
  21355072.470   -15473976.093 7 -11843769.73847  21355075.1424
  21456987.482   -14632757.206 7  -6123493.74647  21456992.4524
  23571305.117    -1876784.605 6  -1306685.11246  23571309.7474
  22026346.210   -15354392.356 7 -11783891.86146  22026351.7194
  25241254.022     -520179.958 4   -300138.90945  25241259.6374
 02  1 30  1  8 30.0010000  0  8 08 10 27 13 04 01 24 02
  22900037.780   -10982140.769 6  -8401734.51046  22900043.6764
  24605801.833    -2221556.547 5  -1606589.57145  24605807.8464
  21745845.982   -16015261.710 8 -12305862.72647  21745850.6354
  21366111.831   -15415964.316 7 -11798565.75047  21366114.9264
  21467877.766   -14575528.666 7  -6078900.10047  21467882.6194
  23588949.919    -1784062.129 6  -1234433.81846  23588954.8074
  22021143.636   -15381730.791 8 -11805194.53746  22021148.8994
  25231445.598     -571727.630 3   -340305.87745  25231452.3734
 02  1 30  1  9  0.0010000  0  8 08 10 27 13 04 01 24 02
  22882466.408   -11074477.736 6  -8473685.33646  22882472.3164
  24590386.633    -2302566.726 5  -1669714.24645  24590391.8964
  21740052.105   -16045707.697 8 -12329586.85347  21740057.0634
  21377201.092   -15357690.570 7 -11753157.64347  21377204.1174
  21478866.068   -14517784.466 7  -6033904.64747  21478870.6054
  23606606.651    -1691272.471 6  -1162130.18046  23606612.1844
  22016041.059   -15408545.337 8 -11826088.98246  22016046.4634
  25221659.742     -623149.809 4   -380375.11845  25221666.9054
 02  1 30  1  9 30.0010000  0  8 08 10 27 13 04 01 24 02
  22864942.307   -11166567.466 6  -8545443.51946  22864948.0274
  24574974.002    -2383555.893 5  -1732822.63245  24574979.8524
  21734346.727   -16075689.136 8 -12352948.99847  21734351.9084
  21388340.096   -15299154.339 7 -11707544.98447  21388342.8044
  21489952.660   -14459523.623 7  -5988506.60847  21489957.4074
  23624277.370    -1598414.619 6  -1089773.42346  23624282.7394
  22011038.769   -15434832.400 8 -11846572.41446  22011044.2674
  25211899.311     -674441.917 4   -420342.97045  25211905.7704
 02  1 30  1 10  0.0010000  0  8 08 10 27 13 04 01 24 02
  22847466.181   -11258405.819 6  -8617005.84846  22847471.8894
  24559567.245    -2464521.146 5  -1795912.32645  24559573.1534
  21728730.477   -16105203.438 8 -12375947.14047  21728735.5174
  21399529.286   -15240355.222 7 -11661727.49047  21399532.0534
  21501137.622   -14400746.055 7  -5942705.91547  21501142.4284
  23641960.381    -1505487.967 6  -1017363.05046  23641966.0074
  22006137.542   -15460588.553 8 -11866642.14946  22006143.0634
  25202164.754     -725599.740 4   -460206.19845  25202171.0834
 02  1 30  1 10 30.0010000  0  8 08 10 27 13 04 01 24 02
  22830038.496   -11349989.931 6  -8688370.02646  22830044.3574
  24544165.190    -2545461.469 5  -1858982.70845  24544171.2154
  21723203.207   -16134249.647 8 -12398580.52547  21723208.1074
  21410768.132   -15181294.832 7 -11615706.41147  21410771.0624
  21512421.054   -14341453.113 7  -5896503.64047  21512425.8604
  23659657.256    -1412493.728 6   -944900.00846  23659662.8954
  22001337.532   -15485812.437 7 -11886297.12547  22001343.1704
  25192454.178     -776620.639 4   -499962.67745  25192459.8284
 02  1 30  1 11  0.0010000  0  8 08 10 27 13 04 01 24 02
  22812659.001   -11441319.353 7  -8759535.77146  22812664.3704
  24528767.419    -2626378.089 5  -1922034.56245  24528772.0264
  21717764.696   -16162829.064 8 -12420850.18247  21717769.5614
  21422055.943   -15121976.939 7 -11569484.67747  21422058.7914
  21523801.316   -14281648.405 7  -5849902.59547  21523805.9584
  23677364.932    -1319435.344 6   -872387.00246  23677370.9104
  21996639.113   -15510504.820 8 -11905537.94747  21996644.6464
  25182772.297     -827504.179 4   -539612.22245  25182776.4004
 02  1 30  1 11 30.0010000  0  8 08 10 27 13 04 01 24 02
  22795327.485   -11532395.805 6  -8830504.38646  22795333.1824
  24513372.903    -2707273.849 5  -1985070.14545  24513377.9794
  21712414.333   -16190944.833 8 -12442758.54947  21712419.2924
  21433391.668   -15062407.027 6 -11523066.55947  21433394.3644
  21535278.455   -14221337.754 7  -5802907.31147  21535283.1794
  23695084.634    -1226318.074 6   -799828.09146  23695089.9804
  21992040.713   -15534668.096 8 -11924366.47147  21992045.7304
  25173115.101     -878252.224 5   -579156.14345  25173122.5224
 02  1 30  1 12  0.0010000  0  8 08 10 27 13 04 01 24 02
  22778046.338   -11623209.554 7  -8901268.31046  22778051.8824
  24497984.589    -2788140.956 5  -2048083.43045  24497988.5864
  21707154.036   -16218589.124 8 -12464299.54147  21707159.0184
  21444776.407   -15002579.560 7 -11476447.75447  21444779.3384
  21546852.257   -14160515.667 7  -5755513.50447  21546856.8524
  23712816.630    -1133136.156 6   -727218.82746  23712822.5384
  21987545.026   -15558293.970 8 -11942776.24347  21987549.9724
  25163485.178     -928855.324 4   -618587.09745  25163491.1334
 02  1 30  1 12 30.0010000  0  8 08 10 27 13 04 01 24 02
  22760814.795   -11713760.451 6  -8971827.43046  22760820.8324
  24482601.014    -2868980.716 5  -2111075.37345  24482608.0124
  21701982.869   -16245763.301 8 -12485474.20947  21701987.9914
  21456209.252   -14942498.706 6 -11429631.50847  21456212.1824
  21558522.569   -14099186.157 8  -5707724.29747  21558527.4104
  23730559.712    -1039893.123 6   -654561.94946  23730564.7994
  21983151.278   -15581383.444 8 -11960768.04647  21983156.4594
  25153884.170     -979313.313 5   -657905.00545  25153891.3674
 02  1 30  1 13  0.0010000  0  8 08 10 27 13 04 01 24 02
  22743634.364   -11804044.404 7  -9042178.52046  22743640.1784
  24467223.638    -2949790.422 5  -2174043.91645  24467228.2454
  21696901.512   -16272465.086 8 -12506280.76847  21696906.6344
  21467690.730   -14882164.184 6 -11382617.59847  21467693.7314
  21570289.856   -14037349.075 8  -5659539.58747  21570294.9314
  23748315.750     -946588.714 6   -581857.24246  23748321.5644
  21978859.962   -15603933.697 8 -11978339.66647  21978865.3664
  25144310.509    -1029622.147 5   -697106.67045  25144317.3664
 02  1 30  1 13 30.0010000  0  8 08 10 27 13 04 01 24 02
  22726505.381   -11894058.029 7  -9112318.95646  22726510.9614
  24451851.531    -3030568.722 5  -2236988.01645  24451855.9394
  21691910.421   -16298693.063 8 -12526718.13047  21691915.4384
  21479219.825   -14821577.338 6 -11335407.06947  21479222.6394
  21582153.364   -13975005.816 8  -5610960.46447  21582158.4984
  23766082.277     -853223.342 6   -509105.01746  23766087.1884
  21974671.674   -15625942.624 7 -11995489.48447  21974677.2184
  25134765.918    -1079778.921 5   -736189.80945  25134774.4284
 02  1 30  1 14  0.0010000  0  8 08 10 27 13 04 01 24 02
  22709427.478   -11983802.323 7  -9182249.52946  22709433.3274
  24436485.719    -3111317.746 5  -2299909.27545  24436490.0684
  21687009.213   -16324449.624 8 -12546788.15247  21687014.0304
  21490796.333   -14760742.677 6 -11288003.44247  21490799.2874
  21594112.328   -13912161.063 8  -5561990.56647  21594117.2404
  23783859.997     -759801.533 6   -436308.82446  23783865.1434
  21970586.389   -15647412.496 8 -12012219.25547  21970591.8514
  25125250.331    -1129784.415 5   -775155.09745  25125256.8834
 02  1 30  1 14 30.0010000  0  8 08 10 27 13 04 01 24 02
  22692401.140   -12073276.345 7  -9251969.49246  22692406.8484
  24421124.585    -3192038.119 5  -2362808.20345  24421130.0834
  21682197.452   -16349735.754 8 -12566491.60947  21682202.5744
  21502419.343   -14699663.496 7 -11240409.28247  21502422.2504
  21606166.210   -13848818.275 8  -5512632.57547  21606170.9454
  23801648.142     -666326.044 6   -363470.79946  23801653.6874
  21966603.443   -15668343.228 8 -12028528.92947  21966608.4604
  25115763.600    -1179637.813 5   -814001.88345  25115769.3554
 02  1 30  1 15  0.0010000  0  8 08 10 27 13 04 01 24 02
  22675427.440   -12162474.076 7  -9321474.19146  22675433.4774
  24405770.662    -3272725.563 5  -2425681.45045  24405776.3244
  21677475.856   -16374547.216 8 -12585825.19947  21677480.9554
  21514089.177   -14638337.703 7 -11192622.95447  21514091.9674
  21618315.133   -13784975.728 8  -5462885.17647  21618319.7164
  23819445.998     -572794.686 6   -290589.23945  23819450.9574
  21962723.798   -15688730.190 8 -12044414.87447  21962728.7444
  25106306.263    -1229333.207 5   -852725.52245  25106312.2294
 02  1 30  1 15 30.0010000  0  8 08 10 27 13 04 01 24 02
  22658506.401   -12251393.518 7  -9390762.01346  22658512.3554
  24390423.345    -3353379.704 5  -2488528.79845  24390429.8624
  21672844.730   -16398884.001 8 -12604788.90447  21672849.7714
  21525805.533   -14576767.849 7 -11144646.44447  21525808.6044
  21630558.673   -13720635.713 7  -5412750.13147  21630563.3154
  23837254.920     -479209.493 6   -217665.73346  23837260.6404
  21958947.968   -15708572.773 8 -12059876.61647  21958953.4544
  25096880.331    -1278868.904 5   -891324.76545  25096888.4784
 02  1 30  1 16  0.0010000  0  8 08 10 27 13 04 01 24 02
  22641638.805   -12340033.702 7  -9459832.23246  22641644.5264
  24375081.204    -3434000.501 5  -2551350.17145  24375087.5344
  21668303.688   -16422746.580 8 -12623383.09847  21668308.8234
  21537567.802   -14514956.582 7 -11096481.82647  21537570.7094
  21642896.431   -13655801.362 8  -5362229.88747  21642900.9914
  23855073.600     -385572.752 6   -144702.04346  23855078.4994
  21955275.455   -15727871.127 8 -12074914.28047  21955281.1294
  25087485.009    -1328243.851 5   -929798.70445  25087492.3594
 02  1 30  1 16 30.0010000  0  8 08 10 27 13 04 01 24 02
  22624825.964   -12428386.277 7  -9528678.35346  22624831.9074
  24359746.829    -3514581.474 5  -2614140.45245  24359752.3504
  21663854.322   -16446128.644 8 -12641602.85847  21663859.3274
  21549376.834   -14452899.738 7 -11048125.86347  21549379.7064
  21655328.858   -13590468.660 8  -5311321.32447  21655333.5584
  23872902.430     -291879.910 6    -71694.65045  23872906.6034
  21951708.088   -15746618.652 8 -12089522.75047  21951713.2574
  25078120.928    -1377449.931 5   -968141.04345  25078126.7894
 02  1 30  1 17  0.0010000  0  8 08 10 27 13 04 01 24 02
  22608067.564   -12516451.653 7  -9597300.69846  22608073.3084
  24344419.773    -3595124.527 5  -2676901.21845  24344424.5794
  21659495.881   -16469032.658 8 -12659450.12647  21659500.5824
  21561231.616   -14390602.032 8 -10999582.20647  21561234.4644
  21667855.008   -13524642.691 8  -5260028.39647  21667859.5684
  23890741.144     -198135.236 6      1353.15145  23890746.1024
  21948245.121   -15764816.995 8 -12103703.27547  21948249.9974
  25068789.383    -1426487.839 5  -1006352.38345  25068795.3384
 02  1 30  1 17 30.0010000  0  8 08 10 27 13 04 01 24 02
  22591364.219   -12604227.671 7  -9665697.54246  22591370.1164
  24329100.266    -3675628.869 5  -2739631.81145  24329105.0844
  21655228.387   -16491458.120 8 -12676924.49047  21655233.1354
  21573132.068   -14328065.016 8 -10950852.06447  21573135.2444
  21680474.762   -13458325.269 8  -5208352.51447  21680479.5214
  23908589.821     -104340.017 6     74440.30845  23908596.0694
  21944886.525   -15782465.283 8 -12117455.17847  21944891.7884
  25059490.291    -1475355.497 5  -1044431.03345  25059496.8444
 02  1 30  1 18  0.0010000  0  8 08 10 27 13 04 01 24 02
  22574716.231   -12691712.512 7  -9733867.51446  22574721.9864
  24313788.507    -3756093.891 5  -2802331.78245  24313793.4424
  21651052.103   -16513405.096 8 -12694026.00847  21651057.0964
  21585077.559   -14265290.954 8 -10901937.21947  21585080.3854
  21693187.688   -13391518.870 8  -5156295.61347  21693192.6354
  23926448.241      -10495.900 6    147565.56345  23926453.3874
  21941632.966   -15799562.474 8 -12130777.67247  21941638.3594
  25050223.357    -1524050.932 5  -1082375.52745  25050230.4374
 02  1 30  1 18 30.0010000  0  8 08 10 27 13 04 01 24 02
  22558125.481   -12778897.980 7  -9801804.20446  22558131.4474
  24298485.223    -3836513.127 5  -2864996.09045  24298491.0494
  21646967.886   -16534867.146 8 -12710749.66747  21646972.7504
  21597068.935   -14202275.787 8 -10852834.50047  21597072.0064
  21705994.325   -13324219.759 8  -5103854.78347  21705999.1324
  23944316.172       83401.553 6    220732.40745  23944321.4944
  21938485.748   -15816102.379 8 -12143665.91647  21938491.2814
  25040991.478    -1572566.271 5  -1120179.62345  25040997.1044
 02  1 30  1 19  0.0010000  0  8 08 10 27 13 04 01 24 02
  22541590.610   -12865788.920 7  -9869511.39646  22541596.6474
  24283189.398    -3916892.867 5  -2927629.62045  24283195.7634
  21642974.922   -16555851.044 8 -12727100.73447  21642979.6114
  21609104.724   -14139028.085 7 -10803550.58947  21609107.6314
  21718892.896   -13256437.039 8  -5051037.11947  21718897.7844
  23962193.112      177343.896 6    293934.19145  23962198.3294
  21935443.165   -15832091.084 8 -12156124.64747  21935448.7334
  25031792.727    -1620906.485 5  -1157847.28745  25031799.8074
 02  1 30  1 19 30.0010000  0  8 08 10 27 13 04 01 24 02
  22525112.614   -12952381.399 7  -9936986.01346  22525118.6164
  24267901.660    -3997230.458 5  -2990230.27145  24267907.6264
  21639073.154   -16576354.705 8 -12743077.58947  21639078.2294
  21621184.388   -14075548.365 8 -10754085.87047  21621187.5764
  21731883.348   -13188171.241 8  -4997843.01247  21731888.0254
  23980078.550      271331.514 6    367171.27246  23980083.7194
  21932505.891   -15847525.955 8 -12168151.81647  21932511.0374
  25022627.981    -1669067.768 5  -1195375.55245  25022635.5304
 02  1 30  1 20  0.0010000  0  8 08 10 27 13 04 01 24 02
  22508692.777   -13038669.546 7 -10004223.52046  22508698.1464
  24252622.603    -4077521.349 5  -3052794.53145  24252629.4374
  21635263.535   -16596374.354 8 -12758677.30147  21635268.4944
  21633308.865   -14011834.323 8 -10704438.58047  21633312.2534
  21744966.387   -13119420.862 8  -4944271.31447  21744971.3814
  23997973.282      365366.562 6    440445.29446  23997979.6944
  21929674.831   -15862402.851 8 -12179744.20647  21929679.8244
  25013498.031    -1717044.291 5  -1232759.82145  25013504.2084
 02  1 30  1 20 30.0010000  0  8 08 10 27 13 04 01 24 02
  22492330.960   -13124651.678 7 -10071222.54146  22492336.9504
  24237353.151    -4157765.129 5  -3115322.14145  24237359.3764
  21631545.857   -16615910.054 8 -12773899.91047  21631550.7454
  21645477.279   -13947888.586 8 -10654610.74647  21645480.6204
  21758140.777   -13050188.450 8  -4890324.01147  21758145.5834
  24015875.485      459447.302 6    513754.92546  24015879.8464
  21926950.286   -15876721.150 8 -12190901.32347  21926955.7134
  25004403.895    -1764834.210 5  -1269998.67345  25004409.2524
 02  1 30  1 21  0.0010000  0  8 08 10 27 13 04 01 24 02
  22476027.396   -13210325.500 7 -10137981.33246  22476033.5154
  24222091.962    -4237961.239 5  -3177812.50645  24222097.2724
  21627920.275   -16634961.630 8 -12788745.27547  21627925.2104
  21657689.488   -13883712.726 8 -10604603.60847  21657692.9934
  21771406.436   -12980476.338 8  -4836002.91147  21771411.0784
  24033786.657      553572.426 6    587099.15346  24033792.7644
  21924331.990   -15890480.274 8 -12201622.73247  21924337.1134
  24995345.600    -1812435.633 5  -1307090.69045  24995352.6684
 02  1 30  1 21 30.0010000  0  8 08 10 27 13 04 01 24 02
  22459782.860   -13295691.432 7 -10204500.22246  22459789.0154
  24206839.816    -4318111.107 5  -3240266.89045  24206845.8064
  21624386.597   -16653531.397 8 -12803215.20347  21624391.6384
  21669944.766   -13819310.854 8 -10554420.34947  21669947.8844
  21784762.795   -12910289.190 8  -4781311.65247  21784767.7894
  24051706.370      647738.138 6    660475.00045  24051712.0784
  21921819.917   -15903681.673 8 -12211909.53547  21921825.5324
  24986322.985    -1859848.927 5  -1344036.06545  24986327.3924
 02  1 30  1 22  0.0010000  0  8 08 10 27 13 04 01 24 02
  22443597.676   -13380743.980 7 -10270774.88246  22443603.5494
  24191597.752    -4398210.884 5  -3302682.23645  24191604.3514
  21620945.229   -16671616.022 8 -12817307.09847  21620950.1884
  21682243.396   -13754681.581 8 -10504059.87347  21682246.5844
  21798209.539   -12839626.029 8  -4726249.46447  21798214.2754
  24069633.613      741946.200 6    733883.84645  24069639.0054
  21919414.597   -15916322.001 8 -12221759.15447  21919419.9664
  24977337.826    -1907068.717 5  -1380830.69545  24977344.5314
 02  1 30  1 22 30.0010000  0  8 08 10 27 13 04 01 24 02
  22427472.946   -13465480.293 7 -10336803.11246  22427478.9014
  24176365.155    -4478258.831 5  -3365057.21545  24176371.6494
  21617596.429   -16689214.453 8 -12831020.14747  21617601.4924
  21694584.859   -13689826.080 8 -10453523.12547  21694588.0364
  21811746.662   -12768488.445 8  -4670817.60647  21811751.3754
  24087568.812      836195.879 6    807325.13745  24087573.9114
  21917116.331   -15928399.803 8 -12231170.43847  21917121.5944
  24968389.372    -1954092.428 5  -1417472.44545  24968396.6284
 02  1 30  1 23  0.0010000  0  8 08 10 27 13 04 01 24 02
  22411408.883   -13549897.441 7 -10402582.66446  22411414.9434
  24161142.438    -4558253.152 5  -3427390.39445  24161148.9324
  21614340.104   -16706325.731 8 -12844353.58747  21614345.0044
  21706969.322   -13624745.524 8 -10402811.00847  21706972.6634
  21825373.558   -12696878.022 8  -4615017.29947  21825378.4464
  24105511.590      930486.485 6    880798.27645  24105517.1584
  21914925.369   -15939913.425 8 -12240142.10547  21914930.6674
  24959479.726    -2000917.268 5  -1453959.31045  24959485.2944
 02  1 30  1 23 30.0010000  0  8 08 10 27 13 04 01 24 02
  22395405.595   -13633995.162 7 -10468113.31446  22395411.2804
  24145929.710    -4638194.956 5  -3489682.65545  24145936.0994
  21611176.364   -16722951.577 8 -12857308.76947  21611181.2534
  21719396.202   -13559443.166 8 -10351926.07047  21719399.5314
  21839089.775   -12624798.711 8  -4558851.63247  21839095.0034
  24123461.941     1024815.108 6    954301.08245  24123466.8064
  21912841.552   -15950863.905 8 -12248674.95747  21912847.0374
  24950606.535    -2047542.901 5  -1490290.94845  24950613.2754
 02  1 30  1 24  0.0010000  0  8 08 10 27 13 04 01 24 02
  22379464.039   -13717768.250 7 -10533390.99446  22379470.0294
  24130728.146    -4718080.514 5  -3551931.03945  24130733.7494
  21608105.695   -16739088.924 8 -12869883.30547  21608110.3964
  21731865.266   -13493917.928 8 -10300867.43847  21731868.4314
  21852895.596   -12552250.031 8  -4502320.23947  21852900.7894
  24141419.443     1119183.293 6   1027834.69745  24141425.6444
  21910865.472   -15961247.923 8 -12256766.40647  21910870.9584
  24941772.406    -2093964.328 5  -1526463.44145  24941779.5804
 02  1 30  1 24 30.0010000  0  8 08 10 27 13 04 01 24 02
  22363584.410   -13801216.584 7 -10598415.61846  22363590.4114
  24115536.718    -4797910.687 5  -3614136.35445  24115542.3104
  21605127.421   -16754739.347 8 -12882078.42047  21605132.0284
  21744375.866   -13428173.514 8 -10249638.04147  21744379.0784
  21866789.651   -12479236.163 8  -4445426.35147  21866794.6564
  24159384.004     1213587.837 5   1101396.63845  24159388.9284
  21908996.930   -15971066.813 8 -12264417.50747  21909002.6154
  24932977.336    -2140181.287 5  -1562476.63745  24932984.2294
 02  1 30  1 25  0.0010000  0  8 08 10 27 13 04 01 24 02
  22347767.537   -13884334.740 7 -10663182.96146  22347773.4814
  24100357.245    -4877681.707 5  -3676295.50445  24100363.7864
  21602242.461   -16769899.645 8 -12893891.60847  21602247.2324
  21756928.848   -13362208.550 8 -10198236.77747  21756931.7914
  21880772.410   -12405756.222 8  -4388169.28447  21880777.7084
  24177356.070     1308030.757 6   1174988.48745  24177361.0284
  21907237.068   -15980316.443 8 -12271625.03247  21907242.3434
  24924222.799    -2186188.583 5  -1598326.40845  24924228.8594
 02  1 30  1 25 30.0010000  0  8 08 10 27 13 04 01 24 02
  22332013.762   -13967121.384 7 -10727691.99046  22332019.8114
  24085188.187    -4957393.165 5  -3738408.27445  24085193.8724
  21599450.656   -16784570.558 8 -12905323.46947  21599455.5094
  21769522.842   -13296025.574 8 -10146665.63247  21769525.7384
  21894843.301   -12331813.308 8  -4330551.46447  21894848.2254
  24195334.782     1402510.064 5   1248608.69945  24195340.5724
  21905585.103   -15988997.678 8 -12278389.63447  21905590.3084
  24915507.782    -2231984.981 5  -1634011.92445  24915512.6354
 02  1 30  1 26  0.0010000  0  8 08 10 27 13 04 01 24 02
  22316322.872   -14049577.511 7 -10791943.46546  22316328.4874
  24070030.652    -5037047.197 5  -3800476.28145  24070037.2514
  21596751.338   -16798755.097 8 -12916376.34147  21596756.3204
  21782157.765   -13229629.031 8 -10094928.07147  21782160.9424
  21909001.097   -12257412.763 8  -4272577.04647  21909005.9154
  24213319.765     1497021.310 6   1322253.79345  24213325.0874
  21904040.856   -15997112.560 8 -12284712.92447  21904046.2374
  24906832.933    -2277571.347 5  -1669533.72445  24906839.8844
 02  1 30  1 26 30.0010000  0  8 08 10 27 13 04 01 24 02
  22300696.150   -14131695.978 7 -10855931.84246  22300701.8594
  24054885.004    -5116637.935 5  -3862495.00745  24054891.3454
  21594145.714   -16812448.160 8 -12927046.24647  21594150.5794
  21794833.723   -13163016.132 7 -10043021.91847  21794836.5134
  21923246.582   -12182552.446 8  -4214244.35847  21923251.4234
  24231311.391     1591567.958 6   1395926.49745  24231316.2794
  21902605.476   -16004655.756 8 -12290590.74447  21902610.7274
  24898199.601    -2322940.843 5  -1704886.51445  24898207.2914
 02  1 30  1 27  0.0010000  0  8 08 10 27 13 04 01 24 02
  22285134.011   -14213476.183 7 -10919656.61346  22285139.6024
  24039750.937    -5196165.915 5  -3924464.81045  24039756.8694
  21591633.199   -16825651.117 8 -12937334.24847  21591638.1464
  21807550.457   -13096189.744 8  -9990949.41247  21807553.6344
  21937578.885   -12107235.886 8  -4155556.15947  21937583.9254
  24249309.246     1686147.514 6   1469624.81945  24249314.5104
  21901278.567   -16011628.237 8 -12296023.85547  21901283.9474
  24889606.726    -2368092.802 5  -1740069.84545  24889612.3764
 02  1 30  1 27 30.0010000  0  8 08 10 27 13 04 01 24 02
  22269636.368   -14294916.293 7 -10983116.41646  22269642.0184
  24024629.565    -5275630.536 5  -3986385.23945  24024635.6724
  21589213.980   -16838364.245 8 -12947240.57347  21589218.8804
  21820307.136   -13029151.890 8  -9938712.13347  21820310.2194
  21951997.449   -12031465.866 8  -4096514.62447  21952002.5604
  24267313.149     1780758.441 5   1543347.57845  24267317.3694
  21900060.136   -16018029.903 8 -12301012.18247  21900065.4234
  24881057.307    -2413025.466 5  -1775082.27545  24881063.4964
 02  1 30  1 28  0.0020000  0  8 08 10 27 13 04 01 24 02
  22254203.609   -14376015.167 7 -11046310.29746  22254209.2354
  24009520.209    -5355031.703 5  -4048256.21745  24009525.7064
  21586888.126   -16850586.260 8 -12956764.20247  21586893.2014
  21833104.749   -12961900.461 8  -9886308.42047  21833107.9614
  21966502.756   -11955240.589 8  -4037118.33247  21966507.7614
  24285323.552     1875404.261 5   1617097.54645  24285329.5074
  21898951.146   -16023858.556 8 -12305554.00447  21898956.4564
  24872548.568    -2457736.751 5  -1809922.22845  24872555.6254
 02  1 30  1 28 30.0020000  0  8 08 10 27 13 04 01 24 02
  22238837.494   -14456764.772 7 -11109232.03246  22238842.8514
  23994423.973    -5434362.651 6  -4110072.53745  23994428.8144
  21584656.157   -16862315.940 8 -12965904.20047  21584661.1504
  21845941.778   -12894440.960 8  -9833742.58147  21845945.0494
  21981093.502   -11878566.835 8  -3977372.57547  21981098.7884
  24303339.729     1970077.920 5   1690869.18345  24303344.6174
  21897951.015   -16029113.494 8 -12309648.76947  21897956.3724
  24864083.337    -2502220.977 5  -1844585.20045  24864089.9134
 02  1 30  1 29  0.0020000  0  8 08 10 27 13 04 01 24 02
  22223538.277   -14537163.717 7 -11171880.52246  22223543.8344
  23979341.100    -5513622.719 6  -4171833.59045  23979346.5624
  21582518.027   -16873551.499 8 -12974659.16547  21582523.0214
  21858819.138   -12826770.664 8  -9781012.50147  21858822.4434
  21995769.757   -11801442.626 8  -3917275.81147  21995774.3764
  24321361.091     2064783.603 5   1764665.75045  24321366.0384
  21897060.774   -16033791.747 8 -12313294.17247  21897066.2604
  24855661.837    -2546475.571 5  -1879069.30445  24855668.6354
 02  1 30  1 29 30.0020000  0  8 08 10 27 13 04 01 24 02
  22208305.355   -14617212.444 7 -11234256.12946  22208310.7124
  23964272.088    -5592813.357 6  -4233540.53545  23964276.5784
  21580473.528   -16884295.585 8 -12983031.16647  21580478.6394
  21871735.557   -12758894.167 8  -9728121.73147  21871738.8974
  22010530.922   -11723872.762 8  -3856831.78547  22010535.5054
  24339388.635     2159517.468 5   1838484.30445  24339393.6874
  21896279.772   -16037895.582 8 -12316491.97247  21896285.1994
  24847284.074    -2590501.117 5  -1913374.85145  24847290.3224
 02  1 30  1 30  0.0020000  0  8 08 10 27 13 04 01 24 02
  22193139.963   -14696906.729 7 -11296355.55046  22193145.3564
  23949216.272    -5671932.066 6  -4295191.39245  23949221.8404
  21578522.870   -16894546.432 8 -12991018.82747  21578527.8874
  21884691.252   -12690810.911 8  -9675069.84647  21884694.5454
  22025376.447   -11645858.045 8  -3796041.13047  22025381.2534
  24357421.704     2254280.134 5   1912325.30945  24357426.8854
  21895608.727   -16041423.131 8 -12319240.72747  21895614.2364
  24838950.309    -2634293.723 5  -1947498.93445  24838957.1084
 02  1 30  1 30 30.0020000  0  8 08 10 27 13 04 01 24 02
  22178042.341   -14776244.971 7 -11358177.51746  22178047.9794
  23934173.520    -5750978.072 6  -4356785.62145  23934179.4864
  21576665.893   -16904304.227 8 -12998622.28747  21576671.0394
  21897686.069   -12622522.777 8  -9621858.32347  21897689.2114
  22040306.379   -11567400.971 8  -3734905.77947  22040311.0924
  24375459.617     2349070.285 5   1986187.74945  24375464.7284
  21895047.115   -16044373.781 8 -12321539.93847  21895052.4364
  24830662.757    -2677851.418 5  -1981439.92045  24830667.8804
 02  1 30  1 31  0.0020000  0  8 08 10 27 13 04 01 24 02
  22163013.356   -14855223.176 7 -11419718.92846  22163019.0174
  23919146.284    -5829948.423 6
  21574903.173   -16913567.331 8 -13005840.27547  21574908.1314
  21910719.915   -12554029.746 8  -9568487.13247  21910723.1274
  22055320.389   -11488502.454 8  -3673426.44647  22055325.3124
  24393502.664     2443888.581 5   2060072.10945  24393508.2794
  21894595.800   -16046745.445 8 -12323388.00247  21894601.6614
  24822419.269    -2721170.540 5  -2015195.07045  24822425.2354
 02  1 30  1 31 30.0020000  0  8 08 10 27 13 04 01 24 02
  22148053.044   -14933839.404 7 -11480978.29346  22148058.7294
  23904133.397    -5908842.102 6    -18434.49455  23904138.8714
  21573234.812   -16922335.770 8 -13012672.80447  21573239.6654
  21923792.282   -12485333.464 8  -9514957.56847  21923795.7174
  22070417.709   -11409165.118 8  -3611605.17347  22070422.5744
  24411550.867     2538733.662 5   2133977.33645  24411557.2324
  21894254.629   -16048538.308 8 -12324785.05347  21894260.4204
  24814220.852    -2764249.201 5  -2048762.83445  24814226.6904
 02  1 30  1 32  0.0020000  0  8 08 10 27 13 04 01 24 02
  22133162.495   -15012089.292 7 -11541952.21246  22133167.9704
  23889135.324    -5987655.734 5    -79847.69145  23889140.5524
  21571660.742   -16930607.338 8 -13019118.16747  21571665.3614
  21936903.529   -12416433.410 8  -9461269.22247  21936906.7064
  22085598.580   -11329389.042 8  -3549442.03047  22085603.6324
  24429605.032     2633606.675 5   2207904.30845  24429610.7174
  21894023.916   -16049749.756 8 -12325729.04547  21894029.4964
  24806070.052    -2807082.956 5  -2082139.71145  24806076.1944
 02  1 30  1 32 30.0020000  0  8 08 10 27 13 04 01 24 02
  22118341.286   -15089975.051 7 -11602642.37846  22118347.1474
  23874152.221    -6066392.435 6   -141200.90546  23874157.8834
  21570180.429   -16938386.493 8 -13025179.83247  21570185.0014
  21950052.606   -12347335.344 8  -9407426.59246  21950055.7594
  22100862.021   -11249180.925 8  -3486942.22147  22100867.0264
  24447663.070     2728502.180 5   2281848.82045  24447669.6814
  21893903.387   -16050383.395 8 -12326222.80347  21893909.0254
  24797965.026    -2849674.103 5  -2115327.53045  24797971.4854
 02  1 30  1 33  0.0020000  0  8 08 10 27 13 04 01 24 02
  22103590.534   -15167492.206 7 -11663045.32746  22103595.9144
  23859184.742    -6145049.083 6   -202491.75946  23859190.6154
  21568794.029   -16945671.152 8 -13030856.17347  21568798.6834
  21963239.254   -12278038.552 8  -9353429.09547  21963242.3364
  22116207.091   -11168541.105 8  -3424106.02247  22116212.0964
  24465725.807     2823421.356 5   2355811.76245  24465730.8484
  21893893.336   -16050436.742 8 -12326264.37647  21893899.1394
  24789907.531    -2892018.252 5  -2148322.89945  24789914.5644
 02  1 30  1 33 30.0020000  0  8 08 10 27 13 04 01 24 02
  22088910.151   -15244637.385 8 -11723158.41846  22088915.3214
  23844232.430    -6223623.062 6   -263718.17745  23844238.0104
  21567502.127   -16952460.040 8 -13036146.19447  21567506.8754
  21976463.886   -12208543.217 8  -9299276.90347  21976466.7824
  22131634.182   -11087470.668 8  -3360934.28247  22131638.9884
  24483792.449     2918364.607 5   2429793.52245  24483798.1814
  21893993.863   -16049908.211 8 -12325852.55347  21893999.6894
  24781897.045    -2934112.112 5  -2181123.25445  24781903.3644
 02  1 30  1 34  0.0020000  0  8 08 10 27 13 04 01 24 02
  22074301.189   -15321407.818 7 -11782979.50546  22074306.8744
  23829296.122    -6302112.486 6   -324878.74445  23829302.5464
  21566304.750   -16958752.639 8 -13041049.49547  21566309.6504
  21989726.000   -12138850.421 8  -9244970.83847  21989729.1534
  22147143.014   -11005971.557 8  -3297428.51147  22147147.8204
  24501863.733     3013331.214 5   2503793.44745  24501868.2104
  21894205.359   -16048796.745 8 -12324986.48447  21894211.0094
  24773934.983    -2975952.896 5  -2213726.39745  24773942.7554
 02  1 30  1 34 30.0020000  0  8 08 10 27 13 04 01 24 02
  22059764.028   -15397801.658 8 -11842507.13546  22059769.3854
  23814376.049    -6380516.343 6   -385972.61645  23814381.8744
  21565201.622   -16964549.174 8 -13045566.26147  21565206.4294
  22003025.724   -12068961.492 8  -9190511.93347  22003028.6664
  22162732.849   -10924046.517 8  -3233590.85347  22162737.5034
  24519939.854     3108320.031 5   2577810.62345  24519945.7974
  21894527.800   -16047102.818 8 -12323666.56147  21894533.5904
  24766021.397    -3017538.790 5  -2246130.93045  24766028.3134
 02  1 30  1 35  0.0020000  0  8 08 10 27 13 04 01 24 02
  22045299.601   -15473811.223 7 -11901735.32846  22045305.2274
  23799474.144    -6458828.180 6   -446994.77946  23799480.2404
  21564194.001   -16969844.176 8 -13049692.22247  21564198.8194
  22016362.930   -11998872.710 8  -9135897.30947  22016365.9314
  22178404.358   -10841692.270 8  -3169418.74346  22178409.3984
  24538021.268     3203335.840 5   2651848.86645  24538027.1064
  21894962.213   -16044820.353 8 -12321888.03547  21894967.7934
  24758157.999    -3058862.226 5  -2278330.94045  24758165.3494
 02  1 30  1 35 30.0020000  0  8 08 10 27 13 04 01 24 02
  22030908.334   -15549438.828 8 -11960665.90546  22030913.6444
  23784588.666    -6537051.138 6   -507947.68446  23784594.3164
  21563281.098   -16974642.247 8 -13053430.97147  21563285.8224
  22029737.276   -11928589.932 8  -9081131.51646  22029740.3124
  22194156.246   -10758915.900 8  -3104917.69146  22194161.0994
  24556105.992     3298373.104 5   2725903.88645  24556112.1104
  21895507.770   -16041953.456 8 -12319654.10247  21895513.5264
  24750343.389    -3099925.675 5  -2310328.38045  24750349.7544
 02  1 30  1 36  0.0020000  0  8 08 10 27 13 04 01 24 02
  22016589.155   -15624686.229 8 -12019300.22046  22016594.4654
  23769719.930    -6615187.732 6   -568833.31346  23769724.9704
  21562461.828   -16978947.473 8 -13056785.68147  21562466.7284
  22043147.768   -11858118.546 8  -9026218.74746  22043150.6864
  22209987.112   -10675723.706 8  -3040092.64546  22209991.7894
  24574194.131     3393427.126 5   2799971.87645  24574198.7844
  21896163.787   -16038505.739 8 -12316967.58747  21896169.3664
  24742578.623    -3140730.732 5  -2342124.50445  24742585.1634
 02  1 30  1 36 30.0020000  0  8 08 10 27 13 04 01 24 02
  22002343.533   -15699547.703 8 -12077633.81247  22002348.4334
  23754868.257    -6693232.903 6   -629647.65246  23754873.0054
  21561736.800   -16982756.433 8 -13059753.68847  21561741.6064
  22056594.253   -11787456.374 8  -8971157.31447  22056596.9384
  22225897.514   -10592114.627 8  -2974942.76046  22225902.4964
  24592286.419     3488500.350 5   2874054.80645  24592291.1314
  21896931.208   -16034473.530 8 -12313825.62047  21896936.8234
  24734863.586    -3181271.885 5  -2373714.93645  24734870.0574
 02  1 30  1 37  0.0020000  0  8 08 10 27 13 04 01 24 02
  21988171.133   -15774023.222 8 -12135666.66946  21988176.3264
  23740033.983    -6771187.428 6   -690391.41646  23740038.8134
  21561106.228   -16986071.180 8 -13062336.59147  21561110.9644
  22070076.437   -11716606.743 8  -8915949.80947  22070079.4614
  22241886.054   -10508093.317 8  -2909471.66946  22241891.3644
  24610381.169     3583589.892 5   2948150.48445  24610387.9924
  21897809.524   -16029858.677 8 -12310229.62647  21897815.1854
  24727199.286    -3221549.158 5  -2405099.73445  24727206.1904
 02  1 30  1 37 30.0020000  0  8 08 10 27 13 04 01 24 02
  21974073.141   -15848109.437 8 -12193396.19146  21974078.0064
  23725217.321    -6849049.083 6   -751062.73846  23725222.9244
  21560569.604   -16988890.713 7 -13064533.62247  21560574.2464
  22083594.202   -11645569.810 8  -8860596.36246  22083597.5674
  22257953.371   -10423660.738 8  -2843680.10446  22257958.4474
  24628478.663     3678695.957 5   3022259.04745  24628484.9224
  21898798.656   -16024659.972 8 -12306178.68947  21898804.2364
  24719585.166    -3261559.085 5  -2436276.23845  24719592.0584
 02  1 30  1 38  0.0020000  0  8 08 10 27 13 04 01 24 02
  21960048.981   -15921806.548 8 -12250822.50646  21960054.4554
  23710417.962    -6926818.788 6   -811662.47446  23710423.9294
  21560126.992   -16991217.690 7 -13066346.84347  21560131.6814
  22097146.856   -11574349.430 8  -8805099.96946  22097149.8574
  22274097.429   -10338822.062 8  -2777572.13346  22274102.6104
  24646579.738     3773815.266 5   3096377.98945  24646585.2714
  21899898.660   -16018879.192 8 -12301674.19647  21899904.0414
  24712022.833    -3301302.026 5  -2467244.71645  24712029.1864
 02  1 30  1 38 30.0020000  0  8 08 10 27 13 04 01 24 02
  21946099.888   -15995108.925 8 -12307941.16446  21946105.4214
  23695637.056    -7004491.784 6   -872186.83746  23695643.0354
  21559778.361   -16993048.718 8 -13067773.61247  21559783.2604
  22110735.205   -11502943.548 8  -8749459.03246  22110738.1714
  22290319.461   -10253576.396 8  -2711147.00946  22290325.0294
  24664683.461     3868950.309 5   3170509.13545  24664689.0064
  21901110.179   -16012512.971 8 -12296713.52847  21901115.7834
  24704511.934    -3340772.287 5  -2498000.68945  24704518.7334
 02  1 30  1 39  0.0020000  0  8 08 10 27 13 04 01 24 02
  21932226.407   -16068015.223 8 -12364751.25347  21932231.8584
  23680875.163    -7082067.357 6   -932635.30046  23680880.6964
  21559523.930   -16994384.461 8 -13068814.43447  21559528.8894
  22124358.087   -11431354.318 8  -8693675.22746  22124361.6164
  22306618.014   -10167926.675 8  -2644407.02346  22306623.4644
  24682789.393     3964099.560 5   3244651.40145  24682794.7854
  21902432.755   -16005562.040 8 -12291297.22647  21902438.5344
  24697052.983    -3379968.484 5  -2528543.12945  24697058.9384
 02  1 30  1 39 30.0020000  0  8 08 10 27 13 04 01 24 02
  21918428.467   -16140523.439 8 -12421251.13447  21918433.7304
  23666131.952    -7159544.291 6   -993006.88746  23666137.6964
  21559364.260   -16995225.316 8 -13069469.63447  21559369.1724
  22138015.824   -11359583.009 8  -8637749.54846  22138019.1884
  22322993.004   -10081875.636 8  -2577354.30446  22322997.9984
  24700898.675     4059262.116 5   3318804.03745  24700903.2354
  21903866.784   -15998026.229 8 -12285425.17847  21903872.6574
  24689646.966    -3418888.840 5  -2558870.65045  24689652.6044
 02  1 30  1 40  0.0020000  0  8 08 10 27 13 04 01 24 02
  21904707.347   -16212627.273 8 -12477435.87047  21904712.5054
  23651408.400    -7236917.008 6  -1053297.26146  23651414.0154
  21559299.064   -16995567.295 8 -13069736.10447  21559303.8704
  22151708.394   -11287627.239 8  -8581680.11946  22151711.8874
  22339444.429    -9995421.661 8  -2509987.62146  22339449.2944
  24719010.629     4154441.358 5   3392969.61445  24719016.7244
  21905413.210   -15989901.082 8 -12279093.92747  21905418.9424
  24682293.547    -3457527.013 5  -2588978.24245  24682298.6934
 02  1 30  1 40 30.0020000  0  8 08 10 27 13 04 01 24 02
  21891063.545   -16284326.605 8 -12533305.36947  21891068.8084
  23636704.424    -7314186.001 6  -1113506.83946  23636709.9334
  21559328.660   -16995412.752 8 -13069615.66947  21559333.2324
  22165435.474   -11215489.952 8  -8525469.24746  22165438.5454
  22355972.142    -9908569.400 8  -2442310.57546  22355977.0194
  24737125.411     4249634.192 5   3467145.85745  24737132.3394
  21907071.011   -15981188.552 8 -12272304.92647  21907076.7084
  24674995.312    -3495882.836 5  -2618865.86345  24675001.5134
 02  1 30  1 41  0.0020000  0  8 08 10 27 13 04 01 24 02
  21877496.857   -16355619.372 8 -12588858.09047  21877501.8514
  23622020.457    -7391350.074 6  -1173634.66546  23622025.7214
  21559452.337   -16994761.702 7 -13069108.35047  21559456.7214
  22179197.109   -11143172.397 8  -8469117.91346  22179200.2284
  22372575.015    -9821320.993 8  -2374324.75246  22372579.9034
  24755242.281     4344839.975 5   3541332.14245  24755247.9544
  21908840.871   -15971888.497 8 -12265058.12947  21908846.5924
  24667750.494    -3533954.186 5  -2648531.80845  24667757.0234
 02  1 30  1 41 30.0020000  0  8 08 10 27 13 04 01 24 02
  21864007.408   -16426506.591 8 -12644094.81847  21864012.9764
  23607356.414    -7468410.722 6  -1233681.88346  23607362.0994
  21559669.977   -16993617.578 8 -13068216.80447  21559674.7604
  22192992.227   -11070678.903 7  -8412629.49446  22192995.4984
  22389252.152    -9733682.290 8  -2306034.86446  22389256.9934
  24773361.213     4440054.989 5   3615525.65045  24773367.1094
  21910721.581   -15962004.456 8 -12257356.29047  21910727.1494
  24660560.018    -3571742.070 6  -2677976.83945  24660566.4654
 02  1 30  1 42  0.0020000  0  8 08 10 27 13 04 01 24 02
  21850596.252   -16496981.774 8 -12699010.52347  21850601.6684
  23592712.771    -7545362.191 6  -1293644.01446  23592718.3634
  21559982.282   -16991976.329 8 -13066937.89247  21559986.9594
  22206821.046   -10998006.756 7  -8356001.86346  22206824.4224
  22406003.475    -9645651.557 8  -2237439.49246  22406008.2814
  24791482.574     4535282.741 5   3689728.99545  24791488.9394
  21912714.602   -15951531.928 8 -12249195.89347  21912720.3924
  24653423.416    -3609240.149 5  -2707196.09845  24653430.3214
 02  1 30  1 42 30.0020000  0  8 08 10 27 13 04 01 24 02
  21837263.848   -16567044.496 8 -12753604.82947  21837269.5684
  23578090.549    -7622204.716 6  -1353521.26246  23578096.9734
  21560388.971   -16989839.850 7 -13065273.09247  21560393.6834
  22220683.932   -10925158.489 7  -8299236.99446  22220687.4254
  22422829.182    -9557232.953 7  -2168541.91446  22422834.3044
  24809605.416     4630520.777 5   3763940.47345  24809611.6294
  21914818.999   -15940472.556 8 -12240578.21047  21914824.8714
  24646343.004    -3646447.971 5  -2736189.13645  24646349.3574
 02  1 30  1 43  0.0020000  0  8 08 10 27 13 04 01 24 02
  21824010.529   -16636691.701 8 -12807875.37347  21824016.0854
  23563488.947    -7698935.748 6  -1413311.62746  23563494.7034
  21560889.723   -16987207.339 8 -13063221.76747  21560894.4004
  22234579.903   -10852134.637 8  -8242335.29646  22234582.8344
  22439728.283    -9468427.978 7  -2099343.25946  22439733.3834
  24827731.354     4725769.261 5   3838160.06245  24827736.7114
  21917035.721   -15928824.797 8 -12231502.04847  21917041.4074
  24639318.588    -3683362.363 5  -2764953.58345  24639325.0004
 02  1 30  1 43 30.0020000  0  8 08 10 27 13 04 01 24 02
  21810835.883   -16705924.099 8 -12861822.68947  21810841.0884
  23548908.308    -7775556.620 6  -1473016.14446  23548913.9354
  21561484.506   -16984082.001 7 -13060786.43147  21561488.9484
  22248508.749   -10778939.155 8  -8185299.87846  22248511.7034
  22456699.904    -9379241.871 7  -2029847.62846  22456704.8394
  24845857.107     4821024.749 5   3912385.08145  24845864.2814
  21919363.490   -15916591.888 8 -12221969.91447  21919369.3274
  24632349.354    -3719984.114 5  -2793489.93145  24632356.2704
 02  1 30  1 44  0.0020000  0  8 08 10 27 13 04 01 24 02
  21797740.259   -16774742.798 8 -12915447.63447  21797745.7924
  23534348.423    -7852068.947 6  -1532636.09346  23534354.6014
  21562172.210   -16980467.273 8 -13057969.74447  21562176.6184
  22262469.134   -10705576.585 8  -8128134.25746  22262472.3114
  22473742.897    -9289680.643 7  -1960059.69846  22473747.4104
  24863984.764     4916283.208 5   3986612.42145  24863990.0514
  21921802.142   -15903776.954 8 -12211984.27247  21921807.6164
  24625436.314    -3756314.233 5  -2821799.07245  24625442.6334
 02  1 30  1 44 30.0020000  0  8 08 10 27 13 04 01 24 02
  21784724.898   -16843139.225 8 -12968743.53047  21784730.0564
  23519810.727    -7928464.798 6  -1592165.26946  23519815.8024
  21562954.497   -16976356.866 8 -13054766.81947  21562958.8114
  22276462.440   -10632041.649 8  -8070834.31146  22276465.3594
  22490858.058    -9199740.149 7  -1889976.23446  22490862.9234
  24882112.774     5011550.286 5   4060846.41245  24882117.3814
  21924352.550   -15890373.278 8 -12201539.86747  21924358.0134
  24618580.039    -3792344.259 5  -2849874.38445  24618586.8264
 02  1 30  1 45  0.0020000  0  8 08 10 27 13 04 01 24 02
  21771790.418   -16911109.605 8 -13021707.43147  21771795.8224
  23505296.111    -8004740.867 6  -1651601.13546  23505302.2894
  21563831.339   -16971749.415 8 -13051176.57847  21563835.8874
  22290488.585   -10558333.619 8  -8013399.48146  22290492.0204
  22508045.289    -9109421.148 8  -1819597.81146  22508049.9314
  24900243.539     5106827.177 5   4135088.06545  24900249.8694
  21927015.553   -15876379.638 8 -12190635.75147  21927021.0514
  24611781.919    -3828070.535 6  -2877712.98146  24611788.1434
 02  1 30  1 45 30.0020000  0  8 08 10 27 13 04 01 24 02
  21758937.142   -16978654.005 8 -13074339.40647  21758942.6754
  23490803.594    -8080897.878 6  -1710944.23046  23490809.5614
  21564802.310   -16966647.199 8 -13047200.81047  21564807.0454
  22304547.195   -10484455.772 8  -7955832.32046  22304550.2544
  22525303.618    -9018728.509 7  -1748928.25146  22525308.7054
  24918376.034     5202111.133 5   4209335.26545  24918381.2624
  21929790.404   -15861798.190 8 -12179273.59247  21929795.8204
  24605040.793    -3863492.823 6  -2905314.68945  24605047.2054
 02  1 30  1 46  0.0020000  0  8 08 10 27 13 04 01 24 02
  21746164.725   -17045773.332 8 -13126640.15547  21746170.3164
  23476333.764    -8156937.074 6  -1770195.50846  23476339.7544
  21565866.632   -16961053.674 8 -13042842.20347  21565871.2514
  22318636.935   -10410412.505 8  -7898136.26846  22318640.1354
  22542631.639    -8927667.661 7  -1677971.76646  22542636.8554
  24936508.654     5297398.470 5   4283585.05345  24936514.1634
  21932676.359   -15846632.000 8 -12167455.80747  21932681.5634
  24598357.915    -3898612.151 6  -2932680.37345  24598364.2454
 02  1 30  1 46 30.0020000  0  8 08 10 27 13 04 01 24 02
  21733474.124   -17112462.860 8 -13178606.00047  21733479.7744
  23461887.046    -8232854.509 6  -1829351.90146  23461892.7784
  21567024.942   -16954966.701 7 -13038099.09247  21567029.5724
  22332758.752   -10336202.129 8  -7840310.00846  22332761.8114
  22560029.749    -8836238.742 7  -1606728.48846  22560035.1994
  24954642.424     5392691.008 5   4357838.94745  24954648.6254
  21935674.073   -15830878.587 8 -12155180.45747  21935679.5244
  24591733.748    -3933424.029 6  -2959806.46345  24591740.1484
 02  1 30  1 47  0.0020000  0  8 08 10 27 13 04 01 24 02
  21720864.978   -17178723.621 8 -13230237.73447  21720870.2414
  23447463.765    -8308651.084 6  -1888414.13846  23447468.8644
  21568276.640   -16948389.457 7 -13032973.95347  21568281.0944
  22346911.502   -10261828.948 8  -7782356.89446  22346914.8314
  22577497.334    -8744447.055 7  -1535202.54446  22577502.7614
  24972776.059     5487985.368 5   4432094.24845  24972781.7324
  21938783.204   -15814541.120 8 -12142449.99047  21938788.7144
  24585167.209    -3967929.230 6  -2986693.60345  24585173.1294
 02  1 30  1 47 30.0020000  0  8 08 10 27 13 04 01 24 02
  21708338.775   -17244549.948 8 -13281530.95647  21708344.1094
  23433064.008    -8384321.939 6  -1947378.40246  23433070.0334
  21569622.006   -16941318.869 8 -13027464.39547  21569626.4844
  22361095.651   -10187290.707 8  -7724275.16646  22361098.8394
  22595034.084    -8652291.793 7  -1463393.28846  22595039.1254
  24990910.838     5583284.239 5   4506353.05845  24990914.4144
  21942004.043   -15797616.308 8 -12129261.85647  21942009.8814
  24578660.538    -4002122.222 6  -3013337.44045  24578666.7394
 02  1 30  1 48  0.0020000  0  8 08 10 27 13 04 01 24 02
  21695895.406   -17309939.676 8 -13332483.95747  21695900.5284
  23418688.652    -8459865.140 6  -2006243.18546  23418694.0094
  21571061.390   -16933754.912 8 -13021570.39247  21571066.0674
  22375311.000   -10112588.058 7  -7666065.31446  22375314.4464
  22612639.329    -8559775.122 7  -1391302.40346  22612644.6044
  25009046.497     5678587.353 5   4580615.24445  25009052.8734
  21945336.392   -15780103.847 8 -12115615.80247  21945342.1714
  24572213.738    -4036000.772 5  -3039736.26645  24572219.3774
 02  1 30  1 48 30.0020000  0  8 08 10 27 13 04 01 24 02
  21683535.587   -17374891.164 8 -13383095.47547  21683540.6744
  23404337.540    -8535279.577 6  -2065007.65046  23404342.9914
  21572594.305   -16925698.482 8 -13015292.64547  21572598.9704
  22389557.280   -10037722.623 7  -7607728.62246  22389560.5634
  22630313.210    -8466900.228 7  -1318932.40046  22630318.2624
  25027182.695     5773893.557 5   4654879.74445  25027188.5804
  21948780.542   -15762004.591 8 -12101512.52547  21948785.8764
  24565826.772    -4069563.199 5  -3065888.81345  24565833.0204
 02  1 30  1 49  0.0020000  0  8 08 10 27 13 04 01 24 02
  21671259.163   -17439404.768 8 -13433365.78047  21671264.4034
  23390011.036    -8610565.960 6  -2123672.34246  23390016.4754
  21574220.782   -16917152.184 8 -13008633.18747  21574225.7404
  22403834.228    -9962697.714 7  -7549267.65646  22403837.3114
  22648053.871    -8373671.769 7  -1246286.88046  22648058.9004
  25045318.738     5869199.998 5   4729144.45345  25045324.4474
  21952335.862   -15743320.768 8 -12086953.72947  21952341.1844
  24559500.054    -4102809.753 5  -3091795.16445  24559505.7744
 02  1 30  1 49 30.0020000  0  8 08 10 27 13 04 01 24 02
  21659066.417   -17503477.682 8 -13483292.69347  21659071.7864
  23375709.557    -8685721.919 6  -2182235.39146  23375714.4574
  21575940.309   -16908115.606 8 -13001591.68847  21575945.1514
  22418140.983    -9887513.695 7  -7490682.71846  22418144.4874
  22665861.499    -8280091.688 7  -1173367.37746  22665866.6214
  25063455.382     5964506.915 5   4803409.51245  25063462.8024
  21956002.509   -15724052.209 8 -12071939.29547  21956008.0064
  24553233.850    -4135737.556 5  -3117453.14845  24553239.4534
 02  1 30  1 50  0.0020000  0  8 08 10 27 13 04 01 24 02
  21646958.080   -17567106.554 8 -13532873.60847  21646963.4954
  23361433.287    -8760744.362 6  -2240694.42146  23361438.3044
  21577753.232   -16898588.037 8 -12994167.60247  21577757.8744
  22432478.533    -9812170.313 7  -7431973.60546  22432482.0154
  22683735.799    -8186161.253 7  -1100174.86546  22683740.9694
  25081591.867     6059815.002 5   4877675.53545  25081597.5644
  21959780.725   -15704197.738 8 -12056468.29147  21959786.4574
  24547029.048    -4168343.355 5  -3142860.23445  24547036.4914
 02  1 30  1 50 30.0020000  0  8 08 10 27 13 04 01 24 02
  21634934.311   -17630291.993 8 -13582108.97547  21634939.7974
  23347182.100    -8835634.140 6  -2299050.06846  23347187.4224
  21579659.371   -16888572.338 8 -12986363.15747  21579664.0484
  22446845.692    -9736671.382 7  -7373143.28046  22446848.9634
  22701675.911    -8091885.689 7  -1026713.43846  22701681.4324
  25099728.253     6155121.211 5   4951940.06645  25099733.8094
  21963670.027   -15683760.022 8 -12040542.81847  21963675.7364
  24540885.522    -4200627.684 5  -3168016.81345  24540891.8284
 02  1 30  1 51  0.0020000  0  8 08 10 27 13 04 01 24 02
  21622995.340   -17693030.701 8 -13630996.22547  21623001.0614
  23332956.674    -8910388.346 6  -2357300.06946  23332962.1834
  21581658.387   -16878067.713 8 -12978177.72347  21581662.9944
  22461242.382    -9661016.585 7  -7314191.50546  22461245.6764
  22719681.127    -7997266.342 7   -952984.12146  22719686.3914
  25117863.562     6250426.103 5   5026203.56245  25117870.3964
  21967670.457   -15662738.365 8 -12024162.33447  21967676.2134
  24534804.260    -4232587.361 5  -3192920.42445  24534811.1414
 02  1 30  1 51 30.0020000  0  8 08 10 27 13 04 01 24 02
  21611141.853   -17755320.072 8 -13679533.34747  21611147.6204
  23318757.453    -8985004.584 6  -2415442.55746  23318763.1384
  21583750.553   -16867074.002 7 -12969611.18647  21583755.0304
  22475668.417    -9585206.455 7  -7255118.67146  22475671.4064
  22737752.122    -7902305.015 7   -878988.33246  22737757.1864
  25135999.902     6345729.846 5   5100466.10845  25136006.9114
  21971781.837   -15641132.196 8 -12007326.37747  21971787.4754
  24528784.790    -4264219.398 5  -3217568.75845  24528790.6044
 02  1 30  1 52  0.0020000  0  8 08 10 27 13 04 01 24 02
  21599375.130   -17817155.812 8 -13727717.01147  21599380.4414
  23304585.821    -9059478.406 6  -2473474.07246  23304591.2254
  21585935.799   -16855589.345 7 -12960662.09047  21585940.3364
  22490124.571    -9509239.462 7  -7195923.63346  22490127.7244
  22755887.759    -7807001.925 7   -804726.22146  22755893.1404
  25154135.669     6441034.271 5
  21976005.015   -15618939.592 8 -11990033.46647  21976010.6184
  24522828.360    -4295519.603 5  -3241958.48145  24522834.9364
 02  1 30  1 52 30.0020000  0  8 08 10 27 13 04 01 24 02
  21587694.566   -17878538.162 8 -13775547.38247  21587699.7354
  23290440.984    -9133810.685 6  -2531395.29446  23290446.0244
  21588214.225   -16843616.390 7 -12951332.50547  21588218.8094
  22504609.960    -9433118.587 7  -7136608.68346  22504612.8904
  22774087.654    -7711362.077 7   -730201.70546  22774092.5074
  25172271.749     6536336.754 5
  21980339.386   -15596162.874 8 -11972285.39047  21980345.2124
  24516934.989    -4326488.111 5  -3266089.72545  24516940.9094
 02  1 30  1 53  0.0020000  0  8 08 10 27 13 04 01 24 02
  21576100.319   -17939466.407 8 -13823023.90447  21576105.0904
  23276322.690    -9208001.041 6  -2589205.94846  23276327.7304
  21590585.145   -16831156.964 8 -12941623.84547  21590589.7524
  22519123.913    -9356846.651 7  -7077176.02146  22519127.0434
  22792350.416    -7615389.335 7   -655417.79246  22792355.6204
  25190405.985     6631635.236 5     54453.37055  25190413.6164
  21984784.374   -15572804.324 8 -11954083.93846  21984789.8604
  24511105.497    -4357124.343 5  -3289962.06845  24511111.0534
 02  1 30  1 53 30.0020000  0  8 08 10 27 13 04 01 24 02
  21564593.325   -17999935.402 8 -13870142.55647  21564598.3784
  23262232.710    -9282044.101 6  -2646901.82046  23262238.9224
  21593049.083   -16818208.084 7 -12931533.79647  21593053.7714
  22533667.238    -9280421.043 7  -7017623.61846  22533670.4744
  22810677.070    -7519082.827 7   -580373.79046  22810682.5674
  25208540.688     6726932.892 5    128711.30845  25208545.1424
  21989340.819   -15548860.635 8 -11935426.51647  21989346.3174
  24505339.876    -4387422.965 5  -3313571.35245  24505346.1954
 02  1 30  1 54  0.0020000  0  8 08 10 27 13 04 01 24 02
  21553173.568   -18059946.528 8 -13916904.44547  21553178.8904
  23248170.543    -9355941.526 6  -2704484.18546  23248175.7134
  21595605.658   -16804773.566 8 -12921065.33147  21595610.3114
  22548238.908    -9203846.133 7  -6957954.86946  22548241.9094
  22829065.821    -7422448.436 7   -505074.30646  22829071.0254
  25226674.246     6822225.573 5    202965.23745  25226679.6854
  21994008.014   -15524335.528 8 -11916316.06447  21994013.6054
  24499636.939    -4417385.255 5  -3336918.56545  24499642.4844
 02  1 30  1 54 30.0020000  0  8 08 10 27 13 04 01 24 02
  21541841.310   -18119497.364 8 -13963307.63347  21541846.7024
  23234136.438    -9429691.073 6  -2761951.34146  23234141.8894
  21598254.603   -16790853.576 7 -12910218.57147  21598259.0934
  22562838.880    -9127122.473 7  -6898170.21146  22562842.6084
  22847516.854    -7325488.618 7   -429521.23646  22847522.3524
  25244807.266     6917513.388 5    277215.42545  25244812.8694
  21998785.292   -15499228.989 8 -11896752.53147  21998790.6844
  24494000.487    -4447008.866 6  -3360001.84145  24494006.2434
 02  1 30  1 55  0.0020000  0  8 08 10 27 13 04 01 24 02
  21530596.721   -18178587.184 8 -14009351.59847  21530602.0074
  23220130.717    -9503292.223 6  -2819302.87246  23220135.8634
  21600995.392   -16776449.895 8 -12898994.91447  21600999.8824
  22577467.124    -9050252.200 7  -6838271.32346  22577470.5594
  22866028.917    -7228207.118 7   -353717.50146  22866034.2744
  25262938.456     7012794.662 5    351460.52345  25262944.2234
  22003673.230   -15473543.072 8 -11876737.54347  22003678.8684
  24488428.597    -4476293.029 6  -3382820.62445  24488434.7864
 02  1 30  1 55 30.0020000  0  8 08 10 27 13 04 01 24 02
  21519440.931   -18237211.971 7 -14055033.20047  21519446.1124
  23206153.973    -9576741.096 6  -2876535.71046  23206158.8624
  21603828.863   -16761560.788 8 -12887393.00747  21603833.6584
  22592122.827    -8973234.051 7  -6778257.20546  22592125.9804
  22884602.022    -7130604.334 7   -277663.42046  22884607.0744
  25281069.190     7108071.160 5    425701.86545  25281073.7624
  22008671.803   -15447275.514 8 -11856269.33947  22008677.6644
  24482920.793    -4505233.523 6  -3405371.60245  24482926.8414
 02  1 30  1 56  0.0020000  0  8 08 10 27 13 04 01 24 02
  21508373.642   -18295370.329 6 -14100351.35947  21508378.8474
  23192206.417    -9650035.913 6  -2933648.53646  23192211.1174
  21606754.259   -16746187.155 8 -12875413.55047  21606758.7604
  22606807.092    -8896069.683 7  -6718129.14746  22606810.6444
  22903235.949    -7032683.180 7   -201361.25346  22903241.2824
  25299198.567     7203342.032 5    499938.85945  25299205.9174
  22013780.665   -15420427.478 8 -11835348.81447  22013786.4444
  24477479.642    -4533828.880 6  -3427653.68145  24477485.3274
 02  1 30  1 56 30.0020000  0  8 08 10 27 13 04 01 24 02
  21497395.418   -18353062.389 6 -14145306.18847  21497400.0964
  23178287.573    -9723177.234 6  -2990641.74246  23178292.7194
  21609771.557   -16730331.707 8 -12863058.64547  21609776.1174
  22621518.463    -8818762.016 7  -6657889.40346  22621521.5934
  22921929.072    -6934448.365 7   -124814.67346  22921934.2764
  25317326.029     7298604.681 5    574169.43945  25317331.8904
  22018999.820   -15393001.474 8 -11813977.91146  22019005.3414
  24472103.821    -4562079.203 6  -3449666.89446  24472110.8784
 02  1 30  1 57  0.0020000  0  8 08 10 27 13 04 01 24 02
  21486506.545   -18410284.216 6 -14189894.57347  21486511.3634
  23164399.586    -9796160.884 6  -3047512.09546  23164405.0374
  21612880.437   -16713992.892 8 -12850327.09447  21612885.0904
  22636256.991    -8741309.326 7  -6597536.65446  22636260.3674
  22940682.285    -6835900.480 7    -48024.14646  22940687.8884
  25335453.163     7393860.944 4    648395.02145  25335459.0834
  22024329.123   -15364996.296 8 -11792155.72247  22024334.6444
  24466794.281    -4589980.476 6  -3471408.10346  24466800.9164
 02  1 30  1 57 30.0020000  0  8 08 10 27 13 04 01 24 02
  21475707.775   -18467031.752 6 -14234113.40447  21475712.3354
  23150541.702    -9868982.784 6  -3104256.41346  23150547.2354
  21616081.911   -16697169.259 8 -12837217.76347  21616086.3304
  22651023.256    -8663710.654 7  -6537070.17946  22651026.6674
  22959495.076    -6737040.026 7     29009.94446  22959500.2584
  25353578.438     7489112.556 4    722616.96645  25353586.1514
  22029768.776   -15336410.267 8 -11769880.91247  22029774.5204
  24461551.863    -4617528.421 6  -3492873.98445  24461557.7594
 02  1 30  1 58  0.0020000  0  8 08 10 27 13 04 01 24 02
  21464999.117   -18523306.528 6 -14277963.85447  21465003.6884
  23136714.549    -9941644.750 6  -3160876.09946  23136719.8124
  21619374.951   -16679864.887 8 -12823733.83047  21619379.5354
  22665816.892    -8585970.620 7  -6476493.53846  22665820.3734
  22978365.784    -6637873.175 7    106282.79646  22978371.1304
  25371703.280     7584355.439 4    796832.15345  25371708.2514
  22035318.258   -15307247.317 8 -11747156.53347  22035323.7554
  24456376.408    -4644724.835 6  -3514065.94746  24456382.6334
 02  1 30  1 58 30.0020000  0  7 08 10 27 13 04 24 02
  21454381.058   -18579103.819 6 -14321442.21847  21454385.9354
  23122919.139   -10014141.486 6  -3217367.04846  23122924.3314
  21622759.661   -16662077.180 8 -12809873.27247  21622764.2334
  22680637.586    -8508087.126 7  -6415805.09646  22680640.8094
  22997294.878    -6538399.267 7    183794.89746  22997300.5054
  22040978.044   -15277504.753 8 -11723980.51647  22040983.7884
  24451268.843    -4671564.453 6  -3534979.90046  24451274.6574
 02  1 30  1 59  0.0020000  0  7 08 10 27 13 04 24 02
  21443853.447   -18634426.139 6 -14364550.48847  21443858.2294
  23109154.125   -10086476.013 6  -3273731.59046  23109159.4234
  21626235.516   -16643811.475 8 -12795640.24347  21626240.2404
  22695484.679    -8430065.244 7  -6355008.84246  22695488.0084
  23016281.506    -6438625.548 7    261540.62446  23016287.2964
  22046747.123   -15247188.175 8 -11700357.21547  22046752.6684
  24446228.764    -4698050.038 6  -3555618.00346  24446235.0944
 02  1 30  1 59 30.0020000  0  7 08 10 27 13 04 24 02
  21433417.200   -18689268.301 7 -14407284.60247  21433422.4874
  23095421.113   -10158642.866 6  -3329965.46946  23095426.9044
  21629802.934   -16625064.758 8 -12781032.40747  21629807.5654
  22710358.805    -8351902.188 7  -6294102.59446  22710362.0634
  23035324.818    -6338551.127 7    339520.66646  23035330.5394
  22052626.082   -15216294.720 8 -11676284.42947  22052631.4864
  24441257.335    -4724176.247 6  -3575976.03745  24441264.6154
 02  1 30  2  0  0.0020000  0  7 08 10 27 13 04 24 02
  21423072.093   -18743632.520 6 -14449646.30747  21423077.3914
  23081719.864   -10230644.058 6  -3386070.26246  23081725.1744
  21633461.019   -16605841.652 8 -12766053.35647  21633465.5094
  22725258.498    -8273602.869 7  -6233090.14646  22725261.3814
  23054424.466    -6238182.666 6    417729.82746  23054430.2564
  22058613.886   -15184828.593 8 -11651765.39947  22058619.6304
  24436353.925    -4749945.142 6  -3596055.68446  24436358.8844
 02  1 30  2  0 30.0020000  0  7 08 10 27 13 04 24 02
  21412819.009   -18797512.135 6 -14491630.39347  21412824.1324
  23068051.373   -10302472.894 6  -3442040.77346  23068057.1524
  21637210.621   -16586137.949 8 -12750699.81147  21637215.0644
  22740185.017    -8195163.596 7  -6171968.64146  22740188.6044
  23073580.172    -6137517.998 6    496169.79246  23073585.8224
  22064711.647   -15152785.502 8 -11626796.79247  22064717.2044
  24431519.531    -4775349.864 6  -3615851.54346  24431525.5444
 02  1 30  2  1  0.0020000  0  7 08 10 27 13 04 24 02
  21402658.264   -18850907.809 6 -14533237.38947  21402663.5854
  23054415.571   -10374129.748 6  -3497877.24946  23054421.3974
  21641050.991   -16565956.796 8 -12734974.22947  21641055.3634
  22755137.437    -8116587.496 7  -6110740.52646  22755140.7774
  23092791.346    -6036562.017 6    574836.76146  23092796.9144
  22070918.280   -15120168.934 8 -11601381.31247  22070923.7194
  24426754.327    -4800390.942 6  -3635364.04946  24426760.3054
 02  1 30  2  1 30.0020000  0  7 08 10 27 13 04 24 02
  21392590.197   -18903816.611 6 -14574465.01147  21392594.8624
  23040813.196   -10445611.449 6  -3553577.25046  23040818.6944
  21644982.159   -16545297.716 8 -12718876.23547  21644986.5554
  22770116.498    -8037874.161 7  -6049405.46946  22770119.7094
  23112058.283    -5935316.227 6    653729.56446  23112063.8974
  22077234.233   -15086978.343 8 -11575518.53847  22077239.7894
  24422058.653    -4825065.321 6  -3654590.81046  24422064.4914
 02  1 30  2  2  0.0020000  0  7 08 10 27 13 04 24 02
  21382614.898   -18956236.489 6 -14615311.64547  21382619.6924
  23027244.380   -10516915.850 6  -3609139.07946  23027249.9834
  21649004.260   -16524161.253 8 -12702406.25947  21649008.8084
  22785121.085    -7959024.289 7  -5987964.02746  22785124.2504
  23131379.274    -5833783.292 7    732846.10446  23131384.7014
  22083659.419   -15053214.504 8 -11549209.08247  22083665.0224
  24417433.701    -4849371.162 6  -3673530.39446  24417439.8444
 02  1 30  2  2 30.0020000  0  7 08 10 27 13 04 24 02
  21372732.858   -19008166.050 7 -14655776.20747  21372738.1214
  23013709.449   -10588041.349 6  -3664561.52946  23013714.8764
  21653117.028   -16502548.330 8 -12685565.01747  21653121.6934
  22800151.236    -7880038.968 7  -5926417.03946  22800154.5894
  23150754.216    -5731965.958 7    812184.26246  23150759.7254
  22090193.063   -15018878.255 8 -11522453.58647  22090198.7244
  24412878.961    -4873306.789 5  -3692181.50846  24412885.4554
 02  1 30  2  3  0.0020000  0  7 08 10 27 13 04 24 02
  21362944.020   -19059607.284 6 -14695860.25847  21362949.0144
  23000208.274   -10658989.472 6  -3719845.75946  23000213.3384
  21657319.675   -16480463.266 8 -12668355.87347  21657324.4704
  22815206.708    -7800922.367 7  -5864767.75446  22815209.9554
  23170182.514    -5629870.501 6    891739.13246  23170187.7774
  22096835.054   -14983974.069 8 -11495255.52347  22096840.9154
  24408393.918    -4896873.831 5  -3710545.41045  24408399.5214
 02  1 30  2  3 30.0020000  0  7 08 10 27 13 04 24 02
  21353248.793   -19110555.600 6 -14735560.22447  21353253.5644
  22986742.149   -10729755.604 6  -3774988.16846  22986747.5414
  21661612.505   -16457904.031 8 -12650777.24047  21661617.3464
  22830287.520    -7721672.827 7  -5803014.88946  22830290.7324
  23189663.679    -5527496.815 6    971510.81446  23189668.8724
  22103585.888   -14948500.007 8 -11467613.41447  22103591.8204
  24403980.141    -4920068.063 5  -3728618.79346  24403986.7764
 02  1 30  2  4  0.0020000  0  7 08 10 27 13 04 24 02
  21343648.364   -19161006.486 6 -14774872.58347  21343653.1354
  22973311.299   -10800334.820 6  -3829984.93346  22973316.3284
  21665996.161   -16434868.532 8 -12632827.49747  21666000.9904
  22845393.596    -7642288.246 7  -5741156.79146  22845397.1364
  23209197.569    -5424844.756 6   1051499.39946  23209203.0674
  22110445.260   -14912453.788 8 -11439525.46147  22110450.9344
  24399638.204    -4942884.662 6  -3746397.92346  24399644.6164
 02  1 30  2  4 30.0020000  0  7 08 10 27 13 04 24 02
  21334142.417   -19210960.235 6 -14813797.55747  21334147.1994
  22959916.325   -10870726.995 6  -3884835.95646  22959921.6004
  21670469.834   -16411359.480 8 -12614508.74747  21670474.5114
  22860525.171    -7562771.051 7  -5679195.35846  22860528.7824
  23228783.676    -5321918.862 6   1131701.35246  23228789.5264
  22117412.880   -14875838.401 8 -11410994.00847  22117417.9564
  24395368.385    -4965323.761 5  -3763882.90246  24395374.0704
 02  1 30  2  5  0.0020000  0  7 08 10 27 13 04 24 02
  21324731.231   -19260416.060 6 -14852334.53147  21324736.4014
  22946556.640   -10940931.120 6  -3939540.43946  22946562.4074
  21675033.224   -16387378.392 7 -12595822.18147  21675037.3864
  22875681.926    -7483123.035 7  -5617131.97446  22875685.7134
  23248421.319    -5218722.491 6   1212114.08546  23248426.7704
  22124488.520   -14838655.700 8 -11382020.49247  22124494.0414
  24391170.053    -4987384.364 6  -3781072.92846  24391176.2424
 02  1 30  2  5 30.0020000  0  7 08 10 27 13 04 24 02
  21315415.055   -19309372.448 6 -14890482.33247  21315420.2254
  22933233.322   -11010945.478 6  -3994097.06346  22933238.3044
  21679686.284   -16362926.412 7 -12576768.67947  21679690.6804
  22890863.132    -7403345.109 7  -5554967.37046  22890866.8594
  23268110.039    -5115258.932 6   1292735.01346  23268115.2324
  22131671.840   -14800906.594 8 -11352605.63447  22131677.5844
  24387044.321    -5009065.034 6  -3797966.93446  24387050.1704
 02  1 30  2  6  0.0020000  0  7 08 10 27 13 04 24 02
  21306194.310   -19357828.448 6 -14928240.23347  21306199.4454
  22919946.395   -11080768.483 6  -4048504.57546  22919951.9044
  21684428.763   -16338004.890 7 -12557349.30747  21684433.0414
  22906068.973    -7323438.504 7  -5492702.47646  22906072.2784
  23287848.550    -5011531.041 6   1373561.90946  23287854.4234
  22138962.859   -14762592.753 8 -11322750.70847  22138968.3804
  24382991.466    -5030364.493 6  -3814563.87446  24382997.8314
 02  1 30  2  6 30.0020000  0  7 08 10 27 13 04 24 02
  21297069.410   -19405779.497 6 -14965604.66947  21297074.4854
  22906696.859   -11150395.029 6  -4102758.99046  22906702.3104
  21689260.711   -16312611.646 8 -12537562.34947  21689265.0954
  22921299.311    -7243401.324 7  -5430335.85446  22921302.5814
  23307637.750    -4907538.839 6   1454594.75146  23307643.4234
  22146361.601   -14723712.394 8 -11292454.35847  22146367.5444
  24379012.198    -5051278.112 6  -3830860.17746  24379018.0824
 02  1 30  2  7  0.0020000  0  7 08 10 27 13 04 24 02
  21288040.869   -19453225.008 6 -15002575.18647  21288045.9104
  22893484.942   -11219824.325 6  -4156859.68646  22893490.5214
  21694182.280   -16286748.375 8 -12517409.14147  21694187.0974
  22936554.590    -7163235.178 7  -5367868.74646  22936557.6964
  23327476.680    -4803285.627 6   1535830.98846  23327482.3304
  22153867.703   -14684267.201 8 -11261717.84747  22153873.6344
  24375105.425    -5071804.858 6  -3846855.01946  24375110.9814
 02  1 30  2  7 30.0020000  0  7 08 10 27 13 04 24 02
  21279108.273   -19500165.526 6 -15039152.20547  21279113.3724
  22880310.547   -11289056.367 7  -4210806.70246  22880316.1154
  21699192.833   -16260418.264 8 -12496892.16147  21699197.5214
  22951833.665    -7082943.061 7  -5305303.47746  22951837.0764
  23347363.797    -4698776.664 6   1617266.51046  23347369.6234
  22161480.913   -14644260.270 8 -11230543.64247  22161486.5054
  24371273.186    -5091945.349 6  -3862548.87945  24371279.5284
 02  1 30  2  8  0.0020000  0  7 08 10 27 13 04 24 02
  21270273.016   -19546595.980 6 -15075331.74847  21270278.1044
  22867174.506   -11358085.400 7  -4264595.51946  22867180.0854
  21704292.447   -16233618.654 8 -12476009.33847  21704297.2534
  22967137.489    -7002522.201 7  -5242637.90246  22967140.7484
  23367300.320    -4594010.890 6   1698902.13846  23367306.5444
  22169201.261   -14603689.237 8 -11198929.86447  22169207.1694
  24367514.568    -5111694.434 6  -3877937.75646  24367520.7454
 02  1 30  2  8 30.0020000  0  7 08 10 27 13 04 24 02
  21261534.057   -19592518.611 6 -15111115.58947  21261539.1804
  22854076.994   -11426913.401 7  -4318227.69546  22854082.1054
  21709480.812   -16206353.910 8 -12454764.07647  21709485.6414
  22982464.903    -6921976.681 7  -5179875.17046  22982467.8454
  23387284.574    -4488994.600 6   1780732.98546  23387290.2364
  22177028.019   -14562558.885 8 -11166880.27147  22177034.0094
  24363830.753    -5131053.885 6  -3893023.00246  24363836.9194
 02  1 30  2  9  0.0020000  0  7 08 10 27 13 04 24 02
  21252892.754   -19637929.997 6 -15146501.05947  21252897.8064
  22841018.686   -11495536.446 7  -4371700.18146  22841023.7974
  21714757.832   -16178623.233 8 -12433155.74847  21714762.2984
  22997815.610    -6841305.594 7  -5117014.60146  22997818.6344
  23407315.668    -4383728.798 6   1862758.25146  23407320.6734
  22184961.439   -14520868.471 8 -11134394.26847  22184967.3594
  24360221.825    -5150020.491 6  -3907802.13246  24360227.8384
 02  1 30  2  9 30.0020000  0  7 08 10 27 13 04 24 02
  21244347.762   -19682833.064 6 -15181490.42747  21244352.5574
  22827998.416   -11563956.742 7  -4425014.68546  22828003.3394
  21720122.525   -16150431.796 8 -12411188.39347  21720127.3314
  23013190.044    -6760514.033 7  -5054060.16846  23013193.3504
  23427393.202    -4278220.544 6   1944972.43646  23427398.6174
  22193000.489   -14478623.003 8 -11101475.73847  22193006.4444
  24356686.705    -5168596.941 6  -3922277.23246  24356692.3554
 02  1 30  2 10  0.0020000  0  7 08 10 27 13 04 24 02
  21235900.698   -19727223.550 6 -15216080.38147  21235905.5744
  22815018.150   -11632169.593 7  -4478167.55346  22815023.4834
  21725575.077   -16121777.914 8 -12388860.68447  21725579.5904
  23028587.700    -6679599.960 7  -4991010.25846  23028590.5134
  23447517.149    -4172469.829 6   2027375.56246  23447522.0844
  22201145.362   -14435821.229 8 -11068123.72647  22201151.3294
  24353226.576    -5186778.791 6  -3936444.85446  24353232.5304
 02  1 30  2 10 30.0020000  0  7 08 10 27 13 04 24 02
  21227551.405   -19771098.394 6 -15250268.55147  21227556.3994
  22802077.715   -11700171.182 7  -4531155.78446  22802082.8384
  21731116.103   -16092660.700 8 -12366171.94547  21731120.3694
  23044008.590    -6598562.172 7  -4927863.94246  23044011.6964
  23467686.878    -4066477.653 6   2109966.84146  23467692.3524
  22209396.306   -14392462.737 8 -11034337.90247  22209402.1674
  24349842.309    -5204562.753 6  -3950302.45146  24349848.2644
 02  1 30  2 11  0.0020000  0  7 08 10 27 13 04 24 02
  21219300.542   -19814456.814 6 -15284054.30947  21219305.5594
  22789178.126   -11767960.142 7  -4583978.33346  22789183.3664
  21736744.719   -16063081.695 8 -12343123.36347  21736749.2564
  23059452.942    -6517402.265 7  -4864622.46946  23059456.1184
  23487901.650    -3960247.215 6   2192743.76646  23487907.5114
  22217752.827   -14348549.205 8 -11000119.59047  22217758.5364
  24346533.918    -5221947.764 6  -3963849.18546  24346539.5334
 02  1 30  2 11 30.0020000  0  7 08 10 27 13 04 24 02
  21211147.712   -19857300.045 6 -15317438.62847  21211152.6474
  22776318.339   -11835537.236 7  -4636635.78946  22776323.4734
  21742460.567   -16033044.906 8 -12319718.06947  21742465.0214
  23074919.417    -6436123.719 7  -4801288.54346  23074922.6054
  23508161.001    -3853784.274 6   2275701.85846  23508166.1594
  22226214.109   -14304085.153 8 -10965472.29947  22226219.8294
  24343301.536    -5238935.238 6  -3977086.13746  24343306.8934
 02  1 30  2 12  0.0020000  0  7 08 10 27 13 04 24 02
  21203093.477   -19899625.193 6 -15350419.23647  21203098.4244
  22763499.840   -11902898.738 7  -4689125.25546  22763505.6194
  21748263.627   -16002549.533 8 -12295955.44047  21748267.9764
  23090409.234    -6354725.477 7  -4737861.34246  23090412.5514
  23528464.575    -3747089.657 6   2358840.47946  23528469.7794
  22234780.294   -14259069.682 8 -10930395.33347  22234786.1324
  24340145.293    -5255521.874 6  -3990010.77546  24340151.2954
 02  1 30  2 12 30.0020000  0  7 08 10 27 13 04 24 02
  21195137.976   -19941432.271 6 -15382996.15747  21195142.9004
  22750722.747   -11970044.016 7  -4741446.25646  22750728.4554
  21754153.407   -15971598.006 8 -12271837.35347  21754157.9094
  23105920.914    -6273209.710 7  -4674342.59046  23105924.2904
  23548810.672    -3640167.791 6   2442156.18046  23548816.1114
  22243450.999   -14213505.492 8 -10894890.79547  22243456.6844
  24337064.841    -5271707.373 6  -4002622.82945  24337070.0224
 02  1 30  2 13  0.0020000  0  7 08 10 27 13 04 24 02
  21187281.663   -19982716.839 6 -15415165.94947  21187286.7274
  22737987.728   -12036967.621 7  -4793594.51546  22737992.9794
  21760130.614   -15940188.204 8 -12247362.17747  21760135.0574
  23121455.820    -6191574.062 7  -4610730.40546  23121459.0914
  23569200.603    -3533018.180 6   2525649.34346  23569205.8314
  22252226.292   -14167390.600 8 -10858957.13347  22252231.8254
  24334062.166    -5287487.129 6  -4014918.71346  24334068.1094
 02  1 30  2 13 30.0020000  0  7 08 10 27 13 04 24 02
  21179524.581   -20023480.680 6 -15446929.96047  21179529.5864
  22725294.490   -12103670.634 7  -4845570.87946  22725299.6004
  21766193.986   -15908324.235 8 -12222533.11047  21766198.3234
  23137012.347    -6109822.072 7  -4547027.54346  23137015.7934
  23589632.855    -3425646.574 6   2609315.49046  23589638.8804
  22261105.607   -14120729.312 8 -10822597.70847  22261111.2924
  24331136.073    -5302862.813 6  -4026899.73646  24331141.2074
 02  1 30  2 14  0.0020000  0  7 08 10 27 13 04 24 02
  21171866.379   -20063723.661 6 -15478288.11447  21171871.2914
  22712643.356   -12170152.117 7  -4897374.61546  22712648.3974
  21772343.585   -15876008.473 8 -12197351.99747  21772347.9814
  23152590.999    -6027956.279 7  -4483236.03546  23152594.7624
  23610106.917    -3318056.836 6   2693151.59346  23610112.6374
  22270088.435   -14073524.542 8 -10785814.79447  22270094.2964
  24328287.684    -5317834.168 6  -4038565.70046  24328292.7604
 02  1 30  2 14 30.0020000  0  7 08 10 27 13 04 24 02
  21164308.284   -20103442.670 6 -15509237.97247  21164313.2314
  22700035.553   -12236408.555 7  -4949003.00146  22700040.7114
  21778579.144   -15843240.220 8 -12171818.28847  21778583.5054
  23168191.776    -5945974.539 7  -4419354.19746  23168194.9534
  23630621.835    -3210250.270 6   2777156.68646  23630627.0994
  22279174.726   -14025775.585 8 -10748607.84247  22279180.4474
  24325515.875    -5332398.163 6  -4049914.23346  24325522.0884
 02  1 30  2 15  0.0020000  0  7 08 10 27 13 04 24 02
  21156850.373   -20142634.348 6 -15539776.92647  21156855.4254
  22687470.749   -12302435.429 7  -5000452.49946  22687475.6844
  21784900.906   -15810018.401 8 -12145931.14947  21784905.5014
  23183814.659    -5863875.804 7  -4355381.17446  23183818.1754
  23651177.684    -3102227.390 6   2861330.30046  23651183.6744
  22288364.731   -13977481.587 8 -10710976.18347  22288370.6984
  24322822.434    -5346550.914 6  -4060942.31346  24322828.1774
 02  1 30  2 15 30.0020000  0  7 08 10 27 13 04 24 02
  21149492.295   -20181302.639 6 -15569908.04747  21149497.2654
  22674949.310   -12368235.843 7  -5051725.53646  22674954.1274
  21791308.005   -15776349.081 8 -12119695.30947  21791312.7524
  23199458.747    -5781665.980 7  -4291321.58146  23199461.7604
  23671773.083    -2993995.952 6   2945666.44646  23671778.3354
  22297657.309   -13928649.557 8 -10672925.28747  22297663.2524
  24320207.191    -5360295.972 6  -4071652.71946  24320212.7124
 02  1 30  2 16  0.0020000  0  7 08 10 27 13 04 24 02
  21142233.937   -20219444.044 6 -15599628.59647  21142238.9434
  22662471.853   -12433805.544 7  -5102818.78846  22662476.8934
  21797800.315   -15742231.195 8 -12093109.94047  21797805.0394
  23215124.182    -5699343.774 6  -4227174.41546  23215127.3714
  23692409.135    -2885556.476 6   3030164.68746  23692414.7384
  22307052.271   -13879278.360 8 -10634454.25547  22307057.9444
  24317669.839    -5373629.701 6  -4082042.60446  24317675.3484
 02  1 30  2 16 30.0020000  0  7 08 10 27 13 04 24 02
  21135076.590   -20257056.198 6 -15628936.74247  21135081.5604
  22650038.828   -12499141.260 7  -5153729.73446  22650043.9164
  21804378.146   -15707664.735 8 -12066175.03447  21804382.7184
  23230810.777    -5616908.329 6  -4162939.03646  23230814.2944
  23713083.937    -2776910.684 6   3114823.69446  23713088.9544
  22316549.821   -13829368.024 8 -10595563.13346  22316555.7534
  24315210.700    -5386549.575 6  -4092110.00146  24315216.5374
 02  1 30  2 17  0.0020000  0  7 08 10 27 13 04 24 02
  21128020.316   -20294137.845 6 -15657831.51547  21128025.3334
  22637650.937   -12564240.703 7  -5204456.56146  22637655.7204
  21811041.117   -15672650.769 8 -12038891.42647  21811045.7354
  23246519.288    -5534360.440 6  -4098616.02146  23246522.7114
  23733796.466    -2668061.165 6   3199641.45746  23733801.9994
  22326149.755   -13778920.485 8 -10556253.39347  22326155.6634
  24312831.716    -5399054.214 6  -4101853.84146  24312837.3544
 02  1 30  2 17 30.0020000  0  7 08 10 27 13 04 24 02
  21121064.875   -20330688.352 6 -15686312.41247  21121069.7754
  22625308.215   -12629102.476 7  -5254998.17946  22625313.3494
  21817789.036   -15637190.807 8 -12011260.28647  21817793.6084
  23262248.964    -5451701.010 7  -4034206.09846  23262252.1764
  23754548.445    -2559011.275 6   3284615.36646  23754553.8614
  22335851.792   -13727937.684 8 -10516526.57947  22335857.6884
  24310531.058    -5411142.598 6  -4111273.34346  24310537.3414
 02  1 30  2 18  0.0020000  0  7 08 10 27 13 04 24 02
  21114210.430   -20366708.845 6 -15714380.30447  21114215.4124
  22613010.720   -12693726.704 7  -5305354.70846  22613015.5964
  21824621.076   -15601288.336 8 -11983284.33647  21824625.6014
  23277999.104    -5368932.805 6  -3969711.41446  23278003.3124
  23775337.434    -2449765.797 6   3369741.67246  23775342.7444
  22345654.673   -13676423.152 8 -10476385.41847  22345660.4874
  24308309.815    -5422815.639 6  -4120369.16446  24308315.8994
 02  1 30  2 18 30.0020000  0  7 08 10 27 13 04 24 02
  21107457.267   -20402196.887 6 -15742033.31447  21107462.2264
  22600758.718   -12758110.000 7  -5355523.49746  22600763.8174
  21831537.140   -15564943.342 8 -11954963.56447  21831541.5944
  23293770.401    -5286055.601 7  -3905131.82646  23293773.8944
  23796162.860    -2340326.620 6   3455018.91146  23796168.2054
  22355558.642   -13624377.268 8 -10435830.20847  22355564.1864
  24306167.996    -5434070.791 6  -4129139.37746  24306173.8334
 02  1 30  2 19  0.0020000  0  7 08 10 27 13 04 24 02
  21100805.925   -20437149.498 6 -15769269.09847  21100810.9074
  22588553.800   -12822248.013 7  -5405501.15146  22588558.5014
  21838537.717   -15528154.900 8 -11926297.24047  21838542.3134
  23309562.469    -5203067.744 6  -3840465.97746  23309565.7984
  23817025.123    -2230694.451 6   3540446.52546  23817031.3354
  22365564.085   -13571799.307 8 -10394860.38547  22365570.0174
  24304106.299    -5444904.748 6  -4137581.37746  24304112.3364
 02  1 30  2 19 30.0020000  0  7 08 10 27 13 04 24 02
  21094256.591   -20471566.873 6 -15796087.80947  21094261.4794
  22576395.395   -12886140.129 7  -5455287.21046  22576400.4364
  21845622.315   -15490925.530 8 -11897287.34047  21845627.0984
  23325374.818    -5119971.364 6  -3775715.58446  23325378.3694
  23837923.823    -2120873.042 6   3626021.59646  23837929.7314
  22375669.660   -13518692.462 8 -10353478.46346  22375675.6854
  24302125.041    -5455317.571 6  -4145695.21246  24302131.1724
 02  1 30  2 20  0.0020000  0  7 08 10 27 13 04 24 02
  21087808.803   -20505449.944 6 -15822490.18547  21087813.6094
  22564283.959   -12949786.201 7  -5504881.54946  22564289.0824
  21852790.103   -15453258.579 8 -11867936.46347  21852794.9684
  23341208.005    -5036769.063 6  -3710882.63946  23341211.3464
  23858856.605    -2010867.612 6   3711740.06846  23858862.1844
  22385875.446   -13465060.381 8 -10311687.25546  22385881.1554
  24300223.104    -5465309.960 6  -4153481.44446  24300229.9964
 02  1 30  2 20 30.0020000  0  7 08 10 27 13 04 24 02
  21081463.380   -20538795.623 6 -15848473.81547  21081468.2224
  22552220.103   -13013182.003 7  -5554280.85446  22552224.9794
  21860041.366   -15415153.189 8 -11838243.94847  21860045.9964
  23357061.231    -4953459.473 6  -3645966.11446  23357064.9474
  23879825.173    -1900678.657 6   3797601.55646  23879831.1984
  22396181.797   -13410902.759 8 -10269486.53947  22396187.1544
  24298402.305    -5474878.611 6  -4160937.50046  24298408.4704
 02  1 30  2 21  0.0020000  0  7 08 10 27 13 04 24 02
  21075220.172   -20571603.210 6 -15874038.15147  21075224.8844
  22540204.065   -13076325.870 7  -5603483.84646  22540209.6214
  21867375.640   -15376610.729 8 -11808210.85947  21867380.2474
  23372934.942    -4870043.122 6  -3580966.36846  23372938.5534
  23900827.734    -1790309.309 6   3883603.58846  23900833.1504
  22406587.192   -13356221.308 8 -10226877.64347  22406592.6904
  24296662.043    -5484022.442 6  -4168062.53146  24296668.1974
 02  1 30  2 21 30.0020000  0  7 08 10 27 13 04 24 02
  21069079.225   -20603874.155 6 -15899184.31747  21069084.1724
  22528236.142   -13139217.927 7  -5652490.61746  22528241.3704
  21874792.563   -15337634.961 8 -11777840.12347  21874797.1114
  23388828.141    -4786523.273 6  -3515886.00546  23388831.5994
  23921863.745    -1679764.710 6   3969742.18846  23921868.9734
  22417091.724   -13301019.941 8 -10183863.61446  22417097.2214
  24295002.605    -5492742.751 6  -4174857.54746  24295008.6184
 02  1 30  2 22  0.0020000  0  7 08 10 27 13 04 24 02
  21063040.985   -20635604.788 6 -15923909.47047  21063046.0264
  22516317.207   -13201853.503 7  -5701297.54546  22516322.1544
  21882291.918   -15298224.473 8 -11747130.64947  21882296.4544
  23404741.806    -4702898.047 6  -3450723.50746  23404744.9474
  23942933.293    -1569045.170 6   4056017.11346  23942938.1694
  22427695.278   -13245297.590 8 -10140443.63446  22427701.0334
  24293424.647    -5501035.737 6  -4181319.58746  24293431.5044
 02  1 30  2 22 30.0020000  0  7 08 10 27 13 04 24 02
  21057105.974   -20666793.565 6 -15948212.39347  21057110.8984
  22504447.221   -13264229.736 7  -5749902.37946  22504451.7344
  21889874.274   -15258379.834 8 -11716082.87247  21889878.8344
  23420675.273    -4619167.253 6  -3385478.77446  23420678.9074
  23964034.707    -1458152.762 6   4142426.73646  23964039.8534
  22438397.613   -13189056.003 7 -10096619.05346  22438403.5454
  24291928.177    -5508899.485 6  -4187447.16046  24291934.2374
 02  1 30  2 23  0.0020000  0  7 08 10 27 13 04 24 02
  21051273.798   -20697442.155 6 -15972094.41147  21051278.6284
  22492626.842   -13326347.094 7  -5798305.49546  22492631.4724
  21897538.422   -15218104.909 8 -11684699.80847  21897543.0054
  23436628.156    -4535333.949 6  -3320154.14446  23436631.7674
  23985169.242    -1347092.753 6   4228966.95246  23985174.3994
  22449198.182   -13132298.970 8 -10052392.82146  22449204.0664
  24290513.225    -5516335.103 6  -4193241.11046  24290519.6254
 02  1 30  2 23 30.0020000  0  7 08 10 27 13 04 24 02
  21045545.072   -20727546.146 6 -15995552.06147  21045549.9014
  22480856.460   -13388200.073 7  -5846502.59846  22480861.4064
  21905284.630   -15177397.569 8 -11652979.79747  21905289.2844
  23452601.185    -4451395.536 6  -3254747.63446  23452604.6434
  24006335.129    -1235864.514 6   4315638.25046  24006341.0254
  22460097.163   -13075025.189 8 -10007763.93546  22460103.0244
  24289181.100    -5523338.092 6  -4198697.94946  24289186.6334
 02  1 30  2 24  0.0020000  0  7 08 10 27 13 04 24 02
  21039919.561   -20757108.692 6 -16018587.79847  21039924.5084
  22469136.069   -13449790.711 7  -5894495.28346  22469141.3324
  21913112.314   -15136262.976 8 -11620926.86547  21913117.0154
  23468593.143    -4367356.337 6  -3189262.56746  23468597.0004
  24027531.899    -1124474.906 6   4402435.29246  24027537.7954
  22471093.309   -13017240.136 8  -9962736.65646  22471099.1114
  24287929.656    -5529911.487 6  -4203820.02246  24287935.6344
 02  1 30  2 24 30.0020000  0  7 08 10 27 13 04 24 02
  21034397.844   -20786126.039 6 -16041198.69947  21034402.7674
  22457466.702   -13511113.705 7  -5942279.41846  22457471.4614
  21921021.438   -15094699.646 8 -11588539.85047  21921026.3144
  23484604.903    -4283214.099 6  -3123697.21346  23484608.3144
  24048759.361    -1012923.802 6   4489358.19046  24048765.1284
  22482186.775   -12958942.663 8  -9917310.07046  22482192.6134
  24286761.424    -5536051.196 6  -4208604.16846  24286767.2034
 02  1 30  2 25  0.0020000  0  7 08 10 27 13 04 24 02
  21028979.611   -20814598.417 6 -16063384.93747  21028984.4764
  22445848.454   -13572168.556 7  -5989854.60546  22445853.6824
  21929012.117   -15052710.255 8 -11555820.83847  21929016.7474
  23500635.961    -4198970.773 6  -3058053.09046  23500638.7744
  24070016.976     -901215.249 6   4576403.75546  24070023.4584
  22493377.213   -12900135.932 7  -9871486.66946  22493383.1564
  24285675.359    -5541757.334 6  -4213050.47046  24285681.5374
 02  1 30  2 25 30.0020000  0  8 08 10 27 13 04 28 24 02
  21023665.121   -20842526.316 6 -16085146.91247  21023669.6934
  22434281.185   -13632953.649 7  -6037219.60146  22434287.0114
  21937082.901   -15010296.997 8 -11522771.53447  21937087.5674
  23516686.264    -4114627.646 6  -2992331.19646  23516689.3944
  24091303.612     -789353.018 6   4663569.06946  24091310.2824
  25528973.846      -82465.246 5
  22504664.386   -12840822.644 8  -9825268.55846  22504670.1074
  24284672.475    -5547029.754 6  -4217158.83146  24284678.4534
 02  1 30  2 26  0.0020000  0  8 08 10 27 13 04 28 24 02
  21018454.056   -20869910.322 6 -16106485.08647  21018458.6044
  22422765.741   -13693468.258 7  -6084373.83146  22422771.2504
  21945233.677   -14967462.748 8 -11489394.19447  21945238.4484
  23532754.456    -4030186.959 6  -2926533.27846  23532758.0784
  24112618.709     -677341.304 6   4750850.86146  24112624.1374
  25512731.875     -167812.909 5
  22516047.175   -12781006.005 8  -9778658.22546  22516053.0364
  24283751.246    -5551868.838 6  -4220929.49846  24283757.2954
 02  1 30  2 26 30.0020000  0  8 08 10 27 13 04 28 24 02
  21013347.235   -20896746.550 6 -16127396.41847  21013351.9364
  22411302.555   -13753707.479 7  -6131313.46746  22411307.9004
  21953465.394   -14924205.913 8 -11455687.57447  21953470.0124
  23548841.955    -3945646.193 6  -2860657.39646  23548845.2844
  24133962.366     -565180.095 6   4838249.14545  24133968.7784
  25496484.427     -253191.733 5    -26612.42455  25496490.9804
  22527526.005   -12720685.119 8  -9731654.96746  22527531.8314
  24282913.584    -5556270.623 6  -4224359.41946  24282919.6444
 02  1 30  2 27  0.0020000  0  8 08 10 27 13 04 28 24 02
  21008344.708   -20923035.646 6 -16147881.40647  21008349.5734
  22399891.922   -13813670.498 7  -6178037.87846  22399897.3734
  21961776.831   -14880529.082 8 -11421653.67147  21961781.4384
  23564948.491    -3861007.579 6  -2794705.25746  23564951.8444
  24155333.533     -452873.356 6   4925760.84745  24155339.4064
  25480232.106     -338600.060 5    -93164.29845  25480236.5374
  22539100.021   -12659863.541 8  -9684261.54946  22539105.7884
  24282158.992    -5560235.242 6  -4227448.67946  24282164.7834
 02  1 30  2 27 30.0020000  0  8 08 10 27 13 04 28 24 02
  21003446.345   -20948776.105 6 -16167938.89447  21003451.0934
  22388534.477   -13873354.311 7  -6224544.74046  22388539.5304
  21970168.102   -14836432.915 8 -11387293.01447  21970172.6514
  23581073.265    -3776270.408 6  -2728676.31346  23581077.0394
  24176732.468     -340423.114 6   5013384.34845  24176737.8254
  25463974.160     -424034.558 5   -159736.49545  25463980.4084
  22550769.017   -12598542.261 7  -9636478.76046  22550774.3624
  24281488.419    -5563760.936 6  -4230195.93846  24281494.4564
 02  1 30  2 28  0.0020000  0  8 08 10 27 13 04 28 24 02
  20998652.127   -20973969.919 6 -16187570.42947  20998656.8744
  22377230.122   -13932759.552 7  -6270834.52846  22377235.4204
  21978638.350   -14791921.703 8 -11352608.94547  21978642.9924
  23597215.941    -3691438.129 6  -2662573.26546  23597219.3764
  24198157.323     -227835.040 6   5101115.28045  24198162.8324
  25447712.021     -509495.323 5   -226329.24445  25447718.7024
  22562532.252   -12536725.720 7  -9588310.05346  22562538.1374
  24280900.811    -5566849.679 6  -4232602.72146  24280906.5554
 02  1 30  2 28 30.0020000  0  8 08 10 27 13 04 28 24 02
  20993962.297   -20998615.781 6 -16206774.98847  20993966.9864
  22365979.165   -13991883.105 7  -6316904.82046  22365984.1354
  21987187.513   -14746995.846 8 -11317601.78247  21987191.8734
  23613377.463    -3606510.625 6  -2596396.01846  23613381.0614
  24219608.115     -115111.245 6   5188951.94245  24219614.3164
  25431444.839     -594978.613 5   -292939.46245  25431447.7704
  22574389.424   -12474415.482 7  -9539756.65246  22574395.1914
  24280396.292    -5569499.720 6  -4234667.65746  24280401.8724
 02  1 30  2 29  0.0020000  0  8 08 10 27 13 04 28 24 02
  20989376.615   -21022713.384 6 -16225552.32447  20989381.3394
  22354782.241   -14050723.392 7  -6362754.39046  22354787.1524
  21995815.026   -14701657.347 8 -11282273.07047  21995819.4684
  23629556.358    -3521488.810 6  -2530145.28646  23629560.1794
  24241083.623       -2254.653 6   5276892.09045  24241090.6804
  25415173.725     -680482.047 5   -359565.44845  25415178.1564
  22586340.214   -12411613.632 7  -9490820.18246  22586346.1344
  24279975.491    -5571710.477 6  -4236390.29446  24279981.3984
 02  1 30  2 29 30.0020000  0  8 08 10 27 13 04 28 24 02
  20984895.575   -21046260.568 6 -16243900.76847  20984900.2874
  22343639.998   -14109276.993 7  -6408380.56246  22343645.2024
  22004521.235   -14655906.186 8 -11246622.80747  22004525.9014
  23645753.701    -3436371.912 6  -2463820.46546  23645757.2764
  24262584.769      110733.111 6   5364934.44645  24262590.5954
  25398901.169     -766001.230 5   -426203.67545  25398907.3584
  22598384.518   -12348320.934 7  -9441501.23846  22598390.5314
  24279638.799    -5573479.621 6  -4237768.82446  24279644.6364
 02  1 30  2 30  0.0020000  0  8 08 10 27 13 04 28 24 02
  20980519.190   -21069258.333 6 -16261821.08347  20980523.9724
  22332552.155   -14167543.108 7  -6453782.72446  22332557.3714
  22013305.291   -14609745.367 8 -11210653.32747  22013309.7224
  23661968.858    -3351162.116 6  -2397423.24446  23661972.5974
  24284109.921      223847.762 6   5453075.69045  24284114.8564
  25382623.464     -851534.907 5   -492853.19845  25382629.5474
  22610521.462   -12284540.703 7  -9391802.38146  22610527.4404
  24279386.162    -5574807.461 6  -4238803.47746  24279391.3314
 02  1 30  2 30 30.0020000  0  8 08 10 27 13 04 28 24 02
  20976247.524   -21091707.147 6 -16279313.66247  20976252.5064
  22321519.441   -14225520.855 7  -6498960.17546  22321524.5874
  22022166.830   -14563177.309 8 -11174366.52547  22022171.2024
  23678201.315    -3265860.334 6  -2330954.35746  23678204.2814
  24305658.470      337085.492 6   5541312.82845  24305664.0384
  25366344.576     -937081.397 5   -559512.79545  25366350.4844
  22622750.530   -12220276.058 7  -9341726.07646  22622756.5444
  24279217.534    -5575694.136 6  -4239494.35246  24279223.5474
 02  1 30  2 31  0.0020000  0  8 08 10 27 13 04 28 24 02
  20972080.719   -21113603.879 6 -16296376.03347  20972085.6544
  22310542.272   -14283205.334 7  -6543909.11746  22310547.5824
  22031106.159   -14516200.907 8 -11137761.52447  22031110.5674
  23694451.645    -3180464.932 6  -2264412.51246  23694455.8884
  24327230.015      450446.192 6   5629645.79345  24327235.4664
  25350064.487    -1022635.336 5   -626178.09745  25350071.0404
  22635072.022   -12155526.761 7  -9291272.12246  22635078.0004
  24279133.015    -5576136.448 6  -4239838.97046  24279138.7244
 02  1 30  2 31 30.0020000  0  8 08 10 27 13 04 28 24 02
  20968019.095   -21134947.451 6 -16313007.37547  20968023.6314
  22299621.812   -14340593.935 7  -6588627.49246  22299626.9574
  22040123.064   -14468817.136 8 -11100839.10247  22040127.6244
  23710719.684    -3094976.066 6  -2197797.85446  23710722.8024
  24348824.842      563927.239 5   5718072.51945  24348830.9144
  25333783.517    -1108193.339 5   -692846.61345  25333790.1404
  22647485.405   -12090294.176 7  -9240441.56846  22647491.4304
  24279133.665    -5576132.913 6  -4239836.21346  24279139.5854
 02  1 30  2 32  0.0020000  0  8 08 10 27 13 04 28 24 02
  20964062.678   -21155738.005 6 -16329207.79147  20964067.4844
  22288757.552   -14397685.155 7  -6633114.14346  22288762.8624
  22049216.842   -14421027.999 8 -11063600.81047  22049221.3554
  23727005.209    -3009394.566 6  -2131111.01046  23727008.6914
  24370442.034      677525.341 6   5806590.43145  24370447.5674
  25317501.759    -1193752.963 5   -759516.40645  25317505.1704
  22659990.302   -12024580.937 7  -9189236.47646  22659996.1394
  24279219.357    -5575683.205 6  -4239485.75946  24279224.6794
 02  1 30  2 32 30.0020000  0  8 08 10 27 13 04 28 24 02
  20960210.861   -21175978.799 6 -16344979.81847  20960215.7384
  22277949.767   -14454480.866 7  -6677370.52846  22277955.0544
  22058387.093   -14372838.930 8 -11026050.88447  22058391.6414
  23743307.644    -2923725.077 6  -2064355.57946  23743311.2784
  24392080.625      791233.941 6   5895194.48145  24392086.5564
  25301218.811    -1279316.240 4   -826188.94745  25301223.6414
  22672585.493   -11958393.255 7  -9137661.68046  22672591.2494
  24279389.561    -5574790.419 6  -4238790.05746  24279395.3874
 02  1 30  2 33  0.0020000  0  8 08 10 27 13 04 28 24 02
  20956464.828   -21195665.465 6 -16360320.06347  20956469.7514
  22267199.352   -14510974.688 7  -6721391.68747  22267204.3104
  22067633.728   -14324247.604 8 -10988187.51147  22067638.3584
  23759627.153    -2837964.194 6  -1997528.95046  23759630.5054
  24413739.155      905054.151 6   5983885.51945  24413744.7694
  25284938.398    -1364875.249 5   -892858.21945  25284944.5064
  22685271.144   -11891729.201 7  -9085715.70746  22685277.0524
  24279644.283    -5573449.843 6  -4237745.42046  24279649.7114
 02  1 30  2 33 30.0020000  0  8 08 10 27 13 04 28 24 02
  20952823.073   -21214802.396 6 -16375231.95047  20952827.8554
  22256505.767   -14567169.249 7  -6765179.64547  22256510.7844
  22076955.640   -14275260.369 8 -10950015.63647  22076960.2004
  23775963.418    -2752117.162 6  -1930635.18646  23775966.5724
  24435418.537     1018978.056 5   6072657.33545  24435423.8824
  25268656.596    -1450432.255 4   -959525.99045  25268663.7234
  22698046.293   -11824595.771 7  -9033403.97446  22698052.1664
  24279983.762    -5571665.390 6  -4236354.90046  24279989.6474
 02  1 30  2 34  0.0020000  0  8 08 10 27 13 04 28 24 02
  20949286.740   -21233385.941 6 -16389712.62047  20949291.3824
  22245870.204   -14623059.323 7  -6808730.33947  22245875.5384
  22086353.351   -14225875.524 8 -10911533.93747  22086357.7704
  23792316.447    -2666181.508 6  -1863672.39346  23792320.2334
  24457117.605     1133006.284 5   6161510.43745  24457124.4514
  25252377.251    -1535981.484 5  -1026187.67545  25252382.2214
  22710910.705   -11756992.029 7  -8980725.77446  22710916.8124
  24280408.621    -5569433.337 6  -4234615.62846  24280414.6114
 02  1 30  2 34 30.0020000  0  8 08 10 27 13 04 28 24 02
  20945855.999   -21251415.205 6 -16403761.38847  20945860.7354
  22235293.215   -14678642.190 7  -6852041.64947  22235298.1854
  22095826.359   -14176093.929 8 -10872743.07647  22095831.2124
  23808686.410    -2580156.826 6  -1796640.21546  23808688.6254
  24478835.790     1247136.645 6   6250443.10645  24478841.2994
  25236099.633    -1621519.545 5  -1092840.60645  25236106.1034
  22723864.656   -11688919.746 7  -8927682.48946  22723870.6584
  24280918.783    -5566752.314 6  -4232526.47646  24280924.5744
 02  1 30  2 35  0.0020000  0  8 08 10 27 13 04 28 24 02
  20942530.220   -21268892.943 6 -16417380.38847  20942535.0854
  22224774.434   -14733919.043 8  -6895114.50847  22224779.6274
  22105374.147   -14125920.202 8 -10833646.65847  22105378.7304
  23825072.863    -2494046.930 6  -1729541.61846  23825076.4034
  24500572.767     1361363.155 6   6339450.70845  24500578.3944
  25219824.004    -1707046.629 5  -1159485.04345  25219828.8804
  22736906.781   -11620384.048 7  -8874278.07446  22736912.9474
  24281513.666    -5563624.669 6  -4230089.33146  24281519.4564
 02  1 30  2 35 30.0020000  0  8 08 10 27 13 04 28 24 02
  20939310.374   -21285812.946 6 -16430564.79547  20939315.2164
  22214315.174   -14788882.055 8  -6937942.81447  22214320.2384
  22114997.403   -14075350.223 8 -10794241.47847  22115002.2334
  23841476.165    -2407846.746 6  -1662372.68446  23841479.3654
  24522328.066     1475688.611 6   6428535.46645  24522333.3184
  25203552.494    -1792554.119 5  -1226114.18545  25203557.1124
  22750037.588   -11551381.515 7  -8820509.91346  22750043.4964
  24282195.486    -5560044.033 6  -4227299.18646  24282201.1364
 02  1 30  2 36  0.0020000  0  8 08 10 27 13 04 28 24 02
  20936195.977   -21302179.516 6 -16443317.94647  20936200.8184
  22203915.505   -14843533.534 7  -6980528.36947  22203920.4164
  22124694.726   -14024390.112 8 -10754532.29147  22124699.5444
  23857895.995    -2321560.908 6  -1595137.00446  23857899.1134
  24544100.547     1590105.779 5   6517691.62245  24544106.1854
  25187284.900    -1878043.760 5  -1292729.38145  25187290.6674
  22763255.695   -11481918.849 7  -8766383.19546  22763261.4624
  24282961.952    -5556014.065 6  -4224158.92246  24282967.8134
 02  1 30  2 36 30.0020000  0  8 08 10 27 13 04 28 24 02
  20933187.077   -21317989.826 6 -16455637.66447  20933191.8724
  22193575.676   -14897868.897 7  -7022867.60447  22193580.8344
  22134466.498   -13973038.968 8 -10714518.41747  22134470.9654
  23874332.253    -2235187.798 6  -1527833.30446  23874335.5704
  24565890.561     1704614.211 5   6606918.90845  24565895.2854
  25171021.456    -1963510.276 5  -1359326.63945  25171027.4814
  22776561.602   -11411996.100 7  -8711897.97746  22776567.4274
  24283815.356    -5551531.754 6  -4220666.16746  24283820.8314
 02  1 30  2 37  0.0020000  0  8 08 10 27 13 04 28 24 02
  20930284.249   -21333244.894 6 -16467524.72147  20930288.9024
  22183296.218   -14951887.182 7  -7064959.75747  22183301.6454
  22144312.153   -13921299.658 8 -10674202.06647  22144316.5724
  23890784.562    -2148729.057 6  -1460462.88546  23890787.3054
  24587697.494     1819209.834 5   6696214.13445  24587702.4884
  25154761.659    -2048952.096 5  -1425904.65345  25154767.0044
  22789954.276   -11341616.772 7  -8657056.99046  22789960.0084
  24284753.984    -5546597.758 6  -4216821.45746  24284759.7164
 02  1 30  2 37 30.0020000  0  8 08 10 27 13 04 28 24 02
  20927487.302   -21347943.088 6 -16478977.84747  20927492.0384
  22173078.050   -15005584.794 7  -7106802.05447  22173083.3484
  22154231.569   -13869172.448 8 -10633583.45047  22154236.1754
  23907253.831    -2062184.085 6  -1393025.28746  23907258.4384
  24609520.855     1933891.276 5   6785576.21645  24609527.9354
  25138508.115    -2134364.998 5  -1492460.08345  25138512.9564
  22803433.749   -11270781.853 7  -8601860.97646  22803439.7394
  24285779.337    -5541210.253 6  -4212623.36646  24285785.1524
 02  1 30  2 38  0.0020000  0  8 08 10 27 13 04 28 24 02
  20924795.393   -21362088.878 6 -16490000.52847  20924799.9884
  22162920.375   -15058964.486 8  -7148396.61947  22162925.6854
  22164223.625   -13816663.652 8 -10592667.50447  22164228.1734
  23923737.856    -1975557.423 6  -1325524.02546  23923741.3374
  24631359.072     2048650.907 5   6874999.21645  24631364.7694
  25122259.836    -2219750.773 5  -1558994.39745  25122266.4704
  22816998.754   -11199497.910 7  -8546315.09246  22817004.8374
  24286889.884    -5535373.157 6  -4208074.94446  24286895.6634
 02  1 30  2 38 30.0020000  0  8 08 10 27 13 04 28 24 02
  20922208.882   -21375681.177 6 -16500591.91847  20922213.4424
  22152823.452   -15112023.213 8  -7189741.07347  22152828.9034
  22174288.138   -13763774.139 8 -10551454.89347  22174292.5574
  23940237.885    -1888849.266 6  -1257959.24346  23940242.2694
  24653211.680     2163486.771 5   6964481.66145  24653217.0484
  25106017.900    -2305105.764 5  -1625504.76445  25106022.7654
  22830648.674   -11127767.187 7  -8490421.04646  22830654.6174
  24288086.407    -5529085.119 6  -4203175.14846  24288091.9174
 02  1 30  2 39  0.0020000  0  8 08 10 27 13 04 28 24 02
  20919728.483   -21388715.417 6 -16510748.45447  20919733.1834
  22142789.198   -15164754.232 8  -7230830.17647  22142794.5084
  22184425.551   -13710500.901 8 -10509943.27847  22184430.1464
  23956754.455    -1802055.465 6  -1190327.77546  23956758.3354
  24675078.872     2278400.700 5   7054024.90545  24675084.3814
  25089782.792    -2390422.683 5  -1691985.40345  25089788.3714
  22844384.234   -11055587.297 7  -8434177.02946  22844390.0724
  24289369.380    -5522341.117 6  -4197920.05146  24289374.4794
 02  1 30  2 39 30.0020000  0  8 08 10 27 13 04 28 24 02
  20917354.417   -21401191.478 6 -16520470.04947  20917359.1414
  22132817.353   -15217156.004 8  -7271662.71947  22132822.2184
  22194635.993   -13656845.628 8 -10468133.97947  22194640.7054
  23973287.167    -1715176.497 6  -1122629.95146  23973291.6804
  24696960.104     2393389.525 5   7143626.50745  24696964.8984
  25073554.907    -2475698.575 5  -1758434.11045  25073559.0104
  22858204.789   -10982960.302 7  -8377584.59246  22858210.5804
  24290739.783    -5515140.679 6  -4192309.28546  24290745.7974
 02  1 30  2 40  0.0020000  0  8 08 10 27 13 04 28 24 02
  20915085.433   -21413115.123 6 -16529761.19947  20915090.1814
  22122907.789   -15269232.217 8  -7312241.58747  22122912.6544
  22204917.433   -13602815.937 8 -10426032.92047  22204921.9694
  23989834.916    -1628218.930 6  -1054870.82945  23989839.7334
  24718855.651     2508444.565 5   7233279.73445  24718861.4764
  25057333.807    -2560936.769 5  -1824853.48845  25057336.8324
  22872108.600   -10909894.886 7  -8320650.54046  22872114.5554
  24292196.188    -5507489.270 6  -4186347.11346  24292201.7444
 02  1 30  2 40 30.0020000  0  8 08 10 27 13 04 28 24 02
  20912922.857   -21424480.210 6 -16538617.10847  20912927.6284
  22113061.361   -15320974.551 8  -7352560.27347  22113066.5314
  22215270.985   -13548407.450 8 -10383636.69047  22215275.4864
  24006398.080    -1541177.152 6   -987046.10646  24006401.6914
  24740762.529     2623569.165 5   7322987.14145  24740768.4024
  25041122.699    -2646128.234 5  -1891236.35345  25041125.5364
  22886096.696   -10836387.318 7  -8263371.94646  22886102.8154
  24293739.141    -5499380.369 6  -4180028.45446  24293744.4864
 02  1 30  2 41  0.0020000  0  8 08 10 27 13 04 28 24 02
  20910866.153   -21435287.662 6 -16547038.50047  20910870.8654
  22103279.018   -15372381.782 8  -7392617.84547  22103284.1754
  22225696.191   -13493622.781 8 -10340947.34047  22225700.6224
  24022977.197    -1454052.693 6   -919156.95246  24022981.1364
  24762682.763     2738759.565 5   7412745.76745  24762688.3314
  25024921.197    -2731270.998 5  -1957581.34045  25024927.7264
  22900168.265   -10762441.236 7  -8205751.66746  22900174.0084
  24295368.888    -5490814.375 6  -4173353.63446  24295374.5614
 02  1 30  2 41 30.0020000  0  8 08 10 27 13 04 28 24 02
  20908914.862   -21445541.503 6 -16555028.49547  20908919.8324
  22093559.714   -15423456.163 8  -7432416.05247  22093564.9424
  22236191.763   -13438467.942 8 -10297969.53047  22236196.3354
  24039571.437    -1366850.162 6   -851206.95746  24039574.4614
  24784613.567     2854008.673 5   7502550.19845  24784618.2094
  25008727.312    -2816366.583 5  -2023889.53445  25008731.3804
  22914321.612   -10688063.552 7  -8147795.05346  22914327.6964
  24297084.883    -5481795.157 6  -4166325.63546  24297090.4274
 02  1 30  2 42  0.0020000  0  8 08 10 27 13 04 28 24 02
  20907069.540   -21455238.499 6 -16562584.59347  20907074.5694
  22083905.152   -15474192.121 8  -7471950.55347  22083910.5684
  22246758.381   -13382941.029 8 -10254701.79847  22246763.2694
  24056180.813    -1279566.855 6   -783194.03546  24056185.4664
  24806556.789     2969317.012 5   7592400.73845  24806562.3924
  24992544.649    -2901408.769 5  -2090156.11545  24992549.3964
  22928557.700   -10613253.065 7  -8089501.22746  22928563.7374
  24298888.146    -5472318.754 6  -4158941.39146  24298893.1044
 02  1 30  2 42 30.0020000  0  8 08 10 27 13 04 28 24 02
  20905330.349   -21464377.983 6 -16569706.25447  20905335.1554
  22074315.227   -15524587.036 8  -7511219.30847  22074320.1394
  22257395.270   -13327043.263 8 -10211145.09747  22257399.6424
  24072805.713    -1192202.473 6   -715117.94145  24072808.9604
  24828510.604     3084682.199 5   7682295.61245  24828516.0194
  24976372.467    -2986394.058 5  -2156378.38745  24976378.3164
  22942875.724   -10538011.267 7  -8030871.29446  22942881.7964
  24300779.061    -5462384.268 6  -4151200.20446  24300784.8054
 02  1 30  2 43  0.0020000  0  8 08 10 27 13 04 28 24 02
  20903697.685   -21472958.243 6 -16576392.12747  20903702.2684
  22064790.955   -15574637.556 8  -7550219.70347  22064795.8084
  22268102.902   -13270774.914 8 -10167299.63047  22268107.5094
  24089446.591    -1104756.004 6   -646977.86545  24089450.2834
  24850474.255     3200102.863 5   7772233.72845  24850480.9024
  24960211.985    -3071318.099 5  -2222552.92545  24960217.4954
  22957275.681   -10462339.931 7  -7971906.66346  22957281.9764
  24302757.000    -5451989.664 6  -4143100.48446  24302762.7214
 02  1 30  2 43 30.0020000  0  8 08 10 27 13 04 28 24 02
  20902170.132   -21480985.953 6 -16582647.45947  20902174.7974
  22055331.415   -15624347.630 8  -7588954.81847  22055336.3384
  22278879.237   -13214144.028 8 -10123171.66347  22278883.7504
  24106101.375    -1017234.612 6   -578779.41445  24106104.6574
  24872446.270     3315570.094 5   7862208.12845  24872452.0024
  24944062.665    -3156184.247 5  -2288682.37445  24944067.2604
  22971755.597   -10386247.428 7  -7912613.84846  22971761.6464
  24304821.279    -5441140.952 6  -4134646.91046  24304827.0004
 02  1 30  2 44  0.0020000  0  8 08 10 27 13 04 28 24 02
  20900748.151   -21488457.364 6 -16588469.32147  20900752.7694
  22045937.786   -15673711.412 8  -7627420.08247  22045942.8394
  22289725.076   -13157148.575 8 -10078759.61647  22289729.6254
  24122770.941     -929634.629 6   -510519.74146  24122773.7314
  24894428.020     3431084.749 5   7952219.45845  24894435.0894
  24927924.806    -3240986.042 5  -2354761.63745  24927930.2694
  22986315.710   -10309732.647 7  -7852991.97246  22986321.6534
  24306972.839    -5429834.189 6  -4125836.41546  24306978.3254
 02  1 30  2 44 30.0020000  0  8 08 10 27 13 04 28 24 02
  20899432.316   -21495371.119 6 -16593856.63747  20899436.8994
  22036610.744   -15722725.828 8  -7665613.11747  22036615.9254
  22300640.492   -13099788.884 8 -10034063.75447  22300644.9354
  24139455.554     -841955.294 6   -442198.21345  24139459.0944
  24916418.445     3546645.417 5   8042266.61245  24916425.4084
  24911800.807    -3325719.182 5  -2420787.40045  24911807.0674
  23000956.232   -10232796.866 7  -7793042.06946  23000962.0934
  24309212.290    -5418067.709 6  -4116667.74146  24309218.2684
 02  1 30  2 45  0.0020000  0  8 08 10 27 13 04 28 24 02
  20898223.039   -21501726.951 6 -16598809.22247  20898227.5404
  22027350.516   -15771388.186 8  -7703531.82347  22027355.6504
  22311624.559   -13042066.167 8  -9989085.01347  22311628.9204
  24156155.308     -754196.411 6   -373814.73045  24156158.6614
  24938417.890     3662249.772 5   8132347.79545  24938423.9274
  24895690.359    -3410380.780 5  -2486757.46745  24895695.8804
  23015676.382   -10155442.139 7  -7732765.69546  23015682.2554
  24311538.856    -5405840.629 6  -4107140.11846  24311544.4244
 02  1 30  2 45 30.0020000  0  8 08 10 27 13 04 28 24 02
  20897119.336   -21507526.313 6 -16603328.18847  20897124.1184
  22018157.600   -15819697.797 8  -7741175.67247  22018162.2774
  22322677.376   -12983983.670 8  -9943825.91947  22322681.8774
  24172870.665     -666360.033 6   -305370.81845  24172874.9434
  24960424.226     3777893.224 5   8222459.50845  24960429.6184
  24879593.699    -3494969.057 5  -2552670.36545  24879598.4814
  23030475.263   -10077672.891 7  -7672166.32346  23030481.3704
  24313952.963    -5393154.245 6  -4097254.57646  24313957.9914
 02  1 30  2 46  0.0020000  0  8 08 10 27 13 04 28 24 02
  20896122.207   -21512767.174 6 -16607411.96247  20896126.7204
  22009032.501   -15867650.408 8  -7778541.32947  22009037.1784
  22333798.656   -12925540.904 8  -9898286.10547  22333802.9114
  24189600.285     -578444.350 6   -236865.15045  24189604.9274
  24982437.378     3893575.455 5   8312601.41545  24982443.9434
  24863512.007    -3579478.722 5  -2618521.99445  24863516.1694
  23045353.418    -9999489.032 7  -7611243.87646  23045359.2214
  24316454.884    -5380005.935 6  -4087009.11746  24316460.5814
 02  1 30  2 46 30.0030000  0  8 08 10 27 13 04 28 24 02
  20895230.294   -21517453.638 6 -16611063.73047  20895234.7724
  21999974.462   -15915249.529 8  -7815631.54447  21999979.6784
  22344987.688   -12866741.630 8  -9852468.49247  22344992.2714
  24206345.018     -490450.755 6   -168298.74245  24206348.9574
  25004458.230     4009293.903 5   8402771.54145  25004464.9584
  24847444.692    -3663913.522 5  -2684315.31945  24847449.4274
  23060309.642    -9920894.456 7  -7550001.40746  23060315.4924
  24319044.368    -5366398.907 6  -4076406.21546  24319049.7614
 02  1 30  2 47  0.0030000  0  8 08 10 27 13 04 28 24 02
  20894444.340   -21521583.540 6 -16614281.81747  20894448.8774
  21990985.491   -15962487.566 8  -7852440.39847  21990990.6614
  22356244.236   -12807589.279 8  -9806375.75247  22356248.5264
  24223103.853     -402383.570 6    -99675.02445  24223107.4754
  25026483.857     4125039.940 5   8492963.21445  25026490.1994
  24831393.447    -3748262.871 5  -2750042.04845  24831397.7494
  23075342.856    -9841894.890 7  -7488443.34146  23075348.5414
  24321720.958    -5352331.471 6  -4065444.54246  24321726.8194
 02  1 30  2 47 30.0030000  0  8 08 10 27 13 04 28 24 02
  20893764.004   -21525157.745 6 -16617066.89947  20893768.6814
  21982064.953   -16009364.318 8  -7888967.72747  21982070.0524
  22367567.547   -12748084.171 8  -9760008.13247  22367572.0254
  24239876.839     -314240.681 6    -30992.27445  24239881.1184
  25048515.223     4240814.010 5   8583176.67345  25048521.9054
  24815358.633    -3832527.314 5  -2815702.61045  24815364.1074
  23090452.687    -9762490.970 7  -7426570.19446  23090458.6424
  24324485.827    -5337803.714 6  -4054124.19146  24324491.1954
 02  1 30  2 48  0.0030000  0  8 08 10 27 13 04 28 24 02
  20893190.056   -21528174.381 6 -16619417.50947  20893194.7094
  21973214.155   -16055876.377 8  -7925210.88247  21973219.1134
  22378958.102   -12688226.022 8  -9713365.40647  22378962.8614
  24256664.629     -226020.595 6     37750.60745  24256668.2514
  25070551.662     4356615.498 5   8673411.49245  25070557.5234
  24799340.490    -3916702.163 5  -2881293.37845  24799344.8624
  23105639.760    -9682683.478 7  -7364382.56746  23105645.4224
  24327338.378    -5322813.537 6  -4042443.51946  24327343.2434
 02  1 30  2 48 30.0030000  0  8 08 10 27 13 04 28 24 02
  20892721.933   -21530634.501 6 -16621334.47647  20892726.6224
  21964433.027   -16102021.866 8  -7961168.40047  21964438.0324
  22390415.374   -12628017.184 8  -9666449.42447  22390419.8524
  24273466.436     -137724.445 6    106552.78745  24273470.7264
  25092592.444     4472440.853 5   8763664.88645  25092597.6844
  24783340.347    -4000785.189 5  -2946812.58945  24783346.6894
  23120902.796    -9602475.382 7  -7301882.80446  23120908.8684
  24330278.949    -5307361.365 6  -4030402.83646  24330284.2014
 02  1 30  2 49  0.0030000  0  8 08 10 27 13 04 28 24 02
  20892359.841   -21532537.613 6 -16622817.41047  20892364.4954
  21955721.920   -16147798.245 8  -7996838.29347  21955726.8794
  22401939.352   -12567458.959 8  -9619261.19647  22401943.8304
  24290283.606      -49352.003 6    175414.38645  24290287.8384
  25114637.942     4588288.015 5   8853935.31245  25114644.6234
  24767357.527    -4084772.746 5  -3012257.39945  24767362.8604
  23136241.380    -9521868.928 7  -7239072.61346  23136247.5114
  24333307.076    -5291446.394 6  -4018001.53246  24333312.5624
 02  1 30  2 49 30.0030000  0  8 08 10 27 13 04 28 24 02
  20892103.545   -21533883.658 6 -16623866.27147  20892108.2934
  21947081.662   -16193203.260 8  -8032218.81547  21947086.4334
  22413529.288   -12506552.678 8  -9571801.75647  22413533.8714
  24307114.878       39096.900 6    244335.57345  24307118.2424
  25136686.033     4704154.443 5   8944220.73345  25136692.7854
  24751393.950    -4168661.588 5  -3077625.26745  24751399.7414
  23151655.781    -9440866.419 7  -7175953.82846  23151662.0064
  24336423.623    -5275068.026 6  -4005239.12446  24336428.6284
 02  1 30  2 50  0.0030000  0  8 08 10 27 13 04 28 24 02
  20891953.204   -21534674.788 6 -16624482.73547  20891957.9284
  21938511.942   -16238236.706 8  -8067309.80447  21938516.9244
  22425184.959   -12445301.968 8  -9524073.93747  22425189.2844
  24323960.164      127619.532 6    313314.20645  24323963.5634
  25158737.401     4820035.598 5   9034517.64345  25158744.5984
  24735449.649    -4252450.645 6  -3142915.40845  24735455.3574
  23167144.682    -9359472.684 7  -7112530.17546  23167150.6374
  24339628.340    -5258227.970 6  -3992117.00746  24339634.4124
 02  1 30  2 50 30.0030000  0  8 08 10 27 13 04 28 24 02
  20891908.070   -21534912.092 6 -16624667.63947  20891912.7004
  21930013.526   -16282897.173 8  -8102110.15647  21930018.2384
  22436905.750   -12383709.246 8  -9476079.61047  22436910.0994
  24340819.307      216215.193 6    382349.70645  24340822.9294
  25180791.125     4935928.204 5   9124823.44845  25180798.2524
  24719524.321    -4336137.728 5  -3208126.11845  24719528.3424
  23182707.269    -9277690.910 7  -7048804.16646  23182713.1774
  24342920.627    -5240926.812 6  -3978635.56846  24342926.9684
 02  1 30  2 51  0.0030000  0  8 08 10 27 13 04 28 24 02
  20891968.065   -21534596.281 6 -16624421.53247  20891972.5204
  21921586.293   -16327182.904 8  -8136618.51047  21921591.3454
  22448691.089   -12321776.759 8  -9427820.53147  22448695.7074
  24357692.370      304882.873 6    451441.37345  24357696.5904
  25202846.541     5051828.696 5   9215135.43945  25202853.3394
  24703618.941    -4419720.168 5  -3273255.26645  24703623.5604
  23198343.342    -9195524.288 7  -6984778.27546  23198349.0394
  24346300.600    -5223164.935 6  -3964795.10246  24346306.2044
 02  1 30  2 51 30.0030000  0  8 08 10 27 13 04 28 24 02
  20892133.867   -21533725.383 6 -16623742.89847  20892138.3224
  21913231.138   -16371089.708 8  -8170831.59847  21913235.9674
  22460541.130   -12259503.944 8  -9379296.26647  22460545.3034
  24374579.357      393624.288 6    520590.47645  24374583.6944
  25224903.732     5167736.805 5   9305453.33545  25224911.0234
  24687734.620    -4503193.040 5  -3338299.02345  24687739.5784
  23214052.242    -9112973.157 7  -6920452.78146  23214058.2564
  24349768.450    -5204939.990 6  -3950593.83546  24349773.7724
 02  1 30  2 52  0.0030000  0  8 08 10 27 13 04 28 24 02
  20892405.005   -21532299.692 6 -16622631.96247  20892409.5774
  21904948.354   -16414615.117 8  -8204747.49847  21904953.1714
  22472455.758   -12196892.418 8  -9330508.05147  22472460.1304
  24391480.631      482439.590 6    589797.17045  24391484.7574
  25246961.084     5283649.786 5   9395775.01545  25246966.7344
  24671871.644    -4586553.221 5  -3403254.96845  24671875.5714
  23229833.906    -9030040.251 6  -6855829.80446  23229839.8964
  24353324.663    -5186251.837 6  -3936031.60346  24353329.9384
 02  1 30  2 52 30.0030000  0  8 08 10 27 13 04 28 24 02
  20892782.095   -21530318.021 6 -16621087.80747  20892786.8304
  21896738.942   -16457755.728 8  -8238363.54847  21896743.9364
  22484434.764   -12133942.518 8  -9281456.18247  22484439.4294
  24408395.976      571329.774 6    659062.20745  24408399.1294
  25269018.974     5399566.914 5   9486099.98745  25269024.9294
  24656030.862    -4669796.098 5  -3468119.53145  24656036.0084
  23245687.950    -8946726.792 6  -6790910.30646  23245694.0924
  24356969.170    -5167098.814 6  -3921107.15346  24356974.8674
 02  1 30  2 53  0.0030000  0  8 08 10 27 13 04 28 24 02
  20893264.120   -21527784.944 6 -16619113.97447  20893268.8094
  21888602.585   -16500513.529 8  -8271681.30847  21888607.3684
  22496477.069   -12070660.142 8  -9232145.23847  22496481.6644
  24425323.991      660290.205 6    728381.97045  24425328.3634
  25291077.450     5515480.702 5   9576422.28345  25291082.0574
  24640212.364    -4752922.978 5  -3532893.69045  24640217.2284
  23261612.783    -8863039.144 6  -6725699.18746  23261618.4574
  24360701.738    -5147484.974 6  -3905823.60546  24360707.5644
 02  1 30  2 53 30.0030000  0  8 08 10 27 13 04 28 24 02
  20893851.272   -21524699.840 6 -16616709.97847  20893855.9144
  21880539.281   -16542885.669 8  -8304698.54447  21880544.1454
  22508582.372   -12007046.073 8  -9182575.82847  22508586.9324
  24442266.584      749321.511 6    797756.98645  24442269.6434
  25313133.214     5631389.813 5   9666740.91245  25313140.3174
  24624416.157    -4835930.041 5  -3597574.48445  24624422.1594
  23277608.851    -8778979.331 6  -6660198.04746  23277615.3454
  24364522.238    -5127409.520 6  -3890180.37546  24364527.5844
 02  1 30  2 54  0.0030000  0  8 08 10 27 13 04 28 24 02
  20894543.523   -21521062.143 6 -16613875.39947  20894548.1774
  21872550.162   -16584869.415 8  -8337413.14647  21872554.9214
  22520750.954   -11943101.214 8  -9132748.66647  22520755.2564
  24459222.194      838424.239 6    867187.62045  24459224.8914
  25335189.235     5747292.460 5   9757054.53445  25335197.5344
  24608644.104    -4918813.319 5  -3662158.81345  24608649.4144
  23293675.391    -8694549.649 6  -6594408.69946  23293681.9094
  24368430.333    -5106871.438 6  -3874176.64846  24368436.5224
 02  1 30  2 54 30.0030000  0  8 08 10 27 13 04 28 24 02
  20895340.773   -21516871.950 6 -16610610.30747  20895345.3804
  21864635.126   -16626462.017 8  -8369822.95747  21864640.2024
  22532981.802   -11878826.651 8  -9082664.59747  22532986.0694
  24476191.663      927598.697 6    936674.17245  24476194.2424
  25357243.632     5863186.476 5   9847361.45645  25357250.5364
  24592896.203    -5001569.178 5  -3726643.86945  24592901.4904
  23309812.108    -8609752.092 6  -6528332.69446  23309817.9694
  24372426.488    -5085869.920 6  -3857811.80046  24372432.0564
 02  1 30  2 55  0.0030000  0  8 08 10 27 13 04 28 24 02
  20896243.040   -21512130.846 6 -16606915.92947  20896247.5774
  21856794.917   -16667662.594 8  -8401927.29747  21856799.8884
  22545274.988   -11814225.639 8  -9032326.14847  22545279.2554
  24493174.188     1016843.186 6   1006215.28045  24493179.0534
  25379295.139     5979067.716 5   9937658.40545  25379301.5984
  24577173.305    -5084196.211 5  -3791028.55245  24577177.9354
  23326018.036    -8524590.580 6  -6461973.08446  23326023.8504
  24376510.775    -5064406.450 6  -3841086.99046  24376516.6254
 02  1 30  2 55 30.0030000  0  8 08 10 27 13 04 28 24 02
  20897249.942   -21506839.117 6 -16602792.49147  20897254.4204
  21849029.609   -16708468.627 8  -8433724.19947  21849034.8494
  22557629.754   -11749299.526 8  -8981734.37147  22557634.1854
  24510170.281     1106157.702 5   1075810.95045  24510175.3454
  25401344.052     6094933.925 5  10027943.64845  25401352.5984
  24561474.724    -5166690.944 5  -3855310.14645  24561481.2074
  23342292.568    -8439067.349 6  -6395331.61546  23342298.6054
  24380683.438    -5042480.718 6  -3824001.97846  24380688.9594
 02  1 30  2 56  0.0030000  0  8 08 10 27 13 04 28 24 02
  20898361.920   -21500996.015 6 -16598239.42047  20898366.6094
  21841340.446   -16748877.022 8  -8465211.25747  21841345.6154
  22570046.731   -11684048.940 8  -8930889.76747  22570051.1384
  24527179.539     1195542.685 5   1145461.52545  24527182.9744
  25423389.387     6210783.650 5  10118216.07945  25423393.5834
  24545802.520    -5249049.410 5  -3919485.53445  24545807.8304
  23358635.517    -8353184.021 6  -6328409.53746  23358641.6824
  24384943.927    -5020091.701 6  -3806555.97146  24384949.0964
 02  1 30  2 56 30.0030000  0  8 08 10 27 13 04 28 24 02
  20899578.431   -21494602.808 6 -16593257.68247  20899583.0854
  21833727.085   -16788886.244 8  -8496387.27647  21833732.0674
  22582524.843   -11618476.378 7  -8879794.27047  22582529.0754
  24544202.578     1284997.892 5   1215166.83345  24544206.7864
  25445431.070     6326613.623 5  10208473.05245  25445437.1774
  24530156.700    -5331269.103 5  -3983552.78145  24530161.7294
  23375046.363    -8266944.520 6  -6261209.97946  23375052.3414
  24389292.588    -4997240.066 6  -3788749.49546  24389297.5584
 02  1 30  2 57  0.0030000  0  8 08 10 27 13 04 28 24 02
  20900899.127   -21487662.566 6 -16587849.68947  20900903.7814
  21826189.195   -16828497.369 8  -8527253.08947  21826194.1774
  22595063.492   -11552586.155 7  -8828451.24347  22595067.7704
  24561238.017     1374520.156 6   1284924.40345  24561242.2374
  25467468.264     6442418.262 5  10298710.27845  25467474.6414
  24514536.884    -5413349.859 5  -4047511.79445  24514542.5454
  23391523.826    -8180354.431 6  -6193737.26246  23391529.9454
  24393728.338    -4973928.528 6  -3770584.63146  24393733.7534
 02  1 30  2 57 30.0030000  0  8 08 10 27 13 04 28 24 02
  20902324.068   -21480174.042 6 -16582014.47547  20902328.5104
  21818727.939   -16867706.109 8  -8557805.35947  21818733.0034
  22607662.451   -11486378.081 7  -8776860.54447  22607666.5774
  24578286.508     1464111.074 6   1354735.45745  24578290.3654
  25489499.934     6558197.050 5  10388927.42145  25489506.4994
  24498945.157    -5495286.628 6  -4111358.58945  24498949.3424
  23408067.797    -8093414.284 6  -6125991.75146  23408073.8454
  24398252.566    -4950155.318 6  -3752060.03446  24398257.6654
 02  1 30  2 58  0.0030000  0  9 08 10 27 13 04 28 26 24 02
  20903853.784   -21472135.941 6 -16575750.99547  20903858.2394
  21811343.966   -16906508.903 8  -8588041.31647  21811349.0534
  22620321.851   -11419852.283 7  -8725022.25346  22620326.2944
  24595348.291     1553771.777 5   1424600.87245  24595352.2774
  25511527.236     6673949.090 5  10479123.70545  25511535.6524
  24483381.861    -5577075.021 5  -4175089.77145  24483387.0544
  25273742.122      -43481.95014
  23424678.547    -8006124.831 6  -6057973.98546  23424684.7134
  24402863.852    -4925918.868 6  -3733174.47146  24402869.8064
 02  1 30  2 58 30.0030000  0  9 08 10 27 13 04 28 26 24 02
  20905486.904   -21463553.757 6 -16569063.55847  20905491.2534
  21804036.846   -16944908.521 8  -8617963.11347  21804041.9104
  22633040.487   -11353015.308 7  -8672941.50046  22633044.6724
  24612422.875     1643497.033 6   1494516.61845  24612427.0374
  25533547.940     6789666.824 5  10569293.16645  25533555.9944
  24467845.349    -5658716.451 5  -4238706.43245  24467851.7264
  25259151.973     -120155.573 4
  23441354.192    -7918493.926 6  -5989690.18346  23441360.6514
  24407563.514    -4901224.026 6  -3713931.69146  24407568.9064
 02  1 30  2 59  0.0030000  0  9 08 10 27 13 04 28 26 24 02
  20907223.978   -21454425.516 6 -16561950.62347  20907228.4214
  21796807.399   -16982900.097 8  -8647566.93947  21796812.2524
  22645818.426   -11285866.183 7  -8620617.50746  22645822.7284
  24629509.927     1733289.530 6   1564484.73945  24629513.3624
  25555561.857     6905350.396 5  10659436.07845  25555567.4954
  24452338.538    -5740205.567 6  -4302204.39445  24452343.7894
  25244577.691     -196743.953 5         1.61755  25244584.5494
  23458094.612    -7830522.200 6  -5921140.82446  23458100.6734
  24412350.326    -4876068.248 6  -3694329.76146  24412356.3984
 02  1 30  2 59 30.0030000  0  9 08 10 27 13 04 28 26 24 02
  20909064.420   -21444752.457 6 -16554413.17547  20909068.9684
  21789655.623   -17020482.512 8  -8676851.93847  21789660.5824
  22658655.229   -11218407.425 7  -8568052.24146  22658659.7184
  24646609.235     1823148.359 6   1634504.57945  24646613.5254
  25577568.405     7020996.360 5  10749549.75445  25577573.7974
  24436861.067    -5821540.094 6  -4365581.90945  24436866.0374
  25230018.959     -273247.142 5    -59611.12445  25230026.5194
  23474899.557    -7742212.687 6  -5852328.25346  23474906.1684
  24417224.755    -4850452.490 6  -3674369.42046  24417229.9364
 02  1 30  3  0  0.0030000  0  9 08 10 27 13 04 28 26 24 02
  20911009.462   -21434532.146 6 -16546449.28747  20911014.1754
  21782582.737   -17057650.822 8  -8705814.25747  21782587.7544
  22671551.462   -11150637.841 7  -8515244.77646  22671555.9164
  24663721.982     1913076.069 5   1704578.05445  24663725.8624
  25599567.800     7136605.256 5  10839634.40945  25599573.2634
  24421414.015    -5902713.805 6  -4428834.10845  24421418.5524
  25215478.358     -349661.723 5   -119154.91345  25215484.8644
  23491768.854    -7653565.226 6  -5783252.34946  23491775.1964
  24422187.423    -4824373.913 6  -3654048.42946  24422193.2964
 02  1 30  3  0 30.0030000  0  9 08 10 27 13 04 28 26 24 02
  20913057.238   -21423770.271 6 -16538063.40147  20913062.0444
  21775587.886   -17094407.922 8  -8734456.15747  21775593.1034
  22684505.514   -11082564.211 7  -8462200.39346  22684510.1794
  24680846.756     2003067.414 5   1774701.14245  24680851.2584
  25621559.351     7252169.484 5  10929684.32345  25621567.2044
  24405997.473    -5983728.954 6  -4491962.77245  24406001.5404
  25200952.989     -425992.376 4   -178633.24645  25200957.9954
  23508700.295    -7564587.822 6  -5713919.32346  23508706.4264
  24427237.207    -4797837.598 6  -3633370.76046  24427242.7634
 02  1 30  3  1  0.0030000  0  9 08 10 27 13 04 28 26 24 02
  20915208.619   -21412465.401 6 -16529254.41147  20915213.3194
  21768672.487   -17130749.613 8  -8762774.36447  21768677.4924
  22697517.377   -11014186.173 7  -8408918.81246  22697521.8324
  24697983.909     2093123.980 5   1844875.03745  24697988.2814
  25643542.355     7367688.558 4  11019699.10945  25643548.6734
  24390611.960    -6064580.306 6  -4554963.78345  24390617.1884
  25186443.491     -502236.764 3   -238044.39545  25186453.9244
  23525695.025    -7475281.155 6  -5644329.73446  23525701.0624
  24432374.649    -4770841.558 6  -3612334.86546  24432379.8074
 02  1 30  3  1 30.0030000  0  9 08 10 27 13 04 28 26 24 02
  20917463.008   -21400619.227 6 -16520023.62547  20917467.4504
  21761836.231   -17166674.855 8  -8790768.05647  21761841.1774
  22710586.493   -10945506.398 7  -8355402.10446  22710590.8424
  24715133.817     2183244.897 5   1915099.07645  24715138.3654
  25665515.635     7483158.714 5  11109675.69745  25665520.8754
  24375257.805    -6145265.850 5  -4617835.60645  24375263.8304
  25171950.627     -578395.324 3   -297388.67645  25171958.0234
  23542751.365    -7385649.244 6  -5574486.70546  23542758.0114
  24437598.623    -4743387.015 6  -3590941.69146  24437603.6524
 02  1 30  3  2  0.0030000  0  8 08 10 27 13 28 26 24 02
  20919819.923   -21388233.268 6 -16510372.21847  20919824.5544
  21755079.252   -17202182.683 8  -8818436.50247  21755084.1994
  22723713.015   -10876527.513 7  -8301652.33346  22723717.6684
  24732294.980     2273429.018 5   1985372.38245  24732300.6184
  24359935.950    -6225783.386 6  -4680576.51745  24359940.7444
  25157474.513     -654468.352 3   -356666.12945  25157480.3504
  23559868.979    -7295695.469 6  -5504392.91146  23559875.4854
  24442910.606    -4715475.096 6  -3569192.12946  24442915.7284
 02  1 30  3  2 30.0030000  0  8 08 10 27 13 28 26 24 02
  20922280.231   -21375304.735 6 -16500298.02447  20922284.8144
  21748402.792   -17237267.436 8  -8845775.28147  21748407.8564
  22736896.446   -10807247.858 7  -8247668.18746  22736900.9244
  24749469.181     2363679.601 5
  24344647.156    -6306126.429 6  -4743181.47045  24344652.1734
  25143015.418     -730452.134 4   -415874.16145  25143019.8264
  23577047.920    -7205419.477 6  -5434048.02746  23577053.9924
  24448309.473    -4687102.543 6  -3547083.63046  24448314.2914
 02  1 30  3  3  0.0030000  0  8 08 10 27 13 28 26 24 02
  20924843.380   -21361835.843 6 -16489802.77247  20924847.9644
  21741807.026   -17271928.444 8  -8872783.85647  21741812.0314
  22750136.511   -10737670.729 7  -8193452.24746  22750141.2114
  24766655.864     2453994.674 5
  24329391.838    -6386293.651 5  -4805649.42945  24329397.5704
  25128572.829     -806347.588 5   -475013.39845  25128578.6904
  23594287.672    -7114825.189 6  -5363455.09146  23594293.9204
  24453795.769    -4658271.242 6  -3524617.66646  24453801.1374
 02  1 30  3  3 30.0030000  0  8 08 10 27 13 28 26 24 02
  20927508.347   -21347830.263 6 -16478889.32847  20927512.7664
  21735291.760   -17306166.819 8  -8899463.11447  21735296.5434
  22763432.309   -10667800.562 7  -8139007.97046  22763436.8804
  24783853.447     2544371.322 5      9390.12455  24783858.4874
  24314169.704    -6466284.672 6  -4867980.04445  24314174.9204
  25114147.125     -882157.319 5   -534085.84445  25114154.6514
  23611586.560    -7023918.762 6  -5292618.96246  23611593.1134
  24459369.083    -4628984.096 6  -3501796.49246  24459374.6634
 02  1 30  3  4  0.0030000  0  8 08 10 27 13 28 26 24 02
  20930275.931   -21333286.384 6 -16467556.43447  20930280.3274
  21728857.788   -17339978.389 8  -8925809.79347  21728862.6534
  22776784.007   -10597637.039 7  -8084335.10246  22776788.4964
  24801063.540     2634811.329 5     79862.80145  24801067.2334
  24298982.697    -6546094.369 6  -4930169.37745  24298988.1484
  25099737.297     -957878.724 5   -593089.38345  25099743.7094
  23628944.427    -6932700.910 6  -5221540.15246  23628950.4644
  24465029.411    -4599239.508 6  -3478618.88146  24465035.1084
 02  1 30  3  4 30.0030000  0  8 08 10 27 13 28 26 24 02
  20933145.956   -21318204.090 6 -16455803.98547  20933150.3634
  21722505.226   -17373359.982 7  -8951821.43047  21722509.9154
  22790191.282   -10527180.836 7  -8029434.16846  22790196.0534
  24818285.599     2725315.217 5    150385.25645  24818290.1354
  24283830.806    -6625718.747 6  -4992214.34345  24283836.0224
  25085344.816    -1033510.269 4   -652022.96645  25085351.8614
  23646361.906    -6841173.067 6  -5150219.76646  23646367.7794
  24470776.482    -4569036.534 6  -3455084.07146  24470782.0154
 02  1 30  3  5  0.0030000  0  8 08 10 27 13 28 26 24 02
  20936118.824   -21302580.588 6 -16443629.81847  20936123.4194
  21716235.915   -17406305.974 8  -8977493.63747  21716240.7444
  22803654.916   -10456430.149 7  -7974303.77146  22803659.5354
  24835521.559     2815887.235 5    220960.81645  24835526.5414
  24268715.207    -6705151.087 6  -5054109.63145  24268721.1734
  25070970.915    -1109047.993 4   -710883.43745  25070973.8694
  23663837.854    -6749334.474 6  -5078657.25546  23663843.6694
  24476612.021    -4538372.068 6  -3431189.66246  24476617.5894
 02  1 30  3  5 30.0030000  0  8 08 10 27 13 28 26 24 02
  20939193.995   -21286420.612 6 -16431037.60647  20939198.6374
  21710049.045   -17438818.503 7  -9002828.07247  21710053.9564
  22817173.272   -10385390.424 7  -7918948.14346  22817178.0784
  24852768.922     2906522.792 5    291585.87145  24852773.3774
  24253636.288    -6784392.318 6  -5115856.00845  24253642.2204
  25056613.479    -1184495.292 4   -769673.42245  25056619.5044
  23681372.294    -6657192.415 6  -5006858.29446  23681378.2024
  24482534.113    -4507250.186 6  -3406938.84246  24482540.1034
 02  1 30  3  6  0.0030000  0  8 08 10 27 13 28 26 24 02
  20942371.088   -21269725.579 6 -16418028.48447  20942375.7424
  21703944.872   -17470896.305 7  -9027823.76147  21703949.7024
  22830746.326   -10314064.249 7  -7863369.31146  22830751.0734
  24870027.963     2997220.863 5    362259.69145  24870033.0974
  24238593.658    -6863440.016 6  -5177451.58546  24238599.0384
  25042273.567    -1259852.423 5   -828393.21145  25042279.6744
  23698963.401    -6564750.374 6  -4934825.56246  23698969.5434
  24488543.414    -4475671.901 6  -3382332.36646  24488549.1694
 02  1 30  3  6 30.0030000  0  8 08 10 27 13 28 26 24 02
  20945649.452   -21252497.486 6 -16404603.98547  20945654.0354
  21697923.468   -17502538.811 8  -9052480.25947  21697928.4384
  22844372.985   -10242454.437 7  -7807569.47346  22844377.7914
  24887298.919     3087980.437 5    432981.36745  24887303.1274
  24223588.576    -6942292.454 6  -5238895.04346  24223593.0894
  25027950.530    -1335120.223 5   -887043.37445  25027955.7694
  23716610.891    -6472012.255 6  -4862562.14246  23716617.5504
  24494638.996    -4443638.733 6  -3357371.43746  24494644.2484
 02  1 30  3  7  0.0030000  0  8 08 10 27 13 28 26 24 02
  20949029.130   -21234737.210 6 -16390764.80147  20949033.6204
  21691985.307   -17533743.765 8  -9076795.81647  21691990.3484
  22858053.646   -10170562.783 7  -7751550.01146  22858058.2994
  24904581.449     3178800.866 5    503750.53445  24904583.9354
  24208621.253    -7020946.528 6  -5300183.89446  24208625.7194
  25013644.980    -1410297.916 5   -945623.30045  25013651.0754
  23734314.389    -6378980.515 6  -4790069.93246  23734320.5324
  24500821.155    -4411151.088 6  -3332056.36346  24500827.6494
 02  1 30  3  7 30.0030000  0  8 08 10 27 13 28 26 24 02
  20952510.169   -21216443.789 6 -16376510.17347  20952514.7064
  21686131.043   -17564507.327 8  -9100767.42247  21686135.9084
  22871787.803   -10098389.362 7  -7695310.98946  22871792.3404
  24921876.586     3269684.047 5    574568.53045  24921881.6734
  24193692.394    -7099397.458 6  -5361314.46346  24193696.9424
  24999356.206    -1485383.445 5  -1004131.35745  24999362.5014
  23752073.313    -6285656.829 6  -4717350.23046  23752079.7374
  24507090.019    -4378207.693 6  -3306386.17546  24507095.7984
 02  1 30  3  8  0.0030000  0  8 08 10 27 13 28 26 24 02
  20956092.577   -21197618.106 6 -16361840.80147  20956097.2074
  21680361.425   -17594827.692 7  -9124393.68347  21680366.1604
  22885575.361   -10025935.743 7  -7638853.64146  22885580.0974
  24939182.597     3360629.655 5    645435.21545  24939187.8264
  24178803.009    -7177642.051 6  -5422284.23146  24178808.0734
  24985085.186    -1560376.395 5  -1062567.33245  24985090.7194
  23769887.384    -6192044.001 6  -4644405.23346  23769894.1134
  24513446.015    -4344808.840 6  -3280361.06646  24513451.5134
 02  1 30  3  8 30.0030000  0  8 08 10 27 13 28 26 24 02
  20959776.334   -21178259.850 6 -16346756.43347  20959781.0934
  21674676.726   -17624701.830 6  -9147672.23347  21674681.1694
  22899415.968    -9953202.612 7  -7582178.47246  22899420.6224
  24956501.353     3451638.926 5    716351.49645  24956504.5654
  24163953.947    -7255676.093 6  -5483089.96546  24163958.2844
  24970832.943    -1635275.254 4  -1120929.96045  24970839.2144
  23787755.788    -6098143.547 6  -4571236.09146  23787762.0714
  24519888.028    -4310953.787 6  -3253980.49546  24519893.7134
 02  1 30  3  9  0.0030000  0  8 08 10 27 13 28 26 24 02
  20963561.123   -21158370.568 6 -16331258.27347  20963565.8124
  21669076.957   -17654128.467 7  -9170602.07247  21669081.7754
  22913309.335    -9880192.177 7  -7525287.22446  22913313.6844
  24973831.819     3542710.787 5    787316.53345  24973836.7544
  24149144.413    -7333497.386 6  -5543729.89845  24149149.1604
  24956596.565    -1710079.923 4  -1179219.14545  24956599.9184
  23805678.530    -6003959.020 6  -4497845.57746  23805684.6494
  24526416.956    -4276643.511 6  -3227245.20146  24526422.6294
 02  1 30  3  9 30.0030000  0  8 08 10 27 13 28 26 24 02
  20967446.761   -21137951.040 6 -16315346.94347  20967451.5324
  21663562.681   -17683105.507 8  -9193181.57847  21663567.6984
  22927255.155    -9806906.027 7  -7468181.13746  22927259.8554
  24991173.907     3633845.285 5    858330.40645  24991179.4994
  24134376.975    -7411102.610 6  -5604201.47246  24134382.5314
  24942379.967    -1784789.950 5  -1237434.63045  24942385.1834
  23823654.428    -5909493.439 6  -4424236.06746  23823660.1834
  24533032.608    -4241878.333 6  -3200155.43646  24533038.0824
 02  1 30  3 10  0.0030000  0  8 08 10 27 13 28 26 24 02
  20971433.051   -21117003.805 6 -16299024.41047  20971437.8104
  21658134.266   -17711632.339 8  -9215410.27647  21658139.5064
  22941253.035    -9733347.478 7  -7410862.79346  22941257.7004
  25008527.511     3725040.737 5    929391.71445  25008532.5054
  24119650.071    -7488490.492 6  -5664503.68445  24119655.6394
  24928181.907    -1859406.383 5  -1295577.26845  24928183.9004
  23841684.159    -5814751.258 6  -4350411.03746  23841689.7984
  24539734.262    -4206660.456 6  -3172712.90746  24539739.1504
 02  1 30  3 10 30.0030000  0  8 08 10 27 13 28 26 24 02
  20975519.942   -21095526.750 6 -16282289.03147  20975524.6074
  21652792.475   -17739704.009 8  -9237284.29747  21652797.6214
  22955302.717    -9659515.246 7  -7353331.18946  22955306.9964
  25025894.068     3816299.935 5   1000502.72445  25025900.4924
  24104966.883    -7565654.804 6  -5724631.72646  24104971.7244
  24914001.021    -1933925.733 5  -1353644.30045  24914006.6594
  23859765.056    -5719732.262 6  -4276370.30746  23859771.4684
  24546522.469    -4170987.317 6  -3144915.64046  24546527.6394
 02  1 30  3 11  0.0030000  0  8 08 10 27 13 28 26 24 02
  20979707.268   -21073521.969 6 -16265142.44247  20979711.7814
  21647537.166   -17767319.923 8  -9258803.18747  21647542.1604
  22969404.248    -9585412.065 7  -7295588.45946  22969408.5154
  25043271.754     3907621.829 5   1071662.60545  25043276.3844
  24090325.644    -7642593.429 6  -5784583.87246  24090330.8724
  24899838.905    -2008348.644 5  -1411636.12545  24899845.2824
  23877899.020    -5624440.158 6  -4202116.76146  23877905.4564
  24553397.652    -4134860.297 6  -3116764.71346  24553402.5634
 02  1 30  3 11 30.0030000  0  8 08 10 27 13 28 26 24 02
  20983994.420   -21050992.272 6 -16247586.82447  20983998.9804
  21642368.707   -17794480.113 8  -9279966.95947  21642373.6424
  22983556.270    -9511041.390 7  -7237637.29446  22983560.3974
  25060661.366     3999004.306 5   1142869.67945  25060666.2664
  24075727.890    -7719305.308 6  -5844359.31546  24075732.8724
  24885694.603    -2082676.304 5  -1469553.72645  24885701.1554
  23896083.547    -5528879.721 6  -4127654.13446  23896090.1594
  24560358.026    -4098281.731 6  -3088261.92946  24560363.5714
 02  1 30  3 12  0.0030000  0  8 08 10 27 13 28 26 24 02
  20988381.775   -21027936.467 6 -16229621.24447  20988386.3114
  21637287.821   -17821180.369 8  -9300772.34347  21637292.9324
  22997759.692    -9436403.019 7  -7179477.52046  22997764.2644
  25078063.321     4090449.212 5   1214125.44545  25078068.7364
  24061174.193    -7795785.486 6  -5903954.22546  24061179.7614
  24871568.839    -2156906.402 5  -1527395.26045  24871575.5794
  23914319.057    -5433051.999 6  -4052983.22446  23914325.0124
  24567404.938    -4061250.197 6  -3059406.15646  24567410.7284
 02  1 30  3 12 30.0030000  0  8 08 10 27 13 28 26 24 02
  20992869.261   -21004355.805 6 -16211246.68647  20992873.7504
  21632294.684   -17847418.855 8  -9321217.91047  21632299.8774
  23012013.225    -9361498.800 7  -7121110.59846  23012018.0434
  25095476.491     4181956.261 5   1285429.56645  25095481.7304
  24046665.554    -7872030.822 6  -5963366.15646  24046668.8724
  24857460.827    -2231038.438 4  -1585160.34445  24857468.8214
  23932605.125    -5336960.173 6  -3978106.50846  23932610.9864
  24574537.441    -4023766.244 6  -3030197.86546  24574543.6894
 02  1 30  3 13  0.0030000  0  8 08 10 27 13 28 26 24 02
  20997456.287   -20980250.381 6 -16192463.23447  20997460.6594
  21627390.143   -17873193.089 8  -9341301.72147  21627395.5234
  23026317.761    -9286329.649 7  -7062537.23846  23026322.6964
  25112901.493     4273526.199 5   1356782.70645  25112905.8184
  24032201.620    -7948037.564 6  -6022592.14646  24032206.2264
  24843373.443    -2305071.032 4  -1642848.01445  24843379.2924
  23950940.288    -5240605.838 6  -3903025.27646  23950946.0444
  24581756.983    -3985829.662 6  -3000636.85946  24581762.4344
 02  1 30  3 13 30.0030000  0  8 08 10 27 13 28 26 24 02
  21002142.799   -20955622.170 6 -16173272.41347  21002147.3004
  21622573.978   -17898502.022 8  -9361022.97047  21622578.9484
  23040671.817    -9210897.906 7  -7003759.25846  23040676.3534
  25130338.631     4365158.102 5   1428184.13945  25130344.4104
  24017783.857    -8023803.546 6  -6081630.52646  24017788.2064
  24829304.655    -2379004.715 5  -1700458.57845  24829312.0874
  23969324.898    -5143993.271 6  -3827742.80046  23969331.1224
  24589062.051    -3947441.997 6  -2970724.39046  24589067.9234
 02  1 30  3 14  0.0030000  0  8 08 10 27 13 28 26 24 02
  21006928.331   -20930473.813 6 -16153676.28447  21006932.9624
  21617846.556   -17923345.342 7  -9380381.40047  21617851.3164
  23055075.222    -9135206.933 7  -6944779.28246  23055079.5364
  25147786.869     4456849.998 5   1499632.28345  25147793.0704
  24003411.671    -8099327.312 6  -6140480.17446  24003416.5714
  24815254.873    -2452840.440 5  -1757992.87045  24815260.9104
  23987757.805    -5047126.900 6  -3752262.56446  23987764.1124
  24596452.184    -3908605.264 6  -2940461.98846  24596457.0374
 02  1 30  3 14 30.0030000  0  8 08 10 27 13 28 26 24 02
  21011812.897   -20904804.861 6 -16133674.49647  21011817.5394
  21613208.074   -17947719.702 7  -9399374.40347  21613212.8684
  23069528.055    -9059256.773 7  -6885597.34146  23069532.5334
  25165246.955     4548604.117 5   1571128.96345  25165250.6704
  23989087.446    -8174604.152 6  -6199137.41446  23989092.1584
  24801222.923    -2526576.105 5  -1815449.21545  24801228.6914
  24006239.228    -4950007.874 6  -3676585.44446  24006245.4874
  24603928.679    -3869318.333 6  -2909848.78346  24603933.4034
 02  1 30  3 15  0.0030000  0  8 08 10 27 13 28 26 24 02
  21016796.422   -20878617.167 6 -16113268.49547  21016801.0884
  21608659.137   -17971624.227 8  -9418001.30347  21608664.3184
  23084029.747    -8983050.186 7  -6826215.58646  23084034.6474
  25182719.282     4640418.580 5   1642672.72345  25182724.7094
  23974809.800    -8249632.142 6  -6257600.74046  23974814.3364
  24787210.795    -2600212.177 5  -1872827.94245  24787215.9764
  24024767.673    -4852639.939 6  -3600714.36846  24024773.6984
  24611489.414    -3829582.915 6  -2878886.10546  24611494.5604
 02  1 30  3 15 30.0030000  0  8 08 10 27 13 28 26 24 02
  21021878.156   -20851911.990 6 -16092459.25247  21021882.7394
  21604200.087   -17995057.041 8  -9436260.64147  21604205.0814
  23098579.759    -8906588.813 7  -6766635.30646  23098584.3894
  25200202.046     4732293.393 5   1714263.39745  25200205.7274
  23960580.383    -8324408.306 6  -6315867.85046  23960584.7674
  24773216.837    -2673748.178 5  -1930128.72245  24773221.6554
  24043343.286    -4755026.139 6  -3524651.71046  24043350.3784
  24619136.089    -3789399.729 6  -2847574.51846  24619140.8724
 02  1 30  3 16  0.0030000  0  8 08 10 27 13 28 26 24 02
  21027058.342   -20824690.294 6 -16071247.53747  21027063.1604
  21599831.029   -18018016.361 8  -9454151.01947  21599836.0224
  23113178.298    -8829874.327 7  -6706857.78746  23113183.1744
  25217696.880     4824228.693 5   1785901.22045  25217703.1984
  23946399.541    -8398929.484 6  -6373936.26146  23946403.9254
  24759242.212    -2747183.568 5  -1987351.02245  24759248.9644
  24061964.688    -4657169.519 6  -3448399.84546  24061971.0414
  24626868.102    -3748769.224 6  -2815914.38046  24626873.1194
 02  1 30  3 16 30.0030000  0  8 08 10 27 13 28 26 24 02
  21032336.665   -20796952.699 6 -16049633.81647  21032341.1904
  21595552.796   -18040499.907 7  -9471670.67647  21595557.7314
  23127824.496    -8752908.026 7  -6646884.05146  23127828.7984
  25235203.353     4916224.791 5   1857586.49645  25235209.2144
  23932267.754    -8473191.913 6  -6431803.06846  23932270.6844
  24745287.276    -2820517.155 5  -2044493.92045  24745293.4304
  24080631.957    -4559072.505 6  -3371960.65946  24080637.5724
  24634684.639    -3707691.486 6  -2783905.74946  24634690.7464
 02  1 30  3 17  0.0030000  0  8 08 10 27 13 28 26 24 02
  21037713.401   -20768697.881 6 -16027617.06147  21037717.9024
  21591365.580   -18062503.729 8  -9488816.51347  21591370.5274
  23142518.651    -8675689.115 7  -6586713.46946  23142523.4334
  25252721.179     5008283.805 5   1929320.74045  25252724.9184
  23918186.097    -8547190.589 6  -6489464.33146  23918191.0914
  24731352.420    -2893746.308 5  -2101555.52245  24731358.8324
  24099344.786    -4460735.666 6  -3295334.60146  24099350.9754
  24642586.693    -3666164.865 6  -2751547.32746  24642592.4134
 02  1 30  3 17 30.0030000  0  8 08 10 27 13 28 26 24 02
  21043187.746   -20739928.610 6 -16005199.44547  21043192.2944
  21587269.772   -18084027.237 7  -9505588.08747  21587274.7664
  23157260.340    -8598220.599 7  -6526348.39646  23157265.1344
  25270251.525     5100404.351 5   2001102.91745  25270256.0734
  23904155.319    -8620923.737 6  -6546918.69946  23904159.8434
  24717437.199    -2966871.631 5  -2158536.16845  24717442.1934
  24118102.811    -4362163.192 6  -3218524.93546  24118109.0704
  24650574.339    -3624191.436 6  -2718840.75446  24650579.3214
 02  1 30  3 18  0.0030000  0  8 08 10 27 13 28 26 24 02
  21048760.029   -20710647.031 6 -15982382.62947  21048764.5774
  21583265.553   -18105069.869 7  -9521984.94247  21583270.4414
  23172049.249    -8520505.361 7  -6465791.07346  23172054.2894
  25287792.894     5192585.202 5   2072932.11545  25287797.5484
  23890175.082    -8694389.370 6  -6604164.58846  23890179.9124
  24703542.219    -3039893.948 5  -2215436.61245  24703548.7014
  24136904.810    -4263359.419 6  -3141535.02246  24136910.7184
  24658646.377    -3581773.043 6  -2685787.45346  24658651.5934
 02  1 30  3 18 30.0030000  0  8 08 10 27 13 28 26 24 02
  21054429.558   -20680853.501 6 -15959166.87847  21054434.1424
  21579353.257   -18125628.839 7  -9538004.91847  21579358.1574
  23186884.677    -8442544.068 7  -6405042.01046  23186889.1904
  25305346.452     5284827.368 5   2144809.07045  25305351.0834
  23876246.655    -8767583.609 6  -6661199.01646  23876250.5594
  24689665.990    -3112811.740 5  -2272255.59545  24689671.6994
  24155749.805    -4164326.304 6  -3064366.40546  24155755.5384
  24666802.904    -3538909.480 6  -2652387.25146  24666808.6134
 02  1 30  3 19  0.0030000  0  8 08 10 27 13 28 26 24 02
  21060195.463   -20650552.412 6 -15935555.63847  21060199.8944
  21575532.857   -18145705.371 7  -9553648.98347  21575537.7574
  23201766.021    -8364341.684 7  -6344105.09246  23201770.7804
  25322909.852     5377127.161 5   2216730.99045  25322915.3624
  23862369.473    -8840506.654 6  -6718022.14746  23862374.0574
  24675809.265    -3185627.607 5  -2328995.13245  24675816.9894
  24174638.222    -4065069.863 6  -2987023.75346  24174644.1184
  24675043.605    -3495604.657 6  -2618643.23146  24675048.9034
 02  1 30  3 19 30.0030000  0  8 08 10 27 13 28 26 24 02
  21066058.777   -20619741.611 6 -15911547.21447  21066063.0324
  21571805.127   -18165294.881 7  -9568913.54347  21571809.9924
  23216693.769    -8285896.650 7  -6282979.09946  23216698.8454
  25340485.929     5469487.813 5   2288700.23245  25340490.9584
  23848545.754    -8913152.359 6  -6774629.15946  23848550.9594
  24661972.013    -3258337.862 5  -2385652.44245  24661978.9064
  24193568.454    -3965589.745 6  -2909506.83146  24193575.0654
  24683369.020    -3451856.297 6  -2584553.58846  24683374.3534
 02  1 30  3 20  0.0030000  0  8 08 10 27 13 28 26 24 02
  21072018.907   -20588421.137 6 -15887141.63047  21072023.0804
  21568170.584   -18184394.204 6  -9583796.13947  21568175.3084
  23231667.449    -8207209.354 7  -6221664.32146  23231672.2554
  25358073.313     5561910.655 5   2360717.99045  25358078.8704
  23834775.403    -8985516.233 6  -6831016.55446  23834779.7174
  24648156.892    -3330940.724 5  -2442226.00945  24648162.8124
  24212540.900    -3865887.913 6  -2831817.14846  24212546.9604
  24691778.116    -3407663.663 6  -2550117.74746  24691783.2854
 02  1 30  3 20 30.0030000  0  8 08 10 27 13 28 26 24 02
  21078075.348   -20556594.917 6 -15862341.97447  21078079.8264
  21564629.284   -18203004.318 7  -9598297.53347  21564634.1964
  23246686.403    -8128284.122 7  -6160164.14346  23246690.6234
  25375672.256     5654392.950 5   2432782.03445  25375676.5354
  23821058.708    -9057598.269 6  -6887184.34346  23821063.3854
  24634360.756    -3403438.294 5  -2498717.53645  24634367.9304
  24231554.364    -3765969.906 6  -2753959.00946  24231560.6004
  24700271.361    -3363030.243 6  -2515338.45946  24700276.9294
 02  1 30  3 21  0.0030000  0  8 08 10 27 13 28 26 24 02
  21084227.378   -20524264.911 6 -15837149.75147  21084231.9024
  21561181.140   -18221124.109 7  -9612416.85247  21561186.0524
  23261750.217    -8049123.160 7  -6098480.28146  23261754.6374
  25393282.355     5746933.680 5   2504891.62445  25393285.9884
  23807396.017    -9129396.126 6  -6943130.70346  23807400.6124
  24620585.185    -3475830.696 5  -2555127.16345  24620591.2104
  24250609.346    -3665839.260 6  -2675935.18346  24250616.1924
  24708848.860    -3317957.463 6  -2480216.81346  24708854.1594
 02  1 30  3 21 30.0030000  0  8 08 10 27 13 28 26 24 02
  21090475.819   -20491428.858 6 -15811563.20347  21090480.4724
  21557827.411   -18238748.535 7  -9626150.16347  21557832.4404
  23276859.057    -7969724.745 7  -6036611.39846  23276863.6284
  25410904.504     5839536.278 5   2577049.41945  25410909.9324
  23793788.602    -9200903.272 6  -6998850.52746  23793792.8454
  24606830.134    -3548113.814 5  -2611451.57045  24606835.8314
  24269703.977    -3565495.517 6  -2597745.30646  24269710.5304
  24717509.862    -3272442.767 6  -2444750.81146  24717515.4304
 02  1 30  3 22  0.0030000  0  8 08 10 27 13 28 26 24 02
  21096819.583   -20458091.724 6 -15785586.20947  21096824.0964
  21554567.452   -18255879.838 6  -9639499.23347  21554572.2814
  23292012.420    -7890094.279 7  -5974561.70046  23292016.9574
  25428536.365     5932196.690 5   2649252.30145  25428540.6324
  23780236.716    -9272120.303 6  -7054344.29346  23780240.7134
  24593094.912    -3620291.091 5  -2667693.49445  24593101.4064
  24288837.900    -3464945.320 6  -2519394.54246  24288844.0544
  24726253.891    -3226490.556 6  -2408943.87046  24726259.5774
 02  1 30  3 22 30.0030000  0  8 08 10 27 13 28 26 24 02
  21103258.424   -20424255.850 6 -15759220.58647  21103263.0544
  21551401.322   -18272517.322 6  -9652463.50047  21551405.9874
  23307209.049    -7810234.497 7  -5912333.30546  23307213.5394
  25446180.606     6024914.381 5   2721499.77845  25446185.5414
  23766739.962    -9343045.446 6  -7109610.62346  23766744.5924
  24579380.088    -3692362.925 5  -2723853.26745  24579385.4694
  24308010.975    -3364192.505 6  -2440885.92346  24308017.1534
  24735081.612    -3180102.818 6  -2372797.57846  24735087.0984
 02  1 30  3 23  0.0030000  0  8 08 10 27 13 28 26 24 02
  21109792.260   -20389921.125 6 -15732466.24647  21109796.9024
  21548329.933   -18288657.823 7  -9665040.51447  21548334.9384
  23322449.695    -7730145.596 7  -5849926.37246  23322454.4904
  25463835.121     6117690.554 5   2793792.86545  25463838.5444
  23753299.488    -9413674.382 6  -7164646.11446  23753303.2274
  24565685.779    -3764327.192 5  -2779929.24845  24565691.1244
  24327222.024    -3263238.635 6  -2362220.59746  24327227.4864
  24743991.384    -3133278.902 6  -2336311.39846  24743996.9644
 02  1 30  3 23 30.0030000  0  8 08 10 27 13 28 26 24 02
  21116420.269   -20355089.988 6 -15705325.10147  21116424.6884
  21545353.246   -18304300.704 7  -9677229.77447  21545358.2284
  23337733.171    -7649830.245 7  -5787342.97646  23337737.6494
  25481500.651     6210523.992 5   2866130.57945  25481506.0314
  23739916.180    -9484005.060 6  -7219449.21846  23739920.0374
  24552011.424    -3836184.577 5  -2835921.93245  24552015.8434
  24346469.916    -3162087.772 6  -2283401.78645  24346475.4374
  24752984.727    -3086020.788 6  -2299486.88346  24752990.6934
 02  1 30  3 24  0.0030000  0  8 08 10 27 13 28 26 24 02
  21123143.006   -20319761.508 6 -15677796.41047  21123147.4494
  21542471.930   -18319442.196 7  -9689028.34047  21542476.9124
  23353059.774    -7569288.037 7  -5724582.82046  23353064.6984
  25499177.734     6303416.449 5   2938514.21945  25499182.0594
  23726590.232    -9554032.288 6  -7274015.85746  23726594.2414
  24538358.802    -3907932.228 5  -2891829.10745  24538365.6364
  24365755.336    -3060740.602 6  -2204429.98046  24365761.8074
  24762060.374    -3038327.137 6  -2262322.99546  24762066.2354
 02  1 30  3 24 30.0030000  0  8 08 10 27 13 28 26 24 02
  21129959.532   -20283940.204 6 -15649883.70147  21129963.9524
  21539685.740   -18334083.950 6  -9700437.49747  21539690.5234
  23368428.903    -7488523.566 7  -5661649.46846  23368433.6164
  25516864.919     6396365.092 5   3010941.67245  25516868.9524
  23713322.238    -9623756.299 6  -7328346.23246  23713326.2474
  24524726.047    -3979572.624 5  -2947652.67645  24524731.9084
  24385077.299    -2959203.439 6  -2125310.17445  24385084.4264
  24771218.630    -2990201.840 6  -2224822.76246  24771224.8774
 02  1 30  3 25  0.0030000  0  8 08 10 27 13 28 26 24 02
  21136870.181   -20247624.880 6 -15621586.04347  21136874.7884
  21536995.338   -18348221.823 7  -9711454.01747  21537000.1794
  23383840.329    -7407536.128 7  -5598542.39046  23383844.5384
  25534563.209     6489372.225 4   3083414.71745  25534564.0184
  23700113.137    -9693171.539 6  -7382436.00446  23700117.8254
  24511113.939    -4051102.904 5  -3003390.48745  24511118.4994
  24404435.126    -2857476.613 6  -2046042.55945  24404441.6444
  24780459.082    -2941643.444 6  -2186985.03146  24780465.2014
 02  1 30  3 25 30.0030000  0  8 08 10 27 13 28 26 24 02
  21143873.957   -20210818.635 6 -15592905.83747  21143878.6934
  21534400.744   -18361855.968 6  -9722078.03047  21534405.4684
  23399293.651    -7326329.045 7  -5535264.13446  23399297.7424
  25552273.050     6582436.204 5   3155932.02345  25552281.0094
  23686962.761    -9762276.890 6  -7436284.29646  23686966.6294
  24497522.800    -4122524.103 5  -3059043.29345  24497528.0864
  24423828.928    -2755564.845 6  -1966630.86945  24423835.7034
  24789781.164    -2892654.838 6  -2148812.09546  24789786.4394
 02  1 30  3 26  0.0030000  0  9 08 10 27 13 23 28 26 24 02
  21150970.966   -20173523.596 6 -15563844.76447  21150975.5614
  21531902.299   -18374985.405 7  -9732308.76247  21531907.1524
  23414788.231    -7244904.442 7  -5471816.39746  23414792.7564
  25569993.744     6675555.796 5   3228492.70945  25569998.2104
  26078688.713      -82901.27114
  23673871.572    -9831070.241 6  -7489889.47746  23673875.4404
  24483952.109    -4193836.478 5  -3114611.26245  24483957.5954
  24443256.448    -2653471.833 6  -1887077.88745  24443262.8834
  24799184.802    -2843237.211 6  -2110304.83346  24799189.8894
 02  1 30  3 26 30.0030000  0  9 08 10 27 13 23 28 26 24 02
  21158161.433   -20135737.814 6 -15534401.29447  21158165.9104
  21529500.889   -18387605.483 7  -9742142.58847  21529505.7074
  23430324.436    -7163260.850 7  -5408198.02546  23430328.9494
  25587724.804     6768734.492 5   3301099.44645  25587730.0554
  26061790.587     -171702.010 4
  23660841.027    -9899545.217 6  -7543246.53546  23660845.2244
  24470403.161    -4265035.903 5  -3170091.24345  24470408.2374
  24462718.771    -2551197.194 6  -1807383.38645  24462724.9844
  24808670.784    -2793388.368 6  -2071461.56146  24808675.8244
 02  1 30  3 27  0.0030000  0  9 08 10 27 13 23 28 26 24 02
  21165444.117   -20097467.779 6 -15504580.48747  21165448.6074
  21527195.441   -18399719.623 6  -9751582.16947  21527200.1064
  23445901.068    -7081404.773 7  -5344414.08246  23445905.4294
  25605466.519     6861967.518 4   3373748.52345  25605470.5754
  26044897.240     -260480.498 5    -27667.64455  26044899.8664
  23647870.907    -9967703.940 6  -7596357.21046  23647875.6904
  24456875.327    -4336127.026 5  -3225486.84845  24456880.8724
  24482213.748    -2448748.969 6  -1727553.67245  24482220.8634
  24818237.867    -2743114.056 6  -2032286.79146  24818242.3564
 02  1 30  3 27 30.0030000  0  9 08 10 27 13 23 28 26 24 02
  21172819.036   -20058712.336 6 -15474381.44347  21172823.3494
  21524987.331   -18411323.817 6  -9760624.38847  21524992.1024
  23461518.174    -6999335.506 7  -5280464.00546  23461522.5704
  25623219.257     6955256.526 4   3446441.13245  25623224.7084
  26028007.644     -349232.629 4    -96825.17045  26028011.5014
  23634961.929   -10035541.035 6  -7649217.24946  23634966.5714
  24443368.321    -4407106.816 5  -3280795.70845  24443373.0224
  24501741.791    -2346127.565 6  -1647588.98345  24501748.0274
  24827885.544    -2692413.052 6  -1992779.49445  24827890.7024
 02  1 30  3 28  0.0030000  0  9 08 10 27 13 23 28 26 24 02
  21180285.751   -20019474.399 6 -15443806.42347  21180290.1474
  21522876.306   -18422417.817 7  -9769269.06947  21522881.0414
  23477175.354    -6917056.056 6  -5216350.14146  23477179.8204
  25640981.303     7048600.732 4   3519176.92245  25640987.6454
  26011124.741     -437957.509 5   -165961.43745  26011128.3524
  23622114.432   -10103054.983 6  -7701825.54846  23622118.8634
  24429881.924    -4477975.993 5  -3336018.36245  24429886.4484
  24521302.247    -2243337.133 5  -1567492.59445  24521308.7764
  24837614.296    -2641287.579 6  -1952941.44946  24837619.8994
 02  1 30  3 28 30.0030000  0  9 08 10 27 13 23 28 26 24 02
  21187844.008   -19979755.105 6 -15412856.31247  21187848.4974
  21520862.633   -18433000.139 7  -9777515.03247  21520867.2754
  23492872.253    -6834567.824 7  -5152073.60046  23492876.7894
  25658754.709     7142000.048 4   3591955.47645  25658760.0074
  25994245.752     -526653.135 4   -235074.96645  25994250.5474
  23609329.151   -10170242.777 6  -7754179.72846  23609334.2624
  24416417.631    -4548733.844 5  -3391154.28745  24416422.8004
  24540894.602    -2140380.769 6  -1487266.91945  24540900.1594
  24847423.775    -2589738.523 6  -1912773.32545  24847429.0154
 02  1 30  3 29  0.0030000  0  9 08 10 27 13 23 28 26 24 02
  21195493.463   -19939557.076 6 -15381533.17047  21195497.9414
  21518946.278   -18443070.240 6  -9785361.86947  21518951.0964
  23508608.580    -6751873.448 7  -5087636.44046  23508613.5624
  25676538.914     7235453.442 4   3664776.26445  25676545.0684
  25977373.830     -615318.570 5   -304164.87645  25977379.6674
  23596606.058   -10237102.588 6  -7806278.21546  23596611.3334
  24402973.806    -4619380.748 5  -3446203.72145  24402978.4484
  24560517.516    -2037262.226 6  -1406914.81345  24560523.9404
  24857313.724    -2537768.110 6  -1872276.89845  24857318.9524
 02  1 30  3 29 30.0030000  0  9 08 10 27 13 23 28 26 24 02
  21203233.322   -19898883.509 6 -15349839.47447  21203237.7764
  21517127.337   -18452628.533 7  -9792809.88947  21517132.2254
  23524383.299    -6668976.410 6  -5023041.36946  23524388.1284
  25694332.473     7328958.949 4   3737637.63645  25694335.4624
  25960507.175     -703953.735 4   -373231.32545  25960511.0094
  23583945.942   -10303633.025 6  -7858120.01646  23583950.8534
  24389550.763    -4689917.975 5  -3501167.69145  24389556.8584
  24580170.267    -1933986.574 6  -1326440.32545  24580176.7254
  24867282.937    -2485379.168 6  -1831454.33846  24867287.7314
 02  1 30  3 30  0.0030000  0  9 08 10 27 13 23 28 26 24 02
  21211063.726   -19857734.470 6 -15317775.28247  21211068.2974
  21515406.528   -18461672.239 7  -9799856.92247  21515411.3454
  23540196.705    -6585876.782 6  -4958288.42546  23540201.2294
  25712136.243     7422517.747 5   3810540.52245  25712140.1114
  25943646.300     -792555.279 5   -442271.45545  25943652.5484
  23571348.844   -10369830.098 6  -7909702.07446  23571354.0014
  24376149.363    -4760343.624 5  -3556044.75645  24376154.7784
  24599852.387    -1830555.154 5  -1245844.45245  24599859.4554
  24877332.142    -2432571.267 6  -1790305.32246  24877337.1474
 02  1 30  3 30 30.0030000  0  9 08 10 27 13 23 28 26 24 02
  21218984.672   -19816109.922 6 -15285340.57347  21218989.0564
  21513784.026   -18470198.237 7  -9806500.54947  21513789.0444
  23556048.627    -6502574.613 6  -4893377.65846  23556053.5274
  25729950.874     7516131.624 5   3883486.39745  25729954.6484
  25926793.211     -881119.664 5   -511282.63845  25926798.2754
  23558816.015   -10435689.270 6  -7961020.82646  23558821.2314
  24362769.025    -4830655.384 5  -3610833.05745  24362775.4374
  24619564.551    -1726969.404 5  -1165128.36645  24619571.5724
  24887460.930    -2379343.846 6  -1748829.40145  24887465.9234
 02  1 30  3 31  0.0030000  0  9 08 10 27 13 23 28 26 24 02
  21226995.735   -19774011.257 6 -15252536.41747  21227000.0954
  21512260.221   -18478205.211 7  -9812739.74347  21512265.2274
  23571938.991    -6419071.288 6  -4828310.12746  23571943.8214
  25747774.723     7609800.469 5   3956475.02945  25747778.8034
  25909947.398     -969644.982 5   -580263.38845  25909954.0334
  23546348.452   -10501207.567 7  -8012074.02446  23546352.8944
  24349410.952    -4900852.619 5  -3665532.14245  24349417.0244
  24639304.832    -1623232.216 5  -1084294.22045  24639312.6864
  24897669.388    -2325697.738 6  -1707027.22345  24897673.9954
 02  1 30  3 31 30.0030000  0  9 08 10 27 13 23 28 26 24 02
  21235096.038   -19731444.498 6 -15219367.50947  21235100.4344
  21510834.686   -18485696.234 7  -9818576.90847  21510839.6914
  23587865.933    -6335373.153 6  -4763090.81746  23587871.1024
  25765609.487     7703519.488 4   4029502.80345  25765614.7504
  25893108.455    -1058133.773 5   -649215.68245  25893114.1404
  23533944.981   -10566386.899 6  -8062863.09746  23533949.8814
  24336074.222    -4970939.381 5  -3720145.12945  24336079.4974
  24659072.706    -1519351.024 5  -1003347.91045  24659080.3724
  24907956.372    -2271638.636 6  -1664903.23446  24907960.6394
 02  1 30  3 32  0.0030000  0  9 08 10 27 13 23 28 26 24 02
  21243285.569   -19688407.781 6 -15185832.39647  21243289.8954
  21509508.253   -18492666.723 7  -9824008.46247  21509513.2584
  23603830.841    -6251478.433 6  -4697718.32946  23603835.5774
  25783453.434     7797292.106 4   4102572.32845  25783458.5924
  25876277.897    -1146580.467 5   -718135.25745  25876282.1054
  23521607.696   -10631220.780 6  -8113382.98746  23521612.2444
  24322758.775    -5040911.509 5  -3774668.80045  24322764.3084
  24678868.162    -1415325.282 5   -922288.92545  24678874.5394
  24918322.419    -2217164.244 6  -1622455.63645  24918328.3274
 02  1 30  3 32 30.0030000  0  9 08 10 27 13 23 28 26 24 02
  21251563.901   -19644904.489 6 -15151933.72647  21251568.2734
  21508280.928   -18499116.798 7  -9829034.50247  21508286.0854
  23619832.374    -6167390.459 6  -4632195.24846  23619836.3364
  25801307.394     7891116.561 5   4175682.19145  25801312.0834
  25859455.037    -1234984.625 5   -787021.52745  25859458.3894
  23509336.050   -10695708.357 6  -8163633.02946  23509340.4224
  24309464.255    -5110770.271 5  -3829104.11645  24309469.5774
  24698690.096    -1311160.036 5   -841121.24145  24698696.3564
  24928767.306    -2162277.481 6  -1579686.73646  24928771.6434
 02  1 30  3 33  0.0030000  0  9 08 10 27 13 23 28 26 24 02
  21259931.034   -19600935.045 6 -15117671.81847  21259935.4534
  21507152.993   -18505044.019 7  -9833653.11447  21507157.9054
  23635870.310    -6083109.560 6  -4566521.82746  23635875.4094
  25819172.063     7984993.831 5   4248833.28545  25819177.3734
  25842641.434    -1323343.366 5   -855872.47945  25842645.8424
  23497131.198   -10759845.531 6  -8213610.02346  23497135.9104
  24296192.910    -5180514.035 5  -3883449.84345  24296199.3814
  24718538.149    -1206857.054 5   -759846.23145  24718543.9404
  24939289.784    -2106978.448 6  -1536596.56746  24939294.9304
 02  1 30  3 33 30.0030000  0  9 08 10 27 13 23 28 26 24 02
  21268385.956   -19556503.820 6 -15083050.07147  21268390.7624
  21506124.144   -18510450.375 6  -9837865.85847  21506128.9264
  23651944.508    -5998640.396 6  -4500701.71746  23651949.1384
  25837045.937     8078920.974 5   4322023.18445  25837052.9354
  25825835.050    -1411657.484 5   -924688.69845  25825841.6734
  23484992.879   -10823632.460 6  -8263314.11046  23484997.2514
  24282942.925    -5250144.930 5  -3937707.61445  24282949.1504
  24738412.047    -1102422.024 5   -678468.31345  24738417.8034
  24949890.599    -2051271.287 6  -1493188.38245  24949895.8394
 02  1 30  3 34  0.0030000  0  9 08 10 27 13 23 28 26 24 02
  21276929.337   -19511608.749 6 -15048066.89347  21276933.9324
  21505195.274   -18515330.526 7  -9841668.57347  21505200.3734
  23668054.477    -5913980.803 6  -4434733.21646  23668059.4834
  25854929.370     8172901.488 5   4395254.73145  25854934.2234
  25809039.189    -1499921.437 5   -993465.74745  25809045.5074
  23472922.347   -10887062.697 6  -8312740.24346  23472926.7084
  24269714.942    -5319658.751 5  -3991874.18645  24269720.4524
  24758310.295     -997854.619 5   -596987.25345  24758317.0004
  24960569.830    -1995153.309 6  -1449460.08745  24960574.7774
 02  1 30  3 34 30.0030000  0  8 08 10 27 23 28 26 24 02
  21285560.376   -19466252.203 6 -15012724.12247  21285564.9124
  21504367.218   -18519683.954 7  -9845060.85947  21504372.0714
  23684200.414    -5829133.142 6  -4368618.17046  23684205.1734
  25792252.383    -1588133.975 5  -1062202.75545  25792259.3224
  23460920.326   -10950134.034 7  -8361886.71046  23460924.8394
  24256508.752    -5389055.631 6  -4045949.60845  24256514.4724
  24778233.260     -893158.172 5   -515405.64145  24778240.9264
  24971326.785    -1938626.505 6  -1405413.21545  24971332.0364
 02  1 30  3 35  0.0030000  0  8 08 10 27 23 28 26 24 02
  21294278.310   -19420439.197 6 -14977025.67047  21294282.6944
  21503638.547   -18523513.129 7  -9848044.64147  21503643.5994
  23700381.179    -5744102.428 6  -4302360.48446  23700386.1724
  25775475.431    -1676296.491 5  -1130900.78145  25775479.9674
  23448986.638   -11012847.395 7  -8410754.26646  23448990.5064
  24243324.987    -5458338.481 6  -4099936.15946  24243329.7234
  24798179.447     -788339.067 5   -433728.46045  24798186.0814
  24982160.261    -1881695.568 6  -1361051.43845  24982164.9974
 02  1 30  3 35 30.0030000  0  8 08 10 27 23 28 26 24 02
  21303083.182   -19374169.103 6 -14940971.05247  21303087.3794
  21503010.297   -18526814.426 7  -9850617.08047  21503015.2324
  23716597.018    -5658888.075 6  -4235959.70546  23716601.8364
  25758709.572    -1764404.637 5  -1199556.44945  25758714.7184
  23437121.773   -11075197.571 7  -8459338.79446  23437125.7944
  24230163.055    -5527504.376 6  -4153831.60646  24230167.3694
  24818149.157     -683398.100 5   -351956.36145  24818155.1004
  24993071.017    -1824359.374 6  -1316373.87546  24993075.1904
 02  1 30  3 36  0.0030000  0  8 08 10 27 23 28 26 24 02
  21311974.885   -19327442.013 6 -14904560.33347  21311979.1634
  21502483.120   -18529584.572 7  -9852775.63647  21502487.8674
  23732848.132    -5573489.689 6  -4169415.51946  23732853.0204
  25741953.886    -1852454.373 4  -1268166.66345  25741958.7164
  23425326.573   -11137180.055 7  -8507636.82146  23425330.7694
  24217023.856    -5596550.844 5  -4207633.98645  24217029.0844
  24838142.067     -578336.642 5   -270090.33145  24838147.8574
  25004058.688    -1766617.293 6  -1271380.04045  25004064.0914
 02  1 30  3 36 30.0030000  0  8 08 10 27 23 28 26 24 02
  21320953.285   -19280260.732 6 -14867795.69047  21320957.7044
  21502056.918   -18531824.315 7  -9854520.88547  21502061.8184
  23749133.272    -5487910.541 6  -4102730.48246  23749138.1724
  25725210.074    -1940445.430 5  -1336731.09545  25725216.6274
  23413601.828   -11198793.820 7  -8555647.54446  23413606.0954
  24203906.968    -5665479.055 6  -4261344.21245  24203911.3174
  24858157.019     -473159.103 5   -188133.85645  24858163.4784
  25015123.558    -1708472.316 6  -1226072.25545  25015129.0324
 02  1 30  3 37  0.0030000  0  8 08 10 27 23 28 26 24 02
  21330017.882   -19232625.724 6 -14830677.50047  21330022.2554
  21501732.184   -18533531.010 7  -9855850.77547  21501737.1664
  23765452.707    -5402150.666 6  -4035904.60746  23765457.3264
  25708477.779    -2028374.363 5  -1405247.13545  25708483.7114
  23401948.170   -11260034.523 7  -8603367.56746  23401952.5304
  24190812.835    -5734286.906 5  -4314960.66645  24190818.6254
  24878193.494     -367867.070 5   -106088.14445  24878199.8474
  25026264.277    -1649924.043 6  -1180450.23145  25026269.1654
 02  1 30  3 37 30.0030000  0  8 08 10 27 23 28 26 24 02
  21339167.966   -19184542.176 6 -14793209.80047  21339172.3744
  21501508.279   -18534707.158 7  -9856767.25947  21501513.2144
  23781805.517    -5316215.428 6  -3968942.09846  23781810.1714
  25691757.184    -2116242.735 5  -1473715.96745  25691761.0994
  23390365.248   -11320903.326 7  -8650797.78446  23390369.8324
  24177741.344    -5802977.508 5  -4368485.74845  24177745.9864
  24898249.996     -262466.950 5    -23958.16645  24898255.8924
  25037482.012    -1590977.585 6  -1134517.91645  25037487.5224
 02  1 30  3 38  0.0030000  0  8 08 10 27 23 28 26 24 02
  21348403.340   -19136010.404 6 -14755392.83747  21348407.7484
  21501386.087   -18535350.068 7  -9857268.22747  21501391.0344
  23798192.020    -5230104.860 6  -3901842.95346  23798196.3464
  25675048.041    -2204046.972 5  -1542134.86645  25675055.7434
  23378853.831   -11381395.933 7  -8697934.88946  23378858.3094
  24164692.879    -5871548.575 5  -4421917.72445  24164698.0134
  24918327.540     -156960.654 5     58254.51245  24918333.0264
  25048774.672    -1531632.738 6  -1088275.16945  25048780.0184
 02  1 30  3 38 30.0030000  0  8 08 10 27 23 28 26 24 02
  21357723.911   -19087029.633 6 -14717225.99747  21357728.3774
  21501365.783   -18535456.367 7  -9857351.06447  21501370.6484
  23814611.525    -5143818.408 6  -3834606.77046  23814616.0844
  25658352.485    -2291782.802 5  -1610500.44545  25658357.5494
  23367415.260   -11441507.072 7  -8744774.70446  23367419.7384
  24151666.970    -5939997.373 5  -4475254.34145  24151672.5494
  24938424.689      -51348.411 5    140549.69545  24938432.5084
  25060143.718    -1471888.390 6  -1041721.13445  25060148.9004
 02  1 30  3 39  0.0030000  0  8 08 10 27 23 28 26 24 02
  21367129.653   -19037602.477 6 -14678711.33547  21367134.2364
  21501447.609   -18535025.539 7  -9857015.36147  21501452.4864
  23831064.262    -5057358.310 6  -3767235.28246  23831068.8454
  25641670.234    -2379448.713 5  -1678811.50545  25641675.5094
  23356049.389   -11501235.110 7  -8791315.93846  23356054.0554
  24138665.357    -6008323.933 6  -4528495.81046  24138671.0074
  24958541.138       54365.837 5    222924.38645  24958549.4844
  25071588.011    -1411746.683 6   -994857.45245  25071593.1804
 02  1 30  3 39 30.0030000  0  8 08 10 27 23 28 26 24 02
  21376619.494   -18987732.831 6 -14639851.86547  21376623.8544
  21501631.835   -18534058.834 8  -9856262.09547  21501636.8064
  23847549.427    -4970728.306 6  -3699731.39346  23847553.7414
  25625001.073    -2467044.991 5  -1747068.31545  25625005.0124
  23344756.344   -11560579.724 7  -8837558.44846  23344760.4354
  24125686.595    -6076529.966 6  -4581643.29146  24125692.6324
  24978676.596      160176.717 5    305374.35045  24978683.0324
  25083107.702    -1351211.245 5   -947686.98845  25083113.9734
 02  1 30  3 40  0.0030000  0  8 08 10 27 23 28 26 24 02
  21386193.494   -18937420.820 6 -14600647.69847  21386198.0664
  21501918.087   -18532553.865 8  -9855089.39347  21501922.9514
  23864066.941    -4883928.448 6  -3632095.13846  23864071.2784
  25608345.926    -2554568.106 5  -1815268.09345  25608351.4714
  23333537.162   -11619536.551 7  -8883498.80546  23333540.9484
  24112731.123    -6144613.254 6  -4634695.13946  24112736.7144
  24998830.454      266082.879 5    387898.59645  24998837.4294
  25094702.092    -1290281.834 6   -900209.52345  25094707.6834
 02  1 30  3 40 30.0030000  0  8 08 10 27 23 28 26 24 02
  21395852.118   -18886664.758 6 -14561097.52047  21395856.5134
  21502307.773   -18530505.718 8  -9853493.43847  21502312.7554
  23880616.975    -4796956.636 6  -3564324.91046  23880621.7584
  25591706.621    -2642012.335 5  -1883406.41645  25591710.6424
  23322393.139   -11678099.354 7  -8929132.10546  23322397.5584
  24099798.498    -6212569.647 6  -4687648.08846  24099804.1954
  25019001.762      372084.909 5    470497.52345  25019008.8774
  25106372.357    -1228956.090 6   -852423.22145  25106377.1044
 02  1 30  3 41  0.0030000  0  8 08 10 27 23 28 26 24 02
  21405593.792   -18835472.855 6 -14521207.72647  21405598.0704
  21502799.705   -18527920.252 8  -9851478.79347  21502804.6754
  23897198.443    -4709821.230 6  -3496427.19246  23897203.6954
  25575080.157    -2729382.194 5  -1951486.75845  25575085.6434
  23311323.018   -11736272.350 7  -8974461.66146  23311326.9914
  24086889.721    -6280405.295 6  -4740506.94146  24086895.1724
  25039189.228      478173.130 5    553163.64945  25039195.9104
  25118115.360    -1167242.394 5   -804334.60645  25118120.5534
 02  1 30  3 41 30.0030000  0  8 08 10 27 23 28 26 24 02
  21415418.553   -18783841.804 6 -14480975.73347  21415422.7734
  21503395.293   -18524791.152 7  -9849040.53747  21503400.1234
  23913811.573    -4622518.500 6  -3428399.10346  23913816.3684
  25558469.999    -2816670.471 5  -2019503.56045  25558477.2314
  23300328.536   -11794047.799 7  -9019481.43746  23300332.9564
  24074004.858    -6348114.325 6  -4793267.15346  24074010.8364
  25059394.609      584350.376 5    635899.18045  25059401.5954
  25129934.125    -1105136.631 5   -755940.51645  25129939.9154
 02  1 30  3 42  0.0030000  0  8 08 10 27 23 28 26 24 02
  21425326.256   -18731776.572 6 -14440405.42547  21425330.6754
  21504093.603   -18521120.954 7  -9846180.64547  21504098.5504
  23930455.883    -4535053.307 6  -3360244.41246  23930460.3724
  25541873.741    -2903878.515 5  -2087457.86045  25541879.5904
  23289410.097   -11851426.255 7  -9064191.89146  23289414.2244
  24061144.278    -6415699.427 6  -4845930.80846  24061149.7524
  25079614.402      690609.713 5    718698.65445  25079622.4324
  25141825.919    -1042643.529 5   -707244.57445  25141831.1234
 02  1 30  3 42 30.0030000  0  8 08 10 27 23 28 26 24 02
  21435316.524   -18679277.325 6 -14399496.92547  21435321.0144
  21504895.667   -18516907.000 7  -9842897.04947  21504900.5784
  23947130.553    -4447425.581 6  -3291963.08546  23947134.8204
  25525294.559    -2991002.466 5  -2155346.61045  25525300.8434
  23278567.491   -11908403.439 7  -9108589.66146  23278571.7234
  24048307.116    -6483158.208 6  -4898496.04346  24048312.6614
  25099850.795      796949.973 5    801561.10445  25099857.8054
  25153791.855     -979762.865 6   -658246.64045  25153797.6454
 02  1 30  3 43  0.0030000  0  8 08 10 27 23 28 26 24 02
  21445388.285   -18626349.962 6 -14358254.82747  21445392.7274
  21505800.373   -18512152.553 6  -9839192.29247  21505805.0274
  23963835.479    -4359641.244 6  -3223559.69646  23963840.1454
  25508732.740    -3078044.256 5  -2223171.35345  25508738.0734
  23267800.961   -11964980.941 7  -9152675.98746  23267805.4984
  24035493.583    -6550494.429 6  -4950965.77346  24035499.5974
  25120100.943      903363.993 5    884481.08545  25120107.1094
  25165830.468     -916500.287 6   -608951.13445  25165835.8954
 02  1 30  3 43 30.0030000  0  8 08 10 27 23 28 26 24 02
  21455542.223   -18572990.762 6 -14316676.23747  21455546.6664
  21506809.171   -18506851.170 7  -9835061.34947  21506813.9784
  23980570.818    -4271696.119 6  -3155031.04246  23980576.1164
  25492185.737    -3164996.118 5  -2290926.07345  25492191.3764
  23257112.305   -12021150.796 7  -9196444.67646  23257116.5724
  24022704.267    -6617701.825 6  -5003335.10946  24022709.7064
  25140365.975     1009854.551 5    967460.72945  25140371.3674
  25177941.917     -852851.465 6   -559354.62345  25177947.8244
 02  1 30  3 44  0.0030000  0  8 08 10 27 23 28 26 24 02
  21465778.160   -18519200.734 6 -14274761.92247  21465782.5794
  21507922.487   -18501001.107 7  -9830502.86047  21507927.3294
  23997337.013    -4183590.986 6  -3086377.70546  23997342.2294
  25475656.847    -3251855.355 5  -2358608.57045  25475664.2094
  23246501.667   -12076909.535 7  -9239893.00746  23246506.1334
  24009940.000    -6684779.028 6  -5055602.98346  24009945.4034
  25160644.435     1116419.301 5   1050498.14045  25160650.5534
  25190127.877     -788817.367 6   -509457.94245  25190133.8324
 02  1 30  3 44 30.0030000  0  8 08 10 27 23 28 26 24 02
  21476094.672   -18464987.720 6 -14232518.01647  21476099.1744
  21509139.165   -18494607.767 6  -9825521.03547  21509143.9004
  24014131.720    -4095333.461 6  -3017605.60746  24014137.0064
  25459145.472    -3338625.804 5  -2426221.86645  25459150.9224
  23235968.798   -12132260.865 7  -9283023.87446  23235972.9364
  23997199.396    -6751731.495 6  -5107773.68146  23997204.7064
  25180935.124     1223049.104 5   1133586.26145  25180941.2434
  25202384.714     -724405.419 6   -459266.81345  25202390.2474
 02  1 30  3 45  0.0030000  0  8 08 10 27 23 28 26 24 02
  21486491.413   -18410351.129 6 -14189944.05447  21486496.0904
  21510459.734   -18487667.487 6  -9820113.03147  21510464.4004
  24030955.818    -4006922.487 6  -2948713.94846  24030960.7534
  25442650.652    -3425302.697 5  -2493762.26645  25442656.7244
  23225514.034   -12187199.706 7  -9325833.32346  23225518.4184
  23984483.005    -6818555.957 6  -5159844.63746  23984488.4684
  25201238.289     1329743.833 5   1216724.97045  25201245.9674
  25214714.193     -659614.577 5   -408780.45045  25214720.2414
 02  1 30  3 45 30.0030000  0  8 08 10 27 23 28 26 24 02
  21496969.254   -18355290.476 6 -14147039.64547  21496973.8964
  21511885.023   -18480177.378 7  -9814276.58447  21511889.8654
  24047809.503    -3918357.452 6  -2879702.23746  24047813.5594
  25426175.672    -3511881.926 5  -2561226.60345  25426181.5924
  23215139.101   -12241721.282 7  -9368317.64046  23215143.4504
  23971791.330    -6885249.677 6  -5211813.66646  23971795.8544
  25221553.824     1436502.617 5   1299913.59545  25221560.9284
  25227116.064     -594444.169 6   -357998.27945  25227121.2334
 02  1 30  3 46  0.0030000  0  8 08 10 27 23 28 26 24 02
  21507527.072   -18299808.499 6 -14103806.92847  21507531.5264
  21513414.865   -18472137.653 6  -9808011.86747  21513419.5074
  24064691.401    -3829640.761 6  -2810572.35346  24064695.8904
  25409718.475    -3598362.044 5  -2628613.65045  25409723.5384
  23204843.589   -12295824.059 7  -9410475.61046  23204847.5164
  23959125.322    -6951812.919 6  -5263681.08846  23959130.5744
  25241881.248     1543321.251 5   1383148.86545  25241886.4884
  25239589.269     -528896.466 6   -306922.14545  25239594.8264
 02  1 30  3 46 30.0030000  0  8 08 10 27 23 28 26 24 02
  21518164.939   -18243906.808 6 -14060247.17347  21518169.3004
  21515049.635   -18463547.222 6  -9801318.03247  21515054.3594
  24081602.423    -3740773.660 6  -2741325.26346  24081607.0304
  25393281.453    -3684740.705 5  -2695921.66645  25393287.2794
  23194628.436   -12349505.372 7  -9452305.17446  23194632.3744
  23946483.125    -7018244.679 6  -5315446.03846  23946487.3214
  25262218.620     1650197.428 5   1466428.94845  25262226.1694
  25252133.403     -462972.803 5   -255553.05645  25252138.1384
 02  1 30  3 47  0.0030000  0  8 08 10 27 23 28 26 24 02
  21528881.806   -18187589.219 7 -14016363.33247  21528886.3774
  21516789.011   -18454407.482 7  -9794196.16647  21516793.9344
  24098540.900    -3651759.659 6  -2671963.70446  24098545.1434
  25376863.500    -3771017.884 5  -2763150.61345  25376868.0954
  23184493.430   -12402764.659 7  -9493805.88046  23184497.4514
  23933866.625    -7084546.483 6  -5367109.72146  23933871.1854
  25282566.817     1757126.320 5   1549750.12445  25282573.0304
  25264749.876     -396676.727 6   -203893.78445  25264754.3894
 02  1 30  3 47 30.0030000  0  8 08 10 27 23 28 26 24 02
  21539677.833   -18130856.780 7 -13972156.24247  21539682.4984
  21518632.984   -18444716.591 7  -9786644.82447  21518637.7084
  24115507.157    -3562599.613 6  -2602488.36246  24115512.4564
  25360465.086    -3857190.517 5  -2830298.11045  25360469.9514
  23174439.445   -12455598.754 7  -9534975.27146  23174443.3254
  23921274.364    -7150716.831 6  -5418670.98746  23921278.6074
  25302924.413     1864105.527 5   1633110.52845  25302932.2674
  25277435.691     -330008.801 5   -151944.74245  25277441.2824
 02  1 30  3 48  0.0030000  0  8 08 10 27 23 28 26 24 02
  21550551.862   -18073711.995 7 -13927627.82947  21550556.3284
  21520582.028   -18434474.556 7  -9778664.02347  21520586.9874
  24132501.336    -3473295.526 6  -2532900.77346  24132505.8264
  25344087.174    -3943257.022 5  -2897362.91345  25344092.9884
  23164466.713   -12508005.925 7  -9575811.99446  23164470.7104
  23908707.869    -7216755.669 6  -5470129.78146  23908712.0544
  25323290.269     1971131.642 5   1716507.44345  25323297.5254
  25290192.601     -262971.162 5    -99707.62045  25290198.0644
 02  1 30  3 48 30.0030000  0  8 08 10 27 23 28 26 24 02
  21561504.370   -18016155.697 7 -13882778.76647  21561508.8834
  21522636.134   -18423679.520 7  -9770252.31947  21522641.0574
  24149523.066    -3383847.777 6  -2463201.24046  24149527.3684
  25327729.845    -4029213.993 5  -2964342.31645  25327736.0574
  23154575.866   -12559982.376 7  -9616313.09446  23154579.9344
  23896166.448    -7282661.333 6  -5521484.78546  23896170.6444
  25343665.335     2078202.618 5   1799939.27745  25343672.6264
  25303020.213     -195564.468 5    -47182.92345  25303024.9264
 02  1 30  3 49  0.0030000  0  8 08 10 27 23 28 26 24 02
  21572534.962   -17958189.309 7 -13837610.15347  21572539.4524
  21524795.787   -18412330.644 7  -9761409.05347  21524800.6644
  24166571.219    -3294257.707 6  -2393390.82246  24166576.0724
  25311394.588    -4115059.165 5  -3031234.63745  25311398.9014
  23144767.391   -12611525.515 7  -9656476.55346  23144771.0834
  23883650.600    -7348432.782 6  -5572735.22246  23883655.6644
  25364048.998     2185315.739 5   1883404.00345  25364055.1644
  25315917.203     -127790.006 6      5628.36045  25315921.3054
 02  1 30  3 49 30.0030000  0  8 08 10 27 23 28 26 24 02
  21583643.151   -17899815.275 7 -13792123.89647  21583647.8404
  21527061.003   -18400427.577 8  -9752133.94447  21527066.0674
  24183646.472    -3204527.075 6  -2323470.84646  24183651.0434
  25295079.759    -4200790.769 5  -3098038.43045  25295085.5494
  23135041.702   -12662633.537 7  -9696300.95846  23135045.9344
  23871160.033    -7414069.901 6  -5623880.95746  23871165.1684
  25384438.982     2292467.852 5   1966899.09645  25384444.7144
  25328883.964      -59649.662 5     58724.73445  25328888.6184
 02  1 30  3 50  0.0030000  0  8 08 10 27 23 28 26 24 02
  21594828.054   -17841039.233 7 -13746324.38947  21594832.6254
  21529430.847   -18387973.413 7  -9742429.40147  21529435.8294
  24200747.521    -3114661.194 6  -2253445.47846  24200752.4214
  25278787.244    -4286410.406 5  -3164755.02345  25278792.4374
  23125399.062   -12713307.888 7  -9735787.42446  23125403.3754
  23858694.653    -7479575.693 6  -5674924.38846  23858699.2484
  25404835.099     2399652.161 5   2050419.22545  25404839.9174
  25341919.010        8851.096 5    112101.96445  25341924.2154
 02  1 30  3 50 30.0030000  0  8 08 10 27 23 28 26 24 02
  21606089.808   -17781858.534 7 -13700209.55347  21606094.4264
  21531906.615   -18374963.205 7  -9732291.58347  21531911.5504
  24217874.528    -3024656.920 6  -2183312.30146  24217879.3344
  25262516.644    -4371911.427 5  -3231379.18545  25262519.9734
  23115839.532   -12763541.428 7  -9774930.40746  23115843.4354
  23846255.326    -7544945.177 6  -5725861.58746  23846260.0034
  25425239.110     2506870.277 5   2133965.76545  25425244.9244
  25355023.627       77715.311 6    165762.39645  25355028.2924
 02  1 30  3 51  0.0030000  0  8 08 10 27 23 28 26 24 02
  21617428.506   -17722272.769 7 -13653779.09347  21617433.0654
  21534488.600   -18361394.256 8  -9721718.38147  21534493.6644
  24235028.333    -2934513.906 6  -2113070.98946  24235033.0454
  25246269.816    -4457289.411 5  -3297907.44545  25246275.6304
  23106365.386   -12813329.965 7  -9813726.63546  23106369.4064
  23833842.524    -7610175.410 6  -5776690.31646  23833846.4394
  25445647.604     2614121.174 5   2217537.84345  25445654.1454
  25368197.292      146943.426 5    219706.35545  25368202.2274
 02  1 30  3 51 30.0030000  0  8 08 10 27 23 28 26 24 02
  21628843.125   -17662288.833 6 -13607038.36247  21628847.4274
  21537176.398   -18347270.416 8  -9710712.79447  21537181.4504
  24252207.494    -2844238.184 6  -2042726.28346  24252212.6764
  25230045.472    -4542546.587 5  -3364341.60945  25230051.1344
  23096975.004   -12862675.740 7  -9852177.85346  23096978.9544
  23821455.265    -7675270.380 6  -5827413.62746  23821460.6924
  25466061.693     2721397.548 5   2301129.74945  25466068.5154
  25381438.630      216529.323 5    273929.16145  25381443.8234
 02  1 30  3 52  0.0030000  0  8 08 10 27 23 28 26 24 02
  21640333.049   -17601909.067 6 -13559989.19747  21640337.5504
  21539969.495   -18332592.164 7  -9699275.20647  21539974.5004
  24269410.976    -2753832.028 6  -1972279.92546  24269416.3564
  25213845.622    -4627681.677 5  -3430680.62145  25213851.1194
  23087669.291   -12911577.044 7  -9890282.74146  23087673.1004
  23809093.683    -7740230.189 6  -5878031.63846  23809097.6924
  25486479.972     2828695.891 5   2384738.79545  25486487.1934
  25394748.335      286470.550 5    328428.80345  25394753.0004
 02  1 30  3 52 30.0030000  0  9 08 10 27 17 23 28 26 24 02
  21651897.485   -17541136.887 7 -13512634.25047  21651901.9984
  21542868.065   -18317360.348 7  -9687406.26047  21542872.9654
  24286639.136    -2663298.048 6  -1901733.97446  24286644.3524
  25912349.712      -53490.071 4
  25197668.027    -4712693.740 5  -3496923.73645  25197674.2164
  23078448.469   -12960033.118 7  -9928040.68746  23078452.6304
  23796758.070    -7805055.520 6  -5928544.85546  23796762.9464
  25506901.063     2936011.623 5   2468361.38845  25506906.6314
  25408124.711      356764.093 5    383202.98445  25408129.1654
 02  1 30  3 53  0.0030000  0  9 08 10 27 17 23 28 26 24 02
  21663536.668   -17479972.650 7 -13464973.81647  21663541.1814
  21545872.402   -18301572.788 7  -9675104.27147  21545877.4664
  24303891.100    -2572636.254 6  -1831088.43446  24303895.5674
  25901908.173     -108361.344 5
  25181515.113    -4797578.913 5  -3563068.02045  25181519.5554
  23069313.079   -13008040.083 7  -9965448.68646  23069317.3464
  23784448.019    -7869744.120 6  -5978951.48146  23784452.2284
  25527325.876     3043343.544 5   2551996.54845  25527331.0934
  25421568.269      427409.988 5    438251.77545  25421572.8644
 02  1 30  3 53 30.0030000  0  9 08 10 27 17 23 28 26 24 02
  21675250.247   -17418417.623 6 -13417008.86447  21675254.4204
  21548982.680   -18285228.420 8  -9662368.41047  21548987.7094
  24321167.990    -2481847.557 6  -1760343.98846  24321173.0774
  25891556.908     -162757.868 4    -16909.13155  25891563.6254
  25165386.801    -4882334.542 5  -3629111.35345  25165391.6784
  23060263.658   -13055595.035 7 -10002504.45746  23060267.9964
  23772164.114    -7934294.779 6  -6029250.66746  23772168.0884
  25547753.254     3150689.401 5   2635642.60745  25547758.9044
  25435078.227      498407.000 5    493574.11445  25435083.8664
 02  1 30  3 54  0.0030000  0  9 08 10 27 17 23 28 26 24 02
  21687037.467   -17356474.559 8 -13368741.53947  21687041.9564
  21552198.741   -18268327.713 8  -9649199.03147  21552203.8994
  24338468.361    -2390934.096 6  -1689502.35546  24338474.4564
  25881296.499     -216678.115 5    -58924.97345  25881300.4504
  25149283.036    -4966958.907 5  -3695052.41045  25149286.9754
  23051300.575   -13102696.525 7 -10039206.88646  23051304.4904
  23759906.730    -7998707.546 6  -6079442.37746  23759911.7594
  25568182.700     3258045.169 5   2719296.38845  25568189.6624
  25448655.041      569752.831 5    549168.25945  25448659.9884
 02  1 30  3 54 30.0030000  0  9 08 10 27 17 23 28 26 24 02
  21698898.508   -17294145.616 7 -13320173.53347  21698902.7524
  21555520.683   -18250870.236 7  -9635595.81447  21555525.6544
  24355792.208    -2299897.575 6  -1618564.82346  24355797.1194
  25871127.151     -270120.242 4   -100568.24645  25871131.4294
  25133204.666    -5051449.960 5  -3760889.54745  25133209.7654
  23042423.873   -13149342.537 7 -10075554.39746  23042427.6354
  23747675.700    -8062981.898 6  -6129526.25146  23747680.1784
  25588613.195     3365408.124 5   2802955.69845  25588621.0024
  25462297.797      641445.535 5    605032.74045  25462302.6034
 02  1 30  3 55  0.0030000  0  9 08 10 27 17 23 28 26 24 02
  21710831.918   -17231435.580 7 -13271308.56447  21710836.3614
  21558948.403   -18232858.387 7  -9621560.60147  21558953.4204
  24373138.028    -2208742.457 6  -1547534.86846  24373142.5764
  25861048.008     -323085.347 3   -141839.78245  25861053.4014
  25117151.881    -5135808.795 5  -3826623.71145  25117156.6874
  23033634.042   -13195533.827 7 -10111547.57646  23033638.0514
  23735470.863    -8127120.187 6  -6179504.09746  23735475.2474
  25609043.375     3472772.194 4   2886615.96145  25609051.1714
  25476005.483      713480.555 5    661163.90145  25476010.1244
 02  1 30  3 55 30.0030000  0  9 08 10 27 17 23 28 26 24 02
  21722838.512   -17168340.535 7 -13222143.60047  21722842.9784
  21562482.531   -18214286.127 7  -9607088.71747  21562487.3844
  24390507.823    -2117463.978 6  -1476408.78646  24390512.1254
  25851061.499     -375565.043 4   -182733.09445  25851067.4424
  25101125.863    -5220026.911 5  -3892248.16645  25101130.4114
  23024932.395   -13241262.062 7 -10147179.93446  23024936.1584
  23723292.616    -8191115.613 6  -6229370.60146  23723297.3754
  25629474.927     3580141.021 4   2970279.85145  25629481.1514
  25489778.978      785862.193 5    717565.15345  25489783.8314
 02  1 30  3 56  0.0030000  0  9 08 10 27 17 23 28 26 24 02
  21734917.691   -17104864.258 6 -13172681.56347  21734921.8994
  21566122.948   -18195154.997 8  -9592181.34747  21566127.9544
  24407900.340    -2026065.480 6  -1405189.18646  24407904.9944
  25841167.736     -427559.285 4   -223248.15845  25841174.6764
  25085126.712    -5304104.028 6  -3957762.80445  25085130.3224
  23016318.528   -13286527.068 7 -10182451.34646  23016322.2794
  23711141.472    -8254969.479 6  -6279126.80246  23711146.7004
  25649907.840     3687509.245 5   3053943.36645  25649914.0994
  25503618.475      858586.852 5    774233.74645  25503623.9494
 02  1 30  3 56 30.0030000  0  9 08 10 27 17 23 28 26 24 02
  21747068.160   -17041012.669 7 -13122927.07747  21747072.2984
  21569869.480   -18175468.445 8  -9576841.18947  21569874.5444
  24425314.887    -1934552.518 6  -1333880.40446  24425319.3534
  25831365.010     -479070.269 4   -263386.65445  25831368.9254
  25069153.577    -5388041.759 5  -4023168.79845  25069158.2314
  23007792.769   -13331330.834 7 -10217363.34046  23007796.6614
  23699016.945    -8318685.174 6  -6328775.34646  23699022.2554
  25670337.637     3794870.158 5   3137601.12445  25670344.2484
  25517521.683      931648.749 5    831165.06745  25517525.9264
 02  1 30  3 57  0.0030000  0  9 08 10 27 17 23 28 26 24 02
  21759289.876   -16976786.528 8 -13072880.73547  21759294.3774
  21573721.602   -18155224.583 7  -9561066.76147  21573726.4314
  24442751.112    -1842925.192 6  -1262482.49946  24442755.6954
  25821655.071     -530094.410 3   -303145.81545  25821660.5814
  25053207.880    -5471836.401 5  -4088463.30745  25053213.1204
  22999355.277   -13375669.831 7 -10251913.18146  22999359.0644
  23686918.794    -8382260.627 6  -6378314.63546  23686923.7644
  25690765.968     3902222.342 5   3221252.10445  25690773.9634
  25531488.481     1005047.441 5    888358.86045  25531493.8734
 02  1 30  3 57 30.0030000  0  9 08 10 27 17 23 28 26 24 02
  21771582.715   -16912186.630 8 -13022543.14847  21771587.1814
  21577680.107   -18134422.350 6  -9544857.23447  21577684.9494
  24460208.385    -1751183.896 6  -1190995.78946  24460212.2534
  25812038.668     -580628.757 3   -342523.33445  25812045.0104
  25037289.997    -5555484.830 5  -4153643.87845  25037294.6514
  22991006.879   -13419540.755 7 -10286098.28746  22991010.6304
  23674848.122    -8445693.867 6  -6427743.09246  23674852.2134
  25711192.021     4009563.913 5   3304894.86945  25711198.7964
  25545520.485     1078782.428 5    945814.69345  25545524.2484
 02  1 30  3 58  0.0030000  0  9 08 10 27 17 23 28 26 24 02
  21783946.858   -16847213.014 8 -12971914.35647  21783951.3834
  21581745.449   -18113059.958 7  -9528211.22747  21581750.3844
  24477688.238    -1659328.122 6  -1119419.86346  24477693.0204
  25802515.828     -630669.328 3   -381515.95345  25802521.0684
  25021400.717    -5638983.001 5  -4218707.35645  25021405.5464
  22982748.471   -13462939.712 7 -10319915.62946  22982751.9654
  23662804.412    -8508982.619 6  -6477058.98046  23662809.7934
  25731616.524     4116893.694 4   3388528.32345  25731621.2724
  25559615.220     1152853.627 5   1003532.50945  25559620.9054
 02  1 30  3 58 30.0030000  0  8 08 10 27 17 23 28 26 02
  21796381.420   -16781869.596 8 -12920997.40947  21796385.8634
  21585916.670   -18091138.718 7  -9511129.74847  21585921.5464
  24495189.420    -1567361.141 6  -1047757.32646  24495193.9334
  25793088.264     -680216.166 4   -420123.94645  25793090.7034
  25005540.789    -5722330.236 6  -4283653.24245  25005545.7124
  22974579.600   -13505866.378 7 -10353364.94146  22974583.6324
  23650788.457    -8572127.954 6  -6526263.11246  23650793.6504
  25573773.943     1227257.727 5   1061509.73445  25573779.9684
 02  1 30  3 59  0.0030000  0  8 08 10 27 17 23 28 26 02
  21808885.252   -16716160.036 8 -12869795.15147  21808889.6714
  21590194.205   -18068659.684 8  -9493613.62047  21590199.5624
  24512710.121    -1475285.921 6   -976010.40646  24512715.1504
  25783753.918     -729268.877 4   -458346.93045  25783757.9164
  24989708.921    -5805525.813 6  -4348480.95446  24989713.7624
  22966501.006   -13548320.369 7 -10386445.94546  22966504.8984
  23638799.344    -8635130.518 6  -6575355.97746  23638805.1114
  25587995.508     1301991.433 5   1119743.78645  25587999.4124
 02  1 30  3 59 30.0030000  0  8 08 10 27 17 23 28 26 02
  21821459.039   -16650084.795 8 -12818307.95347  21821463.7164
  21594578.246   -18045621.736 7  -9475661.99047  21594583.2744
  24530252.097    -1383102.843 5   -904179.46546  24530257.5714
  25774514.091     -777824.276 4   -496182.39845  25774521.6174
  24973906.744    -5888566.436 5  -4413187.89645  24973911.7624
  22958512.717   -13590298.390 7 -10419156.06146  22958517.0654
  23626837.848    -8697988.563 6  -6624336.24146  23626842.9714
  25602279.629     1377054.157 5   1178234.22245  25602285.5144
 02  1 30  4  0  0.0030000  0  8 08 10 27 17 23 28 26 02
  21834102.395   -16583644.329 8 -12766536.16147  21834106.9664
  21599068.941   -18022022.881 7  -9457273.28347  21599073.9354
  24547814.995    -1290811.323 6   -832264.01346  24547819.6494
  25765370.053     -825878.759 4   -533627.43745  25765374.5544
  24958134.734    -5971447.834 6  -4477770.76046  24958139.2124
  22950615.838   -13631796.614 7 -10451492.31246  22950620.0584
  23614904.275    -8760699.602 6  -6673201.95646  23614908.7064
  25616625.919     1452445.793 5   1236980.91945  25616630.8424
 02  1 30  4  0 30.0030000  0  8 08 10 27 17 23 28 26 02
  21846814.615   -16516840.920 8 -12714481.55647  21846819.1284
  21603666.581   -17997863.157 8  -9438447.53747  21603671.8684
  24565397.454    -1198413.072 6   -760265.37846  24565402.0384
  25756320.691     -873430.629 4   -570680.85645  25756328.2284
  24942393.571    -6054167.974 5  -4542227.98546  24942399.3034
  22942810.590   -13672813.336 7 -10483453.37446  22942814.6574
  23602998.713    -8823263.117 6  -6721952.72646  23603003.5194
  25631034.197     1528164.135 5   1295982.23045  25631038.8164
 02  1 30  4  1  0.0030000  0  8 08 10 27 17 23 28 26 02
  21859595.981   -16449674.408 8 -12662144.01547  21859600.5524
  21608371.102   -17973140.246 6  -9419182.94447  21608375.9204
  24583000.700    -1105907.365 6   -688183.03646  24583005.4834
  25747368.545     -920475.992 4   -607339.70145  25747370.9124
  24926683.818    -6136722.484 6  -4606556.14745  24926689.4684
  22935097.864   -13713344.441 7 -10515036.02546  22935101.6854
  23591121.516    -8885676.499 6  -6770586.47446  23591126.5224
  25645505.517     1604209.444 5   1355238.33245  25645511.2384
 02  1 30  4  1 30.0030000  0  8 08 10 27 17 23 28 26 02
  21872445.026   -16382152.639 8 -12609529.65647  21872449.5284
  21613181.881   -17947860.182 7  -9399484.19947  21613186.6874
  24600623.122    -1013301.582 5   -616022.73245  24600629.3354
  25738512.171     -967018.952 4   -643606.96145  25738518.2554
  24911005.512    -6219115.169 6  -4670758.22745  24911010.0134
  22927476.434   -13753393.850 7 -10546243.33146  22927480.3964
  23579272.480    -8947944.659 6  -6819107.08946  23579278.0834
  25660036.818     1680574.037 5   1414743.22545  25660040.2994
 02  1 30  4  2  0.0030000  0  8 08 10 27 17 23 28 26 02
  21885362.327   -16314272.128 8 -12556635.74847  21885366.7934
  21618099.455   -17922017.483 7  -9379347.03447  21618104.4954
  24618265.211     -920591.734 6   -543781.29945  24618270.3694
  25729751.740    -1013052.117 3   -679476.99145  25729756.4874
  24895358.558    -6301338.171 6  -4734828.07845  24895362.9654
  22919948.538   -13792954.243 7 -10577069.56946  22919952.3594
  23567452.502    -9010061.633 6  -6867509.88946  23567457.3434
  25674630.158     1757261.549 5   1474499.69045  25674634.2144
 02  1 30  4  2 30.0030000  0  8 08 10 27 17 23 28 26 02
  21898346.459   -16246039.012 8 -12503467.08947  21898350.9604
  21623123.599   -17895615.555 6  -9358774.11347  21623128.4874
  24635926.438     -827782.832 6   -471462.68746  24635930.3064
  25721088.724    -1058577.741 4   -714951.53245  25721091.6554
  24879743.862    -6383392.836 5  -4798766.74545  24879749.2904
  22912513.188   -13832027.386 7 -10607516.14746  22912516.9394
  23555660.037    -9072030.454 6  -6915797.26546  23555664.7614
  25689284.024     1834266.635 5   1534503.65345  25689288.5024
 02  1 30  4  3  0.0030000  0  8 08 10 27 17 23 28 26 02
  21911398.133   -16177452.666 8 -12450023.18747  21911402.5874
  21628254.573   -17868652.072 7  -9337763.61647  21628259.8724
  24653606.085     -734873.977 6   -399066.21546  24653610.6804
  25712523.358    -1103591.572 4   -750027.30745  25712528.2344
  24864162.813    -6465274.629 6  -4862570.70546  24864167.5614
  22905171.046   -13870609.117 7 -10637579.79746  22905175.1604
  23543896.301    -9133848.106 6  -6963966.81646  23543901.5654
  25703998.057     1911589.700 5   1594755.41245  25704003.5664
 02  1 30  4  3 30.0030000  0  8 08 10 27 17 23 28 26 02
  21924516.863   -16108513.494 8 -12396304.35947  21924521.4354
  21633492.735   -17841125.312 6  -9316314.20847  21633497.8464
  24671305.201     -641864.739 6   -326591.49745  24671308.9414
  25704055.055    -1148090.231 4   -784701.65445  25704063.3314
  24848614.618    -6546979.546 6  -4926236.85445  24848619.5414
  22897923.533   -13908695.839 7 -10667257.73646  22897927.4844
  23532161.924    -9195512.018 6  -7012016.58846  23532166.7884
  25718772.694     1989230.454 5   1655254.68745  25718776.5504
 02  1 30  4  4  0.0040000  0  8 08 10 27 17 23 28 26 02
  21937702.055   -16039224.501 8 -12342312.94547  21937706.6154
  21638837.725   -17813038.144 6  -9294428.11047  21638842.5194
  24689023.157     -548756.898 5   -254039.95646  24689027.9744
  25695684.516    -1192076.881 4   -818976.98445  25695687.8924
  24833099.873    -6628511.537 6  -4989768.25246  24833105.1014
  22890769.584   -13946290.348 7 -10696552.13046  22890773.6044
  23520456.101    -9257027.167 6  -7059950.43446  23520461.3294
  25733607.053     2067186.293 5   1715999.50145  25733611.8124
 02  1 30  4  4 30.0040000  0  8 08 10 27 17 23 28 26 02
  21950952.942   -15969590.744 8 -12288052.87447  21950957.4674
  21644289.145   -17784390.367 7  -9272105.16947  21644294.1394
  24706758.429     -455556.217 5   -181416.08145  24706763.9624
  25687412.526    -1235544.877 3   -852848.18445  25687419.6534
  24817619.712    -6709860.839 6  -5053157.30246  24817624.2254
  22883710.198   -13983386.443 7 -10725458.14946  22883713.8324
  23508779.721    -9318386.626 6  -7107762.92946  23508784.9854
  25748500.786     2145452.101 5   1776985.85845  25748506.5304
 02  1 30  4  5  0.0040000  0  8 08 10 27 17 23 28 26 02
  21964269.020   -15899613.600 8 -12233525.23147  21964273.3224
  21649847.078   -17755183.164 7  -9249346.31347  21649852.1304
  24724511.949     -362262.821 6   -108719.95945  24724517.5284
  25679239.237    -1278495.925 3   -886316.59645  25679244.2194
  24802173.319    -6791029.786 6  -5116405.81046  24802178.6764
  22876745.783   -14019985.456 7 -10753976.83446  22876749.6054
  23497132.349    -9379593.750 6  -7155456.74746  23497137.3664
  25763453.116     2224026.611 5   1838212.74045  25763458.4144
 02  1 30  4  5 30.0040000  0  8 08 10 27 17 23 28 26 02
  21977650.551   -15829292.837 8 -12178729.83947  21977655.0414
  21655511.956   -17725414.193 7  -9226149.71847  21655516.9024
  24742282.801     -268875.794 5    -35950.85846  24742288.5684
  25671165.587    -1320926.226 4   -919379.18145  25671171.2134
  24786762.749    -6872013.938 6  -5179510.31946  24786768.2234
  22869876.557   -14056083.208 7 -10782104.92546  22869880.7064
  23485514.534    -9440645.425 6  -7203029.43246  23485518.9074
  25778463.232     2302910.344 5   1899680.57445  25778468.8474
 02  1 30  4  6  0.0040000  0  8 08 10 27 17 23 28 26 02
  21991097.078   -15758631.805 8 -12123669.29847  21991101.6734
  21661283.539   -17695084.638 7  -9202516.30147  21661288.4974
  24760071.391     -175397.626 5     36889.22745  24760075.7874
  25663190.839    -1362835.056 4   -952035.44045  25663194.0744
  24771387.149    -6952811.960 6  -5242469.77546  24771392.6114
  22863102.878   -14091679.150 7 -10809841.99246  22863106.6884
  23473926.345    -9501542.186 6  -7250481.40546  23473930.9754
  25793533.273     2382100.264 5   1961387.03545  25793539.2874
 02  1 30  4  6 30.0040000  0  8 08 10 27 17 23 28 26 02
  22004607.948   -15687630.963 8 -12068343.96847  22004612.4614
  21667161.958   -17664193.373 6  -9178445.19047  21667166.7994
  24777876.868      -81828.233 6    109800.42945  24777881.7684
  25655315.250    -1404219.490 4   -984283.12445  25655319.6934
  24756047.484    -7033420.022 6  -5305281.23146  24756053.2164
  22856425.152   -14126770.154 7 -10837185.61146  22856429.3014
  23462368.075    -9562281.860 6  -7297810.99746  23462372.0734
  25808660.754     2461595.949 5   2023331.70045  25808667.2244
 02  1 30  4  7  0.0040000  0  8 08 10 27 17 23 28 26 02
  22018182.993   -15616293.480 8 -12012756.32047  22018187.4714
  21673146.931   -17632741.758 7  -9153937.44547  21673151.8314
  24795699.583       11829.881 6    182780.73145  24795703.3814
  25647540.948    -1445079.132 4  -1016121.85845  25647545.0164
  24740745.328    -7113837.037 6  -5367943.82946  24740749.8534
  22849843.618   -14161355.496 7 -10864135.19846  22849847.8384
  23450839.394    -9622864.805 6  -7345018.45446  23450843.6144
  25823845.660     2541394.297 5   2085512.25045  25823851.4744
 02  1 30  4  7 30.0040000  0  8 08 10 27 17 23 28 26 02
  22031821.648   -15544621.944 8 -11956908.37047  22031826.1264
  21679238.443   -17600730.286 6  -9128993.44447  21679243.3544
  24813538.040      105574.866 6    255828.75745  24813542.2364
  25639865.828    -1485412.882 4  -1047550.75745  25639872.6854
  24725478.850    -7194061.099 6  -5430456.07246  24725483.9614
  22843358.937   -14195433.943 7 -10890689.80046  22843363.1694
  23439340.723    -9683290.724 6  -7392103.55246  23439344.3214
  25839087.930     2621492.801 5   2147926.67845  25839092.9594
 02  1 30  4  8  0.0040000  0  8 08 10 27 17 23 28 26 02
  22045523.812   -15472617.560 8 -11900801.06447  22045528.4774
  21685436.688   -17568158.278 7  -9103612.66247  21685441.7054
  24831393.745      199406.371 5    328944.18745  24831398.7744
  25632290.728    -1525218.191 4  -1078567.93045  25632295.8864
  24710250.285    -7274088.866 6  -5492815.33046  24710256.0404
  22836970.828   -14229002.768 7 -10916847.30346  22836975.0834
  23427872.036    -9743557.925 6  -7439064.98546  23427875.7994
  25854387.756     2701890.656 5   2210574.34945  25854392.1754
 02  1 30  4  8 30.0040000  0  8 08 10 27 17 23 28 26 02
  22059289.307   -15400279.427 8 -11844433.69047  22059293.7964
  21691742.198   -17535023.263 6  -9077793.17747  21691747.1104
  24849266.334      293325.822 5    402128.12645  24849271.9144
  25624816.907    -1564490.676 4  -1109169.87545  25624822.2174
  24695059.879    -7353915.415 6  -5555017.80946  24695065.1314
  22830680.916   -14262057.874 7 -10942604.50946  22830684.9954
  23416434.456    -9803662.958 6  -7485900.03346  23416438.0554
  25869743.852     2782588.741 5   2273455.99645  25869747.8264
 02  1 30  4  9  0.0040000  0  8 08 10 27 17 23 28 26 02
  22073116.987   -15327614.388 8 -11787811.59447  22073121.4894
  21698153.634   -17501330.012 6  -9051538.70547  21698158.2764
  24867154.603      387327.339 5    475376.03545  24867160.0424
  25617444.072    -1603233.566 4  -1139359.07145  25617451.7734
  24679906.864    -7433542.801 6  -5617065.08346  24679911.4714
  22824487.771   -14294602.004 8 -10967963.53946  22824491.5934
  23405027.068    -9863609.634 6  -7532611.71146  23405031.1824
  25885155.635     2863580.536 5   2336566.46845  25885160.7694
 02  1 30  4  9 30.0040000  0  8 08 10 27 17 23 28 26 02
  22087006.157   -15254625.919 8 -11730937.46547  22087010.5644
  21704671.307   -17467080.230 7  -9024850.57147  21704676.2424
  24885057.367      481407.935 5    548685.56045  24885063.5444
  25610172.534    -1641446.786 3  -1169135.71545  25610176.2734
  24664792.756    -7512970.523 6  -5678956.81146  24664796.6124
  22818392.054   -14326634.941 7 -10992924.24946  22818395.9464
  23393649.570    -9923398.778 6  -7579200.62946  23393654.0254
  25900623.374     2944862.453 5   2399903.03145  25900628.2744
 02  1 30  4 10  0.0040000  0  8 08 10 27 17 23 28 26 02
  22100957.335   -15181312.099 8 -11673809.80947  22100962.0014
  21711295.229   -17432270.278 7  -8997725.94147  21711300.3404
  24902975.890      575570.378 5    622058.83945  24902981.6334
  25603002.739    -1679124.853 4  -1198495.20845  25603009.5614
  24649717.114    -7592191.989 6  -5740687.81746  24649720.9944
  22812394.904   -14358151.170 8 -11017482.32346  22812398.8554
  23382302.936    -9983025.708 6  -7625663.14946  23382307.2034
  25916146.625     3026436.576 5   2463467.26745  25916150.5874
 02  1 30  4 10 30.0040000  0  8 08 10 27 17 23 28 26 02
  22114970.238   -15107674.180 8 -11616429.61847  22114974.6114
  21718026.076   -17396899.631 7  -8970164.40247  21718031.0584
  24920909.852      669814.103 5    695495.48745  24920915.1504
  25595934.945    -1716265.889 4  -1227436.29545  25595939.6924
  24634681.692    -7671204.104 6  -5802255.66546  24634686.7684
  22806495.976   -14389148.337 7 -11041635.93846  22806499.9274
  23370987.618   -10042488.674 6  -7671997.89146  23370991.9204
  25931724.692     3108301.702 5   2527258.30545  25931731.1394
 02  1 30  4 11  0.0040000  0  8 08 10 27 17 23 28 26 02
  22129044.172   -15033714.104 8 -11558798.39647  22129048.5094
  21724863.477   -17360968.926 7  -8942166.45647  21724868.4704
  24938859.052      764137.896 5    768994.51145  24938862.5334
  25588970.176    -1752868.095 4  -1255957.55245  25588977.4204
  24619686.530    -7750004.509 6  -5863658.55746  24619691.5124
  22800696.317   -14419624.752 7 -11065383.76646  22800700.2674
  23359703.267   -10101786.942 6  -7718204.31246  23359707.4284
  25947358.896     3190455.788 5   2591274.43745  25947364.0074
 02  1 30  4 11 30.0040000  0  8 08 10 27 17 23 28 26 02
  22143178.945   -14959435.600 8 -11500919.05147  22143183.2704
  21731807.194   -17324479.886 6  -8913733.44347  21731812.0114
  24956823.135      858538.923 5    842553.72645  24956827.6374
  25582107.388    -1788931.666 4  -1284059.00745  25582114.9374
  24604731.600    -7828592.349 6  -5924895.82046  24604736.6294
  22794996.104   -14449580.457 8 -11088725.84446  22794999.8554
  23348450.492   -10160921.345 6  -7764283.03846  23348454.8304
  25963045.480     3272895.426 5   2655513.12045  25963050.8024
 02  1 30  4 12  0.0040000  0  8 08 10 27 17 23 28 26 02
  22157374.182   -14884838.921 8 -11442791.77347  22157378.6254
  21738857.475   -17287431.140 6  -8884864.30047  21738862.4224
  24974801.939      953017.421 5    916173.29445  24974806.6864
  25575347.888    -1824453.501 5  -1311738.37445  25575354.1134
  24589817.919    -7906963.680 6  -5985964.36846  24589822.6554
  22789395.499   -14479012.311 8 -11111659.73946  22789399.0744
  23337228.978   -10219889.419 6  -7810232.14846  23337233.3854
  25978787.983     3355620.355 5   2719974.10945  25978793.2824
 02  1 30  4 12 30.0040000  0  8 08 10 27 17 23 28 26 02
  22171629.169   -14809928.522 8 -11384420.04047  22171633.6124
  21746013.450   -17249825.644 6  -8855561.32247  21746018.4084
  24992794.590     1047569.749 5    989850.36945  24992800.3574
  25568691.061    -1859434.724 4  -1338996.43545  25568696.9104
  24574945.690    -7985118.485 6  -6046864.20146  24574950.5554
  22783894.603   -14507920.958 8 -11134185.93746  22783898.4714
  23326038.856   -10278692.777 6  -7856052.93246  23326043.4984
  25994583.110     3438626.120 5   2784653.96045  25994588.3734
 02  1 30  4 13  0.0040000  0  8 08 10 27 17 23 28 26 02
  22185943.065   -14734709.592 8 -11325807.88547  22185947.4964
  21753274.939   -17211666.820 7  -8825827.18047  21753279.9804
  25010800.383     1142191.709 5   1063581.74645  25010804.8964
  25562137.616    -1893877.017 5  -1365834.58045  25562142.5984
  24560114.538    -8063057.354 6  -6107595.76146  24560120.1414
  22778492.642   -14536308.174 8 -11156305.82446  22778496.3344
  23314880.241   -10337333.729 6  -7901747.13946  23314884.8834
  26010431.276     3521907.959 5   2849548.90645  26010435.6954
 02  1 30  4 13 30.0040000  0  8 08 10 27 17 23 28 26 02
  22200315.576   -14659180.716 8 -11266954.22347  22200320.3474
  21760642.127   -17172951.873 6  -8795659.69647  21760647.0034
  25028820.050     1236885.457 5   1137369.06045  25028825.1384
  25555686.795    -1927775.721 5  -1392249.22545  25555690.6404
  24545325.337    -8140774.530 6  -6168154.60646  24545330.7184
  22773190.765   -14564168.951 8 -11178015.49146  22773194.5874
  23303752.704   -10395807.901 6  -7947311.39046  23303757.1474
  26026331.998     3605467.228 5   2914660.03145  26026336.5464
 02  1 30  4 14  0.0040000  0  8 08 10 27 17 23 28 26 02
  22214746.677   -14583345.625 8 -11207861.95547  22214751.1204
  21768114.762   -17133682.702 6  -8765060.36147  21768119.6744
  25046852.892     1331647.999 5   1211209.96245  25046859.0934
  25549339.837    -1961131.292 5  -1418240.49545  25549346.0624
  24530578.487    -8218269.502 6  -6228540.26846  24530583.7034
  22767989.108   -14591503.793 8 -11199315.34646  22767992.5664
  23292657.186   -10454116.332 6  -7992746.52846  23292662.0514
  26042285.232     3689300.246 5   2979984.45645  26042289.1824
 02  1 30  4 14 30.0040000  0  8 08 10 27 17 23 28 26 02
  22229236.126   -14507203.479 8 -11148530.40847  22229240.3934
  21775693.298   -17093857.105 6  -8734027.43547  21775698.2804
  25064899.133     1426480.935 5   1285105.71645  25064903.0954
  25543096.391    -1993939.307 5  -1443805.27145  25543100.8574
  24515875.190    -8295536.933 6  -6288748.64146  24515879.9034
  22762888.351   -14618308.275 8 -11220201.92546  22762892.1964
  23281593.394   -10512255.347 6  -8038049.62546  23281598.5294
  26058289.695     3773407.835 5   3045522.91945  26058294.9124
 02  1 30  4 15  0.0040000  0  8 08 10 27 17 23 28 26 02
  22243783.396   -14430755.873 8 -11088960.84747  22243787.9094
  21783377.795   -17053475.065 6  -8702560.92047  21783382.7654
  25082958.523     1521383.484 5   1359055.71845  25082963.6114
  25536956.732    -2026198.217 4  -1468942.10945  25536961.9724
  24501215.834    -8372573.954 6  -6348777.48246  24501220.0784
  22757888.825   -14644580.359 8 -11240673.66246  22757892.4124
  23270562.598   -10570223.719 7  -8083219.76946  23270567.0534
  26074347.320     3857788.577 5   3111274.11645  26074352.8884
 02  1 30  4 15 30.0040000  0  8 08 10 27 17 23 28 26 02
  22258388.072   -14354008.025 8 -11029157.32947  22258392.5034
  21791167.498   -17012540.103 7  -8670663.56047  21791172.5734
  25101030.616     1616351.273 5   1433056.55045  25101036.5244
  25530922.479    -2057909.999 5  -1493652.55645  25530927.5324
  24486599.217    -8449381.284 6  -6408627.31646  24486603.9644
  22752990.530   -14670321.752 8 -11260731.86246  22752993.8604
  23259563.766   -10628023.544 7  -8128258.56146  23259568.5024
  26090455.944     3942437.363 5   3177234.24245  26090462.5904
 02  1 30  4 16  0.0040000  0  8 08 10 27 17 23 28 26 02
  22273049.309   -14276962.481 8 -10969121.84747  22273053.8684
  21799062.102   -16971053.643 6  -8638336.45647  21799066.8974
  25119113.507     1711382.683 5   1507106.95445  25119118.2554
  25524992.227    -2089073.838 4  -1517936.14145  25524996.6224
  24472027.458    -8525957.080 6  -6468296.76146  24472032.5454
  22748193.032   -14695531.558 8 -11280375.84446  22748196.2914
  23248596.557   -10685654.704 6  -8173165.93746  23248601.1054
  26106613.513     4027351.624 5   3243401.20645  26106618.8124
 02  1 30  4 16 30.0040000  0  8 08 10 27 17 23 28 26 02
  22287766.120   -14199625.356 8 -10908859.14947  22287770.3404
  21807060.677   -16929020.156 6  -8605583.10047  21807065.6004
  25137209.202     1806472.024 5   1581202.52745  25137212.7774
  25519165.944    -2119692.700 4  -1541795.00745  25519170.9614
  24457499.161    -8602303.145 6  -6527787.19346  24457504.7294
  22743496.423   -14720212.960 8 -11299608.08846  22743499.8704
  23237661.408   -10743120.615 7  -8217944.54146  23237665.8394
  26122821.442     4112525.252 5   3309770.30345  26122826.9874
 02  1 30  4 17  0.0040000  0  8 08 10 27 17 23 28 26 02
  22302539.533   -14121992.083 8 -10848365.69447  22302543.5654
  21815164.691   -16886433.644 7  -8572398.81447  21815169.7444
  25155316.018     1901624.961 5   1655347.63145  25155321.0124
  25513443.914    -2149758.679 4  -1565222.95045  25513449.2124
  24443016.395    -8678410.234 6  -6587091.40146  24443020.9784
  22738901.639   -14744357.811 8 -11318422.23247  22738905.5424
  23226758.725   -10800413.575 7  -8262588.38646  23226762.8984
  26139080.182     4197963.012 5   3376345.21045  26139085.4574
 02  1 30  4 17 30.0040000  0  8 08 10 27 17 23 28 26 02
  22317368.061   -14044065.699 8 -10787643.83147  22317372.2804
  21823373.445   -16843296.058 7  -8538785.11747  21823378.5094
  25173434.954     1996839.163 5   1729540.46345  25173439.1974
  25507827.645    -2179271.964 4  -1588220.37445  25507832.7794
  24428579.522    -8754277.233 6  -6646208.52446  24428584.7394
  22734409.361   -14767965.784 8 -11336818.04047  22734413.2884
  23215889.048   -10857534.084 7  -8307097.84946  23215893.4794
  26155388.161     4283661.622 5   3443123.34545  26155391.7604
 02  1 30  4 18  0.0040000  0  8 08 10 27 17 23 28 26 02
  22332252.739   -13965847.669 8 -10726694.72847  22332257.2404
  21831687.152   -16799607.191 7  -8504741.85847  21831692.0874
  25191565.108     2092114.110 5   1803780.65945  25191570.8164
  25502316.767    -2208230.765 4  -1610785.67545  25502324.5854
  24414188.666    -8829901.201 6  -6705136.28046  24414193.1564
  22730019.381   -14791034.870 8 -11354793.92846  22730023.2854
  23205052.633   -10914480.565 7  -8351471.72446  23205056.6544
  26171745.625     4369619.760 5   3510103.72945  26171752.0724
 02  1 30  4 18 30.0040000  0  8 08 10 27 17 23 28 26 02
  22347192.203   -13887340.179 8 -10665520.05747  22347196.3524
  21840105.642   -16755367.747 7  -8470269.57747  21840110.8004
  25209706.676     2187448.424 5   1878067.07345  25209711.6114
  25496911.715    -2236634.089 4  -1632918.17245  25496917.9274
  24399844.752    -8905279.806 6  -6763872.84046  24399849.8404
  22725732.148   -14813564.133 7 -11372349.18246  22725735.9814
  23194249.144   -10971252.147 7  -8395709.29846  23194253.2244
  26188151.932     4455835.238 5   3577284.60845  26188156.3394
 02  1 30  4 19  0.0040000  0  8 08 10 27 17 23 28 26 02
  22362186.286   -13808544.806 8 -10604121.06347  22362190.3894
  21848628.892   -16710578.279 7  -8435368.70147  21848634.1674
  25227858.995     2282841.208 5   1952399.08045  25227865.3604
  25491613.558    -2264480.530 4  -1654616.70345  25491616.5824
  24385547.806    -8980410.311 6  -6822416.06546  24385553.0464
  22721548.072   -14835552.152 8 -11389482.68846  22721551.9054
  23183479.514   -11027847.876 7  -8439809.84646  23183483.5464
  26204606.528     4542306.438 5   3644664.79845  26204611.8974
 02  1 30  4 19 30.0040000  0  8 08 10 27 17 23 28 26 02
  22377234.349   -13729466.465 8 -10542501.56947  22377238.6044
  21857255.953   -16665242.088 7  -8400041.80547  21857261.0874
  25246021.879     2378288.512 5   2026773.58145  25246027.0484
  25486420.033    -2291771.767 4  -1675882.67445  25486426.0824
  24371298.371    -9055293.109 6  -6880766.28246  24371302.2284
  22717466.492   -14857000.093 8 -11406195.34347  22717469.9504
  23172742.821   -11084269.565 7  -8483774.78646  23172746.8654
  26221109.038     4629028.737 5   3712240.66045  26221113.3164
 02  1 30  4 20  0.0040000  0  8 08 10 27 17 23 28 26 02
  22392336.524   -13650104.857 8 -10480661.35747  22392340.8034
  21865987.599   -16619357.740 6  -8364287.77347  21865992.5934
  25264195.763     2473791.504 5   2101191.45145  25264201.4494
  25481333.402    -2318504.415 5  -1696713.33145  25481337.0364
  24357096.755    -9129923.463 6  -6938919.79146  24357100.9174
  22713488.727   -14877904.545 8 -11422484.50347  22713492.3374
  23162039.621   -11140514.038 7  -8527601.62546  23162043.8994
  26237660.627     4716002.316 5   3780012.24545  26237663.3814
 02  1 30  4 20 30.0040000  0  8 08 10 27 17 23 28 26 02
  22407492.051   -13570461.725 8 -10418601.77646  22407496.1424
  21874823.425   -16572925.745 6  -8328107.00647  21874828.6654
  25282380.406     2569349.216 5   2175651.93045  25282384.8024
  25476353.430    -2344677.185 5  -1717107.70445  25476359.7254
  24342943.098    -9204298.694 6  -6996874.50646  24342947.8684
  22709614.203   -14898264.134 8 -11438349.09747  22709617.8134
  23151370.857   -11196580.279 7  -8571289.57646  23151375.4054
  26254257.608     4803225.403 5   3847978.28745  26254261.1484
 02  1 30  4 21  0.0040000  0  8 08 10 27 17 23 28 26 02
  22422700.346   -13490541.550 8 -10356326.30646  22422704.7194
  21883762.787   -16525949.074 7  -8291501.81747  21883767.8154
  25300573.935     2664958.232 5   2250152.44345  25300579.2104
  25471478.281    -2370291.390 4  -1737066.88745  25471484.8924
  24328838.984    -9278418.617 6  -7054630.28046  24328843.5214
  22705843.469   -14918080.000 8 -11453790.00047  22705846.9394
  23140735.474   -11252469.594 7  -8614839.68046  23140739.8584
  26270902.537     4890693.615 5   3916135.33545  26270906.7684
 02  1 30  4 21 30.0040000  0  8 08 10 27 17 23 28 26 02
  22437961.568   -13410343.254 8 -10293834.12846  22437966.0354
  21892805.947   -16478425.953 7  -8254470.81947  21892811.0354
  25318777.887     2760620.155 5   2324694.19745  25318782.1784
  25466712.216    -2395343.426 5  -1756587.96745  25466719.8594
  24314783.490    -9352278.053 6  -7112183.06646  24314788.0974
  22702176.733   -14937348.315 8 -11468804.24147  22702180.4614
  23130134.404   -11308178.376 7  -8658249.08146  23130138.5654
  26287593.412     4978407.730 4   3984484.06745  26287601.0204
 02  1 30  4 22  0.0040000  0  8 08 10 27 17 23 28 26 02
  22453275.330   -13329868.928 8 -10231126.85946  22453279.4334
  21901953.361   -16430356.820 7  -8217014.36647  21901958.4014
  25336990.864     2856333.849 5   2399276.23045  25336995.9754
  25462051.537    -2419832.246 4  -1775670.19045  25462055.8034
  24300778.720    -9425874.545 6  -7169530.95746  24300783.4794
  22698614.474   -14956067.671 8 -11483390.72747  22698617.8974
  23119567.816   -11363705.649 7  -8701517.05946  23119571.7314
  26304332.163     5066365.867 5   4053022.91345  26304339.1144
 02  1 30  4 22 30.0040000  0  8 08 10 27 17 23 28 26 02
  22468641.295   -13249121.016 8 -10168206.40146  22468645.6334
  21911204.083   -16381743.177 6  -8179133.60947  21911209.2174
  25355214.020     2952097.633 5   2473897.34045  25355220.9254
  25457498.045    -2443757.395 4  -1794313.12045  25457502.7814
  24286823.961    -9499206.199 6  -7226672.50746  24286828.7794
  22695156.966   -14974237.593 8 -11497549.08847  22695160.3534
  23109035.854   -11419051.136 7  -8744643.38746  23109039.9684
  26321115.705     5154565.493 5   4121749.90845  26321123.4534
 02  1 30  4 23  0.0040000  0  8 08 10 27 17 23 28 26 02
  22484058.276   -13168102.968 8 -10105075.45046  22484062.4964
  21920558.248   -16332587.251 6  -8140830.29747  21920563.1714
  25373446.681     3047909.037 5   2548555.50445  25373453.2574
  25453052.226    -2467119.459 4  -1812517.32545  25453056.5174
  24272920.123    -9572271.984 6  -7283606.85646  24272925.5854
  22691803.593   -14991858.515 8 -11511279.65847  22691807.1214
  23098538.434   -11474215.336 7  -8787628.45046  23098542.6544
  26337944.654     5243003.212 5   4190662.43145  26337951.2064
 02  1 30  4 23 30.0040000  0  8 08 10 27 17 23 28 26 02
  22499526.787   -13086815.327 8 -10041734.43546  22499531.3124
  21930015.543   -16282888.642 7  -8102104.11747  21930020.5364
  25391688.055     3143768.383 5   2623251.07145  25391694.5374
  25448714.562    -2489916.159 5  -1830280.98845  25448718.4774
  24259067.726    -9645068.134 6  -7340331.12446  24259072.4154
  22688555.601   -15008927.854 8 -11524580.42047  22688558.9534
  23088076.246   -11529195.746 7  -8830470.31346  23088080.0674
  26354818.758     5331678.402 5   4259759.99945  26354824.6074
 02  1 30  4 24  0.0040000  0  8 08 10 27 17 23 28 26 02
  22515045.951   -13005261.984 7  -9978186.36946  22515050.1954
  21939575.580   -16232650.195 7  -8062957.28147  21939580.7384
  25409938.964     3239672.707 5   2697981.64245  25409943.2074
  25444483.757    -2512148.247 4  -1847604.70045  25444488.7854
  24245266.265    -9717593.898 6  -7396844.68146  24245271.8564
  22685412.237   -15025446.267 8 -11537451.89547  22685415.8244
  23077648.226   -11583993.441 7  -8873169.79546  23077652.1424
  26371737.821     5420587.120 5   4329039.51845  26371742.1584
 02  1 30  4 24 30.0040000  0  8 08 10 27 17 23 28 26 02
  22530615.694   -12923443.317 8  -9914431.55546  22530619.8324
  21949238.606   -16181870.848 7  -8023388.96847  21949243.6114
  25428197.318     3335622.435 5   2772747.59945  25428202.1714
  25440361.353    -2533813.675 5  -1864486.82845  25440367.6944
  24231517.088    -9789845.311 6  -7453144.48346  24231521.9174
  22682374.246   -15041411.425 8 -11549892.25647  22682377.6924
  23067255.878   -11638605.856 7  -8915724.90646  23067259.5714
  26388701.578     5509728.925 5   4398500.67245  26388707.0634
 02  1 30  4 25  0.0040000  0  8 08 10 27 17 23 28 26 02
  22546235.473   -12841360.150 8  -9850470.64346  22546239.7634
  21959004.501   -16130550.682 6  -7983399.23647  21959009.4364
  25446464.608     3431617.539 5   2847548.98445  25446470.5514
  25436346.117    -2554910.429 5  -1880925.91245  25436352.5884
  24217821.255    -9861818.896 6  -7509227.77746  24217826.1194
  22679441.741   -15056821.175 8 -11561899.83247  22679445.4104
  23056899.102   -11693031.194 7  -8958134.23546  23056903.1814
  26405708.014     5599103.030 5   4468142.83845  26405715.0124
 02  1 30  4 25 30.0040000  0  7 08 10 27 17 23 28 26
  22561904.767   -12759017.430 7  -9786307.48646  22561909.5274
  21968872.568   -16078693.429 7  -7942991.00147  21968877.7964
  25464740.293     3527654.045 5   2922382.53545  25464744.4674
  25432439.853    -2575440.485 5  -1896923.34545  25432444.1324
  24204177.940    -9933515.110 6  -7565094.94546  24204182.7224
  22676614.742   -15071677.374 8 -11573476.07847  22676618.4704
  23046577.586   -11747271.259 7  -9000399.20246  23046581.6534
 02  1 30  4 26  0.0040000  0  7 08 10 27 17 23 28 26
  22577623.344   -12676415.481 7  -9721942.34446  22577627.6934
  21978843.185   -16026298.361 7  -7902163.68347  21978848.2264
  25483022.974     3623732.577 5   2997248.88645  25483029.6094
  25428640.916    -2595401.687 4  -1912477.59245  25428647.8674
  24190587.864   -10004929.802 6  -7620742.74346  24190593.0344
  22673893.458   -15085977.429 8 -11584618.96247  22673896.7404
  23036291.695   -11801323.595 7  -9042517.88146  23036295.7284
 02  1 30  4 26 30.0040000  0  7 08 10 27 17 23 28 26
  22593391.206   -12593554.199 7  -9657375.11046  22593395.5434
  21988916.144   -15973364.602 6  -7860916.60847  21988921.1964
  25501313.829     3719854.223 5   3072148.85245  25501319.1754
  25424951.820    -2614791.120 4  -1927586.24645  25424958.3384
  24177052.535   -10076058.534 6  -7676167.71746  24177057.4944
  22671278.488   -15099718.414 8 -11595326.19447  22671281.9934
  23026042.248   -11855185.204 7  -9084487.95146  23026046.2694
 02  1 30  4 27  0.0040000  0  7 08 10 27 17 23 28 26
  22609208.244   -12510435.644 7  -9592607.41146  22609212.3944
  21999091.406   -15919893.409 7  -7819250.75247  21999096.4824
  25519613.819     3816017.637 5   3147081.31145  25519619.1884
  25421371.676    -2633608.140 5  -1942248.84545  25421376.4234
  24163572.049   -10146899.113 6  -7731368.15346  24163576.3864
  22668770.256   -15112899.688 8 -11605597.30247  22668773.8674
  23015829.176   -11908855.260 7  -9126308.75146  23015833.8424
 02  1 30  4 27 30.0040000  0  7 08 10 27 17 23 28 26
  22625073.610   -12427062.951 7  -9527641.68046  22625078.0054
  22009368.360   -15865886.742 7  -7777167.64247  22009373.2484
  25537920.395     3912220.668 5   3222044.62945  25537927.8034
  25417899.062    -2651853.280 5  -1956465.85345  25417903.0134
  24150146.533   -10217450.264 6  -7786343.05446  24150152.0194
  22666368.351   -15125521.314 8 -11615432.31347  22666371.7034
  23005652.067   -11962333.825 7  -9167980.33146  23005656.3224
 02  1 30  4 28  0.0040000  0  7 08 10 27 17 23 28 26
  22640986.230   -12343440.820 7  -9462481.58146  22640990.4154
  22019746.835   -15811348.444 7  -7734670.27547  22019751.7824
  25556233.846     4008459.540 5   3297035.91545  25556238.8284
  25414535.765    -2669528.686 5  -1970238.89845  25414543.7014
  24136776.376   -10287712.335 6  -7841092.70046  24136781.6864
  22664072.773   -15137585.211 8 -11624832.73047  22664076.1494
  22995511.700   -12015622.864 7  -9209504.22846  22995516.1074
 02  1 30  4 28 30.0040000  0  7 08 10 27 17 23 28 26
  22656947.331   -12259566.219 7  -9397124.75846  22656951.7864
  22030227.144   -15756274.786 7  -7691755.74847  22030232.0674
  25574555.619     4104738.177 5   3372058.17745  25574560.9654
  25411281.954    -2686628.674 4  -1983563.51245  25411289.0694
  24123462.207   -10357677.696 6  -7895611.13346  24123467.5174
  22661884.447   -15149085.847 8 -11633794.25647  22661887.8004
  22985408.577   -12068716.192 7  -9250875.63646  22985412.8094
 02  1 30  4 29  0.0040000  0  7 08 10 27 17 23 28 26
  22672955.456   -12175441.190 7  -9331572.79646  22672959.7114
  22040809.016   -15700666.681 6  -7648424.76747  22040813.8104
  25592884.158     4201055.411 5   3447110.52545  25592889.2224
  25408137.061    -2703152.704 5  -1996439.39845  25408142.8994
  24110205.256   -10427343.794 6  -7949896.39146  24110210.2384
  22659803.358   -15160022.020 8 -11642315.92747  22659806.6054
  22975342.471   -12121613.184 7  -9292094.05046  22975347.1834
 02  1 30  4 29 30.0040000  0  7 08 10 27 17 23 28 26
  22689011.422   -12091067.312 7  -9265826.92246  22689015.9234
  22051492.508   -15644525.025 6  -7604678.03647  22051497.2554
  25611220.127     4297410.350 5   3522192.29045  25611224.6524
  25405102.075    -2719100.191 4  -2008866.02045  25405108.3824
  24097005.675   -10496708.338 6  -8003946.66746  24097010.6574
  22657829.910   -15170393.017 8 -11650397.20047  22657833.3334
  22965314.290   -12174312.550 7  -9333158.48246  22965318.6274
 02  1 30  4 30  0.0040000  0  7 08 10 27 17 23 28 26
  22705113.959   -12006448.426 7  -9199890.13546  22705118.1324
  22062276.745   -15587852.992 7  -7560518.01747  22062281.9264
  25629561.430     4393800.135 5   3597301.15245  25629567.0684
  25402177.881    -2734472.110 5  -2020844.15745  25402182.3594
  24083863.532   -10565770.676 6  -8057761.45946  24083868.3734
  22655963.551   -15180199.809 8 -11658038.84047  22655966.6114
  22955323.150   -12226815.245 7  -9374069.65346  22955327.4294
 02  1 30  4 30 30.0040000  0  7 08 10 27 17 23 28 26
  22721262.839   -11921584.550 7  -9133762.44946  22721267.0354
  22073161.948   -15530649.642 8  -7515943.99747  22073167.1644
  25647911.494     4490225.954 5   3672438.09345  25647917.9884
  25399361.915    -2749266.122 5  -2032371.95845  25399366.7804
  24070779.644   -10634526.308 6  -8111337.25546  24070784.1224
  22654205.302   -15189439.825 8 -11665238.82947  22654208.4324
  22945370.401   -12279118.232 7  -9414825.21546  22945374.6564
