     2.00           Observation         G (GPS)             RINEX VERSION / TYPE
TRRINEXO V2.9.7 LHm ICC                 07/12/2007 18:07:54 PGM / RUN BY / DATE
EBRE                                                        MARKER NAME
ICC                 ICC                                     OBSERVER / AGENCY
17999               TRIMBLE 4000SSI     7.29 / 3.07         REC # / TYPE / VERS
0220071796          TRM29659.00                             ANT # / TYPE
  4833520.3800    41536.8300  4147461.2800                  APPROX POSITION XYZ
        0.0000        0.0000        0.0000                  ANTENNA: DELTA H/E/N
     1     1                                                WAVELENGTH FACT L1/2
     5    C1    L1    L2    P2    P1                        # / TYPES OF OBSERV
    30.000                                                  INTERVAL
  2002     1    30    11     0    0.0090000     GPS         TIME OF FIRST OBS
13410M001                                                   MARKER NUMBER
Edited by GPSTK Rinex Editor ver 3.0 9/8/2003 on 2007/07/12 COMMENT
                                                            END OF HEADER
 02  1 30 11  0  0.0090000  0  8G 5G 6G 9G14G24G25G29G30
  24583730.905    -8655288.540 7  -6586952.15846  24583741.9474          0.000  
  23437293.698   -18532034.601 6 -14288536.34247  23437301.9154          0.000  
  26844378.574     4713364.150 5   3852409.79445  26844396.3794          0.000  
  25199100.311    -8760337.776 7   2587647.08446  25199110.6504          0.000  
  26387427.458    -3855205.194 6    489644.22545  26387442.6504          0.000  
  26044284.559    -7854059.733 6  -5944691.53046  26044295.9184          0.000  
  25049524.081    -9354745.880 6   2771669.80346  25049535.2174          0.000  
  23020165.498   -18806233.014 6 -14459854.66147  23020173.1414          0.000  
 02  1 30 11  0 30.0090000  0  8G 5G 6G 9G14G24G25G29G30
  24597653.972    -8582122.003 7  -6529939.38746  24597664.9094          0.000  
  23432646.020   -18556458.287 6 -14307567.75447  23432654.2254          0.000  
  26866061.379     4827304.283 5   3941193.77345  26866079.5134          0.000  
  25211095.503    -8697304.047 7   2636764.14346  25211105.1034          0.000  
  26393445.919    -3823578.123 6    514288.65345  26393460.8884          0.000  
  26029059.049    -7934069.426 6  -6007036.60246  26029070.0454          0.000  
  25062361.860    -9287284.429 6   2824237.01946  25062373.1954          0.000  
  23024893.700   -18781385.794 6 -14440493.21747  23024901.6004          0.000  
 02  1 30 11  1  0.0090000  0  8G 5G 6G 9G14G24G25G29G30
  24611610.566    -8508779.593 7  -6472789.56546  24611621.0344          0.000  
  23428086.219   -18580419.268 6 -14326238.62547  23428094.4954          0.000  
  26887770.013     4941383.307 5   4030085.97345  26887787.6784          0.000  
  25223178.438    -8633806.786 6   2686242.40146  25223188.2024          0.000  
  26399567.442    -3791409.282 6    539355.23045  26399583.3494          0.000  
  26013867.496    -8013901.423 6  -6069243.23346  26013878.5734          0.000  
  25075282.362    -9219388.480 6   2877142.80146  25075293.5334          0.000  
  23029678.166   -18756243.251 6 -14420901.65747  23029686.1024          0.000  
 02  1 30 11  1 30.0090000  0  8G 5G 6G 9G14G24G25G29G30
  24625600.721    -8435262.872 7  -6415503.92446  24625611.4474          0.000  
  23423614.436   -18603918.520 6 -14344549.70547  23423622.7004          0.000  
  26909505.350     5055598.523 5   4119084.25545  26909523.5904          0.000  
  25235349.387    -8569849.245 6   2736079.30246  25235359.1644          0.000  
  26405792.090    -3758700.117 5    564842.81845  26405807.5984          0.000  
  25998709.845    -8093554.707 6  -6131310.59946  25998721.1454          0.000  
  25088284.566    -9151061.813 6   2930384.22546  25088295.1984          0.000  
  23034518.525   -18730806.914 6 -14401081.15547  23034526.2974          0.000  
 02  1 30 11  2  0.0090000  0  8G 5G 6G 9G14G24G25G29G30
  24639623.493    -8361573.620 7  -6358083.85146  24639634.5124          0.000  
  23419230.374   -18626957.104 6 -14362501.81747  23419238.7554          0.000  
  26931265.206     5169947.079 5   4208186.45245  26931282.9424          0.000  
  25247606.891    -8505435.358 6   2786271.84146  25247616.9724          0.000  
  26412118.817    -3725452.613 6    590749.92145  26412134.7244          0.000  
  25983586.735    -8173028.141 6  -6193237.81446  25983598.0124          0.000  
  25101368.125    -9082308.271 6   2983958.27946  25101379.0274          0.000  
  23039414.591   -18705078.212 6 -14381032.84347  23039422.5154          0.000  
 02  1 30 11  2 30.0090000  0  8G 5G 6G 9G14G24G25G29G30
  24653679.113    -8287711.242 7  -6300528.86746  24653689.7334          0.000  
  23414934.123   -18649533.613 6 -14380093.86547  23414942.5864          0.000  
  26953050.785     5284428.408 5   4297392.09745  26953068.8614          0.000  
  25259951.208    -8440566.179 6   2836819.11646  25259960.9264          0.000  
  26418548.364    -3691666.129 5    617076.98945  26418563.7904          0.000  
  25968497.744    -8252319.210 6  -6255022.93946  25968509.7944          0.000  
  25114532.193    -9013129.136 6   3037863.96846  25114543.4824          0.000  
  23044366.437   -18679056.043 6 -14360755.84947  23044374.0214          0.000  
 02  1 30 11  3  0.0090000  0  8G 5G 6G 9G14G24G25G29G30
  24667767.322    -8213677.083 7  -6242840.01946  24667777.9544          0.000  
  23410725.636   -18671648.927 6 -14397326.54847  23410734.0174          0.000  
  26974860.843     5399040.030 5   4386699.27945  26974878.1574          0.000  
  25272381.599    -8375245.188 7   2887718.48346  25272391.2824          0.000  
  26425079.784    -3657342.359 6    643822.72245  26425094.7304          0.000  
  25953444.087    -8331426.071 6  -6316664.52646  25953455.2354          0.000  
  25127776.895    -8943527.896 6   3092098.55746  25127788.2424          0.000  
  23049373.917   -18652741.728 6 -14340251.21447  23049381.8414          0.000  
 02  1 30 11  3 30.0090000  0  8G 5G 6G 9G14G24G25G29G30
  24681888.554    -8139469.557 7  -6185016.09946  24681899.2804          0.000  
  23406605.391   -18693300.992 6 -14414198.24647  23406613.7494          0.000  
  26996696.354     5513782.201 5   4476108.15945  26996715.6254          0.000  
  25284897.561    -8309473.033 6   2938969.38046  25284907.7244          0.000  
  26431714.199    -3622479.783 6    670988.30245  26431729.8484          0.000  
  25938426.400    -8410344.862 6  -6378159.55846  25938437.4084          0.000  
  25141102.034    -8873505.405 6   3146661.38846  25141113.5684          0.000  
  23054437.327   -18626133.616 6 -14319517.64247  23054445.0994          0.000  
 02  1 30 11  4  0.0090000  0  8G 5G 6G 9G14G24G25G29G30
  24696042.232    -8065091.538 7  -6127059.31646  24696052.8884          0.000  
  23402572.829   -18714492.147 6 -14430710.79547  23402581.2454          0.000  
  27018555.780     5628651.262 5   4565615.93245  27018573.5864          0.000  
  25297498.905    -8243254.284 6   2990568.28746  25297508.5524          0.000  
  26438450.351    -3587081.292 6    698571.46245  26438466.1184          0.000  
  25923444.065    -8489075.643 6  -6439508.08846  25923455.3184          0.000  
  25154506.177    -8803066.406 6   3201548.78546  25154517.5594          0.000  
  23059556.220   -18599234.205 6 -14298557.07847  23059563.9214          0.000  
 02  1 30 11  4 30.0090000  0  8G 5G 6G 9G14G24G25G29G30
  24710228.235    -7990544.145 7  -6068970.56946  24710239.0784          0.000  
  23398627.918   -18735222.786 6 -14446864.50347  23398636.3114          0.000  
  27040438.365     5743645.077 5   4655220.89145  27040456.7694          0.000  
  25310184.684    -8176591.974 7   3042512.84546  25310194.4014          0.000  
  26445287.887    -3551148.094 6    726571.26445  26445301.8244          0.000  
  25908498.603    -8567616.654 6  -6500708.75846  25908509.8324          0.000  
  25167988.957    -8732214.136 6   3256758.18946  25167999.8594          0.000  
  23064730.418   -18572044.187 6 -14277370.07647  23064738.0844          0.000  
 02  1 30 11  5  0.0090000  0  8G 5G 6G 9G14G24G25G29G30
  24724446.549    -7915826.155 7  -6010748.88146  24724457.8264          0.000  
  23394770.977   -18755491.291 6 -14462658.10047  23394779.2884          0.000  
  27062345.755     5858763.550 5   4744922.99645  27062365.3434          0.000  
  25322954.090    -8109487.110 6   3094802.23546  25322963.3984          0.000  
  26452227.866    -3514679.117 6    754988.57845  26452241.8274          0.000  
  25893589.275    -8645964.361 6  -6561758.79346  25893600.1764          0.000  
  25181550.482    -8660949.569 6   3312288.89846  25181561.1144          0.000  
  23069960.084   -18544562.218 6 -14255955.57347  23069967.6804          0.000  
 02  1 30 11  5 30.0090000  0  8G 5G 6G 9G14G24G25G29G30
  24738697.994    -7840935.164 7  -5952392.38646  24738708.8494          0.000  
  23391002.460   -18775294.831 6 -14478089.39347  23391010.8064          0.000  
  27084276.325     5974007.604 5   4834722.92845  27084295.9474          0.000  
  25335808.387    -8041939.380 6   3147436.71546  25335818.6324          0.000  
  26459270.411    -3477672.629 6    783824.71745  26459285.7444          0.000  
  25878717.988    -8724113.605 6  -6622654.18946  25878728.6554          0.000  
  25195190.498    -8589272.612 6   3368140.91646  25195200.9664          0.000  
  23075245.898   -18516785.624 7 -14234311.49847  23075253.3774          0.000  
 02  1 30 11  6  0.0090000  0  8G 5G 6G 9G14G24G25G29G30
  24752981.584    -7765875.015 7  -5893904.08946  24752992.5674          0.000  
  23387321.758   -18794636.848 6 -14493161.05847  23387329.9754          0.000  
  27106230.219     6089372.427 5   4924616.98545  27106248.7984          0.000  
  25348744.911    -7973954.745 6   3200411.65246  25348755.2384          0.000  
  26466413.994    -3440132.615 6    813076.62545  26466430.0884          0.000  
  25863883.938    -8802065.285 6  -6683395.66146  25863894.4304          0.000  
  25208907.352    -8517189.242 6   3424309.64146  25208918.4884          0.000  
  23080587.044   -18488718.190 7 -14212440.79947  23080594.7804          0.000  
 02  1 30 11  6 30.0090000  0  8G 5G 6G 9G14G24G25G29G30
  24767297.206    -7690646.511 7  -5835284.59246  24767308.4134          0.000  
  23383728.737   -18813517.739 6 -14507873.40547  23383736.7904          0.000  
  27128206.581     6204856.098 5   5014603.65345  27128224.0004          0.000  
  25361764.852    -7905536.139 6   3253724.71346  25361775.0044          0.000  
  26473659.008    -3402059.835 6    842743.64945  26473674.5284          0.000  
  25849088.136    -8879818.167 6  -6743982.19246  25849098.9204          0.000  
  25222700.831    -8444702.541 6   3480792.62946  25222712.4014          0.000  
  23085983.179   -18460360.485 7 -14190343.91047  23085990.6704          0.000  
 02  1 30 11  7  0.0090000  0  8G 5G 6G 9G14G24G25G29G30
  24781645.241    -7615248.647 7  -5776533.14046  24781656.3544          0.000  
  23380224.000   -18831935.892 6 -14522225.17947  23380232.1714          0.000  
  27150204.457     6320458.419 5   5104682.74845  27150222.8264          0.000  
  25374867.378    -7836684.414 6   3307375.28546  25374877.7284          0.000  
  26481005.087    -3363453.898 6    872826.16545  26481020.6434          0.000  
  25834330.617    -8957368.229 6  -6804410.68946  25834341.3074          0.000  
  25236571.177    -8371813.588 6   3537589.07246  25236582.9224          0.000  
  23091434.984   -18431711.103 6 -14168019.74647  23091442.7914          0.000  
 02  1 30 11  7 30.0090000  0  8G 5G 6G 9G14G24G25G29G30
  24796025.334    -7539681.241 7  -5717649.56546  24796036.4824          0.000  
  23376807.264   -18849890.637 6 -14536215.85847  23376815.5524          0.000  
  27172226.198     6436178.407 5   5194853.55345  27172244.5794          0.000  
  25388051.355    -7767401.680 6   3361361.69746  25388061.4484          0.000  
  26488453.044    -3324314.671 5    903324.21345  26488468.1894          0.000  
  25819612.194    -9034712.414 6  -6864678.76446  25819622.3924          0.000  
  25250518.203    -8298524.424 6   3594697.34946  25250530.1014          0.000  
  23096942.488   -18402769.735 7 -14145468.06347  23096950.1424          0.000  
 02  1 30 11  8  0.0090000  0  8G 5G 6G 9G14G24G25G29G30
  24810437.131    -7463946.406 7  -5658635.53346  24810448.6074          0.000  
  23373478.383   -18867383.668 6 -14549846.76747  23373486.7644          0.000  
  27194269.108     6552012.832 5   5285113.46845  27194288.3214          0.000  
  25401316.494    -7697692.225 6   3415680.63346  25401327.2554          0.000  
  26496002.315    -3284644.456 5    934236.03745  26496018.4804          0.000  
  25804933.915    -9111850.365 6  -6924786.12746  25804943.7624          0.000  
  25264540.042    -8224839.374 6   3652114.11246  25264551.3074          0.000  
  23102505.001   -18373538.092 6 -14122690.19147  23102512.5974          0.000  
 02  1 30 11  8 30.0090000  0  8G 5G 6G 9G14G24G25G29G30
  24824881.153    -7388044.228 7  -5599491.10546  24824892.5244          0.000  
  23370237.443   -18884414.835 6 -14563117.78447  23370245.6604          0.000  
  27216334.143     6667960.407 5   5375461.55945  27216354.3054          0.000  
  25414662.786    -7627557.955 6   3470330.58446  25414673.5824          0.000  
  26503652.366    -3244443.898 6    965561.08945  26503667.7574          0.000  
  25790294.248    -9188779.317 6  -6984730.62246  25790305.0204          0.000  
  25278636.873    -8150761.062 6   3709837.31946  25278648.6314          0.000  
  23108122.769   -18344016.132 7 -14099686.10347  23108130.5644          0.000  
 02  1 30 11  9  0.0090000  0  8G 5G 6G 9G14G24G25G29G30
  24839356.602    -7311974.694 7  -5540216.26746  24839367.9724          0.000  
  23367084.330   -18900983.697 6 -14576028.56447  23367092.5944          0.000  
  27238419.927     6784019.952 5   5465896.92645  27238440.9444          0.000  
  25428089.586    -7557001.181 6   3525309.75046  25428100.4644          0.000  
  26511403.392    -3203713.799 6    997298.77645  26511419.1464          0.000  
  25775695.098    -9265497.154 6  -7044510.63646  25775705.6604          0.000  
  25292807.605    -8076291.396 6   3767865.47946  25292820.0544          0.000  
  23113795.925   -18314203.577 7 -14076455.58347  23113803.6154          0.000  
 02  1 30 11  9 30.0090000  0  8G 5G 6G 9G14G24G25G29G30
  24853863.579    -7235739.767 7  -5480812.54746  24853875.1254          0.000  
  23364019.171   -18917091.798 6 -14588580.31747  23364027.3414          0.000  
  27260526.015     6900188.150 5   5556416.92645  27260544.5364          0.000  
  25441595.227    -7486026.268 6   3580614.75146  25441605.4844          0.000  
  26519254.136    -3162455.804 6   1029447.81845  26519269.2224          0.000  
  25761136.768    -9342002.661 6  -7104125.18646  25761146.5444          0.000  
  25307053.358    -8001434.896 6   3826195.03146  25307065.2914          0.000  
  23119524.196   -18284102.256 7 -14053000.05147  23119531.6754          0.000  
 02  1 30 11 10  0.0090000  0  8G 5G 6G 9G14G24G25G29G30
  24868402.574    -7159337.939 7  -5421278.78846  24868413.8984          0.000  
  23361041.933   -18932737.303 6 -14600771.61347  23361050.0454          0.000  
  27282654.090     7016465.515 5   5647022.01445  27282673.1154          0.000  
  25455181.337    -7414633.786 6   3636245.12146  25455192.1094          0.000  
  26527205.926    -3120669.056 6   1062008.87045  26527220.7904          0.000  
  25746619.114    -9418291.612 6  -7163571.00346  25746629.5354          0.000  
  25321371.191    -7926192.158 6   3884825.57946  25321382.8434          0.000  
  23125307.584   -18253710.317 6 -14029318.06847  23125315.2624          0.000  
 02  1 30 11 10 30.0090000  0  8G 5G 6G 9G14G24G25G29G30
  24882973.021    -7082771.726 7  -5361616.93146  24882984.1224          0.000  
  23358152.319   -18947922.171 6 -14612603.96847  23358160.5134          0.000  
  27304801.019     7132848.396 5   5737709.24845  27304822.8814          0.000  
  25468845.748    -7342828.122 6   3692197.45146  25468855.8414          0.000  
  26535257.665    -3078356.499 6   1094979.60445  26535273.0454          0.000  
  25732143.021    -9494364.297 6  -7222848.29046  25732153.0914          0.000  
  25335762.153    -7850567.972 6   3943753.34046  25335774.6144          0.000  
  23131145.832   -18223030.083 6 -14005411.43447  23131153.5574          0.000  
 02  1 30 11 11  0.0090000  0  8G 5G 6G 9G14G24G25G29G30
  24897574.368    -7006040.688 7  -5301826.64346  24897585.8214          0.000  
  23355350.496   -18962645.758 6 -14624076.88247  23355358.6194          0.000  
  27326968.692     7249336.078 5   5828478.19845  27326990.0144          0.000  
  25482588.029    -7270611.399 6   3748470.08746  25482598.3684          0.000  
  26543409.370    -3035518.586 5   1128359.73945  26543426.0394          0.000  
  25717708.876    -9570217.407 6  -7281954.49746  25717719.3794          0.000  
  25350225.188    -7774564.463 6   4002976.69246  25350236.8644          0.000  
  23137039.031   -18192060.857 6 -13981279.61947  23137046.8614          0.000  
 02  1 30 11 11 30.0090000  0  8G 5G 6G 9G14G24G25G29G30
  24912207.522    -6929143.482 7  -5241906.87546  24912219.3614          0.000  
  23352636.962   -18976906.568 6 -14635189.20147  23352645.0274          0.000  
  27349155.287     7365928.502 5   5919328.76245  27349176.0944          0.000  
  25496408.311    -7197984.502 6   3805062.32346  25496419.3064          0.000  
  26551661.322    -2992154.356 6   1162149.97945  26551677.3694          0.000  
  25703316.454    -9645846.860 6  -7340886.44146  25703326.5814          0.000  
  25364760.257    -7698182.611 6   4062494.85046  25364771.5114          0.000  
  23142987.454   -18160801.212 6 -13956921.50047  23142995.2964          0.000  
 02  1 30 11 12  0.0090000  0  8G 5G 6G 9G14G24G25G29G30
  24926872.232    -6852080.434 7  -5181857.87346  24926883.8254          0.000  
  23350011.134   -18990704.719 6 -14645941.00247  23350019.1524          0.000  
  27371362.690     7482623.889 5   6010259.49845  27371383.3794          0.000  
  25510306.451    -7124950.069 6   3861972.13446  25510316.8254          0.000  
  26560013.471    -2948264.697 6   1196349.61945  26560028.2064          0.000  
  25688967.955    -9721249.973 6  -7399642.00646  25688978.4704          0.000  
  25379366.510    -7621425.185 6   4122305.65646  25379377.4244          0.000  
  23148991.412   -18129251.234 6 -13932337.14647  23148999.1494          0.000  
 02  1 30 11 12 30.0090000  0  8G 5G 6G 9G14G24G25G29G30
  24941567.827    -6774853.948 7  -5121681.54046  24941579.3734          0.000  
  23347473.202   -19004042.498 6 -14656334.07647  23347481.0794          0.000  
  27393588.785     7599418.571 5   6101267.67445  27393608.9944          0.000  
  25524281.688    -7051512.744 6   3919195.87846  25524292.1444          0.000  
  26568465.025    -2903852.313 5   1230956.58645  26568480.7564          0.000  
  25674662.040    -9796427.031 6  -7458221.41646  25674672.4494          0.000  
  25394044.489    -7544296.963 6   4182405.44446  25394056.7744          0.000  
  23155050.054   -18097413.206 6 -13907528.33547  23155057.9544          0.000  
 02  1 30 11 13  0.0090000  0  8G 5G 6G 9G14G24G25G29G30
  24956295.190    -6697463.864 7  -5061377.69846  24956306.6074          0.000  
  23345022.552   -19016919.227 6 -14666367.89347  23345030.7344          0.000  
  27415833.277     7716311.861 5   6192352.64045  27415855.6314          0.000  
  25538332.216    -6977674.730 6   3976731.84646  25538342.8134          0.000  
  26577015.548    -2858917.600 5   1265970.56945  26577031.6194          0.000  
  25660399.997    -9871375.141 6  -7516622.45146  25660410.0904          0.000  
  25408791.488    -7466800.019 6   4242792.41946  25408803.4684          0.000  
  23161163.442   -18065286.661 6 -13882494.70047  23161171.3554          0.000  
 02  1 30 11 13 30.0090000  0  8G 5G 6G 9G14G24G25G29G30
  24971053.004    -6619911.724 7  -5000947.58146  24971064.7504          0.000  
  23342659.882   -19029336.234 6 -14676043.48247  23342667.9584          0.000  
  27438095.906     7833300.995 5   6283512.25245  27438117.7214          0.000  
  25552458.707    -6903439.775 6   4034577.11346  25552469.0934          0.000  
  26585665.299    -2813462.746 5   1301389.84545  26585681.1594          0.000  
  25646181.309    -9946092.941 6  -7574844.00546  25646191.7884          0.000  
  25423608.483    -7388938.346 6   4303463.64446  25423621.1664          0.000  
  23167331.431   -18032872.878 6 -13857237.24347  23167339.4844          0.000  
 02  1 30 11 14  0.0090000  0  8G 5G 6G 9G14G24G25G29G30
  24985841.263    -6542196.759 7  -4940390.60846  24985852.7634          0.000  
  23340384.535   -19041292.503 6 -14685360.04247  23340392.7764          0.000  
  27460376.685     7950385.583 5   6374746.26845  27460399.2384          0.000  
  25566660.533    -6828809.240 6   4092730.63346  25566672.0684          0.000  
  26594414.282    -2767487.999 5   1337214.25045  26594429.7434          0.000  
  25632007.484   -10020576.856 6  -7632883.31646  25632017.8594          0.000  
  25438494.036    -7310713.445 6   4364417.91846  25438506.5204          0.000  
  23173554.659   -18000170.740 6 -13831755.09647  23173562.5254          0.000  
 02  1 30 11 14 30.0090000  0  8G 5G 6G 9G14G24G25G29G30
  25000660.569    -6464322.202 6  -4879709.26046  25000671.5294          0.000  
  23338196.301   -19052791.132 6 -14694320.00147  23338204.6944          0.000  
  27482675.351     8067560.957 5   6466051.03345  27482700.4014          0.000  
  25580936.577    -6753788.950 6   4151187.84046  25580947.4314          0.000  
  26603261.537    -2720996.722 5   1373441.15745  26603277.5154          0.000  
  25617877.706   -10094827.939 6  -7690741.20046  25617888.3624          0.000  
  25453448.635    -7232131.101 6   4425650.70646  25453461.3304          0.000  
  23179831.896   -17967183.530 6 -13806050.81247  23179839.9494          0.000  
 02  1 30 11 15  0.0090000  0  8G 5G 6G 9G14G24G25G29G30
  25015510.505    -6386285.640 6  -4818901.67746  25015521.9224          0.000  
  23336095.776   -19063829.653 6 -14702921.43347  23336104.2514          0.000  
  27504991.246     8184828.295 5   6557427.47145  27505014.3624          0.000  
  25595286.737    -6678378.641 6   4209948.95746  25595297.1704          0.000  
  26612207.258    -2673987.045 6   1410072.01145  26612223.4114          0.000  
  25603793.756   -10168840.896 6  -7748413.53746  25603804.3064          0.000  
  25468469.776    -7153191.308 6   4487162.03346  25468481.5224          0.000  
  23186164.157   -17933908.501 6 -13780122.24947  23186172.2574          0.000  
 02  1 30 11 15 30.0090000  0  8G 5G 6G 9G14G24G25G29G30
  25030391.523    -6308086.779 7  -4757967.64546  25030403.1404          0.000  
  23334082.924   -19074407.563 6 -14711163.94547  23334091.0244          0.000  
  27527324.013     8302186.695 5   6648874.84145  27527345.9924          0.000  
  25609711.159    -6602580.363 6   4269012.38346  25609721.6274          0.000  
  26621251.426    -2626459.410 5   1447106.46345  26621267.8604          0.000  
  25589755.308   -10242612.444 6  -7805897.74346  25589765.6474          0.000  
  25483559.430    -7073896.331 6   4548950.12646  25483571.1644          0.000  
  23192550.821   -17900345.237 6 -13753969.08147  23192558.9214          0.000  
 02  1 30 11 16  0.0090000  0  8G 5G 6G 9G14G24G25G29G30
  25045302.605    -6229727.443 6  -4696908.56746  25045314.3044          0.000  
  23332157.188   -19084526.598 6 -14719048.88547  23332165.2884          0.000  
  27549674.616     8419633.002 5   6740390.72545  27549697.8504          0.000  
  25624207.986    -6526398.657 6   4328374.60146  25624219.1694          0.000  
  26630393.192    -2578417.072 5   1484541.99245  26630409.3684          0.000  
  25575763.073   -10316142.055 6  -7863193.45546  25575773.7164          0.000  
  25498716.026    -6994250.449 6   4611011.65746  25498727.7834          0.000  
  23198992.561   -17866495.292 6 -13727592.52647  23199000.5084          0.000  
 02  1 30 11 16 30.0090000  0  8G 5G 6G 9G14G24G25G29G30
  25060245.514    -6151204.890 6  -4635722.30646  25060257.1314          0.000  
  23330319.640   -19094183.802 6 -14726573.95847  23330327.6584          0.000  
  27572041.264     8537168.640 5   6831976.19645  27572062.6804          0.000  
  25638777.803    -6449832.873 6   4388036.10046  25638788.8344          0.000  
  26639634.334    -2529857.565 5   1522380.49945  26639649.8904          0.000  
  25561817.875   -10389424.421 6  -7920296.49846  25561828.5304          0.000  
  25513939.145    -6914253.400 6   4673346.81546  25513950.3984          0.000  
  23205488.953   -17832355.709 6 -13700990.27347  23205496.6304          0.000  
 02  1 30 11 17  0.0090000  0  8G 5G 6G 9G14G24G25G29G30
  25075218.196    -6072522.740 6  -4574411.68746  25075229.9884          0.000  
  23328569.073   -19103382.820 6 -14733742.00147  23328577.1274          0.000  
  27594424.067     8654788.738 5   6923627.48845  27594444.1594          0.000  
  25653420.073    -6372889.127 6   4447992.09246  25653430.8934          0.000  
  26648972.572    -2480785.114 5   1560618.73845  26648987.7644          0.000  
  25547919.481   -10462459.944 6  -7977207.19346  25547930.4294          0.000  
  25529227.433    -6833911.056 6   4735951.04346  25529239.2264          0.000  
  23212039.944   -17797930.013 6 -13674165.07947  23212047.9044          0.000  
 02  1 30 11 17 30.0090000  0  8G 5G 6G 9G14G24G25G29G30
  25090221.366    -5993681.316 6  -4512976.95146  25090233.1944          0.000  
  23326905.770   -19112123.656 6 -14740553.01847  23326913.9284          0.000  
  27616822.579     8772491.488 5   7015343.14045  27616845.5074          0.000  
  25668133.869    -6295569.915 6   4508240.68046  25668144.5364          0.000  
  26658407.751    -2431200.701 5   1599255.85445  26658423.6354          0.000  
  25534068.456   -10535246.555 6  -8033923.93846  25534079.4864          0.000  
  25544581.155    -6753226.397 6   4798821.99646  25544593.5344          0.000  
  23218645.405   -17763218.138 6 -13647116.88747  23218653.1894          0.000  
 02  1 30 11 18  0.0090000  0  8G 5G 6G 9G14G24G25G29G30
  25105254.481    -5914680.918 6  -4451418.34346  25105266.1334          0.000  
  23325329.520   -19120406.632 6 -14747007.26347  23325337.6084          0.000  
  27639236.850     8890275.774 5   7107122.38045  27639259.0404          0.000  
  25682918.449    -6217878.016 6   4568779.65446  25682929.2924          0.000  
  26667941.089    -2381105.651 5   1638290.86245  26667956.1524          0.000  
  25520265.635   -10607781.826 6  -8090444.83146  25520276.0214          0.000  
  25559999.995    -6672202.035 6   4861957.64046  25560013.1004          0.000  
  23225305.499   -17728220.119 7 -13619845.72747  23225313.1544          0.000  
 02  1 30 11 18 30.0090000  0  8G 5G 6G 9G14G24G25G29G30
  25120318.407    -5835521.235 6  -4389735.62546  25120330.9854          0.000  
  23323840.560   -19128231.273 6 -14753104.35947  23323848.6604          0.000  
  27661665.835     9008140.902 5   7198964.58545  27661687.6734          0.000  
  25697773.187    -6139815.371 6   4629607.53546  25697783.9954          0.000  
  26677571.020    -2330500.036 5   1677723.71345  26677587.0094          0.000  
  25506510.933   -10680062.412 6  -8146767.26646  25506521.6354          0.000  
  25575482.696    -6590840.132 6   4925356.31646  25575495.4494          0.000  
  23232020.082   -17692935.337 7 -13592351.11947  23232028.0184          0.000  
 02  1 30 11 19  0.0090000  0  8G 5G 6G 9G14G24G25G29G30
  25135412.280    -5756202.476 6  -4327928.95246  25135423.9914          0.000  
  23322438.482   -19135597.935 6 -14758844.58647  23322446.5704          0.000  
  27684110.911     9126085.058 4   7290868.35145  27684135.4454          0.000  
  25712698.137    -6061384.848 6   4690722.07646  25712709.5904          0.000  
  26687297.502    -2279385.529 5   1717553.09645  26687312.9994          0.000  
  25492805.084   -10752086.256 6  -8202889.64146  25492815.6224          0.000  
  25591029.545    -6509143.625 6   4989015.71246  25591041.7364          0.000  
  23238788.882   -17657364.240 6 -13564633.40347  23238796.7484          0.000  
 02  1 30 11 19 30.0090000  0  8G 5G 6G 9G14G24G25G29G30
  25150536.333    -5676725.529 6  -4265999.01246  25150548.6764          0.000  
  23321123.850   -19142507.350 6 -14764228.51947  23321131.9974          0.000  
  27706569.925     9244105.959 3   7382831.90045  27706595.8074          0.000  
  25727692.248    -5982589.723 6   4752120.70546  25727703.1964          0.000  
  26697120.942    -2227763.806 5   1757777.70945  26697136.8614          0.000  
  25479148.588   -10823851.543 6  -8258810.54746  25479158.4694          0.000  
  25606639.130    -6427115.917 6   5052933.17246  25606651.0164          0.000  
  23245612.388   -17621507.216 6 -13536692.90247  23245620.5234          0.000  
 02  1 30 11 20  0.0090000  0  8G 5G 6G 9G14G24G25G29G30
  25165690.500    -5597091.798 6  -4203946.89346  25165701.7654          0.000  
  23319895.748   -19148960.936 6 -14769257.26647  23319903.8834          0.000  
  27729043.031     9362201.130 3   7474853.35945  27729068.0114          0.000  
  25742755.001    -5903433.808 6   4813800.49146  25742765.7274          0.000  
  26707040.752    -2175636.736 5   1798396.09045  26707057.0114          0.000  
  25465541.586   -10895356.783 6  -8314528.81846  25465551.9954          0.000  
  25622310.863    -6344760.802 6   5117105.79046  25622322.6794          0.000  
  23252489.815   -17585365.421 6 -13508530.49447  23252497.9624          0.000  
 02  1 30 11 20 30.0090000  0  8G 5G 6G 9G14G24G25G29G30
  25180875.033    -5517297.655 6  -4141769.79346  25180886.8614          0.000  
  23318755.052   -19154955.201 6 -14773928.10547  23318763.2114          0.000  
  27751531.080     9480372.595 4   7566934.22345  27751553.7034          0.000  
  25757886.985    -5823916.161 6   4875762.10646  25757898.7894          0.000  
  26717057.088    -2123001.950 5   1839410.08945  26717072.9604          0.000  
  25451985.195   -10966595.928 6  -8370039.75646  25451994.9364          0.000  
  25638045.149    -6262077.314 6   5181534.25946  25638057.5284          0.000  
  23259422.277   -17548935.175 6 -13480143.32347  23259430.1544          0.000  
 02  1 30 11 21  0.0090000  0  8G 5G 6G 9G14G24G25G29G30
  25196089.234    -5437346.707 6  -4079470.54646  25196101.4374          0.000  
  23317701.041   -19160493.692 6 -14778243.79747  23317709.0714          0.000  
  27774031.792     9598615.401 4   7659070.68345  27774056.7834          0.000  
  25773086.620    -5744042.794 6   4938001.00246  25773097.8034          0.000  
  26727169.119    -2069864.143 5   1880816.06245  26727185.1904          0.000  
  25438479.248   -11037569.610 6  -8425343.81646  25438489.3764          0.000  
  25653840.564    -6179071.748 6   5246213.71746  25653852.1334          0.000  
  23266408.942   -17512220.145 6 -13451534.24947  23266416.9724          0.000  
 02  1 30 11 21 30.0090000  0  8G 5G 6G 9G14G24G25G29G30
  25211333.273    -5357239.219 6  -4017049.23846  25211345.4064          0.000  
  23316733.807   -19165576.635 6 -14782204.52247  23316741.7904          0.000  
  27796547.476     9716928.188 4   7751261.67245  27796572.9954          0.000  
  25788353.350    -5663816.340 6   5000514.87146  25788364.3924          0.000  
  26737375.644    -2016224.019 5   1922613.41645  26737390.9764          0.000  
  25425024.431   -11108275.770 7  -8480439.43246  25425034.2074          0.000  
  25669696.685    -6095746.941 6   5311141.90146  25669709.4514          0.000  
  23273449.902   -17475220.063 6 -13422703.05647  23273457.8974          0.000  
 02  1 30 11 22  0.0090000  0  8G 5G 6G 9G14G24G25G29G30
  25226606.816    -5276976.441 6  -3954506.95246  25226618.2454          0.000  
  23315853.055   -19170205.472 6 -14785811.39547  23315860.9334          0.000  
  27819075.486     9835308.372 4   7843505.14345  27819101.4744          0.000  
  25803686.515    -5583240.767 6   5063300.86746  25803698.1914          0.000  
  26747678.703    -1962084.084 5   1964800.26645  26747694.4104          0.000  
  25411620.346   -11178712.903 6  -8535325.41846  25411630.4974          0.000  
  25685612.978    -6012106.637 6   5376315.93146  25685626.0724          0.000  
  23280544.904   -17437936.115 6 -13393650.67647  23280552.7814          0.000  
 02  1 30 11 22 30.0090000  0  8G 5G 6G 9G14G24G25G29G30
  25241910.733    -5196555.273 6  -3891841.25746  25241922.8424          0.000  
  23315059.271   -19174377.060 6 -14789061.97347  23315067.1834          0.000  
  27841616.507     9953757.918 5   7935802.69245  27841643.4574          0.000  
  25819086.343    -5502315.403 6   5126359.43346  25819098.2184          0.000  
  26758077.093    -1907442.108 5   2007378.30045  26758095.2044          0.000  
  25398268.660   -11248874.965 6  -8589997.05546  25398278.8344          0.000  
  25701589.811    -5928150.053 6   5441736.38746  25701603.1164          0.000  
  23287694.438   -17400365.007 6 -13364374.53047  23287702.2104          0.000  
 02  1 30 11 23  0.0090000  0  8G 5G 6G 9G14G24G25G29G30
  25257244.367    -5115976.319 6  -3829052.62346  25257256.5464          0.000  
  23314352.227   -19178092.038 6 -14791956.75647  23314360.3394          0.000  
  27864169.634    10072274.969 5   8028152.84345  27864193.3594          0.000  
  25834551.950    -5421043.182 6   5189688.26746  25834563.3324          0.000  
  26768570.581    -1852299.340 5   2050346.59345  26768586.2424          0.000  
  25384970.084   -11318759.860 6  -8644452.72246  25384980.4004          0.000  
  25717625.885    -5843880.728 6   5507400.57246  25717639.0964          0.000  
  23294898.509   -17362507.046 6 -13334874.86947  23294906.2344          0.000  
 02  1 30 11 23 30.0090000  0  8G 5G 6G 9G14G24G25G29G30
  25272607.551    -5035241.845 6  -3766142.77946  25272619.6484          0.000  
  23313731.884   -19181352.755 6 -14794497.56747  23313740.1254          0.000  
  27886735.624    10190855.756 4   8120552.60645  27886760.2534          0.000  
  25850082.286    -5339428.927 6   5253283.63546  25850093.6574          0.000  
  26779158.743    -1796659.404 5   2093702.27245  26779175.0024          0.000  
  25371724.413   -11388367.358 6  -8698692.22346  25371734.3184          0.000  
  25733720.978    -5759303.335 6   5573304.79046  25733734.0834          0.000  
  23302156.823   -17324364.359 6 -13305153.34047  23302164.7944          0.000  
 02  1 30 11 24  0.0090000  0  8G 5G 6G 9G14G24G25G29G30
  25288000.084    -4954353.560 6  -3703113.10046  25288012.5444          0.000  
  23313197.134   -19184161.210 6 -14796685.97347  23313205.2574          0.000  
  27909313.397    10309497.215 4   8212999.67245  27909339.2804          0.000  
  25865678.101    -5257477.126 6   5317141.98146  25865689.8704          0.000  
  26789840.766    -1740525.240 5   2137443.09045  26789856.4854          0.000  
  25358531.219   -11457696.646 6  -8752714.94646  25358540.9494          0.000  
  25749873.402    -5674422.492 6   5639445.43746  25749885.6404          0.000  
  23309468.903   -17285938.544 6 -13275211.19847  23309477.1554          0.000  
 02  1 30 11 24 30.0090000  0  8G 5G 6G 9G14G24G25G29G30
  25303421.474    -4873313.196 6  -3639964.91646  25303434.3574          0.000  
  23312748.430   -19186519.282 6 -14798523.43147  23312756.4724          0.000  
  27931901.732    10428196.579 4   8305491.79945  27931927.5684          0.000  
  25881336.248    -5175191.905 6   5381260.13246  25881347.7714          0.000  
  26800616.271    -1683899.331 5   2181567.07445  26800631.5344          0.000  
  25345391.667   -11526746.399 6  -8806519.85246  25345401.7724          0.000  
  25766083.061    -5589242.340 6   5705819.34446  25766096.5424          0.000  
  23316834.722   -17247231.112 6 -13245049.60747  23316842.8104          0.000  
 02  1 30 11 25  0.0090000  0  8G 5G 6G 9G14G24G25G29G30
  25318873.077    -4792116.103 6  -3576694.60946  25318885.8544          0.000  
  23312386.415   -19188422.336 6 -14800006.32947  23312394.4684          0.000  
  27954501.693    10546956.916 3   8398031.51245  27954528.6424          0.000  
  25897059.078    -5092571.360 6   5445639.57646  25897070.4614          0.000  
  26811485.804    -1626778.213 5   2226076.91445  26811502.2034          0.000  
  25332306.061   -11595509.311 7  -8860101.25946  25332315.9074          0.000  
  25782349.647    -5503760.574 6   5772428.23146  25782363.2454          0.000  
  23324255.389   -17208237.061 6 -13214664.68047  23324263.6424          0.000  
 02  1 30 11 25 30.0090000  0  8G 5G 6G 9G14G24G25G29G30
  25334353.612    -4710766.344 6  -3513305.33746  25334366.1084          0.000  
  23312110.177   -19189874.417 6 -14801137.82047  23312118.3004          0.000  
  27977111.531    10665773.133 2   8490614.73145  27977139.8044          0.000  
  25912843.391    -5009621.795 6   5510275.40546  25912854.5274          0.000  
  26822448.989    -1569167.112 5   2270968.56945  26822465.9044          0.000  
  25319275.266   -11663986.765 7  -8913460.23046  25319284.5864          0.000  
  25798672.228    -5417984.096 6   5839266.77746  25798685.0404          0.000  
  23331729.415   -17168960.258 6 -13184059.42947  23331737.7034          0.000  
 02  1 30 11 26  0.0090000  0  8G 5G 6G 9G14G24G25G29G30
  25349863.489    -4629261.587 6  -3449795.29746  25349876.1964          0.000  
  23311919.810   -19190873.787 6 -14801916.55047  23311927.9814          0.000  
  27999733.362    10784645.989 2   8583242.05045  27999767.1924          0.000  
  25928691.412    -4926343.676 6   5575167.24246  25928703.1694          0.000  
  26833505.734    -1511064.901 5   2316242.91745  26833521.8174          0.000  
  25306299.685   -11732173.892 7  -8966592.96146  25306309.4264          0.000  
  25815051.186    -5331913.469 6   5906334.52946  25815065.0894          0.000  
  23339257.768   -17129398.554 6 -13153232.17347  23339265.8564          0.000  
 02  1 30 11 26 30.0090000  0  8G 5G 6G 9G14G24G25G29G30
  25365402.598    -4547603.216 6  -3386165.53546  25365414.8954          0.000  
  23311815.595   -19191421.946 6 -14802343.68747  23311823.7894          0.000  
  28022365.580    10903572.767 2   8675911.30645  28022393.7254          0.000  
  25944600.158    -4842741.155 6   5640311.87846  25944611.0714          0.000  
  26844655.148    -1452473.986 5   2361898.04345  26844671.0904          0.000  
  25293379.222   -11800069.286 6  -9019498.37846  25293389.2914          0.000  
  25831485.250    -5245552.617 6   5973628.39946  25831499.1414          0.000  
  23346840.311   -17089552.866 6 -13122183.63247  23346848.3174          0.000  
 02  1 30 11 27  0.0090000  0  7G 5G 6G14G24G25G29G30
  25380970.794    -4465792.159 6  -3322416.82546  25380983.6074          0.000  
  23311796.965   -19191519.926 6 -14802420.03647  23311805.1004          0.000  
  25960570.542    -4758817.212 6   5705706.92446  25960581.4094          0.000  
  26855897.902    -1393396.620 5   2407932.20945  26855914.1964          0.000  
  25280515.447   -11867671.200 7  -9072175.11246  25280525.4354          0.000  
  25847974.294    -5158904.881 6   6041145.85946  25847989.1234          0.000  
  23354476.570   -17049424.062 6 -13090914.47347  23354484.5644          0.000  
 02  1 30 11 27 30.0090000  0  7G 5G 6G14G24G25G29G30
  25396567.976    -4383830.209 6  -3258550.52146  25396580.9294          0.000  
  23311863.537   -19191169.597 6 -14802147.05547  23311871.7774          0.000  
  25976601.444    -4674576.359 6   5771348.94146  25976613.5884          0.000  
  26867231.842    -1333835.506 5   2454343.35345  26867247.9014          0.000  
  25267707.089   -11934978.692 7  -9124622.41546  25267716.9834          0.000  
  25864516.628    -5071974.885 6   6108883.23246  25864530.8474          0.000  
  23362166.475   -17009013.610 6 -13059425.85047  23362174.5404          0.000  
 02  1 30 11 28  0.0090000  0  7G 5G 6G14G24G25G29G30
  25412194.076    -4301716.137 6  -3194565.68746  25412207.2754          0.000  
  23312015.729   -19190370.065 6 -14801524.04747  23312023.8884          0.000  
  25992691.245    -4590020.123 6   5837236.68746  25992703.7534          0.000  
  26878657.613    -1273790.404 5   2501131.61445  26878673.0394          0.000  
  25254955.657   -12001987.791 7  -9176837.21046  25254965.1404          0.000  
  25881112.194    -4984763.769 5   6176839.63546  25881126.5074          0.000  
  23369910.128   -16968320.062 6 -13027716.63547  23369918.2524          0.000  
 02  1 30 11 28 30.0090000  0  7G 5G 6G14G24G25G29G30
  25427848.888    -4219449.968 6  -3130462.35346  25427861.6774          0.000  
  23312253.383   -19189121.433 6 -14800551.08847  23312261.4834          0.000  
  26008842.337    -4505151.061 6   5903368.19846  26008854.3754          0.000  
  26890176.009    -1213262.326 5   2548296.22145  26890191.4594          0.000  
  25242261.665   -12068696.113 7  -9228817.63846  25242271.4764          0.000  
  25897761.172    -4897274.659 6   6245012.64546  25897776.2354          0.000  
  23377707.812   -16927343.250 6 -12995786.69147  23377716.2644          0.000  
 02  1 30 11 29  0.0090000  0  7G 5G 6G14G24G25G29G30
  25443532.801    -4137031.832 6  -3066240.57446  25443545.4264          0.000  
  23312576.377   -19187423.940 6 -14799228.36647  23312584.3364          0.000  
  26025051.656    -4419972.020 6   5969741.23946  26025063.0384          0.000  
  26901786.154    -1152252.880 5   2595835.93745  26901802.5064          0.000  
  25229625.037   -12135100.694 7  -9280561.38646  25229634.1334          0.000  
  25914462.802    -4809509.990 6   6313400.40346  25914477.3964          0.000  
  23385559.546   -16886083.108 6 -12963635.97347  23385567.7404          0.000  
 02  1 30 11 29 30.0090000  0  7G 5G 6G14G24G25G29G30
  25459244.798    -4054463.743 6  -3001901.97046  25459257.0944          0.000  
  23312984.331   -19185280.113 6 -14797557.84547  23312992.2444          0.000  
  26041318.995    -4334487.471 6   6036352.35046  26041331.0104          0.000  
  26913486.239    -1090765.753 5   2643747.90545  26913503.5524          0.000  
  25217046.415   -12201201.033 7  -9332068.04946  25217055.7114          0.000  
  25931215.672    -4721474.591 6   6381999.08546  25931231.2394          0.000  
  23393464.451   -16844541.696 6 -12931266.07347  23393472.6574          0.000  
 02  1 30 11 30  0.0090000  0  7G 5G 6G14G24G25G29G30
  25474986.827    -3971740.895 6  -2937442.76446  25474999.5694          0.000  
  23313478.120   -19182685.361 6 -14795535.95947  23313486.1854          0.000  
  26057644.731    -4248695.328 6   6103203.16846  26057656.7814          0.000  
  26925278.599    -1028797.171 5   2692035.02645  26925296.1944          0.000  
  25204527.241   -12266989.465 7  -9383331.67046  25204536.4784          0.000  
  25948019.999    -4633166.208 6   6450810.49646  25948034.7574          0.000  
  23401423.928   -16802713.693 6 -12898672.85347  23401432.4274          0.000  
 02  1 30 11 30 30.0090000  0  7G 5G 6G14G24G25G29G30
  25490756.880    -3888867.448 6  -2872866.21246  25490770.0674          0.000  
  23314056.842   -19179644.096 6 -14793166.13747  23314064.9184          0.000  
  26074027.756    -4162602.282 6   6170288.40846  26074040.1814          0.000  
  26937161.769     -966352.208 5   2740693.37445  26937178.7784          0.000  
  25192067.037   -12332467.826 7  -9434353.68146  25192075.7344          0.000  
  25964875.611    -4544591.893 6   6519829.08945  25964890.2054          0.000  
  23409437.512   -16760603.169 6 -12865859.48947  23409445.6234          0.000  
 02  1 30 11 31  0.0090000  0  8G 5G 6G14G17G24G25G29G30
  25506556.649    -3805841.129 6  -2808170.55746  25506569.5794          0.000  
  23314721.030   -19176154.515 6 -14790446.98247  23314729.0254          0.000  
  26090468.273    -4076209.003 6   6237607.61546  26090480.8504          0.000  
  27840540.645      -33637.68714         0.000           0.000           0.000  
  26949135.129     -903430.262 5   2789723.38145  26949153.2634          0.000  
  25179666.778   -12397630.957 7  -9485130.04546  25179676.3664          0.000  
  25981781.616    -4455752.215 6   6589054.50146  25981795.1204          0.000  
  23417504.979   -16718207.964 6 -12832824.29147  23417513.3024          0.000  
 02  1 30 11 31 30.0090000  0  8G 5G 6G14G17G24G25G29G30
  25522384.099    -3722665.941 6  -2743358.86846  25522396.8064          0.000  
  23315469.420   -19172220.963 6 -14787381.87747  23315477.4034          0.000  
  26106963.904    -3989522.053 6   6305155.64646  26106975.7084          0.000  
  27823073.920     -125422.796 4         0.000           0.000           0.000  
  26961198.894     -840036.836 5   2839120.80445  26961215.2584          0.000  
  25167326.568   -12462480.102 7  -9535661.74646  25167335.8994          0.000  
  25998736.774    -4366653.770 6   6658481.53945  25998751.1214          0.000  
  23425626.059   -16675531.771 6 -12799570.15947  23425634.4524          0.000  
 02  1 30 11 32  0.0090000  0  8G 5G 6G14G17G24G25G29G30
  25538240.143    -3639342.664 6  -2678431.79646  25538252.8734          0.000  
  23316302.331   -19167844.507 6 -14783971.64447  23316310.3144          0.000  
  26123515.253    -3902545.027 6   6372929.71746  26123526.6934          0.000  
  27805596.061     -217265.058 4         0.000           0.000           0.000  
  26973351.621     -776174.038 5   2888883.97045  26973368.0324          0.000  
  25155045.964   -12527013.546 7  -9585947.43846  25155055.4944          0.000  
  26015739.828    -4277300.067 6   6728107.44145  26015752.8284          0.000  
  23433800.573   -16632575.280 6 -12766097.60047  23433808.5454          0.000  
 02  1 30 11 32 30.0090000  0  8G 5G 6G14G17G24G25G29G30
  25554125.430    -3555866.687 6  -2613385.74846  25554137.9144          0.000  
  23317220.132   -19163021.021 6 -14780213.07747  23317227.7754          0.000  
  26140122.599    -3815275.833 6   6440931.42246  26140135.4584          0.000  
  27788107.935     -309157.087 4    -57283.39455  27788137.1354          0.000  
  26985594.160     -711838.531 5   2939015.44445  26985611.4514          0.000  
  25142827.077   -12591224.058 7  -9635981.49046  25142836.7134          0.000  
  26032792.500    -4187689.316 5   6797933.66845  26032805.6994          0.000  
  23442029.161   -16589333.493 6 -12732402.73747  23442037.3674          0.000  
 02  1 30 11 33  0.0090000  0  8G 5G 6G14G17G24G25G29G30
  25570039.204    -3472240.195 6  -2548222.37946  25570052.2514          0.000  
  23318222.538   -19157752.949 6 -14776108.07147  23318230.3924          0.000  
  26156784.514    -3727719.330 6   6509157.03946  26156796.9044          0.000  
  27770610.876     -401098.082 3   -128924.33945  27770642.1744          0.000  
  26997926.789     -647033.581 5   2989512.76445  26997943.7744          0.000  
  25130669.816   -12655111.185 7  -9685763.58546  25130679.0424          0.000  
  26049893.913    -4097826.171 5   6867956.51145  26049908.4494          0.000  
  23450311.811   -16545808.686 6 -12698487.33747  23450319.7824          0.000  
 02  1 30 11 33 30.0090000  0  8G 5G 6G14G17G24G25G29G30
  25585980.904    -3388464.951 6  -2482943.11746  25585993.2834          0.000  
  23319309.273   -19152042.548 6 -14771658.39847  23319317.1154          0.000  
  26173499.752    -3639880.182 6   6577602.84146  26173513.1504          0.000  
  27753105.300     -493087.021 4   -200602.68445  27753134.7224          0.000  
  27010346.907     -581762.456 5   3040373.26545  27010362.9784          0.000  
  25118573.978   -12718674.265 7  -9735293.15246  25118583.8484          0.000  
  26067040.799    -4007715.364 5   6938172.38745  26067056.0964          0.000  
  23458647.692   -16502002.368 6 -12664352.57247  23458655.7684          0.000  
 02  1 30 11 34  0.0090000  0  8G 5G 6G14G17G24G25G29G30
  25601950.763    -3304542.921 6  -2417549.49446  25601964.4664          0.000  
  23320479.719   -19145892.097 6 -14766865.82547  23320487.5264          0.000  
  26190268.142    -3551762.830 6   6646265.48746  26190280.4734          0.000  
  27735590.401     -585122.914 4   -272317.62945  27735622.7434          0.000  
  27022856.104     -516028.437 5   3091594.51245  27022872.1284          0.000  
  25106540.034   -12781912.070 7  -9784569.26246  25106549.7524          0.000  
  26084235.551    -3917361.573 5   7008577.52945  26084250.8484          0.000  
  23467037.191   -16457916.213 6 -12629999.75947  23467045.4084          0.000  
 02  1 30 11 34 30.0090000  0  8G 5G 6G14G17G24G25G29G30
  25617949.072    -3220473.781 6  -2352041.23046  25617961.7084          0.000  
  23321733.788   -19139301.654 6 -14761730.39547  23321741.8294          0.000  
  26207088.896    -3463369.596 6   6715143.06546  26207101.8724          0.000  
  27718067.721     -677202.404 4   -344066.60745  27718098.2694          0.000  
  27035453.036     -449832.553 5   3143175.60745  27035469.5994          0.000  
  25094568.744   -12844822.145 7  -9833590.00246  25094577.7584          0.000  
  26101475.551    -3826767.016 5   7079170.32345  26101491.2004          0.000  
  23475479.682   -16413549.892 6 -12595428.62547  23475487.8874          0.000  
 02  1 30 11 35  0.0090000  0  8G 5G 6G14G17G24G25G29G30
  25633975.386    -3136256.424 6  -2286417.46446  25633988.7144          0.000  
  23323071.702   -19132270.545 6 -14756251.58947  23323079.8734          0.000  
  26223962.183    -3374702.018 6   6784234.39046  26223975.3354          0.000  
  27700536.504     -769321.543 4   -415846.47445  27700565.5744          0.000  
  27048137.085     -383175.276 5   3195116.25745  27048154.3054          0.000  
  25082660.482   -12907400.251 7  -9882352.06446  25082669.6604          0.000  
  26118760.710    -3735933.413 6   7149949.36145  26118776.6644          0.000  
  23483976.028   -16368901.985 6 -12560638.08147  23483984.2694          0.000  
 02  1 30 11 35 30.0090000  0  8G 5G 6G14G17G24G25G29G30
  25650029.628    -3051891.339 6  -2220678.60546  25650042.6274          0.000  
  23324493.298   -19124799.731 6 -14750430.15047  23324501.2344          0.000  
  26240886.900    -3285763.453 6   6853536.91646  26240900.2994          0.000  
  27682999.262     -861477.959 4   -487655.46645  27683027.0674          0.000  
  27060908.676     -316058.717 5   3247414.72945  27060926.7644          0.000  
  25070815.632   -12969644.212 7  -9930853.76046  25070824.5644          0.000  
  26136091.601    -3644863.943 6   7220912.20445  26136106.4304          0.000  
  23492525.749   -16323972.764 6 -12525628.33147  23492534.1064          0.000  
 02  1 30 11 36  0.0090000  0  8G 5G 6G14G17G24G25G29G30
  25666111.476    -2967381.454 6  -2154826.88546  25666124.3704          0.000  
  23325998.023   -19116892.546 6 -14744268.68047  23326005.7954          0.000  
  26257861.620    -3196559.229 6   6923046.42146  26257874.8194          0.000  
  27665453.665     -953671.434 4   -559493.37245  27665482.2674          0.000  
  27073767.327     -248486.547 5   3300068.26145  27073785.4974          0.000  
  25059034.253   -13031554.601 7  -9979095.52046  25059043.3614          0.000  
  26153465.368    -3553564.347 5   7292054.35945  26153479.2944          0.000  
  23501128.485   -16278765.060 6 -12490401.58047  23501136.6794          0.000  
 02  1 30 11 36 30.0090000  0  8G 5G 6G14G17G24G25G29G30
  25682221.282    -2882724.846 6  -2088860.85946  25682234.5284          0.000  
  23327585.885   -19108547.516 6 -14737766.03247  23327593.7274          0.000  
  26274887.597    -3107090.267 6   6992762.19346  26274900.9254          0.000  
  27647903.066    -1045897.198 5   -631356.47645  27647933.4264          0.000  
  27086713.070     -180458.819 5   3353076.74545  27086730.7474          0.000  
  25047317.485   -13093126.775 7 -10027073.74946  25047326.7334          0.000  
  26170882.452    -3462035.223 6   7363375.35645  26170895.8274          0.000  
  23509784.819   -16233276.443 6 -12454955.93547  23509793.0594          0.000  
 02  1 30 11 37  0.0090000  0  8G 5G 6G14G17G24G25G29G30
  25698358.561    -2797922.516 6  -2022781.26446  25698371.9954          0.000  
  23329257.063   -19099766.064 6 -14730923.31047  23329264.8354          0.000  
  26291962.288    -3017360.371 6   7062681.28546  26291976.1094          0.000  
  27630346.810    -1138153.387 5   -703243.28245  27630373.7714          0.000  
  27099744.461     -111978.181 5   3406438.16645  27099762.0444          0.000  
  25035664.951   -13154359.197 7 -10074787.22746  25035673.8254          0.000  
  26188343.322    -3370280.529 5   7434872.09645  26188358.5964          0.000  
  23518494.203   -16187508.230 6 -12419292.41747  23518502.3854          0.000  
 02  1 30 11 37 30.0090000  0  8G 5G 6G14G17G24G25G29G30
  25714523.737    -2712974.355 6  -1956588.05246  25714537.6744          0.000  
  23331010.899   -19090548.691 6 -14723740.91747  23331018.7884          0.000  
  26309087.144    -2927372.084 6   7132801.71746  26309101.3274          0.000  
  27612785.238    -1230437.021 5   -775151.51045  27612811.3554          0.000  
  27112862.335      -43045.567 5   3460151.75245  27112880.9504          0.000  
  25024078.205   -13215248.433 7 -10122233.30646  25024087.6424          0.000  
  26205846.253    -3278302.825 5   7506542.65245  26205860.3784          0.000  
  23527256.967   -16141459.987 6 -12383410.69947  23527265.3374          0.000  
 02  1 30 11 38  0.0090000  0  8G 5G 6G14G17G24G25G29G30
  25730716.292    -2627882.202 6  -1890282.64346  25730729.1984          0.000  
  23332847.556   -19080897.446 6 -14716220.44347  23332855.5514          0.000  
  26326259.423    -2837129.949 6   7203119.94945  26326272.8104          0.000  
  27595218.465    -1322746.734 5   -847080.09645  27595245.2264          0.000  
  27126064.576       26335.666 5   3514214.90145  27126081.3384          0.000  
  25012556.949   -13275793.948 7 -10169411.55046  25012566.0454          0.000  
  26223390.651    -3186106.620 5   7578383.43345  26223406.9214          0.000  
  23536072.637   -16095133.325 6 -12347312.02347  23536080.7254          0.000  
 02  1 30 11 38 30.0090000  0  8G 5G 6G14G17G24G25G29G30
  25746937.059    -2542642.484 6  -1823862.25346  25746950.5754          0.000  
  23334767.235   -19070809.369 6 -14708359.57647  23334775.2884          0.000  
  26343480.987    -2746633.154 6   7273636.65145  26343494.1274          0.000  
  27577647.836    -1415076.348 5   -919024.22745  27577674.0594          0.000  
  27139354.056       96167.161 5   3568628.93045  27139371.3694          0.000  
  25001101.924   -13335989.813 7 -10216317.33846  25001111.3144          0.000  
  26240977.294    -3093691.202 5   7650395.02345  26240993.5174          0.000  
  23544941.894   -16048524.522 6 -12310993.50347  23544950.2644          0.000  
 02  1 30 11 39  0.0090000  0  8G 5G 6G14G17G24G25G29G30
  25763185.292    -2457258.952 6  -1757329.81546  25763197.9054          0.000  
  23336769.248   -19060288.651 6 -14700161.59547  23336777.2084          0.000  
  26360749.480    -2655888.158 6   7344346.70345  26360762.8674          0.000  
  27560073.313    -1507426.412 5   -990984.31645  27560098.0124          0.000  
  27152726.968      166443.810 5   3623389.83445  27152745.1024          0.000  
  24989713.415   -13395836.971 7 -10262951.41146  24989722.8514          0.000  
  26258604.570    -3001063.161 5   7722572.25345  26258621.2274          0.000  
  23553864.250   -16001637.219 6 -12274457.97347  23553872.7954          0.000  
 02  1 30 11 39 30.0090000  0  8G 5G 6G14G17G24G25G29G30
  25779460.865    -2371731.251 6  -1690684.99846  25779474.1464          0.000  
  23338853.591   -19049335.532 6 -14691626.67947  23338861.4334          0.000  
  26378064.261    -2564897.209 6   7415248.42445  26378078.0234          0.000  
  27542495.602    -1599793.655 5  -1062957.81445  27542520.5354          0.000  
  27166185.053      237164.319 5   3678496.58345  27166203.3634          0.000  
  24978391.493   -13455332.540 7 -10309311.51746  24978401.0584          0.000  
  26276271.393    -2908224.870 5   7794913.34945  26276287.8394          0.000  
  23562839.802   -15954470.760 6 -12237704.92347  23562848.1954          0.000  
 02  1 30 11 40  0.0090000  0  8G 5G 6G14G17G24G25G29G30
  25795763.853    -2286058.063 6  -1623926.85246  25795777.7204          0.000  
  23341020.185   -19037949.378 6 -14682754.32947  23341027.9804          0.000  
  26395426.003    -2473662.204 5   7486340.29345  26395440.9724          0.000  
  27524915.806    -1692173.931 5  -1134941.45545  27524942.3804          0.000  
  27179726.838      308328.469 5   3733949.03745  27179743.6244          0.000  
  24967137.503   -13514472.609 7 -10355394.61646  24967146.7754          0.000  
  26293977.486    -2815177.756 5   7867417.14545  26293992.8664          0.000  
  23571868.488   -15907023.921 6 -12200733.37747  23571876.9284          0.000  
 02  1 30 11 40 30.0090000  0  8G 5G 6G14G17G24G25G29G30
  25812094.093    -2200243.736 6  -1557058.72246  25812107.2814          0.000  
  23343268.434   -19026134.959 6 -14673548.27747  23343276.2534          0.000  
  26412833.232    -2382189.858 6   7557617.08745  26412848.0374          0.000  
  27507333.262    -1784568.471 5  -1206936.27045  27507357.2114          0.000  
  27193351.969      379930.576 5   3789742.81645  27193370.7364          0.000  
  24955950.859   -13573258.664 7 -10401201.85946  24955960.3654          0.000  
  26311723.122    -2721928.868 5   7940078.18245  26311738.1274          0.000  
  23580950.221   -15859300.588 6 -12163546.39447  23580958.6724          0.000  
 02  1 30 11 41  0.0090000  0  8G 5G 6G14G17G24G25G29G30
  25828450.693    -2114286.603 6  -1490079.29046  25828463.8924          0.000  
  23345598.261   -19013891.245 6 -14664007.70947  23345606.0914          0.000  
  26430285.202    -2290481.484 6   7629077.82545  26430299.5034          0.000  
  27489748.204    -1876972.732 5  -1278938.68245  27489771.2734          0.000  
  27207061.410      451970.529 5   3845877.70845  27207078.7944          0.000  
  24944832.297   -13631686.753 7 -10446730.16746  24944841.4294          0.000  
  26329506.496    -2628479.467 5   8012895.44345  26329521.9454          0.000  
  23590084.345   -15811299.253 6 -12126142.78347  23590092.7384          0.000  
 02  1 30 11 41 30.0090000  0  8G 5G 6G14G17G24G25G29G30
  25844835.762    -2028185.643 6  -1422987.82046  25844849.5594          0.000  
  23348010.040   -19001217.737 6 -14654132.24147  23348017.9064          0.000  
  26447781.636    -2198538.555 6   7700721.27246  26447795.2934          0.000  
  27472162.792    -1969382.604 5  -1350945.46345  27472187.9124          0.000  
  27220852.793      524447.697 5   3902353.27745  27220870.2714          0.000  
  24933782.614   -13689753.075 7 -10491976.57946  24933792.1084          0.000  
  26347327.116    -2534831.210 5   8085867.66545  26347343.3984          0.000  
  23599272.098   -15763018.541 6 -12088521.48147  23599280.3974          0.000  
 02  1 30 11 42  0.0090000  0  8G 5G 6G14G17G24G25G29G30
  25861247.176    -1941942.289 6  -1355785.37746  25861261.2664          0.000  
  23350503.257   -18988116.317 6 -14643923.34047  23350511.0764          0.000  
  26465321.762    -2106365.302 6   7772544.23746  26465336.4384          0.000  
  27454576.037    -2061796.595 5  -1422955.41345  27454598.4034          0.000  
  27234728.139      597359.246 5   3959167.35645  27234743.7994          0.000  
  24922801.860   -13747456.330 7 -10536940.09546  24922811.0734          0.000  
  26365184.823    -2440988.232 5   8158991.58045  26365201.6094          0.000  
  23608512.462   -15714459.641 6 -12050683.41547  23608520.9964          0.000  
 02  1 30 11 42 30.0090000  0  8G 5G 6G14G17G24G25G29G30
  25877686.104    -1855556.370 6  -1288471.86146  25877700.0064          0.000  
  23353077.528   -18974587.516 6 -14633381.41347  23353085.3124          0.000  
  26482905.387    -2013964.142 6   7844544.77545  26482919.1724          0.000  
  27436989.129    -2154211.399 5  -1494966.06745  27437011.0494          0.000  
  27248685.487      670703.810 5   4016318.84945  27248701.8274          0.000  
  24911891.011   -13804793.588 7 -10581618.40846  24911900.0374          0.000  
  26383079.755    -2346953.022 5   8232265.29845  26383096.3424          0.000  
  23617806.064   -15665622.179 6 -12012628.28047  23617814.4334          0.000  
 02  1 30 11 43  0.0090000  0  8G 5G 6G14G17G24G25G29G30
  25894151.707    -1769030.236 6  -1221049.06446  25894165.2234          0.000  
  23355733.018   -18960634.230 6 -14622508.72047  23355740.9774          0.000  
  26500531.068    -1921340.250 5   7916718.85345  26500544.7604          0.000  
  27419402.861    -2246626.483 5  -1566976.92545  27419427.3604          0.000  
  27262723.859      744477.139 5   4073804.44445  27262740.8804          0.000  
  24901049.786   -13861764.855 7 -10626011.53246  24901059.0344          0.000  
  26401010.500    -2252730.829 5   8305684.72845  26401026.9584          0.000  
  23627152.112   -15616508.315 6 -11974357.76347  23627160.5874          0.000  
 02  1 30 11 43 30.0090000  0  8G 5G 6G14G17G24G25G29G30
  25910643.774    -1682363.415 6  -1153516.67246  25910657.9694          0.000  
  23358468.840   -18946256.634 6 -14611305.39547  23358476.8114          0.000  
  26518199.269    -1828495.874 5   7989064.74245  26518214.4604          0.000  
  27401816.964    -2339038.373 5  -1638985.31645  27401841.0534          0.000  
  27276844.358      818677.978 5   4131623.18545  27276862.4454          0.000  
  24890278.768   -13918367.417 7 -10670117.36446  24890288.0164          0.000  
  26418975.467    -2158323.841 5   8379248.14745  26418992.9564          0.000  
  23636550.861   -15567117.458 6 -11935871.41847  23636559.1134          0.000  
 02  1 30 11 44  0.0090000  0  8G 5G 6G14G17G24G25G29G30
  25927163.436    -1595555.120 6  -1085873.99946  25927177.0574          0.000  
  23361285.546   -18931454.461 6 -14599771.23547  23361293.2124          0.000  
  26535909.262    -1735432.988 5   8061580.89845  26535923.4574          0.000  
  27384232.242    -2431443.289 5  -1710988.30445  27384253.7174          0.000  
  27291044.722      893305.400 5   4189774.25145  27291061.8244          0.000  
  24879578.211   -13974597.387 7 -10713932.85646  24879586.9674          0.000  
  26436975.506    -2063734.105 5   8452953.95345  26436993.4644          0.000  
  23646002.472   -15517448.617 6 -11897168.46547  23646010.8534          0.000  
 02  1 30 11 44 30.0090000  0  8G 5G 6G14G17G24G25G29G30
  25943709.264    -1508605.807 6  -1018121.49546  25943722.6044          0.000  
  23364182.926   -18916228.778 6 -14587907.06247  23364190.7224          0.000  
  26553659.264    -1642154.919 5   8134264.75145  26553673.1314          0.000  
  27366648.878    -2523838.705 5  -1782983.93745  27366671.0794          0.000  
  27305326.628      968357.515 5   4248256.29445  27305344.8564          0.000  
  24868949.524   -14030452.333 7 -10757456.11846  24868958.0344          0.000  
  26455010.381    -1968964.872 5   8526799.59345  26455028.0944          0.000  
  23655507.158   -15467502.274 6 -11858249.27147  23655515.5624          0.000  
 02  1 30 11 45  0.0090000  0  8G 5G 6G14G17G24G25G29G30
  25960282.449    -1421514.954 6   -950258.66346  25960296.5154          0.000  
  23367160.849   -18900579.836 6 -14575713.08247  23367168.7154          0.000  
  26571450.393    -1548663.971 5   8207114.43245  26571465.4794          0.000  
  27349068.766    -2616221.165 5  -1854969.41045  27349092.4444          0.000  
  27319689.005     1043832.913 5   4307068.16545  27319705.9904          0.000  
  24858392.549   -14085929.586 7 -10800685.07646  24858401.4934          0.000  
  26473078.207    -1874018.549 5   8600783.27345  26473095.7434          0.000  
  23665064.587   -15417277.769 6 -11819113.33847  23665073.1794          0.000  
 02  1 30 11 45 30.0090000  0  8G 5G 6G14G17G24G25G29G30
  25976882.065    -1334283.297 6   -882286.12046  25976894.6664          0.000  
  23370218.919   -18884509.110 6 -14563190.44247  23370226.6324          0.000  
  26589281.222    -1454963.628 5   8280127.30445  26589295.1604          0.000  
  27331490.613    -2708588.509 5  -1926943.13345  27331513.6244          0.000  
  27334131.981     1119729.261 5   4366207.99645  27334148.6154          0.000  
  24847907.551   -14141027.292 7 -10843618.28746  24847916.3434          0.000  
  26491179.151    -1778898.667 5   8674902.14345  26491196.9924          0.000  
  23674674.824   -15366775.579 6 -11779761.02147  23674683.3114          0.000  
 02  1 30 11 46  0.0100000  0  8G 5G 6G14G17G24G25G29G30
  25993508.962    -1246909.336 6   -814202.69145  25993522.2904          0.000  
  23373357.057   -18868018.109 6 -14550340.30547  23373364.7934          0.000  
  26607151.816    -1361055.148 5   8353302.31445  26607165.9764          0.000  
  27313916.455    -2800942.062 5  -1998906.25445  27313936.2304          0.000  
  27348654.481     1196045.632 5   4425675.12445  27348671.5484          0.000  
  24837495.101   -14195746.347 7 -10886256.44046  24837504.1864          0.000  
  26509313.427    -1683606.085 5   8749155.58145  26509331.3854          0.000  
  23684337.996   -15315995.333 6 -11740192.03847  23684346.4944          0.000  
 02  1 30 11 46 30.0100000  0  8G 5G 6G14G17G24G25G29G30
  26010161.849    -1159399.850 6   -746013.62746  26010175.6704          0.000  
  23376574.591   -18851109.483 6 -14537164.75347  23376582.4334          0.000  
  26625060.213    -1266948.109 6   8426632.05745  26625075.8984          0.000  
  27296345.568    -2893273.712 5  -2070852.22645  27296369.1764          0.000  
  27363255.676     1272774.497 5   4485463.70045  27363273.4474          0.000  
  24827155.299   -14250081.049 7 -10928595.09346  24827164.2554          0.000  
  26527478.036    -1588150.835 5   8823535.80845  26527496.2754          0.000  
  23694053.190   -15264941.165 6 -11700409.59947  23694061.6774          0.000  
 02  1 30 11 47  0.0100000  0  8G 5G 6G14G17G24G25G29G30
  26026840.400    -1071751.423 6   -677716.33546  26026854.7364          0.000  
  23379871.845   -18833782.667 6 -14523663.33247  23379879.7694          0.000  
  26643006.165    -1172641.807 5   8500117.07545  26643022.1424          0.000  
  27278779.932    -2985582.898 5  -2142780.72645  27278800.6574          0.000  
  27377936.356     1349917.366 5   4545574.84245  27377954.1034          0.000  
  24816889.041   -14304030.414 7 -10970633.48246  24816898.1144          0.000  
  26545674.230    -1492532.095 5   8898043.39345  26545690.4654          0.000  
  23703821.353   -15213610.705 6 -11660411.88547  23703829.7934          0.000  
 02  1 30 11 47 30.0100000  0  8G 5G 6G14G17G24G25G29G30
  26043546.669     -983961.653 6   -609308.91746  26043559.8454          0.000  
  23383249.007   -18816035.895 6 -14509834.67547  23383256.8614          0.000  
  26660990.007    -1078136.218 5   8573757.36145  26661005.3524          0.000  
  27261217.721    -3077864.058 5  -2214687.41545  27261239.1494          0.000  
  27392695.164     1427475.204 5   4606009.40245  27392712.2664          0.000  
  24806697.143   -14357588.971 7 -11012367.35046  24806706.4624          0.000  
  26563901.740    -1396750.172 5   8972678.17145  26563919.0424          0.000  
  23713642.143   -15162001.218 6 -11620196.73247  23713650.5364          0.000  
 02  1 30 11 48  0.0100000  0  8G 5G 6G14G17G24G25G29G30
  26060279.090     -896032.685 6   -540793.00546  26060293.9424          0.000  
  23386705.304   -18797872.296 6 -14495681.22047  23386713.0404          0.000  
  26679011.406     -983436.540 5   8647548.89045  26679027.0554          0.000  
  27243662.118    -3170116.342 5  -2286571.56145  27243683.5584          0.000  
  27407532.413     1505443.621 5   4666763.83845  27407549.3634          0.000  
  24796579.690   -14410756.607 7 -11053796.59646  24796588.6464          0.000  
  26582157.701    -1300809.927 5   9047436.33545  26582176.3984          0.000  
  23723515.854   -15110114.803 6 -11579765.78847  23723523.9774          0.000  
 02  1 30 11 48 30.0100000  0  8G 5G 6G14G17G24G25G29G30
  26077036.642     -807970.814 6   -472173.55845  26077051.0014          0.000  
  23390239.842   -18779298.835 6 -14481208.38547  23390247.7314          0.000  
  26697067.554     -888552.082 5   8721484.41745  26697081.8084          0.000  
  27226111.893    -3262343.207 5  -2358436.01945  27226130.5784          0.000  
  27422445.815     1583814.406 5   4727831.83545  27422462.7064          0.000  
  24786535.764   -14463537.423 7 -11094924.42946  24786544.8604          0.000  
  26600442.885    -1204720.604 5   9122310.58345  26600461.9214          0.000  
  23733441.041   -15057957.862 6 -11539124.04647  23733449.3634          0.000  
 02  1 30 11 49  0.0100000  0  8G 5G 6G14G17G24G25G29G30
  26093820.605     -719771.434 6   -403446.93846  26093835.6564          0.000  
  23393852.906   -18760311.577 6 -14466413.11347  23393860.6774          0.000  
  26715159.555     -793480.647 5   8795565.62345  26715174.9464          0.000  
  27208567.521    -3354536.960 5  -2430274.59745  27208588.9024          0.000  
  27437436.510     1662590.726 5   4789215.81545  27437452.8044          0.000  
  24776566.858   -14515923.776 7 -11135744.88846  24776575.8144          0.000  
  26618757.915    -1108480.112 5   9197302.60745  26618777.7144          0.000  
  23743418.613   -15005525.255 6 -11498267.50547  23743427.1944          0.000  
 02  1 30 11 49 30.0100000  0  8G 5G 6G14G17G24G25G29G30
  26110630.943     -631434.082 6   -334612.81646  26110644.8454          0.000  
  23397544.721   -18740910.655 6 -14451295.50647  23397552.5404          0.000  
  26733286.533     -698224.616 5   8869790.67645  26733301.5494          0.000  
  27191029.838    -3446693.869 5  -2502084.53145  27191050.1534          0.000  
  27452503.962     1741771.671 5   4850915.07645  27452520.6314          0.000  
  24766673.515   -14567912.751 7 -11176255.70446  24766682.2604          0.000  
  26637100.355    -1012090.826 5   9272410.59445  26637117.8444          0.000  
  23753448.801   -14952816.382 6 -11457195.69047  23753457.1944          0.000  
 02  1 30 11 50  0.0100000  0  8G 5G 6G14G17G24G25G29G30
  26127467.044     -542960.167 6   -265672.28146  26127482.1064          0.000  
  23401314.939   -18721098.158 6 -14435857.19247  23401322.9104          0.000  
  26751448.335     -602788.061 5   8944156.36145  26751463.5854          0.000  
  27173500.088    -3538812.349 5  -2573864.53945  27173519.2424          0.000  
  27467647.667     1821353.194 5   4912926.53345  27467664.6064          0.000  
  24756856.353   -14619503.342 7 -11216456.08546  24756865.0284          0.000  
  26655470.718     -915556.991 5   9347631.20445  26655491.2674          0.000  
  23763531.437   -14899832.519 6 -11415909.60947  23763539.7714          0.000  
 02  1 30 11 50 30.0100000  0  8G 5G 6G14G17G24G25G29G30
  26144329.120     -454348.795 5   -196624.67846  26144344.4534          0.000  
  23405163.493   -18700874.108 6 -14420098.18847  23405171.4524          0.000  
  26769643.399     -507172.940 5   9018661.21945  26769657.8644          0.000  
  27155978.642    -3630888.660 5  -2645611.66545  27155999.3324          0.000  
  27482868.126     1901334.847 5   4975249.69545  27482884.9484          0.000  
  24747115.333   -14670692.020 7 -11256343.29046  24747123.7494          0.000  
  26673869.019     -818880.445 5   9422963.03845  26673888.1614          0.000  
  23773666.389   -14846572.654 6 -11374408.44947  23773674.7704          0.000  
 02  1 30 11 51  0.0100000  0  8G 5G 6G14G17G24G25G29G30
  26161217.611     -365600.707 6   -127470.52146  26161232.6744          0.000  
  23409089.982   -18680240.233 6 -14404019.84047  23409097.7304          0.000  
  26787870.931     -411382.990 5   9093302.30245  26787887.5424          0.000  
  27138464.723    -3722920.617 5  -2717324.24445  27138485.0964          0.000  
  27498163.402     1981713.661 5   5037882.34645  27498178.8404          0.000  
  24737451.091   -14721477.689 7 -11295916.46346  24737459.4494          0.000  
  26692292.271     -722064.816 5   9498403.21245  26692310.8504          0.000  
  23783853.968   -14793037.715 6 -11332692.94847  23783862.7954          0.000  
 02  1 30 11 51 30.0100000  0  8G 5G 6G14G17G24G25G29G30
  26178131.031     -276718.128 6    -58211.55246  26178146.4574          0.000  
  23413094.007   -18659199.439 6 -14387624.42147  23413101.5214          0.000  
  26806132.901     -315423.075 5   9168075.79645  26806149.2534          0.000  
  27120959.522    -3814906.993 5  -2789001.31045  27120980.0944          0.000  
  27513534.266     2062485.825 5   5100821.49045  27513552.7984          0.000  
  24727863.650   -14771859.168 7 -11335174.68146  24727872.2544          0.000  
  26710740.921     -625114.950 5   9573948.04845  26710758.1644          0.000  
  23794092.940   -14739229.457 6 -11290764.46347  23794101.3804          0.000  
 02  1 30 11 52  0.0100000  0  8G 5G 6G14G17G24G25G29G30
  26195071.722     -187698.209 6     11154.38946  26195087.4534          0.000  
  23417175.822   -18637749.307 6 -14370910.03347  23417183.5584          0.000  
  26824425.660     -219292.814 5   9242982.02545  26824441.1334          0.000  
  27103464.278    -3906842.068 5  -2860638.44645  27103484.4514          0.000  
  27528980.126     2143652.145 5   5164067.78345  27528999.4914          0.000  
  24718354.238   -14821831.287 7 -11374113.92746  24718363.0534          0.000  
  26729216.600     -528030.685 5   9649597.47945  26729234.1014          0.000  
  23804385.210   -14685144.598 6 -11248620.45647  23804393.7674          0.000  
 02  1 30 11 52 30.0100000  0  8G 5G 6G14G17G24G25G29G30
  26212037.321      -98542.795 6     80625.95646  26212052.6544          0.000  
  23421335.101   -18615892.541 6 -14353878.79447  23421342.9904          0.000  
  26842750.681     -122996.979 5   9318017.28645  26842767.4434          0.000  
  27085979.248    -3998724.646 5  -2932234.66545  27086000.5704          0.000  
  27544499.331     2225209.237 5   5227618.56445  27544516.7034          0.000  
  24708922.697   -14871393.609 7 -11412733.84946  24708931.4424          0.000  
  26747716.583     -430816.931 5   9725347.89845  26747735.4794          0.000  
  23814729.370   -14630785.279 6 -11206262.58047  23814737.8334          0.000  
 02  1 30 11 53  0.0100000  0  8G 5G 6G14G17G24G25G29G30
  26229029.219       -9251.156 5    150203.65645  26229045.2434          0.000  
  23425571.545   -18593629.285 6 -14336530.80447  23425579.2004          0.000  
  26861106.517      -26537.967 5   9393179.65045  26861122.2604          0.000  
  27068505.177    -4090550.947 5  -3003787.02245  27068524.2494          0.000  
  27560093.625     2307155.579 5   5291472.65445  27560110.8094          0.000  
  24699569.986   -14920542.696 7 -11451031.77146  24699578.7894          0.000  
  26766240.641     -333475.589 5   9801197.72445  26766260.5694          0.000  
  23825126.165   -14576150.497 6 -11163690.06547  23825134.5944          0.000  
 02  1 30 11 53 30.0100000  0  8G 5G 6G14G17G24G25G29G30
  26246046.337       80173.547 6    219885.02945  26246060.9084          0.000  
  23429884.648   -18570963.420 6 -14318869.09947  23429892.4084          0.000  
  26879492.255       70078.486 5   9468464.71045  26879509.6744          0.000  
  27051041.166    -4182321.053 5  -3075295.58845  27051061.5514          0.000  
  27575761.768     2389486.313 5   5355626.27345  27575777.6754          0.000  
  24690295.500   -14969279.234 7 -11489008.23646  24690304.2454          0.000  
  26784787.098     -236012.613 5   9877142.33245  26784806.0064          0.000  
  23835574.726   -14521243.339 6 -11120905.30447  23835583.2944          0.000  
 02  1 30 11 54  0.0100000  0  8G 5G 6G14G17G24G25G29G30
  26263089.134      169732.911 6    289671.35245  26263103.7984          0.000  
  23434274.576   -18547894.260 6 -14300893.13847  23434282.6054          0.000  
  26897907.554      166851.507 5   9543871.72845  26897925.1024          0.000  
  27033589.379    -4274030.276 5  -3146756.77245  27033608.3684          0.000  
  27591501.756     2472201.400 5   5420079.37245  27591518.6594          0.000  
  24681100.496   -15017599.457 7 -11526660.29646  24681109.0654          0.000  
  26803357.132     -138429.131 5   9953180.77545  26803376.2514          0.000  
  23846075.339   -14466061.979 7 -11077906.88347  23846084.1774          0.000  
 02  1 30 11 54 30.0100000  0  8G 5G 6G14G17G24G25G29G30
  26280157.884      259427.770 6    359563.24145  26280173.1704          0.000  
  23438741.335   -18524421.820 6 -14282602.93647  23438749.2124          0.000  
  26916353.861      263778.927 5   9619399.09745  26916370.4954          0.000  
  27016148.742    -4365674.912 5  -3218167.55445  27016169.4914          0.000  
  27607314.492     2555299.465 5   5484830.93945  27607332.7784          0.000  
  24671985.240   -15065500.144 7 -11563985.44346  24671993.5634          0.000  
  26821949.802      -40727.180 5  10029311.53545  26821968.7454          0.000  
  23856628.147   -14410605.593 7 -11034694.15847  23856637.1384          0.000  
 02  1 30 11 55  0.0100000  0  8G 5G 6G14G17G24G25G29G30
  26297251.958      349257.163 6    429559.98045  26297267.5024          0.000  
  23443284.344   -18500547.984 7 -14263999.95647  23443292.2334          0.000  
  26934826.844      360856.562 5   9695043.50845  26934842.2124          0.000  
  26998722.180    -4457252.779 5  -3289526.32945  26998742.5774          0.000  
  27623200.022     2638777.904 5   5549878.87945  27623218.3214          0.000  
  24662950.124   -15112979.569 7 -11600982.33146  24662958.7984          0.000  
  26840563.848       57089.648 5  10105531.84445  26840584.7374          0.000  
  23867233.754   -14354874.967 6 -10991267.74747  23867242.5934          0.000  
 02  1 30 11 55 30.0100000  0  8G 5G 6G14G17G24G25G29G30
  26314371.493      439220.600 6    499661.16145  26314385.8414          0.000  
  23447903.546   -18476273.717 6 -14245084.95247  23447911.5874          0.000  
  26953329.070      458082.003 5   9770803.11545  26953345.4694          0.000  
  26981307.722    -4548761.076 5  -3360830.92545  26981327.3104          0.000  
  27639158.359     2722634.480 5   5615221.48445  27639176.3294          0.000  
  24653995.821   -15160035.457 8 -11637649.19746  24654004.1564          0.000  
  26859199.559      155018.064 5  10181839.06345  26859219.8384          0.000  
  23877891.025   -14298870.166 6 -10947627.68847  23877899.5594          0.000  
 02  1 30 11 56  0.0100000  0  8G 5G 6G14G17G24G25G29G30
  26331515.986      529314.509 6    569864.01545  26331531.0494          0.000  
  23452598.213   -18451603.352 6 -14225861.30147  23452606.2664          0.000  
  26971856.987      555448.813 5   9846672.82545  26971873.6094          0.000  
  26963907.472    -4640200.301 5  -3432081.71345  26963926.1224          0.000  
  27655186.690     2806863.508 5   5680854.30445  27655204.0624          0.000  
  24645121.531   -15206669.036 7 -11673986.98846  24645130.1584          0.000  
  26877855.184      253051.934 5  10258228.43145  26877873.0964          0.000  
  23888600.041   -14242594.748 6 -10903776.76447  23888608.5514          0.000  
 02  1 30 11 56 30.0100000  0  8G 5G 6G14G17G24G25G29G30
  26348686.338      619543.265 6    640171.94045  26348701.6004          0.000  
  23457368.876   -18426533.535 6 -14206326.38847  23457376.9524          0.000  
  26990412.932      652958.448 5   9922653.82045  26990429.8594          0.000  
  26946521.112    -4731562.978 5  -3503272.84345  26946540.5594          0.000  
  27671285.752     2891467.441 5   5746779.28845  27671301.9874          0.000  
  24636329.046   -15252873.386 7 -11709990.31946  24636337.9194          0.000  
  26896531.303      351193.060 5  10334701.35645  26896549.0154          0.000  
  23899361.267   -14186044.104 6 -10859711.37447  23899369.5194          0.000  
 02  1 30 11 57  0.0100000  0  9G 5G 6G14G15G17G24G25G29G30
  26365881.925      709905.532 5    710583.90945  26365897.9964          0.000  
  23462214.986   -18401066.413 6 -14186481.88247  23462222.9574          0.000  
  27008995.241      750606.764 5   9998742.88945  27009014.0904          0.000  
  27858894.401      -55865.25315         0.000           0.000           0.000  
  26929149.681    -4822847.415 5  -3574403.02145  26929168.4954          0.000  
  27687456.302     2976443.186 5   5812993.98245  27687474.3664          0.000  
  24627618.536   -15298647.848 7 -11745658.67047  24627627.4564          0.000  
  26915227.511      449437.139 5  10411254.52745  26915247.8604          0.000  
  23910174.586   -14129219.318 6 -10815432.37347  23910183.1204          0.000  
 02  1 30 11 57 30.0100000  0  9G 5G 6G14G15G17G24G25G29G30
  26383101.772      800398.794 5    781097.93145  26383117.2104          0.000  
  23467136.335   -18375205.476 6 -14166330.50447  23467144.0834          0.000  
  27027602.745      848388.431 5  10074935.84745  27027621.5014          0.000  
  27838951.140     -160660.803 5         0.000           0.000           0.000  
  26911793.782    -4914053.068 5  -3645471.82245  26911812.2214          0.000  
  27703696.919     3061786.104 5   5879494.86345  27703713.9054          0.000  
  24618989.791   -15343992.091 8 -11780991.79147  24618998.6414          0.000  
  26933941.949      547778.870 5  10487883.77745  26933961.5844          0.000  
  23921039.661   -14072123.103 6 -10770941.87347  23921048.0084          0.000  
 02  1 30 11 58  0.0100000  0  9G 5G 6G14G15G17G24G25G29G30
  26400346.893      891022.653 5    851713.72545  26400362.5304          0.000  
  23472132.157   -18348951.741 6 -14145873.04447  23472139.8704          0.000  
  27046235.546      946300.681 5  10151230.53245  27046254.0674          0.000  
  27818996.851     -265510.690 5    -49022.36355  27819029.6144          0.000  
  26894453.254    -5005177.100 5  -3716477.02645  26894472.0794          0.000  
  27720006.676     3147494.097 5   5946280.14645  27720025.3964          0.000  
  24610443.133   -15388903.914 7 -11815987.95647  24610451.9834          0.000  
  26952674.387      646215.302 5  10564586.82645  26952694.5494          0.000  
  23931956.389   -14014755.346 6 -10726239.78947  23931964.9704          0.000  
 02  1 30 11 58 30.0100000  0  9G 5G 6G14G15G17G24G25G29G30
  26417617.893      981779.079 5    922432.83145  26417633.7534          0.000  
  23477203.118   -18322304.044 6 -14125108.60347  23477210.7024          0.000  
  27064892.674     1044342.713 5  10227626.36545  27064909.3664          0.000  
  27799034.264     -370409.962 5   -130760.37445  27799066.7464          0.000  
  26877128.977    -5096214.375 5  -3787414.64245  26877147.4864          0.000  
  27736385.693     3233566.839 5   6013349.67445  27736404.4484          0.000  
  24601979.800   -15433379.184 7 -11850643.94746  24601988.4164          0.000  
  26971423.943      744745.772 5  10641363.14045  26971444.2344          0.000  
  23942925.330   -13957113.865 6 -10681324.40547  23942933.7234          0.000  
 02  1 30 11 59  0.0100000  0  9G 5G 6G14G15G17G24G25G29G30
  26434912.846     1072665.245 6    993253.05645  26434928.0144          0.000  
  23482348.225   -18295266.179 6 -14104040.12847  23482355.9034          0.000  
  27083573.448     1142508.744 5  10304118.84445  27083590.3754          0.000  
  27779061.722     -475358.777 4   -212536.96745  27779094.8724          0.000  
  26859820.958    -5187164.650 5  -3858284.47745  26859839.2214          0.000  
  27752833.975     3319999.424 5   6080699.59045  27752852.4024          0.000  
  24593598.999   -15477418.453 7 -11884960.19347  24593607.7444          0.000  
  26990191.477      843364.597 5  10718208.25145  26990211.3344          0.000  
  23953945.765   -13899201.492 6 -10636197.94247  23953954.4044          0.000  
 02  1 30 11 59 30.0100000  0  9G 5G 6G14G15G17G24G25G29G30
  26452232.401     1163678.573 6   1064172.31345  26452247.6404          0.000  
  23487566.989   -18267841.532 6 -14082670.25947  23487574.7724          0.000  
  27102276.742     1240793.633 5  10380703.92045  27102292.9304          0.000  
  27759080.107     -580356.268 4   -294351.55945  27759115.3094          0.000  
  26842529.373    -5278027.625 5  -3929086.29445  26842548.9604          0.000  
  27769348.882     3406787.776 5   6148326.74345  27769369.7474          0.000  
  24585302.013   -15521021.967 7 -11918936.89447  24585310.5464          0.000  
  27008974.627      942066.473 5  10795118.10845  27008996.2194          0.000  
  23965017.123   -13841020.713 7 -10590862.33247  23965025.8564          0.000  
 02  1 30 12  0  0.0100000  0  9G 5G 6G14G15G17G24G25G29G30
  26469577.185     1254822.415 5   1135193.29145  26469592.7644          0.000  
  23492859.494   -18240027.681 6 -14060997.11147  23492867.3604          0.000  
  27121003.361     1339197.930 5  10457382.01745  27121020.6984          0.000  
  27739090.762     -685396.031 4   -376199.23745  27739122.3764          0.000  
  26825257.540    -5368796.562 5  -3999814.85645  26825276.2254          0.000  
  27785931.707     3493933.146 5   6216232.10545  27785949.9704          0.000  
  24577088.395   -15564183.571 8 -11952569.25547  24577096.6134          0.000  
  27027773.615     1040851.983 5  10872093.13445  27027796.1914          0.000  
  23976140.467   -13782567.943 7 -10545314.77647  23976149.0954          0.000  
 02  1 30 12  0 30.0100000  0  9G 5G 6G14G15G17G24G25G29G30
  26486945.706     1346095.246 5   1206314.76645  26486960.2074          0.000  
  23498226.072   -18211827.100 6 -14039022.61047  23498234.0084          0.000  
  27139751.489     1437717.425 5  10534149.85345  27139768.0994          0.000  
  27719093.712     -790476.812 4   -458078.91945  27719127.4364          0.000  
  26808002.404    -5459470.128 5  -4070469.12245  26808020.4564          0.000  
  27802582.815     3581431.777 5   6284412.71845  27802600.2584          0.000  
  24568959.342   -15606902.628 8 -11985856.76847  24568967.9694          0.000  
  27046586.856     1139716.975 5  10949130.02445  27046608.0144          0.000  
  23987315.130   -13723844.500 8 -10499556.31747  23987324.0154          0.000  
 02  1 30 12  1  0.0100000  0  9G 5G 6G14G15G17G24G25G29G30
  26504338.666     1437496.515 5   1277536.34645  26504353.6944          0.000  
  23503665.885   -18183241.091 6 -14016747.77647  23503673.7394          0.000  
  27158520.720     1536348.926 5  10611004.99645  27158538.8194          0.000  
  27699088.436     -895596.001 4   -539988.46645  27699121.7264          0.000  
  26790765.218    -5550045.561 5  -4141046.94845  26790783.0244          0.000  
  27819300.175     3669281.345 5   6352866.74945  27819317.1724          0.000  
  24560914.715   -15649177.423 7 -12018798.10447  24560923.2374          0.000  
  27065415.723     1238658.250 5  11026226.31145  27065436.7414          0.000  
  23998541.356   -13664850.968 7 -10453587.38747  23998549.9014          0.000  
 02  1 30 12  2  0.0100000  0  9G 5G 6G14G15G17G24G25G29G30
  26539197.258     1620680.481 5   1420276.67545  26539212.4854          0.000  
  23514763.878   -18124920.416 6 -13971303.04647  23514771.6734          0.000  
  27196120.209     1733933.160 5  10764965.55645  27196139.3284          0.000  
  27659058.867    -1105940.921 4   -703890.78845  27659090.5404          0.000  
  26756350.785    -5730893.257 5  -4281966.37745  26756369.4474          0.000  
  27852933.494     3846022.197 5   6490586.53945  27852952.6014          0.000  
  24545080.090   -15732387.775 7 -12083637.23047  24545088.8004          0.000  
  27103113.241     1436755.141 5  11180586.06945  27103133.1684          0.000  
  24021147.221   -13546056.126 7 -10361020.09347  24021156.2824          0.000  
 02  1 30 12  2 30.0100000  0  9G 5G 6G14G15G17G24G25G29G30
  26556663.111     1712461.812 5   1491794.37445  26556678.9244          0.000  
  23520421.373   -18095188.832 6 -13948135.55147  23520429.1574          0.000  
  27214949.268     1832878.762 5  10842065.39645  27214968.0944          0.000  
  27639035.267    -1211161.893 4   -785879.79145  27639066.4484          0.000  
  26739173.207    -5821160.656 5  -4352304.18545  26739191.1664          0.000  
  27869847.587     3934908.087 5   6559848.05345  27869867.1984          0.000  
  24537290.964   -15773320.404 7 -12115532.72347  24537299.8614          0.000  
  27121981.353     1535903.847 5  11257843.98745  27122004.1064          0.000  
  24032527.334   -13486255.962 7 -10314422.61347  24032536.2904          0.000  
 02  1 30 12  3  0.0100000  0  9G 5G 6G14G15G17G24G25G29G30
  26574153.328     1804371.401 5   1563412.04045  26574167.1604          0.000  
  23526151.940   -18065075.788 6 -13924670.81647  23526159.5484          0.000  
  27233797.966     1931925.240 5  10919243.84945  27233817.0264          0.000  
  27619006.936    -1316409.281 5   -867889.40745  27619035.2454          0.000  
  26722016.550    -5911317.800 5  -4422556.08545  26722033.6524          0.000  
  27886827.529     4024136.335 5   6629376.31545  27886844.8554          0.000  
  24529587.781   -15813799.643 7 -12147074.93747  24529596.1624          0.000  
  27140862.351     1635117.792 5  11335152.78145  27140882.5134          0.000  
  24043957.975   -13426185.384 8 -10267614.41247  24043966.8724          0.000  
 02  1 30 12  3 30.0100000  0 10G 5G 6G14G15G17G22G24G25G29G30
  26591667.007     1896406.569 5   1635127.50845  26591682.7034          0.000  
  23531953.975   -18034584.803 6 -13900911.58347  23531961.5944          0.000  
  27252664.240     2031067.395 5  10996496.84845  27252684.3204          0.000  
  27598973.400    -1421682.479 5   -949919.20545  27599001.4514          0.000  
  26704881.096    -6001364.104 6  -4492721.59445  26704898.2924          0.000  
  27192700.841      -31190.46614         0.000           0.000           0.000  
  27903871.849     4113702.643 5   6699168.04345  27903889.9364          0.000  
  24521971.175   -15853825.870 8 -12178264.16047  24521979.5334          0.000  
  27159753.467     1734391.647 5  11412508.16045  27159778.6104          0.000  
  24055440.226   -13365846.809 7 -10220597.40147  24055449.1354          0.000  
 02  1 30 12  4  0.0100000  0 10G 5G 6G14G15G17G22G24G25G29G30
  26609204.843     1988569.487 5   1706942.54945  26609219.0154          0.000  
  23537828.462   -18003714.685 6 -13876856.92547  23537836.3624          0.000  
  27271549.290     2130304.590 5  11073823.88845  27271565.9004          0.000  
  27578935.558    -1526976.345 4  -1031965.04645  27578967.8534          0.000  
  26687767.443    -6091294.307 6  -4562796.67445  26687785.2134          0.000  
  27176517.074     -116235.541 4         0.000           0.000           0.000  
  27920979.823     4203607.262 5   6769223.34345  27920997.0664          0.000  
  24514441.406   -15893394.074 8 -12209096.46447  24514449.7054          0.000  
  27178656.033     1833724.896 4  11489909.84045  27178679.7124          0.000  
  24066973.654   -13305237.808 7 -10173369.64947  24066982.3164          0.000  
 02  1 30 12  4 30.0100000  0 10G 5G 6G14G15G17G22G24G25G29G30
  26626768.554     2080861.525 5   1778858.21545  26626783.4654          0.000  
  23543774.933   -17972465.059 6 -13852506.55447  23543782.9864          0.000  
  27290451.550     2229635.032 5  11151223.50545  27290469.7544          0.000  
  27558894.229    -1632286.530 4  -1114023.58945  27558924.7654          0.000  
  26670677.068    -6181103.846 6  -4632777.73745  26670694.1474          0.000  
  27160341.422     -201239.011 4    -26488.87955  27160358.2794          0.000  
  27938153.069     4293849.183 5   6839541.50845  27938169.4224          0.000  
  24506999.514   -15932501.110 8 -12239569.42647  24507008.0134          0.000  
  27197570.593     1933116.222 4  11567356.74845  27197593.7914          0.000  
  24078558.877   -13244357.129 7 -10125930.21347  24078567.7624          0.000  
 02  1 30 12  5  0.0100000  0 10G 5G 6G14G15G17G22G24G25G29G30
  26644354.897     2173278.188 5   1850870.98245  26644370.1124          0.000  
  23549792.876   -17940840.926 6 -13827864.36347  23549800.8594          0.000  
  27309371.299     2329052.219 5  11228690.77745  27309388.5544          0.000  
  27538850.271    -1737613.881 4  -1196095.55145  27538879.2014          0.000  
  26653608.811    -6270793.910 6  -4702665.66945  26653625.9954          0.000  
  27144173.773     -286203.994 5    -92695.14145  27144190.7244          0.000  
  27955387.537     4384422.686 4   6910118.00945  27955405.8234          0.000  
  24499644.939   -15971148.859 8 -12269684.50547  24499653.6724          0.000  
  27216495.131     2032558.606 5  11644843.43645  27216522.2214          0.000  
  24090195.374   -13183208.621 8 -10078282.08147  24090204.3534          0.000  
 02  1 30 12  5 30.0100000  0 10G 5G 6G14G15G17G22G24G25G29G30
  26661963.431     2265814.375 5   1922976.87345  26661979.5954          0.000  
  23555880.868   -17908848.370 6 -13802935.08947  23555888.7454          0.000  
  27328305.282     2428548.243 5  11306219.56345  27328324.2954          0.000  
  27518802.241    -1842960.581 5  -1278182.51645  27518829.7644          0.000  
  26636563.917    -6360366.413 6  -4772461.97845  26636581.7234          0.000  
  27128011.625     -371134.407 5   -158874.44445  27128027.5204          0.000  
  27972686.219     4475320.548 4   6980947.31845  27972704.0604          0.000  
  24492377.491   -16009340.375 8 -12299444.08047  24492385.6734          0.000  
  27235427.002     2132044.518 5  11722364.06845  27235451.7944          0.000  
  24101881.464   -13121797.323 7 -10030429.17347  24101890.3144          0.000  
 02  1 30 12  6  0.0100000  0 10G 5G 6G14G15G17G22G24G25G29G30
  26679596.131     2358469.063 5   1995175.08945  26679612.3544          0.000  
  23562038.488   -17876489.533 6 -13777720.41147  23562046.2014          0.000  
  27347253.512     2528119.236 5  11383806.66345  27347272.2684          0.000  
  27498751.037    -1948324.623 5  -1360283.02045  27498778.6784          0.000  
  26619541.554    -6449819.483 6  -4842165.25545  26619559.3134          0.000  
  27111855.691     -456030.313 5   -225026.91445  27111870.8364          0.000  
  27990044.388     4566539.590 5   7052026.79845  27990062.8974          0.000  
  24485197.105   -16047074.131 8 -12328846.95947  24485205.2404          0.000  
  27254366.639     2231569.838 5  11799915.30245  27254391.9824          0.000  
  24113617.539   -13060124.313 7  -9982372.33047  24113626.3314          0.000  
 02  1 30 12  6 30.0100000  0 10G 5G 6G14G15G17G22G24G25G29G30
  26697250.868     2451242.961 5   2067466.18845  26697266.1304          0.000  
  23568265.952   -17843764.558 6 -13752220.43147  23568273.8764          0.000  
  27366214.964     2627763.353 5  11461450.73545  27366233.9424          0.000  
  27478697.411    -2053702.009 5  -1442393.96945  27478724.5834          0.000  
  26602542.037    -6539149.135 5  -4911772.36245  26602558.6014          0.000  
  27095707.464     -540889.629 4   -291150.80745  27095724.6724          0.000  
  28007464.173     4658078.316 5   7123355.42245  28007482.8004          0.000  
  24478104.072   -16084347.483 8 -12357891.08247  24478112.1254          0.000  
  27273313.103     2331132.994 4  11877496.08645  27273337.9894          0.000  
  24125403.380   -12998188.650 7  -9934110.82647  24125412.3604          0.000  
 02  1 30 12  7  0.0100000  0 10G 5G 6G14G15G17G22G24G25G29G30
  26714929.005     2544142.959 5   2139855.57945  26714945.4404          0.000  
  23574564.081   -17810667.351 6 -13726430.40847  23574572.0054          0.000  
  27385191.837     2727484.912 5  11539155.15945  27385211.9644          0.000  
  27458643.589    -2159082.725 5  -1524507.50745  27458671.9224          0.000  
  26585568.198    -6628345.120 5  -4981275.32045  26585585.4884          0.000  
  27079567.009     -625704.087 4   -357239.84745  27079581.4974          0.000  
  28024945.116     4749941.381 5   7194936.79245  28024963.1444          0.000  
  24471100.689   -16121150.695 8 -12386568.86247  24471108.7894          0.000  
  27292268.072     2430738.199 4  11955109.55045  27292290.2034          0.000  
  24137240.706   -12935983.187 7  -9885639.08347  24137249.5334          0.000  
 02  1 30 12  7 30.0100000  0  9G 5G 6G14G15G17G22G25G29G30
  26732630.352     2637166.170 5   2212340.97245  26732646.8924          0.000  
  23580932.263   -17777202.177 6 -13700353.65247  23580940.0354          0.000  
  27404182.711     2827278.131 5  11616915.39245  27404203.6944          0.000  
  27438588.027    -2264466.812 5  -1606623.63345  27438614.0504          0.000  
  26568619.759    -6717407.548 5  -5050674.16145  26568637.5064          0.000  
  27063435.866     -710475.627 4   -423295.34645  27063449.6864          0.000  
  24464186.426   -16157484.937 8 -12414881.20847  24464194.8194          0.000  
  27311229.230     2530379.638 4  12032751.25545  27311255.3004          0.000  
  24149128.861   -12873510.942 8  -9836959.45847  24149137.6414          0.000  
 02  1 30 12  8  0.0100000  0  9G 5G 6G14G15G17G22G25G29G30
  26750355.143     2730310.174 5   2284920.45745  26750372.2814          0.000  
  23587370.023   -17743372.035 6 -13673992.51247  23587377.9014          0.000  
  27423185.454     2927138.096 5  11694727.63245  27423205.0184          0.000  
  27418532.705    -2369853.392 4  -1688741.71345  27418558.5414          0.000  
  26551697.253    -6806335.644 6  -5119968.37046  26551714.1574          0.000  
  27047312.498     -795205.359 4   -489318.34045  27047328.2294          0.000  
  24457361.324   -16193350.422 8 -12442828.29447  24457370.0104          0.000  
  27330197.688     2630052.428 4  12110417.36945  27330225.5044          0.000  
  24161067.216   -12810773.934 8  -9788073.52947  24161076.2424          0.000  
 02  1 30 12  8 30.0100000  0  9G 5G 6G14G15G17G22G25G29G30
  26768103.489     2823576.910 5   2357595.60245  26768120.1934          0.000  
  23593877.162   -17709176.210 6 -13647346.43147  23593885.0394          0.000  
  27442202.206     3027063.860 5  11772591.12245  27442221.4074          0.000  
  27398478.009    -2475237.557 5  -1770857.96145  27398505.4384          0.000  
  26534801.022    -6895124.274 6  -5189153.90245  26534818.3594          0.000  
  27031197.776     -879890.168 5   -555306.32245  27031212.6164          0.000  
  24450626.324   -16228742.975 8 -12470406.86047  24450634.6354          0.000  
  27349171.780     2729755.852 4  12188107.33045  27349195.8804          0.000  
  24173056.363   -12747770.512 8  -9738980.00947  24173065.1904          0.000  
 02  1 30 12  9  0.0100000  0  9G 5G 6G14G15G17G22G25G29G30
  26785875.207     2916965.007 5   2430365.31345  26785891.4194          0.000  
  23600453.533   -17674616.889 6 -13620417.10347  23600461.4224          0.000  
  27461229.856     3127051.516 5  11850502.89445  27461249.9724          0.000  
  27378424.088    -2580617.341 5  -1852970.77745  27378451.9754          0.000  
  26517931.663    -6983771.543 5  -5258229.29945  26517948.3094          0.000  
  27015090.494     -964529.983 4   -621259.22645  27015106.1194          0.000  
  24443981.627   -16263661.482 8 -12497616.05547  24443990.0554          0.000  
  27368150.423     2829485.955 5  12265818.06745  27368178.1584          0.000  
  24185096.258   -12684501.457 8  -9689679.50047  24185105.3784          0.000  
 02  1 30 12  9 30.0100000  0  9G 5G 6G14G15G17G22G25G29G30
  26803668.891     3010472.426 5   2503228.05745  26803685.6774          0.000  
  23607098.681   -17639697.092 6 -13593206.88647  23607106.7344          0.000  
  27480268.091     3227096.535 5  11928459.29345  27480290.3164          0.000  
  27358371.205    -2685991.532 5  -1935079.32345  27358398.4004          0.000  
  26501089.418    -7072276.496 5  -5327193.79145  26501106.9314          0.000  
  26998992.464    -1049125.655 4   -687177.71245  26999007.7034          0.000  
  24437426.946   -16298105.996 8 -12524455.90347  24437435.3634          0.000  
  27387133.354     2929238.108 4  12343545.95745  27387161.5224          0.000  
  24197186.027   -12620968.875 8  -9640173.65047  24197195.2524          0.000  
 02  1 30 12 10  0.0100000  0  9G 5G 6G14G15G17G22G25G29G30
  26821484.864     3104094.825 5   2576180.28445  26821503.1854          0.000  
  23613811.170   -17604422.073 6 -13565719.87047  23613818.9424          0.000  
  27499316.091     3327191.794 5  12006454.88145  27499336.5584          0.000  
  27338318.810    -2791361.280 5  -2017184.38045  27338345.1034          0.000  
  26484274.013    -7160640.247 5  -5396048.28646  26484291.1744          0.000  
  26982902.540    -1133680.204 5   -753064.04945  26982917.5564          0.000  
  24430962.144   -16332078.633 8 -12550928.04647  24430970.5494          0.000  
  27406119.825     3029005.489 5  12421285.68645  27406145.5444          0.000  
  24209325.344   -12557176.977 8  -9590465.72447  24209334.5704          0.000  
 02  1 30 12 10 30.0100000  0  9G 5G 6G14G15G17G22G25G29G30
  26839323.036     3197835.694 5   2649224.93345  26839340.3374          0.000  
  23620592.135   -17568789.244 6 -13537954.03747  23620599.8484          0.000  
  27518374.781     3427338.044 5  12084490.20045  27518394.2874          0.000  
  27318268.657    -2896720.137 5  -2099280.98945  27318294.0124          0.000  
  26467487.159    -7248856.173 5  -5464787.56646  26467504.0624          0.000  
  26966820.641    -1218188.794 5   -818914.76045  26966836.7704          0.000  
  24424588.315   -16365573.470 8 -12577027.88747  24424596.9084          0.000  
  27425108.748     3128788.899 4  12499037.90745  27425134.9944          0.000  
  24221514.600   -12493121.918 8  -9540552.74147  24221523.7674          0.000  
 02  1 30 12 11  0.0100000  0  9G 5G 6G14G15G17G22G25G29G30
  26857184.929     3291698.259 5   2722364.31445  26857203.6964          0.000  
  23627441.236   -17532796.470 6 -13509907.73347  23627449.0434          0.000  
  27537441.474     3527536.079 5  12162565.75845  27537462.5514          0.000  
  27298222.088    -3002061.598 5  -2181364.06545  27298246.1774          0.000  
  26450729.427    -7336917.874 6  -5533406.70646  26450745.8844          0.000  
  26950747.913    -1302646.973 5   -884726.13245  26950763.0464          0.000  
  24418306.179   -16398585.414 8 -12602751.45347  24418314.4194          0.000  
  27444101.260     3228588.897 5  12576803.00945  27444128.0924          0.000  
  24233754.594   -12428800.528 8  -9490432.24147  24233764.1594          0.000  
 02  1 30 12 11 30.0100000  0  8G 5G 6G14G15G17G22G25G30
  26875069.534     3385680.330 5   2795596.84545  26875084.7144          0.000  
  23634358.193   -17496446.959 6 -13481583.44647  23634365.9534          0.000  
  27556518.042     3627781.114 5  12240678.00245  27556539.6224          0.000  
  27278179.011    -3107384.557 5  -2263432.75745  27278202.6194          0.000  
  26434000.890    -7424824.328 6  -5601904.86846  26434017.2544          0.000  
  26934685.573    -1387055.757 5   -950498.91845  26934703.4724          0.000  
  24412116.186   -16431114.407 8 -12628098.68447  24412124.2164          0.000  
  24246044.971   -12364214.828 8  -9440105.76847  24246053.7864          0.000  
 02  1 30 12 12  0.0100000  0  8G 5G 6G14G15G17G22G25G30
  26892975.708     3479779.829 5   2868920.88945  26892994.9674          0.000  
  23641342.914   -17459743.664 6 -13452983.48147  23641350.7674          0.000  
  27575601.507     3728068.429 4  12318823.16345  27575625.1154          0.000  
  27258139.919    -3212687.799 5  -2345486.08745  27258161.6634          0.000  
  26417302.237    -7512574.371 6  -5670281.18146  26417317.6524          0.000  
  26918632.071    -1471415.807 5  -1016233.77245  26918647.2864          0.000  
  24406017.873   -16463160.510 8 -12653069.64147  24406026.1374          0.000  
  24258385.254   -12299366.654 8  -9389574.78747  24258394.4794          0.000  
 02  1 30 12 12 30.0100000  0  8G 5G 6G14G15G17G22G25G30
  26910905.187     3573999.133 5   2942338.27745  26910923.0984          0.000  
  23648394.660   -17422685.170 6 -13424106.74447  23648402.4324          0.000  
  27594694.496     3828397.736 4  12397001.00845  27594718.1984          0.000  
  27238104.967    -3317965.789 5  -2427519.82845  27238128.0244          0.000  
  26400634.241    -7600162.629 6  -5738531.40446  26400650.0074          0.000  
  26902588.400    -1555723.382 5  -1081927.80145  26902604.1544          0.000  
  24400012.718   -16494719.333 8 -12677660.89347  24400020.8414          0.000  
  24270775.896   -12234253.601 8  -9338837.40047  24270784.8044          0.000  
 02  1 30 12 13  0.0100000  0  8G 5G 6G14G15G17G22G25G30
  26928856.943     3668335.387 5   3015846.76545  26928873.0254          0.000  
  23655513.572   -17385275.239 6 -13394956.16047  23655521.3214          0.000  
  27613794.674     3928763.809 5  12475207.49945  27613813.4294          0.000  
  27218075.983    -3423218.208 5  -2509533.63645  27218098.1614          0.000  
  26383997.819    -7687588.565 6  -5806655.17446  26384013.5394          0.000  
  26886554.672    -1639980.070 5  -1147582.11245  26886570.1334          0.000  
  24394099.792   -16525791.404 8 -12701872.86347  24394108.1854          0.000  
  24283216.499   -12168878.201 8  -9287895.57647  24283225.3144          0.000  
 02  1 30 12 13 30.0100000  0  8G 5G 6G14G15G17G22G25G30
  26946831.718     3762790.457 5   3089447.85245  26946850.2864          0.000  
  23662699.510   -17347512.886 6 -13365530.96547  23662707.5284          0.000  
  27632901.444     4029165.653 5  12553441.84345  27632925.0884          0.000  
  27198051.980    -3528439.900 5  -2591523.52045  27198074.0294          0.000  
  26367392.740    -7774847.267 6  -5874648.63546  26367408.3424          0.000  
  26870532.130    -1724182.665 4  -1213194.33345  26870546.7954          0.000  
  24388280.425   -16556372.824 8 -12725702.50547  24388288.8064          0.000  
  24295707.264   -12103238.545 8  -9236747.84747  24295716.2784          0.000  
 02  1 30 12 14  0.0100000  0  8G 5G 6G14G15G17G22G25G30
  26964829.694     3857365.595 5   3163142.47145  26964846.4104          0.000  
  23669952.396   -17309398.068 6 -13335831.11947  23669960.2974          0.000  
  27652015.229     4129602.009 5  12631703.07645  27652039.9984          0.000  
  27178034.200    -3633626.467 5  -2673486.03845  27178057.7034          0.000  
  26350819.946    -7861934.406 6  -5942508.39746  26350835.7944          0.000  
  26854518.586    -1808328.475 5  -1278762.31145  26854533.0054          0.000  
  24382554.725   -16586460.467 8 -12749147.37947  24382563.0244          0.000  
  24308248.718   -12037333.336 8  -9185393.20147  24308257.6384          0.000  
 02  1 30 12 14 30.0100000  0  8G 5G 6G14G15G17G22G25G30
  26982849.451     3952058.006 5   3236928.52245  26982865.5224          0.000  
  23677272.109   -17270934.367 6 -13305859.41947  23677280.0444          0.000  
  27671132.822     4230067.573 5  12709987.05345  27671155.7164          0.000  
  27158024.191    -3738777.464 5  -2755420.84945  27158048.0814          0.000  
  26334281.088    -7948849.345 6  -6010233.98546  26334296.8084          0.000  
  26838517.182    -1892419.049 5  -1344287.22245  26838534.2264          0.000  
  24376923.037   -16616054.571 8 -12772207.68847  24376930.9964          0.000  
  24320840.156   -11971165.017 8  -9133833.51947  24320849.0534          0.000  
 02  1 30 12 15  0.0100000  0  8G 5G 6G14G15G17G22G25G30
  27000890.299     4046867.460 5   3310805.77945  27000907.1324          0.000  
  23684657.499   -17232123.020 6 -13275616.82447  23684665.2714          0.000  
  27690257.233     4330559.609 4  12788291.65945  27690282.1544          0.000  
  27138021.503    -3843890.043 5  -2837325.80945  27138043.6584          0.000  
  26317774.259    -8035589.367 6  -6077823.29046  26317789.7674          0.000  
  26822525.601    -1976453.188 5  -1409768.19145  26822542.7974          0.000  
  24371385.966   -16645153.404 8 -12794882.06047  24371394.2424          0.000  
  24333481.598   -11904733.822 8  -9082069.01647  24333490.8354          0.000  
 02  1 30 12 15 30.0100000  0  8G 5G 6G14G15G17G22G25G30
  27018955.032     4141797.644 5   3384777.07345  27018972.3814          0.000  
  23692109.799   -17192961.455 6 -13245101.32947  23692117.7934          0.000  
  27709384.656     4431079.082 3  12866617.56545  27709406.7294          0.000  
  27118026.940    -3948957.029 5  -2919195.28745  27118048.4144          0.000  
  26301302.635    -8122147.325 6  -6145270.73046  26301317.2874          0.000  
  26806545.949    -2060425.893 5  -1475201.28945  26806561.9154          0.000  
  24365943.801   -16673750.842 8 -12817165.74247  24365951.8544          0.000  
  24346173.838   -11838035.969 8  -9030096.71847  24346182.8054          0.000  
 02  1 30 12 16  0.0100000  0  8G 5G 6G14G15G17G22G25G30
  27037041.636     4236842.596 5   3458837.81345  27037059.4304          0.000  
  23699627.184   -17153456.623 6 -13214318.35547  23699635.0964          0.000  
  27728517.768     4531617.694 4  12944958.37645  27728541.9984          0.000  
  27098040.370    -4053980.933 5  -3001031.20445  27098063.0174          0.000  
  26284864.883    -8208526.142 6  -6212578.58846  26284880.2984          0.000  
  26790577.340    -2144341.638 5  -1540589.96545  26790595.0284          0.000  
  24360596.501   -16701851.309 8 -12839062.17547  24360604.7774          0.000  
  24358915.540   -11771077.070 8  -8977921.01247  24358924.7534          0.000  
 02  1 30 12 16 30.0100000  0  8G 5G 6G14G15G17G22G25G30
  27055150.488     4332003.062 5   3532988.55845  27055167.1344          0.000  
  23707210.002   -17113608.589 6 -13183267.95347  23707217.8564          0.000  
  27747653.825     4632173.704 5  13023312.75545  27747676.6954          0.000  
  27078063.651    -4158957.858 5  -3082830.54045  27078085.1614          0.000  
  26268462.494    -8294721.927 6  -6279743.80246  26268477.2054          0.000  
  26774619.535    -2228198.436 5  -1605932.76645  26774635.1024          0.000  
  24355344.066   -16729452.012 8 -12860569.18147  24355352.5534          0.000  
  24371707.521   -11703856.225 8  -8925541.21047  24371716.8174          0.000  
 02  1 30 12 17  0.0100000  0  8G 5G 6G14G15G17G22G25G30
  27073281.377     4427280.922 5   3607230.80545  27073296.8154          0.000  
  23714858.276   -17073416.438 6 -13151949.40847  23714866.0724          0.000  
  27766793.356     4732746.396 5  13101680.08445  27766818.6064          0.000  
  27058096.317    -4263882.757 5  -3164589.36245  27058118.3314          0.000  
  26252095.464    -8380729.484 6  -6346762.37146  26252110.5624          0.000  
  26758674.330    -2311992.784 5  -1671226.86345  26758690.1904          0.000  
  24350187.649   -16756549.192 8 -12881683.83247  24350196.1354          0.000  
  24384549.512   -11636371.527 8  -8872955.78847  24384558.7604          0.000  
 02  1 30 12 17 30.0100000  0  8G 5G 6G14G15G17G22G25G30
  27091434.892     4522676.418 5   3681564.71645  27091453.1084          0.000  
  23722571.946   -17032880.953 7 -13120363.32747  23722580.0114          0.000  
  27785935.510     4833333.289 5  13180058.43245  27785959.4474          0.000  
  27038139.971    -4368752.051 5  -3246304.84845  27038161.6684          0.000  
  26235764.670    -8466545.483 6  -6413631.65046  26235780.0024          0.000  
  26742740.515    -2395723.241 5  -1736471.22145  26742754.6994          0.000  
  24345127.469   -16783140.182 8 -12902404.04747  24345135.5344          0.000  
  24397441.641   -11568622.613 8  -8820164.47947  24397451.0074          0.000  
 02  1 30 12 18  0.0100000  0  8G 5G 6G14G15G17G22G25G30
  27109610.124     4618187.352 5   3755988.51945  27109629.1144          0.000  
  23730350.217   -16992005.364 6 -13088512.23147  23730358.2354          0.000  
  27805078.936     4933929.774 5  13258444.28645  27805104.3494          0.000  
  27018194.073    -4473564.447 5  -3327976.06445  27018215.3964          0.000  
  26219470.654    -8552168.943 6  -6480350.91546  26219485.2014          0.000  
  26726818.948    -2479390.478 5  -1801666.27045  26726832.8744          0.000  
  24340163.499   -16809225.541 8 -12922730.26247  24340171.4824          0.000  
  24410383.782   -11500611.551 8  -8767168.90347  24410393.0194          0.000  
 02  1 30 12 18 30.0100000  0  8G 5G 6G14G15G17G22G25G30
  27127807.313     4713813.745 5   3830502.34445  27127825.0484          0.000  
  23738193.179   -16950790.617 6 -13056396.85747  23738201.2444          0.000  
  27824224.360     5034533.390 5  13336835.67345  27824250.2084          0.000  
  26998259.873    -4578316.901 5  -3409600.55845  26998280.1524          0.000  
  26203214.015    -8637596.625 6  -6546917.62746  26203229.3014          0.000  
  26710910.564    -2562993.071 5  -1866810.99945  26710924.1974          0.000  
  24335296.333   -16834803.089 8 -12942660.78647  24335304.3164          0.000  
  24423375.891   -11432338.062 8  -8713968.83547  24423385.3634          0.000  
 02  1 30 12 19  0.0100000  0  8G 5G 6G14G15G17G22G25G30
  27146027.211     4809555.223 5   3905105.78945  27146045.7314          0.000  
  23746100.427   -16909238.006 8 -13024018.21347  23746108.6914          0.000  
  27843370.381     5135141.100 5  13415230.21045  27843394.4934          0.000  
  26978337.703    -4683006.289 5  -3491175.91745  26978359.1554          0.000  
  26186995.365    -8722825.705 6  -6613329.57546  26187010.4524          0.000  
  26695013.506    -2646529.959 5  -1931904.50745  26695029.2954          0.000  
  24330526.115   -16859871.168 8 -12962194.31947  24330534.2274          0.000  
  24436417.800   -11363802.378 8  -8660564.47047  24436426.9324          0.000  
 02  1 30 12 19 30.0100000  0  8G 5G 6G14G15G17G22G25G30
  27164267.328     4905410.223 5   3979797.76545  27164284.9474          0.000  
  23754071.541   -16867350.045 6 -12991378.25747  23754079.5244          0.000  
  27862515.040     5235749.175 5  13493625.01545  27862538.8004          0.000  
  26958427.513    -4787630.732 5  -3572700.68445  26958447.1944          0.000  
  26170814.843    -8807854.513 6  -6679585.49246  26170830.0704          0.000  
  26679129.750    -2730001.398 5  -1996946.95245  26679144.4854          0.000  
  24325852.805   -16884429.624 8 -12981330.74747  24325861.1984          0.000  
  24449509.322   -11295006.056 8  -8606957.00547  24449518.6064          0.000  
 02  1 30 12 20  0.0100000  0  8G 5G 6G14G15G17G22G25G30
  27182530.893     5001384.083 5   4054582.29945  27182548.7924          0.000  
  23762107.188   -16825122.628 6 -12958473.78947  23762115.0654          0.000  
  27881662.453     5336360.276 4  13572022.13845  27881686.5074          0.000  
  26938531.606    -4892181.938 5  -3654168.41845  26938550.6074          0.000  
  26154673.706    -8892674.621 6  -6745678.77146  26154688.5114          0.000  
  26663259.080    -2813400.506 5  -2061933.12945  26663272.1394          0.000  
  24321277.773   -16908471.489 8 -13000064.64247  24321285.9784          0.000  
  24462651.656   -11225943.518 8  -8553142.10347  24462660.9054          0.000  
 02  1 30 12 20 30.0100000  0  8G 5G 6G14G15G17G22G25G30
  27200816.356     5097471.730 5   4129455.51145  27200834.0094          0.000  
  23770206.181   -16782561.646 6 -12925309.40047  23770214.3394          0.000  
  27900807.511     5436966.718 4  13650415.64845  27900834.1444          0.000  
  26918648.744    -4996661.306 5  -3735580.14045  26918669.1874          0.000  
  26138572.403    -8977287.918 6  -6811610.89846  26138586.8094          0.000  
  26647401.865    -2896730.915 5  -2126865.67345  26647416.9044          0.000  
  24316800.645   -16931999.358 8 -13018398.02347  24316808.7914          0.000  
  24475843.486   -11156619.783 8  -8499123.66947  24475852.6414          0.000  
 02  1 30 12 21  0.0100000  0  7G 5G 6G15G17G22G25G30
  27219123.007     5193673.677 4   4204417.80545  27219141.8444          0.000  
  23778368.845   -16739667.511 6 -12891885.41147  23778376.8634          0.000  
  26898780.966    -5101065.144 5  -3816933.03245  26898802.6644          0.000  
  26122510.701    -9061690.693 6  -6877378.99946  26122525.8224          0.000  
  26631557.827    -2979990.552 5  -2191743.15645  26631571.9884          0.000  
  24312421.705   -16955010.982 8 -13036329.12847  24312429.8644          0.000  
  24489085.290   -11087034.150 8  -8444901.15947  24489094.7504          0.000  
 02  1 30 12 21 30.0100000  0  7G 5G 6G15G17G22G25G30
  27237451.377     5289989.199 5   4279468.58045  27237468.4924          0.000  
  23786594.423   -16696442.151 6 -12858203.32547  23786602.4524          0.000  
  26878928.125    -5205390.918 5  -3898225.11945  26878949.2134          0.000  
  26106489.712    -9145880.413 6  -6942981.08246  26106504.3064          0.000  
  26615727.295    -3063178.823 5  -2256564.95045  26615743.8114          0.000  
  24308141.062   -16977505.292 8 -13053857.13547  24308148.9514          0.000  
  24502376.760   -11017187.211 8  -8390475.04447  24502386.1494          0.000  
 02  1 30 12 22  0.0100000  0  7G 5G 6G15G17G22G25G30
  27255801.513     5386417.491 5   4354607.19245  27255818.8154          0.000  
  23794882.430   -16652887.356 7 -12824264.53747  23794890.2264          0.000  
  26859090.491    -5309636.100 5  -3979454.38045  26859110.7124          0.000  
  26090509.840    -9229854.903 6  -7008415.45446  26090524.3404          0.000  
  26599910.672    -3146295.006 5  -2321330.61645  26599924.8674          0.000  
  24303958.967   -16999481.322 8 -13070981.28647  24303967.0794          0.000  
  24515717.703   -10947079.578 8  -8335845.79746  24515727.1274          0.000  
 02  1 30 12 22 30.0100000  0  7G 5G 6G15G17G22G25G30
  27274172.788     5482958.216 5   4429833.47745  27274190.9334          0.000  
  23803233.139   -16609004.252 6 -12790069.92147  23803240.9344          0.000  
  26839268.753    -5413797.209 5  -4060618.18545  26839288.9744          0.000  
  26074571.147    -9313611.171 6  -7073679.79446  26074585.2954          0.000  
  26584107.579    -3229337.951 5  -2386039.19245  26584122.7714          0.000  
  24299876.206   -17020937.134 8 -13087700.07347  24299884.2124          0.000  
  24529108.502   -10876711.568 8  -8281013.63646  24529117.8324          0.000  
 02  1 30 12 23  0.0100000  0  7G 5G 6G15G17G22G25G30
  27292565.484     5579612.578 5   4505148.26945  27292584.3104          0.000  
  23811646.426   -16564792.621 6 -12755619.31047  23811654.3504          0.000  
  26819463.330    -5517870.118 5  -4141713.24245  26819481.8284          0.000  
  26058675.034    -9397144.522 6  -7138770.44746  26058689.1594          0.000  
  26568319.458    -3312304.786 5  -2450688.45445  26568334.0874          0.000  
  24295892.713   -17041869.575 8 -13104011.04147  24295900.7664          0.000  
  24542548.918   -10806081.671 8  -8225977.42546  24542558.1324          0.000  
 02  1 30 12 23 30.0100000  0  7G 5G 6G15G17G22G25G30
  27310979.230     5676377.953 5   4580549.59445  27310998.1974          0.000  
  23820121.279   -16520256.093 7 -12720915.53747  23820129.2154          0.000  
  26799675.538    -5621854.138 5  -4222739.07345  26799694.4934          0.000  
  26042821.534    -9480454.712 6  -7203687.19146  26042835.8244          0.000  
  26552544.817    -3395196.841 5  -2515279.39245  26552560.1854          0.000  
  24292009.109   -17062279.876 8 -13119915.14647  24292017.4084          0.000  
  24556038.629   -10735192.461 8  -8170739.14846  24556048.0894          0.000  
 02  1 30 12 24  0.0100000  0  7G 5G 6G15G17G22G25G30
  27329414.544     5773256.306 5   4656038.92045  27329432.4204          0.000  
  23828658.531   -16475393.723 6 -12685957.85947  23828666.5964          0.000  
  26779905.644    -5725744.085 5  -4303691.59045  26779925.6074          0.000  
  26027011.308    -9563536.656 6  -7268426.08946  26027025.9614          0.000  
  26536786.696    -3478010.699 5  -2579809.46545  26536801.9234          0.000  
  24288224.995   -17082164.249 8 -13135409.44047  24288233.1424          0.000  
  24569578.405   -10664041.843 8  -8115297.18646  24569588.0524          0.000  
 02  1 30 12 24 30.0100000  0  7G 5G 6G15G17G22G25G30
  27347871.890     5870247.134 5   4731615.89945  27347890.8914          0.000  
  23837257.025   -16430207.032 6 -12650747.46347  23837264.9264          0.000  
  26760154.169    -5829536.985 5  -4384568.49245  26760173.1474          0.000  
  26011245.138    -9646387.562 6  -7332984.97146  26011259.1694          0.000  
  26521041.860    -3560745.183 5  -2644277.76645  26521057.9664          0.000  
  24284541.480   -17101521.062 8 -13150492.65247  24284549.4864          0.000  
  24583167.587   -10592630.225 8  -8059651.84046  24583177.0704          0.000  
 02  1 30 12 25  0.0100000  0  7G 5G 6G15G17G22G25G30
  27366349.696     5967350.482 5   4807280.51445  27366367.8184          0.000  
  23845917.353   -16384696.960 7 -12615285.08447  23845925.2424          0.000  
  26740421.593    -5933229.075 5  -4465366.88245  26740440.8174          0.000  
  25995523.608    -9729004.188 6  -7397361.28746  25995537.8164          0.000  
  26505313.859    -3643398.703 5  -2708682.79045  26505328.4184          0.000  
  24280958.787   -17120348.701 8 -13165163.51947  24280966.8294          0.000  
  24596806.748   -10520957.471 8  -8003803.01647  24596816.3024          0.000  
 02  1 30 12 25 30.0100000  0  7G 5G 6G15G17G22G25G30
  27384849.751     6064565.167 5   4883031.98945  27384866.1384          0.000  
  23854638.783   -16338865.525 7 -12579572.29147  23854646.8364          0.000  
  26720708.840    -6036818.328 6  -4546085.17045  26720728.6624          0.000  
  25979846.786    -9811384.360 6  -7461553.38146  25979860.3954          0.000  
  26489600.627    -3725970.859 5  -2773024.49645  26489613.8144          0.000  
  24277476.614   -17138646.259 8 -13179421.32947  24277484.3624          0.000  
  24610494.962   -10449024.331 7  -7947751.29246  24610504.7384          0.000  
 02  1 30 12 26  0.0100000  0  7G 5G 6G15G17G22G25G30
  27403370.731     6161891.396 5   4958870.36245  27403388.5604          0.000  
  23863421.142   -16292713.645 8 -12543609.80147  23863429.5354          0.000  
  26701015.649    -6140301.295 6  -4626720.63645  26701034.4284          0.000  
  25964215.888    -9893525.013 6  -7525558.83046  25964229.3914          0.000  
  26473903.163    -3808460.119 5  -2837301.62045  26473918.0854          0.000  
  24274095.681   -17156412.453 8 -13193265.09547  24274103.5004          0.000  
  24624233.101   -10376830.740 8  -7891496.62046  24624242.5254          0.000  
 02  1 30 12 26 30.0100000  0  7G 5G 6G15G17G22G25G30
  27421911.780     6259326.311 5   5034793.34945  27421929.5634          0.000  
  23872263.850   -16246245.059 8 -12507400.52847  23872272.0094          0.000  
  26681344.211    -6243677.616 6  -4707272.99346  26681363.6584          0.000  
  25948630.224    -9975425.691 6  -7589377.28946  25948644.4314          0.000  
  26458221.324    -3890867.812 5  -2901515.24145  26458235.5084          0.000  
  24270815.913   -17173648.070 8 -13206695.43547  24270824.0844          0.000  
  24638019.876   -10304379.420 8  -7835041.11246  24638028.8794          0.000  
 02  1 30 12 27  0.0100000  0  7G 5G 6G15G17G22G25G30
  27440474.884     6356871.920 5   5110802.66545  27440493.4284          0.000  
  23881167.075   -16199458.647 8 -12470943.59947  23881175.3164          0.000  
  26661692.890    -6346941.576 6  -4787737.81545  26661711.3644          0.000  
  25933091.734   -10057081.148 6  -7653004.66246  25933105.4374          0.000  
  26442555.868    -3973190.152 5  -2965662.28445  26442570.6614          0.000  
  24267637.824   -17190349.174 8 -13219709.26047  24267645.9714          0.000  
  24651856.703   -10231668.196 8  -7778383.09646  24651866.1284          0.000  
 02  1 30 12 27 30.0100000  0  7G 5G 6G15G17G22G25G30
  27459057.768     6454525.812 5   5186896.32845  27459075.7154          0.000  
  23890130.074   -16152357.970 7 -12434241.78747  23890138.4324          0.000  
  26642063.351    -6450092.232 6  -4868114.36645  26642081.0524          0.000  
  25917600.088   -10138490.598 6  -7716440.34746  25917613.9554          0.000  
  26426905.950    -4055428.013 5  -3029743.52545  26426919.5834          0.000  
  24264561.514   -17206516.599 8 -13232307.24247  24264569.8254          0.000  
  24665742.207   -10158699.383 8  -7721524.34946  24665751.9244          0.000  
 02  1 30 12 28  0.0100000  0  7G 5G 6G15G17G22G25G30
  27477661.298     6552287.165 5   5263073.70845  27477679.6084          0.000  
  23899152.614   -16104944.855 7 -12397296.51847  23899160.7024          0.000  
  26622456.063    -6553127.104 6  -4948400.70145  26622473.7404          0.000  
  25902155.192   -10219651.798 6  -7779682.58746  25902168.8494          0.000  
  26411273.032    -4137580.741 5  -3093758.44245  26411285.8444          0.000  
  24261586.424   -17222149.841 8 -13244488.96747  24261594.3374          0.000  
  24679676.548   -10085473.615 8  -7664465.37846  24679686.1374          0.000  
 02  1 30 12 28 30.0100000  0  7G 5G 6G15G17G22G25G30
  27496285.451     6650157.868 5   5339336.33545  27496304.5464          0.000  
  23908234.448   -16057218.352 7 -12360107.04547  23908242.6074          0.000  
  26602871.604    -6656040.649 6  -5028592.56545  26602890.1134          0.000  
  25886758.738   -10300559.584 6  -7842727.37046  25886772.3604          0.000  
  26395656.412    -4219644.743 5  -3157704.20245  26395671.2524          0.000  
  24258713.878   -17237245.017 8 -13256251.42747  24258721.8024          0.000  
  24693660.313   -10011988.681 8  -7607204.46046  24693669.6564          0.000  
 02  1 30 12 29  0.0100000  0  7G 5G 6G15G17G22G25G30
  27514931.183     6748136.935 5   5415683.31645  27514949.7864          0.000  
  23917375.975   -16009180.413 7 -12322674.89947  23917384.3684          0.000  
  26583311.651    -6758830.464 6  -5108687.98045  26583329.1174          0.000  
  25871411.041   -10381211.741 6  -7905572.96446  25871424.5804          0.000  
  26380057.249    -4301619.302 5  -3221580.29345  26380070.1314          0.000  
  24255943.949   -17251801.767 8 -13267594.33947  24255952.2134          0.000  
  24707693.168    -9938245.687 8  -7549742.45446  24707702.3704          0.000  
 02  1 30 12 29 30.0100000  0  7G 5G 6G15G17G22G25G30
  27533596.466     6846225.119 5   5492115.40945  27533615.1514          0.000  
  23926576.554   -15960831.242 7 -12285000.23747  23926584.7014          0.000  
  26563775.259    -6861492.339 6  -5188683.71546  26563792.4554          0.000  
  25856112.444   -10461604.307 6  -7968216.28646  25856125.3154          0.000  
  26364474.967    -4383502.247 5  -3285384.96545  26364488.7524          0.000  
  24253276.646   -17265817.193 8 -13278515.44147  24253284.8514          0.000  
  24721775.447    -9864243.686 8  -7492078.62946  24721784.5434          0.000  
 02  1 30 12 30  0.0100000  0  7G 5G 6G15G17G22G25G30
  27552283.077     6944420.810 5   5568631.20645  27552303.5084          0.000  
  23935835.917   -15912173.187 7 -12247084.89247  23935843.9474          0.000  
  26544263.379    -6964024.531 6  -5268578.41345  26544280.8574          0.000  
  25840864.059   -10541735.790 6  -8030656.17946  25840877.1994          0.000  
  26348910.827    -4465293.355 5  -3349118.06245  26348925.7614          0.000  
  24250712.618   -17279291.177 8 -13289014.64047  24250720.8824          0.000  
  24735906.438    -9789983.925 7  -7434213.95746  24735916.1204          0.000  
 02  1 30 12 30 30.0100000  0  7G 5G 6G15G17G22G25G30
  27570988.934     7042722.740 4   5645229.88345  27571006.2014          0.000  
  23945153.493   -15863208.767 7 -12208930.81747  23945161.5234          0.000  
  26524776.512    -7066424.957 6  -5348370.42645  26524794.6464          0.000  
  25825665.495   -10621604.229 6  -8092891.09146  25825678.5304          0.000  
  26333363.828    -4546992.352 5  -3412779.41345  26333377.6834          0.000  
  24248252.026   -17292223.781 8 -13299091.98747  24248260.1844          0.000  
  24750086.401    -9715467.838 7  -7376149.55446  24750096.0484          0.000  
 02  1 30 12 31  0.0100000  0  7G 5G 6G15G17G22G25G30
  27589715.710     7141130.976 4   5721911.28145  27589731.9454          0.000  
  23954529.436   -15813938.916 7 -12170538.75247  23954537.5954          0.000  
  26505315.982    -7168690.002 6  -5428056.96146  26505334.0694          0.000  
  25810517.351   -10701206.470 6  -8154918.58246  25810530.5624          0.000  
  26317834.913    -4628597.688 5  -3476367.75745  26317848.0774          0.000  
  24245894.114   -17304613.335 8 -13308746.17247  24245902.1914          0.000  
  24764315.204    -9640695.268 7  -7317885.30046  24764325.2624          0.000  
 02  1 30 12 31 30.0100000  0  7G 5G 6G15G17G22G25G30
  27608462.757     7239644.218 4   5798674.52745  27608482.7204          0.000  
  23963962.798   -15764365.581 7 -12131910.20647  23963970.9924          0.000  
  26485881.351    -7270817.590 6  -5507636.38746  26485899.4034          0.000  
  25795420.812   -10780540.440 6  -8216737.03446  25795433.9414          0.000  
  26302323.850    -4710108.701 5  -3539882.63145  26302336.0174          0.000  
  24243639.845   -17316459.551 8 -13317976.98047  24243647.7924          0.000  
  24778592.934    -9565667.095 7  -7259421.85746  24778602.5464          0.000  
 02  1 30 12 32  0.0100000  0  7G 5G 6G15G17G22G25G30
  27627229.248     7338263.020 3   5875520.08145  27627246.3504          0.000  
  23973454.095   -15714489.471 7 -12093045.73147  23973462.1484          0.000  
  26466473.722    -7372803.624 6  -5587105.53846  26466491.9734          0.000  
  25780375.162   -10859602.610 6  -8278343.70246  25780388.2324          0.000  
  26286830.753    -4791523.353 5  -3603322.43545  26286843.5894          0.000  
  24241489.458   -17327760.134 8 -13326782.62947  24241497.3244          0.000  
  24792919.061    -9490382.813 7  -7200758.86646  24792929.0484          0.000  
 02  1 30 12 32 30.0100000  0  7G 5G 6G15G17G22G25G30
  27646015.682     7436986.094 3   5952446.88945  27646030.7094          0.000  
  23983002.217   -15664312.797 7 -12053947.05047  23983010.3634          0.000  
  26447093.331    -7474646.176 6  -5666462.87546  26447110.1994          0.000  
  25765382.005   -10938391.118 6  -8339737.11746  25765394.9704          0.000  
  26271355.863    -4872841.324 5  -3666686.86745  26271368.5474          0.000  
  24239442.990   -17338515.141 8 -13335163.14747  24239450.7624          0.000  
  24807293.838    -9414843.536 7  -7141897.16346  24807303.6034          0.000  
 02  1 30 12 33  0.0100000  0  7G 5G 6G15G17G22G25G30
  27664822.784     7535815.693 3   6029456.61445  27664839.2774          0.000  
  23992607.883   -15613834.221 7 -12014613.12247  23992616.0884          0.000  
  26427741.262    -7576339.267 6  -5745703.76146  26427758.3644          0.000  
  25750442.094   -11016900.385 6  -8400912.92846  25750455.2114          0.000  
  26255900.830    -4954058.695 5  -3729972.94745  26255914.7564          0.000  
  24237500.999   -17348720.624 8 -13343115.46547  24237508.6534          0.000  
  24821717.428    -9339047.067 7  -7082835.05946  24821727.2274          0.000  
 02  1 30 12 33 30.0100000  0  7G 5G 6G15G17G22G25G30
  27683648.787     7634747.816 3   6106546.28844  27683673.4514          0.000  
  24002270.305   -15563058.435 7 -11975047.60847  24002278.6404          0.000  
  26408417.740    -7677883.312 6  -5824828.50046  26408436.0384          0.000  
  25735555.331   -11095131.171 6  -8461871.75446  25735568.2494          0.000  
  26240464.610    -5035177.567 6  -3793182.28146  26240476.8254          0.000  
  24235663.155   -17358379.051 8 -13350641.50247  24235670.9154          0.000  
  24836189.210    -9262996.876 7  -7023575.24746  24836199.2794          0.000  
 02  1 30 12 34  0.0100000  0  7G 5G 6G15G17G22G25G30
  27702496.238     7733783.824 2   6183716.96844  27702506.3894          0.000  
  24011989.321   -15511985.178 8 -11935250.29647  24011997.4794          0.000  
  26389123.735    -7779273.660 6  -5903833.47746  26389141.1424          0.000  
  25720721.879   -11173079.049 6  -8522610.12246  25720735.0554          0.000  
  26225046.818    -5116194.989 5  -3856312.53045  26225059.8304          0.000  
  24233929.686   -17367487.785 8 -13357739.20347  24233937.4934          0.000  
  24850709.816    -9186691.687 7  -6964116.75246  24850719.7454          0.000  
 02  1 30 12 34 30.0100000  0  7G 5G 6G15G17G22G25G30
  27721360.910     7832919.852 3         0.000           0.000           0.000  
  24021763.865   -15460619.264 8 -11895224.94347  24021772.0944          0.000  
  26369858.175    -7880510.623 6  -5982718.93146  26369876.0984          0.000  
  25705942.247   -11250744.793 6  -8583128.64346  25705955.1184          0.000  
  26209648.497    -5197113.144 5  -3919365.48745  26209662.5174          0.000  
  24232300.535   -17376048.702 8 -13364410.04147  24232308.3894          0.000  
  24865278.095    -9110135.297 7  -6904462.50346  24865288.1764          0.000  
 02  1 30 12 35  0.0100000  0  7G 5G 6G15G17G22G25G30
  27740245.155     7932158.669 2         0.000           0.000           0.000  
  24031594.567   -15408959.103 8 -11854970.30447  24031602.6204          0.000  
  26350623.561    -7981588.076 6  -6061480.08246  26350641.0154          0.000  
  25691217.207   -11328122.589 6  -8643422.79046  25691230.2894          0.000  
  26194270.099    -5277927.712 5  -3982337.72245  26194282.7944          0.000  
  24230776.557   -17384058.035 8 -13370651.07147  24230784.4234          0.000  
  24879894.644    -9033324.810 7  -6844610.26746  24879904.2684          0.000  
 02  1 30 12 35 30.0100000  0  7G 5G 6G15G17G22G25G30
  27759149.024     8031497.179 2         0.000           0.000           0.000  
  24041480.364   -15357008.749 8 -11814489.54447  24041488.5694          0.000  
  26331419.527    -8082505.854 6  -6140116.85046  26331436.3134          0.000  
  25676548.265   -11405212.402 6  -8703492.51946  25676560.8784          0.000  
  26178910.719    -5358640.035 5  -4045230.26945  26178923.8254          0.000  
  24229357.002   -17391517.455 7 -13376463.60247  24229364.5634          0.000  
  24894559.127    -8956263.420 7  -6784562.52046  24894569.1964          0.000  
 02  1 30 12 36  0.0100000  0  7G 5G 6G15G17G22G25G30
  27778073.367     8130938.958 2         0.000           0.000           0.000  
  24051421.993   -15304765.319 8 -11773780.41047  24051430.0474          0.000  
  26312246.625    -8183256.971 6  -6218623.73946  26312263.3884          0.000  
  25661933.875   -11482007.326 6  -8763332.45846  25661946.0894          0.000  
  26163572.275    -5439244.775 5  -4108038.99645  26163585.3104          0.000  
  24228043.149   -17398421.867 8 -13381843.64747  24228050.8514          0.000  
  24909271.893    -8878947.227 7  -6724316.23446  24909282.0564          0.000  
 02  1 30 12 36 30.0100000  0  7G 5G 6G15G17G22G25G30
  27797015.627     8230480.659 2         0.000           0.000           0.000  
  24061418.632   -15252233.194 7 -11732846.31647  24061426.7674          0.000  
  26293105.790    -8283841.030 6  -6297000.49846  26293121.8374          0.000  
  25647376.179   -11558507.634 6  -8822942.84346  25647388.4414          0.000  
  26148253.776    -5519743.378 5  -4170765.00545  26148267.5384          0.000  
  24226834.201   -17404773.298 8 -13386792.79647  24226842.2074          0.000  
  24924032.655    -8801379.441 7  -6663873.90046  24924043.0414          0.000  
 02  1 30 12 37  0.0100000  0  7G 5G 6G15G17G22G25G30
  27815977.112     8330122.685 1         0.000           0.000           0.000  
  24071470.283   -15199412.847 8 -11691687.62647  24071478.3954          0.000  
  26273997.544    -8384254.125 6  -6375244.01146  26274014.3654          0.000  
  25632875.492   -11634709.762 6  -8882320.84946  25632888.0474          0.000  
  26132955.535    -5600133.795 5  -4233406.70645  26132969.2494          0.000  
  24225731.315   -17410569.735 8 -13391309.49147  24225739.4154          0.000  
  24938841.555    -8723559.520 7  -6603235.09646  24938851.6244          0.000  
 02  1 30 12 37 30.0100000  0  7G 5G 6G15G17G22G25G30
  27834958.145     8429867.456 1         0.000           0.000           0.000  
  24081576.563   -15146302.923 6 -11650303.29547  24081584.5344          0.000  
  26254923.009    -8484490.445 6  -6453349.80746  26254940.1354          0.000  
  25618431.978   -11710608.151 6  -8941462.18546  25618444.3334          0.000  
  26117679.211    -5680411.861 5  -4295960.87846  26117691.3314          0.000  
  24224734.529   -17415807.413 8 -13395390.78447  24224742.6764          0.000  
  24953698.538    -8645484.961 7  -6542397.86246  24953708.6314          0.000  
 02  1 30 12 38  0.0100000  0  7G 5G 6G15G17G22G25G30
  27853956.114     8529708.760 1         0.000           0.000           0.000  
  24091736.827   -15092910.244 7 -11608698.63147  24091744.9274          0.000  
  26235881.396    -8584552.420 6  -6531319.74846  26235898.0184          0.000  
  25604046.077   -11786205.678 6  -9000369.08146  25604058.6904          0.000  
  26102423.226    -5760581.902 5  -4358430.83045  26102435.6874          0.000  
  24223843.279   -17420491.023 8 -13399040.33747  24223851.3444          0.000  
  24968602.964    -8567161.622 7  -6481366.79546  24968613.3624          0.000  
 02  1 30 12 38 30.0100000  0  7G 5G 6G15G17G22G25G30
  27872975.084     8629648.823 1         0.000           0.000           0.000  
  24101951.240   -15039233.740 7 -11566872.80347  24101959.4694          0.000  
  26216874.053    -8684434.661 6  -6609149.63646  26216890.0544          0.000  
  25589718.654   -11861497.320 6  -9059037.61046  25589731.1384          0.000  
  26087188.420    -5840639.966 6  -4420813.56845  26087202.3224          0.000  
  24223058.167   -17424617.337 8 -13402255.63147  24223065.9624          0.000  
  24983555.578    -8488587.523 7  -6420140.30846  24983565.7414          0.000  
 02  1 30 12 39  0.0100000  0  6G 6G15G17G22G25G30
  24112218.517   -14985277.420 7 -11524828.93247  24112226.6884          0.000  
  26197900.686    -8784136.729 6  -6686839.13346  26197917.0154          0.000  
  25575448.716   -11936483.113 6  -9117467.82946  25575460.7204          0.000  
  26071975.048    -5920587.570 6  -4483110.21545  26071987.2044          0.000  
  24222378.642   -17428188.281 8 -13405038.16947  24222386.6714          0.000  
  24998554.395    -8409765.721 7  -6358720.81346  24998564.5234          0.000  
 02  1 30 12 39 30.0100000  0  6G 6G15G17G22G25G30
  24122540.161   -14931037.370 7 -11482563.97747  24122548.1914          0.000  
  26178963.960    -8883650.266 6  -6764381.72446  26178980.2774          0.000  
  25561239.181   -12011154.915 6  -9175653.38846  25561251.5134          0.000  
  26056783.644    -6000418.044 5  -4545315.58946  26056796.4444          0.000  
  24221805.787   -17431197.717 8 -13407383.16847  24221813.9104          0.000  
  25013602.133    -8330691.159 7  -6297104.38146  25013612.6834          0.000  
 02  1 30 12 40  0.0100000  0  6G 6G15G17G22G25G30
  24132914.254   -14876520.532 8 -11440083.34147  24132922.3904          0.000  
  26160062.051    -8982977.732 6  -6841779.35046  26160078.1114          0.000  
  25547088.486   -12085515.803 6  -9233596.65846  25547101.2164          0.000  
  26041613.514    -6080135.647 5  -4607433.00345  26041626.4204          0.000  
  24221339.003   -17433650.545 8 -13409294.44747  24221347.1034          0.000  
  25028696.550    -8251369.714 7  -6235295.56446  25028707.1714          0.000  
 02  1 30 12 40 30.0100000  0  6G 6G15G17G22G25G30
  24143342.234   -14821722.312 8 -11397383.45947  24143350.5104          0.000  
  26141197.452    -9082110.158 6  -6919025.01146  26141213.0784          0.000  
  25532998.792   -12159557.125 6  -9291290.95146  25533010.5964          0.000  
  26026466.495    -6159732.982 5  -4669456.71046  26026479.8814          0.000  
  24220979.552   -17435539.899 8 -13410766.66247  24220987.6524          0.000  
  25043839.142    -8171795.919 7  -6173290.10946  25043849.4344          0.000  
 02  1 30 12 41  0.0100000  0  6G 6G15G17G22G25G30
  24153822.542   -14766647.658 8 -11354468.16247  24153830.7714          0.000  
  26122370.107    -9181048.386 6  -6996119.34446  26122386.0494          0.000  
  25518969.659   -12233279.800 7  -9348736.93446  25518982.0614          0.000  
  26011342.061    -6239212.356 6  -4731388.48946  26011354.0534          0.000  
  24220726.675   -17436868.821 8 -13411802.16747  24220734.6704          0.000  
  25059028.780    -8091973.717 7  -6111091.10946  25059038.8024          0.000  
 02  1 30 12 41 30.0100000  0  6G 6G15G17G22G25G30
  24164354.277   -14711303.012 8 -11311342.49247  24164362.2834          0.000  
  26103578.984    -9279794.148 6  -7073063.72346  26103594.6454          0.000  
  25505000.790   -12306686.265 7  -9405936.54746  25505012.7824          0.000  
  25996238.801    -6318577.404 6  -4793231.20146  25996252.0824          0.000  
  24220579.494   -17437641.284 8 -13412404.07147  24220587.5474          0.000  
  25074264.987    -8011908.384 7  -6048702.64546  25074274.7634          0.000  
 02  1 30 12 42  0.0100000  0  6G 6G15G17G22G25G30
  24174937.833   -14655685.403 8 -11268004.12047  24174945.8274          0.000  
  26084825.655    -9378339.960 6  -7149852.28846  26084841.6204          0.000  
  25491093.473   -12379769.412 7  -9462884.22346  25491105.3594          0.000  
  25981159.272    -6397822.314 6  -4854980.26846  25981172.5534          0.000  
  24220539.314   -17437852.206 8 -13412568.41447  24220547.3904          0.000  
  25089547.819    -7931595.795 7  -5986121.50046  25089557.9934          0.000  
 02  1 30 12 42 30.0100000  0  6G 6G15G17G22G25G30
  24185573.517   -14599794.747 8 -11224452.98647  24185581.7704          0.000  
  26066112.170    -9476681.375 6  -7226481.59446  26066127.2924          0.000  
  25477248.040   -12452525.375 7  -9519576.96946  25477259.8094          0.000  
  25966102.897    -6476944.425 6  -4916633.65446  25966115.2644          0.000  
  24220606.439   -17437499.580 8 -13412293.63347  24220614.4574          0.000  
  25104877.896    -7851035.129 7  -5923347.07546  25104888.2824          0.000  
 02  1 30 12 43  0.0100000  0  6G 6G15G17G22G25G30
  24196261.451   -14543629.809 8 -11180688.13647  24196269.6794          0.000  
  26047437.734    -9574812.856 6  -7302947.30346  26047453.3834          0.000  
  25463466.296   -12524948.983 7  -9576010.74246  25463477.5614          0.000  
  25951070.348    -6555939.846 6  -4978188.34346  25951083.3944          0.000  
  24220781.264   -17436580.411 8 -13411577.38947  24220789.2234          0.000  
  25120255.876    -7770224.338 7  -5860377.73046  25120266.5664          0.000  
 02  1 30 12 43 30.0100000  0  6G 6G15G17G22G25G30
  24207000.230   -14487196.868 8 -11136714.44247  24207008.2724          0.000  
  26028803.344    -9672736.057 6  -7379250.72046  26028818.9814          0.000  
  25449747.349   -12597042.431 7  -9632187.26546  25449758.6614          0.000  
  25936061.260    -6634812.010 5  -5039646.98846  25936074.2364          0.000  
  24221063.443   -17435098.988 8 -13410423.01947  24221071.3914          0.000  
  25135680.164    -7689168.444 7  -5797217.41046  25135690.7964          0.000  
 02  1 30 12 44  0.0100000  0  6G 6G15G17G22G25G30
  24217790.546   -14430494.660 8 -11092530.94047  24217798.8214          0.000  
  26010210.072    -9770445.435 6  -7455387.54746  26010225.6394          0.000  
  25436092.001   -12668800.434 7  -9688102.41146  25436103.5834          0.000  
  25921076.257    -6713556.681 6  -5101006.26846  25921089.5614          0.000  
  24221453.053   -17433051.492 8 -13408827.55947  24221460.6964          0.000  
  25151152.245    -7607865.080 7  -5733864.25246  25151162.3854          0.000  
 02  1 30 12 44 30.0100000  0  6G 6G15G17G22G25G30
  24228631.341   -14373526.133 8 -11048139.92147  24228639.7114          0.000  
  25991656.843    -9867939.738 6  -7531356.77146  25991672.1874          0.000  
  25422500.652   -12740221.976 7  -9743755.37946  25422511.8944          0.000  
  25906115.540    -6792174.295 6  -5162266.53146  25906127.5554          0.000  
  24221950.043   -17430439.028 8 -13406791.86547  24221957.6504          0.000  
  25166670.543    -7526316.424 7  -5670319.93846  25166680.7534          0.000  
 02  1 30 12 45  0.0100000  0  6G 6G15G17G22G25G30
  24239522.651   -14316291.614 8 -11003541.63647  24239530.8914          0.000  
  25973145.784    -9965214.854 6  -7607155.19546  25973161.4104          0.000  
  25408974.378   -12811303.670 7  -9799143.54546  25408986.0304          0.000  
  25891179.917    -6870662.434 6  -5223425.94746  25891192.8814          0.000  
  24222555.073   -17427260.342 8 -13404314.96347  24222562.6684          0.000  
  25182235.391    -7444521.866 7  -5606584.03646  25182245.5184          0.000  
 02  1 30 12 45 30.0100000  0  6G 6G15G17G22G25G30
  24250464.857   -14258790.429 8 -10958735.55947  24250473.2034          0.000  
  25954677.280   -10062265.477 6  -7682778.69346  25954692.4604          0.000  
  25395513.302   -12882040.676 7  -9854263.12746  25395524.6374          0.000  
  25876269.329    -6949017.551 6  -5284481.72846  25876280.6414          0.000  
  24223268.361   -17423512.643 8 -13401394.67347  24223276.3204          0.000  
  25197847.515    -7362479.666 7  -5542655.16546  25197857.8074          0.000  
 02  1 30 12 46  0.0100000  0  6G 6G15G17G22G25G30
  24261457.093   -14201025.447 8 -10913723.92247  24261465.4864          0.000  
  25936252.100   -10159090.374 6  -7758226.31246  25936266.3084          0.000  
  25382118.273   -12952432.149 7  -9909113.46746  25382129.3974          0.000  
  25861383.966    -7027239.950 6  -5345434.04446  25861395.7124          0.000  
  24224089.441   -17419196.971 8 -13398031.81047  24224097.4474          0.000  
  25213506.453    -7280191.970 7  -5478534.99846  25213516.8864          0.000  
 02  1 30 12 46 30.0100000  0  6G 6G15G17G22G25G30
  24272499.559   -14142996.404 8 -10868506.52747  24272507.9994          0.000  
  25917870.599   -10255684.553 6  -7833494.12646  25917885.3454          0.000  
  25368789.280   -13022473.810 7  -9963691.23346  25368800.7674          0.000  
  25846524.700    -7105326.406 6  -5406280.47346  25846537.3014          0.000  
  24225019.245   -17414311.051 8 -13394224.59647  24225027.0524          0.000  
  25229212.312    -7197657.215 7  -5414222.30946  25229222.8744          0.000  
 02  1 30 12 47  0.0100000  0  6G 6G15G17G22G25G30
  24283591.764   -14084707.134 8 -10823086.36047  24283600.4974          0.000  
  25899532.936   -10352047.632 6  -7908581.87546  25899547.4714          0.000  
  25355527.320   -13092165.478 7 -10017996.28646  25355538.4564          0.000  
  25831689.959    -7183277.962 6  -5467021.74346  25831702.8764          0.000  
  24226057.082   -17408856.853 8 -13389974.56847  24226064.9004          0.000  
  25244964.747    -7114878.420 7  -5349719.46346  25244974.9814          0.000  
 02  1 30 12 47 30.0100000  0  6G 6G15G17G22G25G30
  24294732.881   -14026159.970 8 -10777465.24347  24294741.4504          0.000  
  25881240.086   -10448177.480 6  -7983487.89546  25881254.5984          0.000  
  25342332.216   -13161505.692 7 -10072027.48046  25342343.5864          0.000  
  25816882.236    -7261094.188 6  -5527657.60546  25816894.8614          0.000  
  24227202.872   -17402835.193 8 -13385282.36547  24227210.7384          0.000  
  25260763.334    -7031857.049 7  -5285027.59546  25260773.6844          0.000  
 02  1 30 12 48  0.0100000  0  6G 6G15G17G22G25G30
  24305923.176   -13967354.898 8 -10731643.15147  24305931.5924          0.000  
  25862991.827   -10544069.955 6  -8058208.93346  25863006.1874          0.000  
  25329204.654   -13230490.816 7 -10125781.97546  25329215.9904          0.000  
  25802100.600    -7338772.364 6  -5588185.88146  25802112.6504          0.000  
  24228457.422   -17396244.158 8 -13380146.49247  24228465.2764          0.000  
  25276608.210    -6948592.148 7  -5220145.97446  25276618.7604          0.000  
 02  1 30 12 48 30.0100000  0  6G 6G15G17G22G25G30
  24317162.477   -13908293.101 8 -10685621.00947  24317170.8704          0.000  
  25844789.555   -10639722.020 6  -8132742.66246  25844803.5274          0.000  
  25316145.407   -13299118.060 7 -10179257.61346  25316156.2034          0.000  
  25787345.563    -7416310.961 6  -5648605.40546  25787357.8834          0.000  
  24229819.954   -17389083.043 8 -13374566.40547  24229827.8794          0.000  
  25292499.477    -6865084.268 7  -5155074.99646  25292510.0974          0.000  
 02  1 30 12 49  0.0100000  0  6G 6G15G17G22G25G30
  24328449.796   -13848977.082 8 -10639400.78547  24328458.1894          0.000  
  25826633.680   -10735131.477 6  -8207087.33246  25826647.6064          0.000  
  25303154.141   -13367386.082 7 -10232453.34346  25303165.2774          0.000  
  25772616.603    -7493709.784 6  -5708916.04246  25772628.0204          0.000  
  24231290.941   -17381352.955 8 -13368542.96547  24231298.9594          0.000  
  25308436.419    -6781334.812 7  -5089815.80246  25308447.1444          0.000  
 02  1 30 12 49 30.0100000  0  6G 6G15G17G22G25G30
  24339785.280   -13789409.149 8 -10592984.25947  24339793.7904          0.000  
  25808523.772   -10830296.289 6  -8281241.36946  25808538.2494          0.000  
  25290231.934   -13435293.070 7 -10285367.73346  25290243.1174          0.000  
  25757914.632    -7570968.047 6  -5769117.13846  25757926.2834          0.000  
  24232870.155   -17373054.092 8 -13362076.32847  24232878.2444          0.000  
  25324419.172    -6697344.945 7  -5024369.28446  25324430.0274          0.000  
 02  1 30 12 50  0.0100000  0  6G 6G15G17G22G25G30
  24351168.630   -13729589.963 8 -10546371.95347  24351177.1754          0.000  
  25790462.070   -10925212.756 6  -8355201.89646  25790475.9614          0.000  
  25277378.880   -13502836.246 7 -10337998.65046  25277389.7704          0.000  
  25743240.092    -7648083.758 6  -5829207.14046  25743252.7524          0.000  
  24234557.577   -17364185.744 8 -13355165.93747  24234565.8764          0.000  
  25340447.641    -6613114.710 7  -4958735.45446  25340458.0504          0.000  
 02  1 30 12 50 30.0100000  0  6G 6G15G17G22G25G30
  24362599.475   -13669520.479 8 -10499564.60947  24362607.9504          0.000  
  25772447.191   -11019877.526 6  -8428966.30646  25772460.8824          0.000  
  25264595.408   -13570012.499 7 -10390343.64046  25264606.3454          0.000  
  25728592.914    -7725055.022 6  -5889184.62146  25728604.9764          0.000  
  24236353.760   -17354747.070 8 -13347811.14447  24236361.8954          0.000  
  25356522.302    -6528643.964 7  -4892914.21046  25356532.4654          0.000  
 02  1 30 12 51  0.0100000  0  6G 6G15G17G22G25G30
  24374077.544   -13609202.996 8 -10452564.01647  24374086.1254          0.000  
  25754481.342   -11114288.446 6  -8502532.90846  25754495.4674          0.000  
  25251882.195   -13636820.267 7 -10442401.49546  25251893.3434          0.000  
  25713973.355    -7801881.249 6  -5949049.08846  25713985.4884          0.000  
  24238258.294   -17344738.837 8 -13340012.53147  24238266.3124          0.000  
  25372641.942    -6443934.190 7  -4826906.71046  25372652.3754          0.000  
 02  1 30 12 51 30.0100000  0  6G 6G15G17G22G25G30
  24385602.235   -13548639.875 8 -10405372.02147  24385610.6634          0.000  
  25736563.630   -11208443.466 6  -8575900.11146  25736577.1574          0.000  
  25239239.557   -13703258.107 7 -10494171.11146  25239249.8724          0.000  
  25699381.338    -7878562.011 6  -6008800.19046  25699393.9394          0.000  
  24240271.139   -17334161.495 8 -13331770.45547  24240278.9224          0.000  
  25388807.047    -6358986.865 7  -4760714.11546  25388817.4794          0.000  
 02  1 30 12 52  0.0100000  0  6G 6G15G17G22G25G30
  24397173.951   -13487831.456 8 -10357988.88247  24397182.4494          0.000  
  25718695.897   -11302338.922 6  -8649065.06146  25718709.3774          0.000  
  25226667.748   -13769322.726 7 -10545649.89646  25226678.2984          0.000  
  25684817.790    -7955094.925 6  -6068436.10046  25684829.3374          0.000  
  24242392.461   -17323014.321 8 -13323084.36047  24242400.3864          0.000  
  25405017.438    -6273801.335 7  -4694335.89146  25405028.3164          0.000  
 02  1 30 12 52 30.0100000  0  6G 6G15G17G22G25G30
  24408791.949   -13426777.964 8 -10310414.77747  24408800.7764          0.000  
  25700878.345   -11395970.580 7  -8722024.45846  25700891.5914          0.000  
  25214167.603   -13835010.669 7 -10596835.16146  25214177.9664          0.000  
  25670282.581    -8031477.245 6  -6127954.64546  25670294.4204          0.000  
  24244622.560   -17311295.257 8 -13313952.63647  24244630.1794          0.000  
  25421273.098    -6188377.085 7  -4627771.67946  25421283.8954          0.000  
 02  1 30 12 53  0.0100000  0  6G 6G15G17G22G25G30
  24420456.007   -13365482.137 8 -10262651.83847  24420464.8464          0.000  
  25683111.079   -11489336.628 6  -8794776.89046  25683124.9354          0.000  
  25201739.331   -13900320.749 7 -10647725.99246  25201750.0104          0.000  
  25655775.741    -8107709.044 6  -6187355.91546  25655788.0724          0.000  
  24246961.030   -17299005.799 8 -13304376.44647  24246968.8604          0.000  
  25437573.900    -6102715.951 7  -4561022.86546  25437584.0754          0.000  
 02  1 30 12 53 30.0100000  0  6G 6G15G17G22G25G30
  24432166.426   -13303944.750 8 -10214700.67647  24432174.9714          0.000  
  25665394.761   -11582433.754 6  -8867319.77646  25665408.3474          0.000  
  25189383.638   -13965249.980 7 -10698320.07046  25189394.2814          0.000  
  25641298.271    -8183788.188 6  -6246638.24146  25641310.1694          0.000  
  24249408.427   -17286145.281 8 -13294355.27547  24249416.3744          0.000  
  25453920.002    -6016817.973 7  -4494089.50546  25453930.7864          0.000  
 02  1 30 12 54  0.0100000  0  6G 6G15G17G22G25G30
  24443922.284   -13242167.418 8 -10166562.53847  24443930.8654          0.000  
  25647730.504   -11675259.115 7  -8939650.89946  25647743.9964          0.000  
  25177100.717   -14029796.369 7 -10748615.81646  25177111.2784          0.000  
  25626850.184    -8259713.490 6  -6305800.67646  25626861.8474          0.000  
  24251964.056   -17272713.745 8 -13283889.15847  24251971.9924          0.000  
  25470310.862    -5930683.732 7  -4426972.02546  25470321.7174          0.000  
 02  1 30 12 54 30.0100000  0  6G 6G15G17G22G25G30
  24455723.444   -13180151.799 8 -10118238.72047  24455732.0954          0.000  
  25630118.432   -11767810.223 7  -9011768.32546  25630131.1864          0.000  
  25164891.219   -14093957.964 7 -10798611.72546  25164901.7344          0.000  
  25612431.117    -8335483.797 6  -6364842.33846  25612442.7104          0.000  
  24254628.815   -17258711.953 8 -13272978.68847  24254636.8334          0.000  
  25486746.381    -5844314.362 7  -4359671.35446  25486757.5534          0.000  
 02  1 30 12 55  0.0100000  0  6G 6G15G17G22G25G30
  24467569.606   -13117899.643 8 -10069730.58847  24467578.2454          0.000  
  25612559.218   -11860084.322 7  -9083669.90446  25612572.5704          0.000  
  25152755.230   -14157732.609 7 -10848306.12346  25152765.8974          0.000  
  25598042.339    -8411097.994 6  -6423762.35446  25598053.2294          0.000  
  24257401.605   -17244139.807 8 -13261623.78347  24257409.7524          0.000  
  25503226.686    -5757710.533 7  -4292187.97846  25503237.9744          0.000  
 02  1 30 12 55 30.0100000  0  6G 6G15G17G22G25G30
  24479460.742   -13055411.171 8 -10021038.30847  24479469.1944          0.000  
  25595053.152   -11952077.580 7  -9155352.64846  25595066.3514          0.000  
  25140693.425   -14221117.041 7 -10897696.46146  25140704.0924          0.000  
  25583683.723    -8486553.497 6  -6482558.69846  25583695.5624          0.000  
  24260283.479   -17228996.180 8 -13249823.56447  24260291.4974          0.000  
  25519751.953    -5670871.683 7  -4224521.47946  25519762.7964          0.000  
 02  1 30 12 56  0.0100000  0  6G 6G15G17G22G25G30
  24491396.412   -12992689.070 8  -9972163.98447  24491405.0634          0.000  
  25577600.512   -12043788.471 7  -9226815.37946  25577613.4894          0.000  
  25128706.005   -14284110.208 7 -10946781.91746  25128716.3444          0.000  
  25569355.414    -8561850.315 6  -6541231.40346  25569366.7144          0.000  
  24263273.775   -17213282.419 8 -13237579.08247  24263281.7934          0.000  
  25536321.152    -5583799.721 7  -4156673.31246  25536332.0304          0.000  
 02  1 30 12 56 30.0100000  0  6G 6G15G17G22G25G30
  24503376.386   -12929734.492 8  -9923108.51947  24503385.1784          0.000  
  25560203.166   -12135213.641 7  -9298055.47846  25560216.3304          0.000  
  25116793.680   -14346709.556 7 -10995560.49846  25116804.1834          0.000  
  25555057.069    -8636986.583 6  -6599778.98246  25555069.0604          0.000  
  24266372.425   -17196998.373 8 -13224890.22847  24266380.4194          0.000  
  25552934.852    -5496495.160 7  -4088643.92546  25552945.6604          0.000  
 02  1 30 12 57  0.0100000  0  6G 6G15G17G22G25G30
  24515400.270   -12866548.739 8  -9873872.90947  24515409.0974          0.000  
  25542859.789   -12226350.254 6  -9369070.72746  25542872.7654          0.000  
  25104956.571   -14408912.751 7 -11044030.39246  25104966.8994          0.000  
  25540789.531    -8711960.703 6  -6658200.21546  25540801.2064          0.000  
  24269579.728   -17180143.867 8 -13211756.85147  24269587.8164          0.000  
  25569592.450    -5408958.282 7  -4020433.48446  25569603.6804          0.000  
 02  1 30 12 57 30.0100000  0  6G 6G15G17G22G25G30
  24527468.219   -12803131.202 8  -9824456.69447  24527476.7884          0.000  
  25525573.343   -12317193.207 7  -9439857.15346  25525586.4724          0.000  
  25093196.040   -14470715.511 7 -11092188.27546  25093206.2624          0.000  
  25526554.196    -8786769.238 6  -6716492.42946  25526565.3684          0.000  
  24272896.028   -17162716.890 8 -13198177.40847  24272904.0224          0.000  
  25586294.463    -5321187.740 7  -3952040.99946  25586305.9044          0.000  
 02  1 30 12 58  0.0100000  0  6G 6G15G17G22G25G30
  24539579.846   -12739484.256 8  -9774861.71547  24539588.3684          0.000  
  25508342.038   -12407740.390 7  -9510413.13246  25508355.0504          0.000  
  25081511.719   -14532116.617 7 -11140033.16646  25081521.9064          0.000  
  25512350.144    -8861411.764 6  -6774655.26446  25512361.3034          0.000  
  24276321.177   -17144718.731 8 -13184152.88747  24276329.1954          0.000  
  25603041.203    -5233184.984 7  -3883467.56946  25603052.3744          0.000  
 02  1 30 12 58 30.0100000  0  6G 6G15G17G22G25G30
  24551734.818   -12675609.630 8  -9725089.33147  24551743.2814          0.000  
  25491168.087   -12497989.615 7  -9580736.94746  25491180.7354          0.000  
  25069903.896   -14593114.299 7 -11187563.70946  25069914.3994          0.000  
  25498177.507    -8935887.135 6  -6832687.84746  25498188.9714          0.000  
  24279854.729   -17126149.904 7 -13169683.68247  24279862.6414          0.000  
  25619831.549    -5144951.061 7  -3814714.00846  25619842.4514          0.000  
 02  1 30 12 59  0.0100000  0  6G 6G15G17G22G25G30
  24563933.280   -12611506.746 8  -9675139.08047  24563941.7904          0.000  
  25474051.960   -12587936.167 7  -9650824.91546  25474064.1744          0.000  
  25058374.216   -14653704.396 7 -11234776.65346  25058384.2974          0.000  
  25484037.667    -9010191.890 6  -6890587.50746  25484048.5804          0.000  
  24283497.190   -17107008.414 8 -13154768.25047  24283505.1854          0.000  
  25636666.356    -5056484.782 6  -3745779.37646  25636677.6214          0.000  
 02  1 30 12 59 30.0100000  0  6G 6G15G17G22G25G30
  24576174.481   -12547178.109 8  -9625012.91347  24576183.1204          0.000  
  25456992.990   -12677578.218 7  -9720675.61946  25457005.3224          0.000  
  25046921.913   -14713885.903 7 -11281671.21846  25046932.2164          0.000  
  25469930.366    -9084325.835 6  -6948354.05346  25469941.6314          0.000  
  24287248.265   -17087295.998 8 -13139407.94447  24287256.3534          0.000  
  25653544.764    -4967787.827 6  -3676665.00646  25653556.2874          0.000  
 02  1 30 13  0  0.0100000  0  6G 6G15G17G22G25G30
  24588458.133   -12482627.864 8  -9574714.07747  24588466.7024          0.000  
  25439992.571   -12766915.705 7  -9790289.00546  25440004.6454          0.000  
  25035547.110   -14773659.331 7 -11328247.79346  25035557.6364          0.000  
  25455855.214    -9158290.101 6  -7005988.41146  25455866.6674          0.000  
  24291107.483   -17067015.651 8 -13123605.09447  24291115.6534          0.000  
  25670466.880    -4878863.558 6  -3607373.50846  25670478.5324          0.000  
 02  1 30 13  0 30.0100000  0  6G 6G15G17G22G25G30
  24600783.654   -12417857.568 8  -9524243.76347  24600792.4454          0.000  
  25423050.433   -12855945.922 7  -9859662.96046  25423062.4724          0.000  
  25024250.801   -14833022.745 7 -11374504.87746  25024261.1054          0.000  
  25441812.962    -9232083.520 6  -7063489.63246  25441823.8644          0.000  
  24295074.790   -17046167.737 8 -13107359.98247  24295082.6674          0.000  
  25687431.738    -4789712.915 6  -3537905.63746  25687443.2254          0.000  
 02  1 30 13  1  0.0100000  0  6G 6G15G17G22G25G30
  24613151.091   -12352865.943 8  -9473600.99547  24613159.7774          0.000  
  25406167.833   -12944663.559 7  -9928793.36646  25406179.8954          0.000  
  25013033.181   -14891971.414 7 -11420438.78946  25013043.2854          0.000  
  25427803.416    -9305702.036 6  -7120854.54946  25427814.3764          0.000  
  24299150.419   -17024749.916 8 -13090670.78747  24299158.1324          0.000  
  25704440.195    -4700333.855 6  -3468259.74946  25704451.7894          0.000  
 02  1 30 13  1 30.0100000  0  6G 6G15G17G22G25G30
  24625560.795   -12287653.341 8  -9422786.03547  24625569.5634          0.000  
  25389345.499   -13033064.787 7  -9997677.20946  25389358.1014          0.000  
  25001894.914   -14950502.299 7 -11466047.15146  25001905.2064          0.000  
  25413827.946    -9379143.125 6  -7178081.23546  25413838.7304          0.000  
  24303334.656   -17002761.414 8 -13073536.91147  24303342.5344          0.000  
  25721491.946    -4610726.083 6  -3398435.65546  25721503.4224          0.000  
 02  1 30 13  2  0.0100000  0  6G 6G15G17G22G25G30
  24638012.131   -12222221.090 8  -9371799.91847  24638020.8414          0.000  
  25372583.877   -13121146.607 7 -10066312.17246  25372595.8214          0.000  
  24990836.604   -15008613.105 7 -11511328.17446  24990847.0494          0.000  
  25399886.705    -9452405.187 6  -7235168.43446  25399897.7944          0.000  
  24307627.494   -16980202.447 8 -13055958.51847  24307635.8994          0.000  
  25738587.403    -4520890.013 6  -3328433.68346  25738598.3874          0.000  
 02  1 30 13  2 30.0100000  0  6G 6G15G17G22G25G30
  24650504.462   -12156573.180 8  -9320645.76247  24650513.3014          0.000  
  25355883.465   -13208908.809 7 -10134698.09846  25355895.3044          0.000  
  24979858.377   -15066304.323 7 -11556282.25446  24979868.4934          0.000  
  25385979.552    -9525489.328 6  -7292116.98546  25385990.5134          0.000  
  24312028.177   -16957076.154 8 -13037938.06447  24312036.5934          0.000  
  25755725.653    -4430829.110 6  -3258256.48946  25755736.7894          0.000  
 02  1 30 13  3  0.0100000  0  6G 6G15G17G22G25G30
  24663038.468   -12090707.127 8  -9269321.61647  24663047.1784          0.000  
  25339244.664   -13296344.508 7 -10202829.60246  25339257.0314          0.000  
  24968960.922   -15123569.833 7 -11600904.60646  24968970.9334          0.000  
  25372106.571    -9598390.036 6  -7348922.60046  25372116.8754          0.000  
  24316537.889   -16933378.669 8 -13019472.52447  24316546.3414          0.000  
  25772906.948    -4340539.883 6  -3187901.41746  25772918.5184          0.000  
 02  1 30 13  3 30.0100000  0  6G 6G15G17G22G25G30
  24675612.476   -12024630.132 8  -9217833.10847  24675621.4914          0.000  
  25322667.370   -13383457.081 7 -10270709.31946  25322679.3504          0.000  
  24958143.794   -15180413.656 7 -11645198.37446  24958153.6404          0.000  
  25358267.893    -9671111.838 6  -7405588.83846  25358278.2674          0.000  
  24321154.714   -16909116.605 8 -13000567.05347  24321162.8254          0.000  
  25790130.470    -4250029.051 6  -3117373.63646  25790141.7594          0.000  
 02  1 30 13  4  0.0100000  0  6G 6G15G17G22G25G30
  24688226.991   -11958340.498 8  -9166178.90847  24688236.2054          0.000  
  25306153.150   -13470240.725 7 -10338332.73646  25306165.0844          0.000  
  24947407.969   -15236830.621 7 -11689159.52446  24947417.8864          0.000  
  25344464.501    -9743650.044 6  -7462111.99446  25344475.0514          0.000  
  24325879.725   -16884287.068 8 -12981219.40147  24325887.6264          0.000  
  25807396.835    -4159294.217 6  -3046671.32346  25807409.1664          0.000  
 02  1 30 13  4 30.0100000  0  6G 6G15G17G22G25G30
  24700881.325   -11891841.161 7  -9114361.30247  24700890.1994          0.000  
  25289701.059   -13556694.260 7 -10405698.91946  25289713.0624          0.000  
  24936753.303   -15292820.194 7 -11732787.64546  24936763.6184          0.000  
  25330695.794    -9816004.747 6  -7518492.16846  25330706.4734          0.000  
  24330712.156   -16858892.372 8 -12961431.36147  24330719.9994          0.000  
  25824705.667    -4068337.665 6  -2975796.25146  25824718.1744          0.000  
 02  1 30 13  5  0.0100000  0  6G 6G15G17G22G25G30
  24713576.279   -11825128.016 7  -9062377.10047  24713585.4934          0.000  
  25273314.103   -13642809.482 7 -10472801.49446  25273325.3104          0.000  
  24926181.466   -15348375.322 7 -11776077.23846  24926191.6994          0.000  
  25316963.092    -9888169.027 6  -7574723.95846  25316972.8454          0.000  
  24335653.002   -16832927.512 8 -12941199.04147  24335661.0784          0.000  
  25842057.267    -3977154.882 6  -2904744.86846  25842069.0364          0.000  
 02  1 30 13  5 30.0100000  0  6G 6G15G17G22G25G30
  24726311.524   -11758205.904 7  -9010230.06747  24726320.6324          0.000  
  25256990.384   -13728587.121 7 -10539641.00146  25257002.0004          0.000  
  24915692.002   -15403497.328 7 -11819029.33146  24915702.4004          0.000  
  25303266.936    -9960145.104 6  -7630809.09246  25303277.2984          0.000  
  24340701.795   -16806396.694 8 -12920525.71847  24340709.9544          0.000  
  25859451.290    -3885749.698 6  -2833520.21246  25859463.6334          0.000  
 02  1 30 13  6  0.0100000  0  6G 6G15G17G22G25G30
  24739085.861   -11691075.733 7  -8957920.90847  24739094.9344          0.000  
  25240732.450   -13814023.805 7 -10606214.83346  25240744.3484          0.000  
  24905285.670   -15458183.584 7 -11861641.88846  24905295.7984          0.000  
  25289606.052   -10031930.680 6  -7686745.77346  25289616.0634          0.000  
  24345858.183   -16779299.830 8 -12899411.32147  24345866.5174          0.000  
  25876887.196    -3794122.641 6  -2762122.65746  25876899.3054          0.000  
 02  1 30 13  6 30.0100000  0  6G 6G15G17G22G25G30
  24751899.758   -11623739.334 7  -8905451.05347  24751908.7614          0.000  
  25224539.589   -13899117.012 7 -10672521.03146  25224551.4174          0.000  
  24894962.085   -15512432.640 7 -11903913.76146  24894972.3534          0.000  
  25275982.143   -10103524.698 6  -7742533.18346  25275992.9504          0.000  
  24351122.316   -16751637.658 8 -12877856.43747  24351130.6864          0.000  
  25894365.440    -3702274.748 6  -2690553.03646  25894377.8774          0.000  
 02  1 30 13  7  0.0110000  0  6G 6G15G17G22G25G30
  24764752.816   -11556197.137 7  -8852820.84447  24764761.9594          0.000  
  25208411.930   -13983868.310 7 -10738560.80646  25208423.4884          0.000  
  24884721.807   -15566245.647 7 -11945845.86546  24884731.7944          0.000  
  25262394.277   -10174929.458 6  -7798173.13946  25262404.5224          0.000  
  24356493.512   -16723411.346 8 -12855861.95347  24356501.5884          0.000  
  25911886.087    -3610205.076 6  -2618810.58046  25911898.1614          0.000  
 02  1 30 13  7 30.0110000  0  6G 6G15G17G22G25G30
  24777644.329   -11488451.076 7  -8800031.77547  24777653.3904          0.000  
  25192351.569   -14068265.448 7 -10804324.61246  25192363.4564          0.000  
  24874566.106   -15619613.327 7 -11987430.96146  24874576.3514          0.000  
  25248844.318   -10246134.716 6  -7853657.62046  25248855.0564          0.000  
  24361972.487   -16694619.525 8 -12833426.81947  24361980.3654          0.000  
  25929447.840    -3517916.568 6  -2546897.60946  25929460.1714          0.000  
 02  1 30 13  8  0.0110000  0  6G 6G15G17G22G25G30
  24790574.665   -11420503.250 7  -8747085.49147  24790583.9144          0.000  
  25176357.905   -14152311.508 7 -10869814.85346  25176369.1704          0.000  
  24864494.821   -15672538.356 7 -12028671.13747  24864504.7264          0.000  
  25235331.626   -10317144.226 6  -7908989.57246  25235342.1294          0.000  
  24367558.650   -16665264.948 8 -12810553.17047  24367566.4924          0.000  
  25947051.622    -3425409.698 6  -2474814.49446  25947063.9424          0.000  
 02  1 30 13  8 30.0110000  0  6G 6G15G17G22G25G30
  24803542.997   -11352354.692 7  -8693982.79846  24803552.0124          0.000  
  25160431.590   -14236003.671 7 -10935029.33746  25160443.0664          0.000  
  24854508.021   -15725018.786 7 -12069564.87347  24854517.6094          0.000  
  25221856.249   -10387956.481 6  -7964167.81046  25221866.2014          0.000  
  24373251.577   -16635347.885 8 -12787241.21747  24373259.6894          0.000  
  25964696.388    -3332685.156 6  -2402561.74646  25964708.3104          0.000  
 02  1 30 13  9  0.0110000  0  6G 6G15G17G22G25G30
  24816549.551   -11284004.011 7  -8640722.59846  24816558.3784          0.000  
  25144574.048   -14319336.469 7 -10999963.79646  25144585.3844          0.000  
  24844606.741   -15777049.717 7 -12110108.35347  24844616.9284          0.000  
  25208419.221   -10458566.991 6  -8019188.85446  25208429.2324          0.000  
  24379052.083   -16604866.320 8 -12763489.39447  24379060.2654          0.000  
  25982383.485    -3239740.884 6  -2330137.79846  25982395.1614          0.000  
 02  1 30 13  9 30.0110000  0  6G 6G15G17G22G25G30
  24829594.186   -11215454.428 7  -8587307.40746  24829602.9074          0.000  
  25128784.446   -14402309.155 7 -11064617.63646  25128796.0394          0.000  
  24834791.182   -15828631.481 7 -12150301.83847  24834800.8884          0.000  
  25195020.817   -10528976.099 6  -8074052.96046  25195030.6294          0.000  
  24384959.533   -16573822.813 8 -12739299.69947  24384967.8444          0.000  
  26000111.653    -3146579.542 6  -2257544.69946  26000123.8914          0.000  
 02  1 30 13 10  0.0110000  0  6G 6G15G17G22G25G30
  24842676.150   -11146708.319 7  -8533739.08246  24842685.1764          0.000  
  25113064.324   -14484919.785 7 -11128989.37346  25113075.4724          0.000  
  24825061.006   -15879762.898 7 -12190144.41147  24825070.9694          0.000  
  25181660.612   -10599183.215 6  -8128759.66046  25181670.8224          0.000  
  24390973.343   -16542218.964 8 -12714673.37347  24390981.6774          0.000  
  26017881.043    -3053202.800 6  -2184783.73546  26017893.4454          0.000  
 02  1 30 13 10 30.0110000  0  6G 6G15G17G22G25G30
  24855795.313   -11077766.800 7  -8480018.49446  24855803.9754          0.000  
  25097413.484   -14567165.478 7 -11193076.74546  25097424.1744          0.000  
  24815417.165   -15930442.035 7 -12229634.54947  24815426.8244          0.000  
  25168339.190   -10669186.530 6  -8183307.57046  25168349.4824          0.000  
  24397094.042   -16510055.728 8 -12689611.15947  24397102.2484          0.000  
  26035690.792    -2959611.286 6  -2111855.45046  26035702.9124          0.000  
 02  1 30 13 11  0.0110000  0  6G 6G15G17G22G25G30
  24868951.662   -11008630.967 7  -8426146.48646  24868960.3134          0.000  
  25081832.323   -14649043.434 7 -11256877.55446  25081843.0614          0.000  
  24805859.579   -15980666.989 8 -12268770.79347  24805868.8634          0.000  
  25155057.056   -10738984.401 6  -8237695.39946  25155066.8444          0.000  
  24403321.053   -16477333.436 8 -12664113.32047  24403329.2244          0.000  
  26053541.478    -2865805.725 6  -2038760.36446  26053554.0204          0.000  
 02  1 30 13 11 30.0110000  0  6G 6G15G17G22G25G30
  24882144.588   -10939301.322 7  -8372123.45746  24882153.0864          0.000  
  25066321.854   -14730550.180 7 -11320389.12946  25066332.7084          0.000  
  24796389.069   -16030434.982 8 -12307550.96147  24796398.2834          0.000  
  25141814.156   -10808574.432 6  -8291921.26746  25141824.3664          0.000  
  24409654.395   -16444052.151 8 -12638179.89547  24409662.4364          0.000  
  26071432.880    -2771785.864 6  -1965498.29646  26071445.2824          0.000  
 02  1 30 13 12  0.0110000  0  6G 6G15G17G22G25G30
  24895374.321   -10869779.512 7  -8317950.68946  24895383.0894          0.000  
  25050882.429   -14811683.544 7 -11383609.74846  25050893.3894          0.000  
  24787005.732   -16079744.498 8 -12345973.87547  24787015.1804          0.000  
  25128611.845   -10877955.442 6  -8345984.26946  25128622.1254          0.000  
  24416093.730   -16410213.192 8 -12611811.91847  24416101.7834          0.000  
  26089365.093    -2677552.913 6  -1892070.18746  26089377.2374          0.000  
 02  1 30 13 12 30.0110000  0  6G 6G15G17G22G25G30
  24908640.294   -10800066.494 7  -8263628.92046  24908649.1564          0.000  
  25035514.742   -14892440.348 7 -11446536.94846  25035525.6324          0.000  
  24777709.922   -16128593.475 7 -12384037.92947  24777719.2064          0.000  
  25115448.661   -10947125.411 6  -8399882.83446  25115458.7194          0.000  
  24422638.917   -16375816.954 8 -12585009.69947  24422647.0994          0.000  
  26107337.469    -2583107.206 6  -1818476.30746  26107349.9764          0.000  
 02  1 30 13 13  0.0110000  0  6G 6G15G17G22G25G30
  24921942.443   -10730164.404 8  -8209159.83846  24921951.0824          0.000  
  25020219.197   -14972818.920 7 -11509169.43646  25020229.8994          0.000  
  24768501.943   -16176981.177 8 -12421742.53947  24768511.2624          0.000  
  25102326.432   -11016083.545 6  -8453616.34746  25102336.4314          0.000  
  24429290.325   -16340864.926 8 -12557774.39947  24429298.4954          0.000  
  26125350.140    -2488450.496 6  -1744717.98246  26125362.1674          0.000  
 02  1 30 13 13 30.0110000  0  6G 6G15G17G22G25G30
  24935278.929   -10660079.657 7  -8154548.41746  24935287.6854          0.000  
  25004994.848   -15052821.702 7 -11571509.08346  25005006.0784          0.000  
  24759381.282   -16224910.763 8 -12459090.18447  24759390.6714          0.000  
  25089243.772   -11084833.564 6  -8507187.67346  25089254.0884          0.000  
  24436045.808   -16305363.569 8 -12530111.05847  24436054.1194          0.000  
  26143402.082    -2393588.664 6  -1670799.85546  26143414.1914          0.000  
 02  1 30 13 14  0.0110000  0  6G 6G15G17G22G25G30
  24948651.892   -10589805.076 7  -8099789.07346  24948661.1414          0.000  
  24989844.543   -15132437.908 7 -11633547.51146  24989855.2574          0.000  
  24750349.312   -16272372.283 7 -12496073.09947  24750358.8894          0.000  
  25076202.548   -11153365.433 6  -8560589.03346  25076212.5824          0.000  
  24442907.760   -16269305.048 8 -12502013.55747  24442915.6614          0.000  
  26161494.531    -2298514.238 6  -1596716.06246  26161506.6294          0.000  
 02  1 30 13 14 30.0110000  0  6G 6G15G17G22G25G30
  24962060.074   -10519344.098 7  -8044884.48546  24962069.2174          0.000  
  24974767.660   -15211666.993 7 -11695284.28446  24974778.5614          0.000  
  24741406.734   -16319366.115 7 -12532691.59047  24741416.1474          0.000  
  25063202.853   -11221679.716 7  -8613820.84346  25063212.3484          0.000  
  24449874.632   -16232692.632 8 -12473484.44447  24449882.8614          0.000  
  26179626.035    -2203230.023 6  -1522468.80946  26179638.5194          0.000  
 02  1 30 13 15  0.0110000  0  6G 6G15G17G22G25G30
  24975503.411   -10448699.228 7  -7989836.60446  24975512.8594          0.000  
  24959764.520   -15290507.367 7 -11756718.15846  24959775.8324          0.000  
  24732553.284   -16365891.614 8 -12568945.14047  24732562.8034          0.000  
  25050244.476   -11289775.915 7  -8666882.71046  25050254.1934          0.000  
  24456946.997   -16195528.371 8 -12444525.32747  24456955.1904          0.000  
  26197798.155    -2107737.987 6  -1448059.60946  26197810.3464          0.000  
 02  1 30 13 15 30.0110000  0  6G 6G15G17G22G25G30
  24988981.777   -10377871.114 7  -7934645.94246  24988991.3314          0.000  
  24944836.253   -15368956.105 7 -11817846.87046  24944847.0844          0.000  
  24723789.031   -16411946.510 7 -12604831.99747  24723798.2454          0.000  
  25037328.024   -11357651.874 7  -8719772.97146  25037337.8014          0.000  
  24464123.772   -16157812.902 8 -12415136.69847  24464132.2704          0.000  
  26216008.952    -2012038.473 6  -1373488.71146  26216021.9754          0.000  
 02  1 30 13 16  0.0110000  0  6G 6G15G17G22G25G30
  25002494.336   -10306861.049 7  -7879313.50246  25002503.6904          0.000  
  24929982.855   -15447010.396 7 -11878668.21546  24929993.5224          0.000  
  24715114.973   -16457529.180 7 -12640350.86847  24715124.5274          0.000  
  25024453.561   -11425305.918 7  -8772490.31046  25024463.5484          0.000  
  24471405.523   -16119546.957 8 -12385319.12547  24471413.9284          0.000  
  26234259.626    -1916132.097 6  -1298756.63546  26234272.1344          0.000  
 02  1 30 13 16 30.0110000  0  6G 6G15G17G22G25G30
  25016041.868   -10235670.329 7  -7823840.28946  25016051.2694          0.000  
  24915205.159   -15524667.636 8 -11939180.18746  24915215.7564          0.000  
  24706530.838   -16502637.980 8 -12675500.51047  24706540.0874          0.000  
  25011621.829   -11492736.516 7  -8825033.54346  25011632.1094          0.000  
  24478792.040   -16080731.628 8 -12355073.46747  24478800.1284          0.000  
  26252549.049    -1820019.838 6  -1223864.13746  26252561.3454          0.000  
 02  1 30 13 17  0.0110000  0  6G 6G15G17G22G25G30
  25029623.044   -10164299.058 7  -7768226.38646  25029632.5284          0.000  
  24900503.532   -15601924.199 8 -11999379.92947  24900514.0354          0.000  
  24698037.740   -16547270.188 8 -12710278.76647  24698047.1884          0.000  
  24998833.443   -11559940.908 7  -8877400.51246  24998843.4884          0.000  
  24486283.205   -16041366.805 8 -12324399.62047  24486291.5624          0.000  
  26270877.918    -1723701.332 6  -1148810.94146  26270891.1054          0.000  
 02  1 30 13 17 30.0110000  0  6G 6G15G17G22G25G30
  25043238.858   -10092748.902 7  -7712473.08846  25043248.2124          0.000  
  24885878.567   -15678778.007 8 -12059265.85047  24885889.1874          0.000  
  24689635.362   -16591424.650 8 -12744684.76847  24689644.5294          0.000  
  24986087.832   -11626918.028 7  -8929590.38946  24986097.9484          0.000  
  24493878.103   -16001454.159 8 -12293298.90947  24493886.3674          0.000  
  26289246.102    -1627177.961 6  -1073598.10446  26289259.6884          0.000  
 02  1 30 13 18  0.0110000  0  6G 6G15G17G22G25G30
  25056888.062   -10021022.122 7  -7656582.17346  25056897.4404          0.000  
  24871330.567   -15755227.615 7 -12118836.80647  24871341.2464          0.000  
  24681323.887   -16635100.811 8 -12778718.06447  24681333.3004          0.000  
  24973386.041   -11693667.247 7  -8981602.67746  24973396.2154          0.000  
  24501577.165   -15960996.169 8 -12261773.24347  24501585.2654          0.000  
  26307652.525    -1530451.466 6   -998227.00546  26307666.4044          0.000  
 02  1 30 13 18 30.0110000  0  6G 6G15G17G22G25G30
  25070570.410    -9949120.572 7  -7600555.06846  25070579.9404          0.000  
  24856859.808   -15831270.978 8 -12178091.20747  24856870.5104          0.000  
  24673103.908   -16678297.465 8 -12812377.72047  24673113.1564          0.000  
  24960727.484   -11760187.392 7  -9033436.46946  24960737.7994          0.000  
  24509379.782   -15919994.061 8 -12229823.59647  24509388.0114          0.000  
  26326097.518    -1433523.450 6   -922698.88446  26326110.4014          0.000  
 02  1 30 13 19  0.0110000  0  7G 3G 6G15G17G22G25G30
  27931419.995      -29490.978 5         0.000           0.000           0.000  
  25084286.267    -9877043.803 7  -7544391.43346  25084295.9964          0.000  
  24842467.312   -15906903.851 8 -12237025.75847  24842477.9794          0.000  
  24664975.597   -16721011.523 7 -12845661.32847  24664984.8464          0.000  
  24948113.220   -11826475.038 7  -9085089.08146  24948123.3944          0.000  
  24517285.748   -15878447.469 8 -12197449.66747  24517293.7904          0.000  
  26344581.007    -1336392.824 6   -847012.83946  26344594.0074          0.000  
 02  1 30 13 19 30.0110000  0  7G 3G 6G15G17G22G25G30
  27916127.551     -109851.427 5         0.000           0.000           0.000  
  25098035.657    -9804790.939 7  -7488090.59246  25098045.1174          0.000  
  24828153.563   -15982121.680 8 -12295636.89047  24828164.3364          0.000  
  24656940.167   -16763239.201 8 -12878565.93747  24656949.2164          0.000  
  24935543.882   -11892526.607 7  -9136557.74146  24935553.8934          0.000  
  24525295.664   -15836355.492 8 -12164650.77047  24525304.0924          0.000  
  26363103.403    -1239058.380 6   -771168.02946  26363117.1644          0.000  
 02  1 30 13 20  0.0110000  0  7G 3G 6G15G17G22G25G30
  27900855.560     -190103.526 5         0.000           0.000           0.000  
  25111817.974    -9732365.263 7  -7431655.07946  25111827.4454          0.000  
  24813919.199   -16056924.000 8 -12353924.25947  24813929.4684          0.000  
  24648996.763   -16804981.022 8 -12911091.96347  24649005.6254          0.000  
  24923019.517   -11958342.576 7  -9187842.81046  24923029.9154          0.000  
  24533408.665   -15793721.197 8 -12131429.27847  24533417.1644          0.000  
  26381663.679    -1141523.153 6   -695166.73446  26381676.8664          0.000  
 02  1 30 13 20 30.0110000  0  7G 3G 6G15G17G22G25G30
  27885604.475     -270247.032 5    -49950.65355  27885622.6444          0.000  
  25125632.560    -9659768.466 7  -7375086.22846  25125641.6684          0.000  
  24799764.231   -16131308.758 8 -12411886.27347  24799774.3124          0.000  
  24641145.966   -16846236.036 8 -12943238.66147  24641154.9454          0.000  
  24910540.126   -12023921.523 7  -9238943.19046  24910550.6414          0.000  
  24541624.639   -15750546.110 8 -12097786.40147  24541633.2204          0.000  
  26400262.636    -1043788.364 6   -619009.95246  26400275.9294          0.000  
 02  1 30 13 21  0.0110000  0  7G 3G 6G15G17G22G25G30
  27870373.547     -350282.594 4   -112315.48345  27870389.5834          0.000  
  25139479.531    -9587002.785 7  -7318385.78646  25139489.2374          0.000  
  24785688.634   -16205274.646 8 -12469521.88447  24785698.8214          0.000  
  24633388.275   -16887003.687 8 -12975005.60047  24633397.3834          0.000  
  24898106.032   -12089262.912 7  -9289858.46046  24898116.3714          0.000  
  24549943.010   -15706832.759 8 -12063724.09347  24549951.4034          0.000  
  26418898.250     -945855.926 6   -542699.15746  26418911.6954          0.000  
 02  1 30 13 21 30.0110000  0  7G 3G 6G15G17G22G25G30
  27855163.703     -430206.231 4   -174593.17245  27855181.1224          0.000  
  25153359.121    -9514066.032 7  -7261552.04446  25153368.2884          0.000  
  24771694.041   -16278815.885 8 -12526826.61247  24771704.5094          0.000  
  24625723.995   -16927279.249 8 -13006389.08647  24625733.0804          0.000  
  24885718.071   -12154361.982 7  -9340584.90346  24885728.3514          0.000  
  24558364.120   -15662579.366 8 -12029240.97247  24558372.5724          0.000  
  26437572.280     -847723.517 6   -466232.55946  26437586.0424          0.000  
 02  1 30 13 22  0.0110000  0  7G 3G 6G15G17G22G25G30
  27839975.759     -510019.240 4   -236784.63545  27839992.8854          0.000  
  25167270.365    -9440960.830 7  -7204587.03346  25167279.8014          0.000  
  24757780.747   -16351931.289 8 -12583799.51547  24757791.3444          0.000  
  24618153.491   -16967062.570 8 -13037389.01547  24618162.5644          0.000  
  24873376.371   -12219218.209 7  -9391122.12946  24873386.4754          0.000  
  24566887.568   -15617788.075 8 -11994338.71747  24566896.1014          0.000  
  26456284.257     -749393.251 6   -389611.74546  26456298.0194          0.000  
 02  1 30 13 22 30.0110000  0  7G 3G 6G15G17G22G25G30
  27824807.854     -589725.684 5   -298893.04145  27824825.7424          0.000  
  25181213.131    -9367692.772 7  -7147495.12746  25181222.7554          0.000  
  24743947.621   -16424622.742 7 -12640442.07947  24743958.1364          0.000  
  24610676.015   -17006356.672 8 -13068007.73147  24610684.9824          0.000  
  24861080.388   -12283834.513 7  -9441472.40746  24861090.0124          0.000  
  24575512.361   -15572464.829 8 -11959021.94647  24575520.8604          0.000  
  26475032.766     -650870.365 6   -312840.88146  26475045.9184          0.000  
 02  1 30 13 23  0.0110000  0  8G 3G 6G15G17G22G23G25G30
  27809660.799     -669323.276 5   -360916.65945  27809678.3944          0.000  
  25195186.741    -9294261.523 7  -7090276.06246  25195196.1304          0.000  
  24730196.492   -16496886.101 8 -12696751.05947  24730206.6674          0.000  
  24603292.325   -17045158.427 8 -13098242.81047  24603301.1054          0.000  
  24848830.325   -12348207.503 7  -9491633.08046  24848840.2654          0.000  
  28069519.654      -52887.228 2         0.000           0.000           0.000  
  24584238.480   -15526609.467 8 -11923290.54147  24584247.0964          0.000  
  26493817.922     -552154.203 6   -235919.40046  26493832.0234          0.000  
 02  1 30 13 23 30.0110000  0  8G 3G 6G15G17G22G23G25G30
  27794534.131     -748812.465 5   -422855.94145  27794550.7064          0.000  
  25209190.896    -9220668.953 7  -7032931.29646  25209200.6614          0.000  
  24716526.793   -16568719.822 8 -12752725.26647  24716537.0504          0.000  
  24596002.160   -17083467.152 8 -13128093.70547  24596011.1984          0.000  
  24836627.020   -12412336.234 7  -9541603.42146  24836636.4334          0.000  
  28059145.113     -107407.490 3         0.000           0.000           0.000  
  24593065.370   -15480223.610 8 -11887145.77147  24593073.6224          0.000  
  26512639.783     -453246.302 6   -158848.52246  26512653.3924          0.000  
 02  1 30 13 24  0.0110000  0  8G 3G 6G15G17G22G23G25G30
  27779428.789     -828191.526 5   -484709.35145  27779445.3874          0.000  
  25223225.895    -9146914.949 7  -6975460.72046  25223234.8284          0.000  
  24702939.681   -16640120.350 8 -12808361.91947  24702949.9854          0.000  
  24588806.477   -17121280.285 8 -13157558.42347  24588815.7614          0.000  
  24824470.569   -12476217.809 7  -9591381.17046  24824479.9124          0.000  
  28048807.209     -161728.335 3         0.000           0.000           0.000  
  24601993.368   -15433307.852 8 -11850588.08447  24602001.4454          0.000  
  26531498.221     -354146.389 6    -81628.01246  26531511.5264          0.000  
 02  1 30 13 24 30.0110000  0  8G 3G 6G15G17G22G23G25G30
  27764344.188     -907459.815 4   -546476.47745  27764361.5374          0.000  
  25237291.473    -9073000.454 7  -6917865.09546  25237300.9334          0.000  
  24689435.359   -16711084.849 8 -12863658.80547  24689445.4874          0.000  
  24581705.485   -17158596.206 8 -13186635.70447  24581714.6864          0.000  
  24812361.946   -12539850.394 7  -9640964.91046  24812371.3244          0.000  
  28038508.773     -215846.707 3         0.000           0.000           0.000  
  24611022.034   -15385863.065 8 -11813618.16447  24611029.9474          0.000  
  26550392.346     -254855.189 6     -4258.44446  26550405.7564          0.000  
 02  1 30 13 25  0.0110000  0  8G 3G 6G15G17G22G23G25G30
  27749280.350     -986617.207 3   -608157.16545  27749295.4714          0.000  
  25251387.468    -8998927.150 7  -6860145.72646  25251396.9864          0.000  
  24676014.634   -16781611.541 8 -12918614.56147  24676024.4464          0.000  
  24574699.308   -17195413.980 8 -13215324.82247  24574708.4984          0.000  
  24800300.202   -12603232.790 7  -9690353.69846  24800309.4974          0.000  
  28028249.527     -269760.342 3    -32192.02155  28028265.5394          0.000  
  24620150.497   -15337891.593 8 -11776237.84347  24620158.6324          0.000  
  26569323.401     -155374.078 6     73259.05645  26569336.0964          0.000  
 02  1 30 13 25 30.0110000  0  8G 3G 6G15G17G22G23G25G30
  27734238.018    -1065662.577 4   -669750.61345  27734255.0504          0.000  
  25265513.104    -8924695.349 7  -6802302.84846  25265522.6344          0.000  
  24662677.765   -16851697.329 8 -12973226.74147  24662687.6114          0.000  
  24567788.373   -17231731.587 8 -13243624.19647  24567797.2244          0.000  
  24788287.248   -12666362.384 7  -9739545.49746  24788296.5794          0.000  
  28018029.206     -323465.787 3    -74040.21945  28018048.7004          0.000  
  24629379.329   -15289393.771 8 -11738447.38147  24629387.6514          0.000  
  26588290.677      -55703.211 6    150924.43445  26588303.7244          0.000  
 02  1 30 13 26  0.0110000  0  8G 3G 6G15G17G22G23G25G30
  27719216.608    -1144597.713 5   -731258.16545  27719235.0244          0.000  
  25279668.592    -8850308.461 7  -6744339.12946  25279678.4864          0.000  
  24649424.561   -16921342.251 8 -13027495.40047  24649434.6194          0.000  
  24560972.161   -17267550.075 8 -13271534.65447  24560981.0234          0.000  
  24776321.986   -12729240.035 7  -9788540.97946  24776331.5164          0.000  
  28007849.549     -376962.694 3   -115725.89645  28007867.6244          0.000  
  24638707.439   -15240373.319 8 -11700249.67647  24638715.7734          0.000  
  26607292.599       44154.262 6    228735.25846  26607305.9854          0.000  
 02  1 30 13 26 30.0110000  0  8G 3G 6G15G17G22G23G25G30
  27704217.321    -1223420.045 5   -792677.80245  27704234.5174          0.000  
  25293853.548    -8775765.304 7  -6686253.64046  25293862.6804          0.000  
  24636256.342   -16990541.460 8 -13081416.74347  24636266.4354          0.000  
  24554251.824   -17302865.633 8 -13299053.21847  24554260.6624          0.000  
  24764405.371   -12791861.521 7  -9837336.86346  24764414.8434          0.000  
  27997708.917     -430245.905 3   -157245.03145  27997724.0624          0.000  
  24648135.503   -15190829.462 8 -11661644.13147  24648144.0954          0.000  
  26626330.470      144199.761 6    306692.54745  26626343.5284          0.000  
 02  1 30 13 27  0.0110000  0  8G 3G 6G15G17G22G23G25G30
  27689239.686    -1302128.917 5   -854009.08645  27689259.4964          0.000  
  25308068.366    -8701067.232 7  -6628047.42746  25308078.3304          0.000  
  24623173.280   -17059292.837 8 -13134989.12947  24623183.4674          0.000  
  24547627.392   -17337677.188 8 -13326179.04947  24547636.3954          0.000  
  24752537.691   -12854225.398 7  -9885932.00346  24752546.8464          0.000  
  27987610.967     -483312.840 4   -198595.50845  27987628.5974          0.000  
  24657662.818   -15140763.851 8 -11622632.01847  24657671.3994          0.000  
  26645404.324      244432.208 6    384795.52145  26645418.6724          0.000  
 02  1 30 13 27 30.0110000  0  8G 3G 6G15G17G22G23G25G30
  27674283.176    -1380724.065 5   -915251.70445  27674300.1854          0.000  
  25322312.213    -8626215.350 7  -6569721.38046  25322322.3654          0.000  
  24610176.079   -17127594.002 8 -13188210.70647  24610185.8434          0.000  
  24541098.918   -17371983.300 8 -13352911.02347  24541107.6394          0.000  
  24740719.839   -12916329.785 7  -9934324.95346  24740729.1704          0.000  
  27977553.299     -536160.611 4   -239775.35645  27977571.9964          0.000  
  24667289.027   -15090178.013 8 -11583214.53147  24667297.8534          0.000  
  26664513.763      344850.867 6    463043.57746  26664527.4434          0.000  
 02  1 30 13 28  0.0110000  0  8G 3G 6G15G17G22G23G25G30
  27659347.629    -1459206.491 4   -976406.50145  27659365.2954          0.000  
  25336585.095    -8551212.193 7  -6511277.45846  25336594.7544          0.000  
  24597264.403   -17195444.088 8 -13241080.78847  24597274.4144          0.000  
  24534667.031   -17405784.038 8 -13379249.20447  24534675.9754          0.000  
  24728951.002   -12978174.337 7  -9982515.43746  24728960.1574          0.000  
  27967539.657     -588788.016 5   -280783.46745  27967556.0104          0.000  
  24677013.553   -15039074.697 8 -11543393.82447  24677022.2744          0.000  
  26683658.555      445453.465 6    541434.98546  26683671.6484          0.000  
 02  1 30 13 28 30.0110000  0  8G 3G 6G15G17G22G23G25G30
  27644434.173    -1537578.293 3  -1037475.04645  27644451.7454          0.000  
  25350885.839    -8476061.499 7  -6452718.56046  25350895.5804          0.000  
  24584438.834   -17262843.286 8 -13293599.53847  24584448.7754          0.000  
  24528330.706   -17439080.912 8 -13405194.77147  24528339.5794          0.000  
  24717231.782   -13039759.891 7 -10030504.10346  24717240.7614          0.000  
  27957565.968     -641194.888 5   -321619.70445  27957581.9924          0.000  
  24686835.796   -14987458.142 8 -11503173.19447  24686844.6114          0.000  
  26702836.729      546236.368 6    619966.86446  26702850.4214          0.000  
 02  1 30 13 29  0.0110000  0  8G 3G 6G15G17G22G23G25G30
  27629542.177    -1615833.091 3  -1098452.41345  27629562.4564          0.000  
  25365215.512    -8400758.246 7  -6394040.79646  25365225.5114          0.000  
  24571700.598   -17329783.178 8 -13345760.38247  24571710.6094          0.000  
  24522091.855   -17471866.630 8 -13430742.02647  24522100.5534          0.000  
  24705562.974   -13101078.916 7 -10078285.07946  24705572.4464          0.000  
  27947637.220     -693372.642 5   -362277.46845  27947655.6124          0.000  
  24696756.733   -14935323.777 8 -11462549.07147  24696765.4554          0.000  
  26722050.633      647204.730 6    698643.26346  26722064.2664          0.000  
 02  1 30 13 29 30.0110000  0  8G 3G 6G15G17G22G23G25G30
  27614672.336    -1693971.827 5  -1159339.43445  27614688.9114          0.000  
  25379573.695    -8325305.178 7  -6335246.28746  25379583.6584          0.000  
  24559050.013   -17396263.016 8 -13397562.74847  24559059.7784          0.000  
  24515950.036   -17504141.484 8 -13455891.20547  24515958.7694          0.000  
  24693944.964   -13162131.151 7 -10125858.18046  24693954.4944          0.000  
  27937751.881     -745320.102 5   -402755.75245  27937769.8754          0.000  
  24706775.720   -14882674.766 8 -11421523.93247  24706784.6874          0.000  
  26741298.932      748355.927 6    777462.12846  26741313.3854          0.000  
 02  1 30 13 30  0.0110000  0  8G 3G 6G15G17G22G23G25G30
  27599825.177    -1771997.430 5  -1220138.24445  27599836.8884          0.000  
  25393959.930    -8249706.426 7  -6276338.25946  25393969.9414          0.000  
  24546486.293   -17462283.798 8 -13449007.40047  24546496.3744          0.000  
  24509905.091   -17535907.469 8 -13480643.86847  24509913.5664          0.000  
  24682377.765   -13222917.884 7 -10173224.38946  24682387.2844          0.000  
  27927909.922     -797037.635 4   -443054.90345  27927925.8764          0.000  
  24716891.548   -14829515.633 8 -11380101.30947  24716900.2934          0.000  
  26760581.746      849686.097 5    856420.46145  26760596.8794          0.000  
 02  1 30 13 30 30.0110000  0  8G 3G 6G15G17G22G23G25G30
  27584999.301    -1849906.382 5  -1280846.18845  27585018.1854          0.000  
  25408374.112    -8173959.884 7  -6217315.07646  25408383.9354          0.000  
  24534011.233   -17527840.051 8 -13500090.09647  24534021.0214          0.000  
  24503957.886   -17567160.301 8 -13504996.67047  24503966.4544          0.000  
  24670861.774   -13283434.258 7 -10220379.93746  24670871.1164          0.000  
  27918112.966     -848519.330 5   -483170.22945  27918129.7404          0.000  
  24727104.896   -14775845.065 8 -11338280.14747  24727113.4184          0.000  
  26779898.556      951197.461 5    935519.96945  26779913.2324          0.000  
 02  1 30 13 31  0.0110000  0  8G 3G 6G15G17G22G23G25G30
  27570195.018    -1927701.326 5  -1341465.31945  27570210.0694          0.000  
  25422815.366    -8098069.686 7  -6158179.95446  25422825.4364          0.000  
  24521624.415   -17592932.819 8 -13550811.62347  24521634.0744          0.000  
  24498107.847   -17597901.867 8 -13528951.08347  24498116.3814          0.000  
  24659396.973   -13343681.763 7 -10267325.97646  24659406.3854          0.000  
  27908360.844     -899765.678 5   -523102.24045  27908378.8964          0.000  
  24737414.518   -14721668.043 8 -11296064.35647  24737422.8994          0.000  
  26799249.696     1052885.939 6   1014757.47545  26799263.6694          0.000  
 02  1 30 13 31 30.0110000  0  8G 3G 6G15G17G22G23G25G30
  27555413.864    -2005378.492 5  -1401992.67545  27555428.1304          0.000  
  25437284.861    -8022033.715 7  -6098931.23246  25437294.7544          0.000  
  24509326.891   -17657556.480 8 -13601167.61647  24509336.5384          0.000  
  24492355.978   -17628127.780 8 -13552503.68447  24492365.0514          0.000  
  24647984.276   -13403655.351 7 -10314058.57646  24647993.4784          0.000  
  27898654.312     -950770.782 5   -562846.24345  27898671.7194          0.000  
  24747820.883   -14666982.845 8 -11253452.57047  24747829.2884          0.000  
  26818634.828     1154753.742 5   1094134.71445  26818649.0364          0.000  
 02  1 30 13 32  0.0110000  0  8G 3G 6G15G17G22G23G25G30
  27540653.642    -2082939.097 5  -1462429.19345  27540670.2764          0.000  
  25451781.124    -7945854.638 7  -6039571.00446  25451790.9824          0.000  
  24497118.802   -17721710.309 8 -13651157.51547  24497128.5554          0.000  
  24486702.250   -17657838.453 8 -13575654.80047  24486711.4054          0.000  
  24636623.652   -13463354.795 7 -10360577.54946  24636632.9124          0.000  
  27888994.801    -1001533.430 5   -602401.25345  27889011.1304          0.000  
  24758323.233   -14611792.326 8 -11210447.03547  24758332.0014          0.000  
  26838052.881     1256798.466 5   1173649.85145  26838067.3004          0.000  
 02  1 30 13 32 30.0110000  0  8G 3G 6G15G17G22G23G25G30
  27525916.324    -2160384.641 5  -1522776.04845  27525933.3094          0.000  
  25466304.212    -7869535.240 7  -5980101.44746  25466313.9294          0.000  
  24484999.925   -17785394.110 8 -13700781.15047  24485009.6314          0.000  
  24481146.350   -17687034.787 8 -13598405.13047  24481155.4114          0.000  
  24625315.467   -13522780.254 7 -10406883.02046  24625324.6464          0.000  
  27879381.241    -1052052.966 4   -641766.85145  27879399.2584          0.000  
  24768921.043   -14556100.278 8 -11167050.70347  24768929.9874          0.000  
  26857504.826     1359017.303 5   1253300.62145  26857519.4084          0.000  
 02  1 30 13 33  0.0110000  0  8G 3G 6G15G17G22G23G25G30
  27511200.905    -2237710.864 4  -1583029.98145  27511218.2894          0.000  
  25480854.657    -7793072.879 7  -5920520.48046  25480864.4334          0.000  
  24472971.837   -17848602.062 8 -13750034.00747  24472981.6834          0.000  
  24475689.294   -17715711.874 8 -13620750.85647  24475697.9344          0.000  
  24614060.321   -13581926.333 7 -10452970.79746  24614069.3244          0.000  
  27869814.822    -1102323.053 4   -680938.10745  27869832.4874          0.000  
  24779614.861   -14499904.884 8 -11123262.16447  24779623.7814          0.000  
  26876990.368     1461412.801 5   1333089.07745  26877005.5714          0.000  
 02  1 30 13 33 30.0110000  0  8G 3G 6G15G17G22G23G25G30
  27496508.250    -2314918.616 5  -1643191.51745  27496523.2194          0.000  
  25495431.747    -7716469.998 7  -5860830.00946  25495441.6174          0.000  
  24461034.389   -17911333.031 8 -13798915.17647  24461044.1074          0.000  
  24470330.902   -17743869.996 8 -13642692.19347  24470339.5534          0.000  
  24602858.549   -13640792.436 7 -10498840.41346  24602867.4464          0.000  
  27860296.922    -1152342.231 5   -719913.86945  27860315.4204          0.000  
  24790403.707   -14443209.165 8 -11079083.75647  24790412.6164          0.000  
  26896509.548     1563982.855 6   1413013.54645  26896525.1394          0.000  
 02  1 30 13 34  0.0110000  0  8G 3G 6G15G17G22G23G25G30
  27481839.655    -2392005.984 5  -1703259.28445  27481854.9294          0.000  
  25510035.874    -7639725.873 7  -5801029.48146  25510046.0844          0.000  
  24449188.527   -17973583.127 8 -13847421.63947  24449197.9754          0.000  
  24465071.787   -17771506.292 8 -13664226.91947  24465080.3914          0.000  
  24591710.303   -13699375.103 7 -10544489.16246  24591719.4354          0.000  
  27850826.761    -1202106.132 5   -758690.70645  27850843.9114          0.000  
  24801287.926   -14386012.632 8 -11034515.10547  24801296.6714          0.000  
  26916061.395     1666728.318 6   1493074.66845  26916075.3564          0.000  
 02  1 30 13 34 30.0110000  0  8G 3G 6G15G17G22G23G25G30
  27467192.635    -2468973.274 5  -1763233.56345  27467207.0884          0.000  
  25524666.073    -7562842.236 6  -5741120.25146  25524676.5874          0.000  
  24437434.299   -18035351.032 8 -13895552.37447  24437443.7124          0.000  
  24459912.069   -17798620.546 8 -13685354.85547  24459920.5564          0.000  
  24580616.537   -13757673.316 7 -10589916.26046  24580625.8564          0.000  
  27841405.460    -1251612.856 5   -797267.06245  27841422.1764          0.000  
  24812266.942   -14328318.261 8 -10989558.52347  24812275.4884          0.000  
  26935645.981     1769647.449 5   1573271.10245  26935659.6264          0.000  
 02  1 30 13 35  0.0110000  0  8G 3G 6G15G17G22G23G25G30
  27452569.728    -2545822.426 5  -1823115.79745  27452582.1774          0.000  
  25539322.691    -7485822.681 7  -5681105.11146  25539332.7254          0.000  
  24425772.021   -18096636.993 8 -13943307.56547  24425781.6924          0.000  
  24454851.360   -17825214.207 8 -13706077.13847  24454859.9414          0.000  
  24569576.638   -13815687.808 7 -10635122.28146  24569585.6294          0.000  
  27832033.087    -1300862.188 5   -835642.90145  27832049.5574          0.000  
  24823339.848   -14270130.288 8 -10944217.31747  24823348.3354          0.000  
  26955263.579     1872736.785 5   1653600.21545  26955280.0134          0.000  
 02  1 30 13 35 30.0110000  0  8G 3G 6G15G17G22G23G25G30
  27437967.846    -2622551.070 5  -1882904.19345  27437979.1234          0.000  
  25554005.264    -7408665.833 7  -5620982.97446  25554015.0294          0.000  
  24414202.151   -18157436.730 8 -13990683.89047  24414211.3884          0.000  
  24449890.418   -17851284.118 8 -13726391.29547  24449899.4674          0.000  
  24558591.614   -13873414.711 7 -10680104.20946  24558601.0274          0.000  
  27822711.204    -1349849.208 5   -873814.33445  27822729.2444          0.000  
  24834506.767   -14211448.260 8 -10898491.13747  24834515.8634          0.000  
  26974914.028     1975997.622 6   1734062.90245  26974929.9114          0.000  
 02  1 30 13 36  0.0110000  0  8G 3G 6G15G17G22G23G25G30
  27423390.256    -2699158.093 5  -1942597.75345  27423404.6514          0.000  
  25568713.860    -7331372.149 7  -5560754.21046  25568724.0114          0.000  
  24402725.431   -18217747.730 8 -14037679.38147  24402734.6684          0.000  
  24445029.544   -17876828.706 8 -13746296.11547  24445038.4884          0.000  
  24547661.470   -13930851.418 7 -10724860.00446  24547670.8364          0.000  
  27813439.975    -1398570.686 5   -911778.90545  27813456.7724          0.000  
  24845767.187   -14152273.391 8 -10852380.93147  24845776.2374          0.000  
  26994596.554     2079429.510 6   1814658.90545  26994610.9134          0.000  
 02  1 30 13 36 30.0110000  0  8G 3G 6G15G17G22G23G25G30
  27408834.539    -2775643.111 5  -2002196.26745  27408850.3054          0.000  
  25583448.335    -7253942.875 7  -5500419.80646  25583458.8154          0.000  
  24391341.810   -18277568.073 8 -14084292.54247  24391351.3514          0.000  
  24440268.612   -17901847.092 8 -13765790.91247  24440277.2634          0.000  
  24536787.285   -13987996.491 7 -10769388.56646  24536796.0894          0.000  
  27804218.864    -1447024.200 5   -949534.65145  27804235.8844          0.000  
  24857121.099   -14092607.646 8 -10805888.21947  24857130.3364          0.000  
  27014311.024     2183031.380 5   1895387.37045  27014328.5724          0.000  
 02  1 30 13 37  0.0110000  0  8G 3G 6G15G17G22G23G25G30
  27394303.357    -2852005.468 5  -2061699.14045  27394320.7064          0.000  
  25598208.106    -7176378.782 7  -5439980.34546  25598218.0124          0.000  
  24380052.055   -18336895.240 8 -14130521.40647  24380061.5034          0.000  
  24435608.226   -17926338.065 8 -13784874.74847  24435616.7714          0.000  
  24525968.904   -14044847.866 8 -10813688.27446  24525977.6144          0.000  
  27795049.930    -1495206.907 5   -987079.37045  27795067.7484          0.000  
  24868568.512   -14032452.562 8 -10759014.21246  24868577.3394          0.000  
  27034058.555     2286802.490 5   1976247.65145  27034074.5324          0.000  
 02  1 30 13 37 30.0110000  0  8G 3G 6G15G17G22G23G25G30
  27379794.797    -2928246.681 5  -2121107.64045  27379810.2824          0.000  
  25612993.504    -7098682.822 6  -5379438.12546  25613003.7964          0.000  
  24368856.227   -18395729.410 8 -14176366.12247  24368865.5464          0.000  
  24431047.761   -17950303.030 8 -13803548.70647  24431056.3894          0.000  
  24515206.174   -14101405.892 7 -10857759.38746  24515214.8374          0.000  
  27785932.594    -1543118.305 5  -1024412.72945  27785948.6774          0.000  
  24880107.880   -13971811.817 8 -10711761.76546  24880116.6834          0.000  
  27053837.399     2390739.748 5   2057237.45945  27053852.8844          0.000  
 02  1 30 13 38  0.0110000  0  8G 3G 6G15G17G22G23G25G30
  27365309.849    -3004365.750 5  -2180420.95545  27365324.0674          0.000  
  25627803.449    -7020855.232 6  -5318793.35646  25627814.1524          0.000  
  24357754.804   -18454067.810 8 -14221824.51747  24357764.1704          0.000  
  24426587.778   -17973740.265 8 -13821811.44747  24426596.4294          0.000  
  24504499.747   -14157668.028 7 -10901599.95046  24504508.8434          0.000  
  27776867.832    -1590755.097 5  -1061532.06345  27776884.9584          0.000  
  24891739.942   -13910687.071 7 -10664132.17546  24891748.9804          0.000  
  27073647.822     2494842.873 5   2138356.50045  27073662.8964          0.000  
 02  1 30 13 38 30.0110000  0  8G 3G 6G15G17G22G23G25G30
  27350848.202    -3080361.588 5  -2239638.24645  27350863.0544          0.000  
  25642638.560    -6942896.482 7  -5258046.37146  25642649.0984          0.000  
  24346748.387   -18511907.626 8 -14266894.41647  24346757.2964          0.000  
  24422228.324   -17996648.229 8 -13839661.76147  24422237.3504          0.000  
  24493849.982   -14213631.783 7 -10945208.00347  24493859.0554          0.000  
  27767855.108    -1638114.070 5  -1098434.95145  27767872.9254          0.000  
  24903463.355   -13849079.776 8 -10616126.56146  24903471.9474          0.000  
  27093490.010     2599111.531 5   2219604.47945  27093505.3894          0.000  
 02  1 30 13 39  0.0110000  0  8G 3G 6G15G17G22G23G25G30
  27336410.850    -3156232.609 5  -2298758.28745  27336426.4524          0.000  
  25657499.007    -6864806.169 6  -5197196.87346  25657509.1704          0.000  
  24335837.011   -18569245.636 8 -14311573.29347  24335846.1784          0.000  
  24417970.379   -18019024.693 8 -13857097.93247  24417978.8904          0.000  
  24483257.695   -14269294.112 7 -10988581.18247  24483266.9564          0.000  
  27758896.663    -1685191.210 5  -1135118.28645  27758913.9884          0.000  
  24915278.470   -13786990.357 7 -10567745.27946  24915287.5314          0.000  
  27113363.170     2703546.094 6   2300981.79045  27113377.6824          0.000  
 02  1 30 13 39 30.0110000  0  8G 3G 6G15G17G22G23G25G30
  27321996.016    -3231977.542 5  -2357780.08945  27322009.9534          0.000  
  25672384.019    -6786584.543 6  -5136245.06746  25672394.8864          0.000  
  24325021.871   -18626079.210 8 -14355859.10947  24325031.0734          0.000  
  24413813.529   -18040868.110 8 -13874118.73747  24413822.1224          0.000  
  24472723.155   -14324652.517 7 -11031717.53846  24472732.2754          0.000  
  27749991.565    -1731983.092 5  -1171579.29545  27750008.5974          0.000  
  24927185.512   -13724419.894 7 -10518989.16446  24927195.0074          0.000  
  27133268.032     2808146.357 5   2382488.18445  27133284.2324          0.000  
 02  1 30 13 40  0.0110000  0  8G 3G 6G15G17G22G23G25G30
  27307605.431    -3307600.745 5  -2416706.99645  27307621.9594          0.000  
  25687293.174    -6708236.845 6  -5075195.01846  25687303.4554          0.000  
  24314302.304   -18682410.804 7 -14399753.76747  24314311.0844          0.000  
  24409757.766   -18062182.062 8 -13890726.97747  24409766.2414          0.000  
  24462246.154   -14379709.654 7 -11074619.13947  24462255.4034          0.000  
  27741141.691    -1778491.776 5  -1207819.63145  27741159.3334          0.000  
  24939182.494   -13661374.516 7 -10469862.98146  24939192.0244          0.000  
  27153203.827     2912906.783 5   2464119.37945  27153218.9134          0.000  
 02  1 30 13 40 30.0110000  0  8G 3G 6G15G17G22G23G25G30
  27293238.711    -3383096.609 5  -2475534.69445  27293253.7864          0.000  
  25702226.973    -6629759.109 6  -5014043.63146  25702237.4294          0.000  
  24303679.542   -18738233.338 7 -14443251.76247  24303688.4514          0.000  
  24405803.392   -18082960.995 8 -13906918.31847  24405811.8904          0.000  
  24451827.751   -14434458.869 7 -11117280.80747  24451836.6954          0.000  
  27732346.365    -1824709.681 5  -1243833.39745  27732363.1514          0.000  
  24951270.943   -13597851.359 7 -10420364.50546  24951280.0744          0.000  
  27173170.766     3017831.249 5   2545878.38245  27173186.1694          0.000  
 02  1 30 13 41  0.0110000  0  8G 3G 6G15G17G22G23G25G30
  27278895.676    -3458465.959 5  -2534263.76245  27278912.2164          0.000  
  25717185.265    -6551153.512 6  -4952792.63446  25717195.5334          0.000  
  24293154.042   -18793546.076 6 -14486352.51647  24293162.9864          0.000  
  24401951.215   -18103205.206 8 -13922692.99347  24401959.7024          0.000  
  24441468.044   -14488899.463 7 -11159701.98347  24441477.2344          0.000  
  27723607.276    -1870635.406 5  -1279619.53545  27723624.1564          0.000  
  24963449.185   -13533853.983 8 -10370496.51146  24963458.2344          0.000  
  27193167.615     3122917.660 5   2627763.59945  27193183.0654          0.000  
 02  1 30 13 41 30.0110000  0  8G 3G 6G15G17G22G23G25G30
  27264577.209    -3533711.224 5  -2592896.17445  27264593.1984          0.000  
  25732167.299    -6472423.811 6  -4891444.92246  25732177.5564          0.000  
  24282725.057   -18848349.836 7 -14529056.65847  24282733.8604          0.000  
  24398200.226   -18122916.798 8 -13938052.64347  24398208.7364          0.000  
  24431167.048   -14543032.409 7 -11201883.43647  24431176.2734          0.000  
  27714922.783    -1916269.158 5  -1315178.11745  27714939.9334          0.000  
  24975717.043   -13469387.094 8 -10320262.66446  24975725.8934          0.000  
  27213195.506     3228162.097 5   2709771.97745  27213211.9404          0.000  
 02  1 30 13 42  0.0110000  0  8G 3G 6G15G17G22G23G25G30
  27250282.977    -3608828.566 5  -2651428.98745  27250298.0994          0.000  
  25747173.354    -6393567.309 6  -4829998.41346  25747183.7754          0.000  
  24272394.164   -18902639.374 6 -14571360.12047  24272403.0964          0.000  
  24394551.180   -18142091.472 8 -13952993.91647  24394559.8664          0.000  
  24420925.271   -14596852.270 7 -11243820.92747  24420934.4614          0.000  
  27706295.853    -1961604.828 5  -1350504.42545  27706313.6354          0.000  
  24988074.283   -13404448.669 7 -10269661.38746  24988083.3914          0.000  
  27233253.467     3333567.146 5   2791905.45645  27233268.9284          0.000  
 02  1 30 13 42 30.0110000  0  8G 3G 6G15G17G22G23G25G30
  27236011.565    -3683818.323 5  -2709862.23945  27236026.3004          0.000  
  25762202.831    -6314585.779 6  -4768454.48646  25762212.9014          0.000  
  24262161.033   -18956413.545 7 -14613261.99447  24262170.0014          0.000  
  24391004.689   -18160729.425 8 -13967516.96147  24391013.4934          0.000  
  24410743.348   -14650358.403 8 -11285513.95547  24410752.2804          0.000  
  27697725.292    -2006640.786 5  -1385597.19345  27697741.1874          0.000  
  25000520.799   -13339041.831 7 -10218695.10746  25000529.8254          0.000  
  27253341.815     3439131.017 5   2874162.71045  27253357.6754          0.000  
 02  1 30 13 43  0.0110000  0  8G 3G 6G15G17G22G23G25G30
  27221766.988    -3758681.270 5  -2768196.75045  27221782.5554          0.000  
  25777256.158    -6235481.165 6  -4706814.64946  25777266.6374          0.000  
  24252026.441   -19009671.318 7 -14654761.50847  24252036.1364          0.000  
  24387560.019   -18178830.777 8 -13981621.88147  24387568.7174          0.000  
  24400621.258   -14703549.907 8 -11326961.77147  24400628.9724          0.000  
  27689213.179    -2051375.388 5  -1420455.11545  27689230.0474          0.000  
  25013055.991   -13273169.891 7 -10167366.42346  25013065.0994          0.000  
  27273460.387     3544851.697 5   2956542.15345  27273478.3344          0.000  
 02  1 30 13 43 30.0110000  0  8G 3G 6G15G17G22G23G25G30
  27207544.910    -3833415.519 5  -2826430.94245  27207559.7504          0.000  
  25792332.800    -6156253.067 6  -4645078.58446  25792343.5374          0.000  
  24241990.541   -19062409.691 7 -14695856.23847  24241999.5674          0.000  
  24384217.880   -18196393.636 8 -13995307.18847  24384226.4614          0.000  
  24390559.645   -14756423.516 7 -11368161.95347  24390568.6944          0.000  
  27680758.400    -2095804.758 5  -1455075.11645  27680775.3854          0.000  
  25025679.264   -13206833.537 7 -10115675.85646  25025688.6534          0.000  
  27293608.767     3650729.273 5   3039043.80945  27293626.2454          0.000  
 02  1 30 13 44  0.0110000  0  8G 3G 6G15G17G22G23G25G30
  27193347.626    -3908020.282 5  -2884564.29745  27193364.0024          0.000  
  25807432.831    -6076902.067 6  -4583246.76846  25807443.4754          0.000  
  24232053.822   -19114626.594 7 -14736544.66347  24232063.0244          0.000  
  24380978.373   -18213416.946 8 -14008572.08347  24380986.8244          0.000  
  24380559.001   -14808977.120 8 -11409112.74647  24380567.8634          0.000  
  27672362.294    -2139926.072 5  -1489455.11445  27672378.3064          0.000  
  25038390.942   -13140034.617 7 -10063624.85746  25038400.0744          0.000  
  27313786.374     3756763.333 5   3121667.43345  27313802.1294          0.000  
 02  1 30 13 44 30.0110000  0  8G 3G 6G15G17G22G23G25G30
  27179175.158    -3982496.063 5  -2942597.10145  27179189.9754          0.000  
  25822556.147    -5997429.765 6  -4521320.42846  25822566.4984          0.000  
  24222216.780   -19166320.881 7 -14776825.85247  24222226.1234          0.000  
  24377841.534   -18229900.903 8 -14021416.70047  24377849.6344          0.000  
  24370619.530   -14861209.687 8 -11449813.37847  24370628.6034          0.000  
  27664024.591    -2183737.610 5  -1523593.72245  27664042.4914          0.000  
  25051189.901   -13072775.652 7 -10011215.37246  25051199.1034          0.000  
  27333993.753     3862951.987 5   3204411.54745  27334010.2224          0.000  
 02  1 30 13 45  0.0110000  0  8G 3G 6G15G17G22G23G25G30
  27165027.605    -4056840.084 5  -3000527.24245  27165041.0624          0.000  
  25837702.488    -5917834.423 6  -4459298.19846  25837713.2024          0.000  
  24212479.994   -19217488.143 7 -14816696.37547  24212489.1024          0.000  
  24374808.084   -18245842.372 8 -14033838.59547  24374816.7004          0.000  
  24360741.839   -14913117.053 8 -11490260.61147  24360751.0174          0.000  
  27655747.598    -2227234.504 5  -1557487.15445  27655764.7124          0.000  
  25064076.730   -13005056.326 7  -9958447.16946  25064085.8504          0.000  
  27354230.229     3969296.753 5   3287277.25345  27354246.9214          0.000  
 02  1 30 13 45 30.0110000  0  8G 3G 6G15G17G22G23G25G30
  27150905.194    -4131055.436 5  -3058357.18045  27150919.9404          0.000  
  25852871.732    -5838120.554 6  -4397183.62246  25852882.3524          0.000  
  24202842.948   -19268130.342 7 -14856157.75347  24202852.0324          0.000  
  24371876.925   -18261244.339 8 -14045840.09147  24371885.7754          0.000  
  24350925.756   -14964700.901 8 -11530455.75447  24350934.8174          0.000  
  27647529.652    -2270417.755 5  -1591136.22645  27647546.9074          0.000  
  25077049.447   -12936882.369 7  -9905324.70646  25077058.5784          0.000  
  27374496.174     4075792.827 5   3370260.88945  27374513.8634          0.000  
 02  1 30 13 46  0.0110000  0  8G 3G 6G15G17G22G23G25G30
  27136807.151    -4205141.012 5  -3116085.99645  27136820.7724          0.000  
  25868063.412    -5758288.401 6  -4334976.86146  25868073.8804          0.000  
  24193306.551   -19318244.728 6 -14895207.85147  24193315.4714          0.000  
  24369048.958   -18276105.614 8 -14057420.27147  24369057.6564          0.000  
  24341171.646   -15015958.757 8 -11570396.88447  24341180.6964          0.000  
  27639372.303    -2313284.023 5  -1624538.26045  27639389.7454          0.000  
  25090108.664   -12868255.434 7  -9851849.27846  25090118.3474          0.000  
  27394790.771     4182439.961 5   3453362.21845  27394806.6664          0.000  
 02  1 30 13 46 30.0110000  0  8G 3G 6G15G17G22G23G25G30
  27122733.409    -4279095.051 5  -3173712.28145  27122747.0184          0.000  
  25883277.777    -5678337.558 6  -4272677.62446  25883288.1044          0.000  
  24183870.937   -19367828.599 7 -14933844.56847  24183880.2794          0.000  
  24366324.328   -18290424.293 8 -14068577.65747  24366333.0374          0.000  
  24331480.247   -15066887.621 8 -11610081.65947  24331489.2264          0.000  
  27631276.227    -2355829.704 5  -1657690.49245  27631291.4314          0.000  
  25103254.293   -12799176.409 7  -9798021.57246  25103263.7654          0.000  
  27415114.139     4289238.395 5   3536581.43445  27415130.9604          0.000  
 02  1 30 13 47  0.0110000  0  8G 3G 6G15G17G22G23G25G30
  27108685.150    -4352921.281 5  -3231239.00445  27108698.4424          0.000  
  25898513.457    -5598272.732 6  -4210289.56446  25898524.2304          0.000  
  24174535.954   -19416883.786 6 -14972069.31847  24174544.8044          0.000  
  24363702.275   -18304203.625 8 -14079314.77247  24363711.0434          0.000  
  24321850.745   -15117489.278 8 -11649511.45747  24321859.5364          0.000  
  27623239.968    -2398056.025 5  -1690593.90445  27623258.8054          0.000  
  25116484.823   -12729650.978 7  -9743846.01146  25116494.3304          0.000  
  27435465.239     4396183.334 5   3619914.80245  27435481.0754          0.000  
 02  1 30 13 47 30.0110000  0  8G 3G 6G15G17G22G23G25G30
  27094662.008    -4426610.692 5  -3288659.12845  27094674.6094          0.000  
  25913772.563    -5518086.320 6  -4147806.77946  25913783.3714          0.000  
  24165303.380   -19465400.342 7 -15009874.36047  24165312.4534          0.000  
  24361184.266   -18317434.724 8 -14089624.69647  24361192.7064          0.000  
  24312285.922   -15167753.645 8 -11688678.44247  24312294.6194          0.000  
  27615267.436    -2439952.200 5  -1723240.11645  27615283.7414          0.000  
  25129801.004   -12659672.906 7  -9689317.74946  25129810.8274          0.000  
  27455845.426     4503282.092 5   3703368.02345  27455863.2434          0.000  
 02  1 30 13 48  0.0110000  0  8G 3G 6G15G17G22G23G25G30
  27080663.650    -4500171.682 5  -3345979.18645  27080675.9814          0.000  
  25929052.839    -5437787.603 6  -4085236.47146  25929063.3304          0.000  
  24156172.385   -19513384.998 7 -15047264.92847  24156181.4814          0.000  
  24358769.172   -18330125.470 8 -14099513.55947  24358777.7884          0.000  
  24302783.890   -15217687.438 8 -11727587.83547  24302792.3184          0.000  
  27607356.610    -2481524.232 5  -1755633.67645  27607372.2004          0.000  
  25143201.516   -12589253.215 7  -9634445.37546  25143211.2924          0.000  
  27476253.709     4610525.136 5   3786933.67345  27476270.1674          0.000  
 02  1 30 13 48 30.0110000  0  8G 3G 6G15G17G22G23G25G30
  27066690.145    -4573600.696 5  -3403196.42145  27066704.4344          0.000  
  25944355.392    -5357374.784 6  -4022577.26046  25944366.5634          0.000  
  24147143.153   -19560833.456 7 -15084237.68147  24147152.1674          0.000  
  24356457.771   -18342272.903 8 -14108979.06747  24356466.3514          0.000  
  24293345.360   -15267286.196 8 -11766236.16647  24293353.8354          0.000  
  27599508.312    -2522767.019 5  -1787770.74945  27599524.6064          0.000  
  25156686.270   -12518391.469 7  -9579228.53846  25156695.5894          0.000  
  27496689.224     4717914.017 5   3870613.00245  27496705.6594          0.000  
 02  1 30 13 49  0.0110000  0  8G 3G 6G15G17G22G23G25G30
  27052742.761    -4646894.813 5  -3460308.52245  27052757.6014          0.000  
  25959679.296    -5276845.857 6  -3959827.57946  25959689.8464          0.000  
  24138216.613   -19607741.287 7 -15120789.17247  24138225.8624          0.000  
  24354250.136   -18353873.793 8 -14118018.69547  24354258.6224          0.000  
  24283971.705   -15316545.274 8 -11804619.81147  24283980.1214          0.000  
  27591723.511    -2563675.466 5  -1819647.27545  27591740.3794          0.000  
  25170255.153   -12447087.115 7  -9523666.81446  25170264.6954          0.000  
  27517153.231     4825450.481 5   3954407.29445  27517168.3414          0.000  
 02  1 30 13 49 30.0110000  0  8G 3G 6G15G17G22G23G25G30
  27038819.877    -4720056.927 5  -3517317.78545  27038833.7444          0.000  
  25975024.827    -5196205.087 6  -3896990.75146  25975036.2444          0.000  
  24129393.017   -19654110.170 6 -15156920.70947  24129402.1604          0.000  
  24352146.038   -18364930.939 8 -14126634.62847  24352154.6074          0.000  
  24274662.308   -15365466.211 8 -11842739.97847  24274670.9124          0.000  
  27584001.850    -2604250.516 5  -1851264.05645  27584019.8324          0.000  
  25183907.300   -12375345.496 7  -9467764.37546  25183916.4904          0.000  
  27537644.269     4933130.196 5   4038313.17445  27537660.8204          0.000  
 02  1 30 13 50  0.0110000  0  8G 3G 6G15G17G22G23G25G30
  27024924.231    -4793081.258 5  -3574219.66045  27024937.9694          0.000  
  25990392.711    -5115447.622 6  -3834062.99646  25990403.6714          0.000  
  24120673.136   -19699932.985 6 -15192626.74047  24120681.9274          0.000  
  24350146.605   -18375438.430 8 -14134822.26247  24350154.9514          0.000  
  24265418.560   -15414041.676 8 -11880590.93847  24265427.2584          0.000  
  27576345.806    -2644484.004 5  -1882614.70745  27576361.6544          0.000  
  25197643.399   -12303163.586 7  -9411518.84546  25197652.9994          0.000  
  27558163.326     5040957.518 5   4122334.10445  27558179.6904          0.000  
 02  1 30 13 50 30.0110000  0  8G 3G 6G15G17G22G23G25G30
  27011053.448    -4865973.181 6  -3631018.36145  27011067.3274          0.000  
  26005781.310    -5034580.087 6  -3771049.47146  26005792.6104          0.000  
  24112056.452   -19745214.273 6 -15227910.79947  24112065.3614          0.000  
  24348250.635   -18385401.857 8 -14142585.94547  24348258.8644          0.000  
  24256239.675   -15462275.915 8 -11918176.00547  24256248.6424          0.000  
  27568753.881    -2684379.637 5  -1913702.07645  27568770.3854          0.000  
  25211461.249   -12230549.255 7  -9354936.36646  25211471.1894          0.000  
  27578709.148     5148925.489 5   4206464.64445  27578725.2544          0.000  
 02  1 30 13 51  0.0110000  0  8G 3G 6G15G17G22G23G25G30
  26997207.674    -4938733.314 6  -3687714.41545  26997220.6274          0.000  
  26021191.113    -4953604.191 6  -3707951.48446  26021201.9684          0.000  
  24103542.900   -19789952.811 7 -15262771.93247  24103551.7854          0.000  
  24346457.910   -18394821.480 8 -14149925.89047  24346466.1744          0.000  
  24247126.250   -15510167.775 8 -11955494.30047  24247135.1004          0.000  
  27561226.904    -2723935.543 5  -1944524.72945  27561243.6544          0.000  
  25225360.764   -12157505.633 7  -9298019.37446  25225370.8924          0.000  
  27599281.378     5257032.309 5   4290703.35345  27599298.2584          0.000  
 02  1 30 13 51 30.0110000  0  8G 3G 6G15G17G22G23G25G30
  26983387.220    -5011359.168 6  -3744305.78945  26983399.7754          0.000  
  26036620.751    -4872518.875 6  -3644768.26546  26036631.6994          0.000  
  24095133.275   -19834145.106 6 -15297207.42347  24095141.8674          0.000  
  24344769.450   -18403695.118 8 -14156840.40047  24344777.6444          0.000  
  24238078.730   -15557713.586 8 -11992542.93547  24238087.6514          0.000  
  27553764.631    -2763147.506 5  -1975079.36445  27553782.2964          0.000  
  25239342.404   -12084033.207 7  -9240768.25846  25239352.2634          0.000  
  27619880.394     5365278.704 5   4375050.86145  27619896.3714          0.000  
 02  1 30 13 52  0.0110000  0  8G 3G 6G15G17G22G23G25G30
  26969592.737    -5083847.799 5  -3800790.26345  26969605.1394          0.000  
  26052072.051    -4791322.172 6  -3581498.23046  26052082.8004          0.000  
  24086828.487   -19877787.025 6 -15331214.05047  24086837.1624          0.000  
  24343185.134   -18412019.743 8 -14163327.10147  24343193.5274          0.000  
  24229097.576   -15604908.733 8 -12029318.33047  24229106.2044          0.000  
  27546368.430    -2802010.516 5  -2005362.09645  27546386.3064          0.000  
  25253405.628   -12010131.682 7  -9183182.78446  25253415.0414          0.000  
  27640506.508     5473666.355 5   4459508.41245  27640524.1744          0.000  
 02  1 30 13 52 30.0110000  0  8G 3G 6G15G17G22G23G25G30
  26955824.132    -5156201.784 5  -3857169.81845  26955836.5694          0.000  
  26067544.008    -4710017.918 6  -3518144.38646  26067554.7454          0.000  
  24078628.049   -19920880.431 6 -15364793.26747  24078636.7704          0.000  
  24341705.007   -18419798.204 8 -14169388.21547  24341713.5994          0.000  
  24220183.123   -15651754.716 8 -12065821.63947  24220191.7154          0.000  
  27539039.998    -2840525.298 5  -2035373.44445  27539056.1044          0.000  
  25267549.406   -11935806.311 7  -9125267.03146  25267559.0414          0.000  
  27661157.780     5582191.045 5   4544072.77245  27661175.4564          0.000  
 02  1 30 13 53  0.0110000  0  8G 3G 6G15G17G22G23G25G30
  26942081.073    -5228421.520 5  -3913444.73745  26942095.2924          0.000  
  26083035.775    -4628607.513 6  -3454707.83246  26083046.4664          0.000  
  24070532.142   -19963424.602 6 -15397944.51147  24070540.9814          0.000  
  24340328.655   -18427030.900 8 -14175024.06447  24340337.6104          0.000  
  24211335.276   -15698250.335 8 -12102051.93447  24211343.6584          0.000  
  27531776.943    -2878690.349 5  -2065112.30445  27531793.8474          0.000  
  25281773.030   -11861060.526 7  -9067023.68846  25281782.7014          0.000  
  27681835.858     5690851.033 5   4628742.49945  27681854.8954          0.000  
 02  1 30 13 53 30.0110000  0  8G 3G 6G15G17G22G23G25G30
  26928362.638    -5300510.826 5  -3969618.01745  26928375.4854          0.000  
  26098546.865    -4547095.886 6  -3391192.40746  26098558.4234          0.000  
  24062540.187   -20005421.876 7 -15430669.60547  24062549.0844          0.000  
  24339055.313   -18433721.641 8 -14180237.60847  24339064.1864          0.000  
  24202553.653   -15744397.955 8 -12138011.06647  24202562.1404          0.000  
  27524581.116    -2916507.277 5  -2094579.83545  27524596.5664          0.000  
  25296075.544   -11785900.526 7  -9008457.58046  25296085.6254          0.000  
  27702537.941     5799640.989 5   4713513.53545  27702556.7434          0.000  
 02  1 30 13 54  0.0110000  0  8G 3G 6G15G17G22G23G25G30
  26914670.354    -5372463.206 5  -4025684.61145  26914683.3784          0.000  
  26114078.260    -4465477.955 6  -3327594.14846  26114089.7594          0.000  
  24054653.789   -20046864.743 7 -15462962.69247  24054662.5924          0.000  
  24337886.585   -18439864.252 8 -14185024.03847  24337895.4474          0.000  
  24193839.579   -15790189.785 8 -12173692.95747  24193848.1134          0.000  
  27517451.707    -2953967.880 5  -2123769.76745  27517467.5674          0.000  
  25310457.820   -11710322.717 7  -8949565.91546  25310467.2684          0.000  
  27723265.617     5908565.856 5   4798389.70845  27723283.6344          0.000  
 02  1 30 13 54 30.0110000  0  9G 3G 6G15G17G18G22G23G25G30
  26901004.283    -5444277.053 5  -4081643.24445  26901017.6234          0.000  
  26129630.599    -4383753.041 6  -3263912.52246  26129642.5214          0.000  
  24046873.394   -20087750.621 6 -15494821.76547  24046882.0214          0.000  
  24336822.226   -18445457.199 8 -14189382.15547  24336830.9004          0.000  
  28248788.583      -13361.79714         0.000           0.000           0.000  
  24185193.962   -15835622.855 8 -12209095.29747  24185202.4254          0.000  
  27510392.057    -2991068.436 5  -2152679.06645  27510407.9414          0.000  
  25324919.022   -11634328.086 7  -8890349.45546  25324929.0334          0.000  
  27744019.627     6017625.804 5   4883371.07945  27744038.8284          0.000  
 02  1 30 13 55  0.0110000  0  9G 3G 6G15G17G18G22G23G25G30
  26887364.598    -5515953.489 5  -4137494.80545  26887377.3404          0.000  
  26145202.103    -4301923.486 6  -3200149.35346  26145213.5444          0.000  
  24039199.378   -20128079.621 6 -15526246.91747  24039208.0754          0.000  
  24335862.241   -18450501.907 8 -14193313.08047  24335870.7864          0.000  
  28233530.033      -93541.795 5         0.000           0.000           0.000  
  24176616.564   -15880696.739 8 -12244217.74747  24176625.2264          0.000  
  27503400.215    -3027808.134 5  -2181307.24345  27503414.8804          0.000  
  25339459.328   -11557920.562 7  -8830811.26646  25339469.3984          0.000  
  27764798.767     6126818.191 5   4968455.66245  27764816.7844          0.000  
 02  1 30 13 55 30.0110000  0  9G 3G 6G15G17G18G22G23G25G30
  26873751.560    -5587491.677 6  -4193238.65345  26873764.5834          0.000  
  26160793.794    -4219989.513 6  -3136304.84746  26160804.7424          0.000  
  24031631.282   -20167849.566 6 -15557236.43647  24031639.9324          0.000  
  24335006.650   -18454997.467 8 -14196816.09447  24335015.0554          0.000  
  28218272.795     -173716.885 4    -12493.49355  28218291.8554          0.000  
  24168108.284   -15925409.154 8 -12279058.53447  24168116.9944          0.000  
  27496478.343    -3064184.180 5  -2209652.02645  27496493.2414          0.000  
  25354077.409   -11481102.228 7  -8770952.97046  25354087.7714          0.000  
  27785602.434     6236142.558 5   5053643.14945  27785619.9824          0.000  
 02  1 30 13 56  0.0110000  0  9G 3G 6G15G17G18G22G23G25G30
  26860163.894    -5658893.086 6  -4248875.92845  26860175.5574          0.000  
  26176404.789    -4137953.565 6  -3072380.83946  26176415.6674          0.000  
  24024169.541   -20207060.944 6 -15587790.72147  24024178.1924          0.000  
  24334255.472   -18458945.516 8 -14199892.47847  24334263.7714          0.000  
  28203016.523     -253886.040 4    -74962.28145  28203035.3964          0.000  
  24159668.353   -15969760.074 8 -12313617.63347  24159676.7704          0.000  
  27489625.177    -3100196.089 5  -2237713.04545  27489641.3304          0.000  
  25368772.758   -11403877.245 7  -8710777.80146  25368782.3234          0.000  
  27806431.466     6345596.010 5   5138931.19245  27806450.1984          0.000  
 02  1 30 13 56 30.0110000  0  9G 3G 6G15G17G18G22G23G25G30
  26846602.575    -5730156.929 6  -4304405.99445  26846615.0594          0.000  
  26192035.365    -4055816.089 6  -3008377.74546  26192047.3804          0.000  
  24016814.395   -20245712.326 6 -15617908.64047  24016822.9644          0.000  
  24333608.488   -18462345.627 8 -14202541.89647  24333616.8694          0.000  
  28187762.145     -334045.761 4   -137423.78545  28187779.0834          0.000  
  24151297.801   -16013747.385 8 -12347893.40347  24151306.2294          0.000  
  27482842.504    -3135841.194 5  -2265488.27745  27482858.0014          0.000  
  25383545.570   -11326247.546 7  -8650287.25746  25383555.3354          0.000  
  27827283.699     6455177.687 5   5224319.14045  27827301.5754          0.000  
 02  1 30 13 57  0.0110000  0  9G 3G 6G15G17G18G22G23G25G30
  26833067.802    -5801282.436 5  -4359828.27345  26833080.6614          0.000  
  26207684.508    -3973577.422 6  -2944295.79746  26207695.8664          0.000  
  24009566.329   -20283801.792 6 -15647588.70647  24009574.8514          0.000  
  24333065.905   -18465197.112 8 -14204763.81847  24333074.1104          0.000  
  28172510.860     -414192.844 4   -199875.42945  28172531.5264          0.000  
  24142997.013   -16057368.756 8 -12381884.02447  24143005.5824          0.000  
  27476129.457    -3171116.772 5  -2292975.54545  27476144.9184          0.000  
  25398394.763   -11248215.148 7  -8589482.93746  25398404.6334          0.000  
  27848161.761     6564886.984 5   5309806.51245  27848181.0794          0.000  
 02  1 30 13 57 30.0110000  0  9G 3G 6G15G17G18G22G23G25G30
  26819559.864    -5872270.368 6  -4415143.36645  26819571.5284          0.000  
  26223353.075    -3891239.477 6  -2880136.49346  26223364.0464          0.000  
  24002424.826   -20321329.295 6 -15676830.88147  24002433.4194          0.000  
  24332627.303   -18467501.241 8 -14206559.23447  24332635.7434          0.000  
  28157261.063     -494325.532 4   -262315.90945  28157282.7604          0.000  
  24134765.916   -16100623.754 8 -12415589.16547  24134774.3214          0.000  
  27469486.413    -3206021.889 5  -2320174.11845  27469500.4324          0.000  
  25413319.795   -11169783.712 7  -8528367.68046  25413329.2434          0.000  
  27869062.671     6674721.406 5   5395391.39945  27869081.2514          0.000  
 02  1 30 13 58  0.0110000  0  9G 3G 6G15G17G18G22G23G25G30
  26806077.093    -5943118.312 5  -4470349.34345  26806089.8584          0.000  
  26239040.824    -3808801.081 6  -2815898.88946  26239052.7344          0.000  
  23995391.011   -20358291.579 6 -15705632.62047  23995399.8374          0.000  
  24332293.389   -18469256.031 8 -14207926.59347  24332301.7354          0.000  
  28142015.598     -574438.853 5   -324741.26145  28142035.6674          0.000  
  24126604.882   -16143508.600 8 -12449005.87047  24126613.3454          0.000  
  27462915.680    -3240552.311 5  -2347080.75945  27462930.3684          0.000  
  25428320.801   -11090953.742 7  -8466941.87546  25428330.6474          0.000  
  27889987.125     6784681.925 5   5481074.57245  27890005.2364          0.000  
 02  1 30 13 58 30.0110000  0  9G 3G 6G15G17G18G22G23G25G30
  26792621.151    -6013827.101 5  -4525446.92745  26792634.3974          0.000  
  26254747.208    -3726264.049 6  -2751584.46046  26254758.9654          0.000  
  23988464.926   -20394688.606 6 -15733993.89847  23988473.6834          0.000  
  24332063.654   -18470462.608 8 -14208866.77147  24332071.9184          0.000  
  28126773.973     -654531.137 5   -387150.24945  28126795.3074          0.000  
  24118514.623   -16186022.896 8 -12482133.83547  24118523.4384          0.000  
  27456416.015    -3274707.104 5  -2373694.70145  27456430.8914          0.000  
  25443396.788   -11011729.063 7  -8405208.50646  25443406.7294          0.000  
  27910936.641     6894766.218 5   5566854.16645  27910954.6464          0.000  
 02  1 30 13 59  0.0110000  0  9G 3G 6G15G17G18G22G23G25G30
  26779192.656    -6084397.214 6  -4580436.45746  26779205.8904          0.000  
  26270471.824    -3643629.572 6  -2687194.08646  26270483.7224          0.000  
  23981646.450   -20430519.552 6 -15761914.07847  23981654.9714          0.000  
  24331938.208   -18471121.562 8 -14209380.23847  24331946.7654          0.000  
  28111536.630     -734600.220 4   -449541.15345  28111555.7374          0.000  
  24110495.114   -16228165.371 8 -12514972.08047  24110503.7534          0.000  
  27449988.753    -3308484.555 5  -2400014.61545  27450003.5234          0.000  
  25458547.356   -10932112.722 7  -8343169.94546  25458557.2504          0.000  
  27931908.065     7004972.443 5   5652728.79845  27931925.9294          0.000  
