     2.11           OBSERVATION DATA    G (GPS)             RINEX VERSION / TYPE
teqc  2008Feb15                         20080527 23:11:07UTCPGM / RUN BY / DATE
MSXP|IAx86-PII|bcc32 5.0|MSWin95->XP|486/DX+                COMMENT
BIT 2 OF LLI FLAGS DATA COLLECTED UNDER A/S CONDITION       COMMENT
SFER                                                        MARKER NAME
13402M004                                                   MARKER NUMBER
JGP                 ROA                                     OBSERVER / AGENCY
4724134757          TRIMBLE NETRS       1.20                REC # / TYPE / VERS
0220073543          TRM29659.00     NONE                    ANT # / TYPE
  5105519.2760  -555146.1198  3769807.0394                  APPROX POSITION XYZ
        1.6260        0.0000        0.0000                  ANTENNA: DELTA H/E/N
     1     1                                                WAVELENGTH FACT L1/2
     7    L1    C1    P2    S1    S2    L2    C2            # / TYPES OF OBSERV
    30.0000                                                 INTERVAL
Forced Modulo Decimation to 30 seconds                      COMMENT
 SNR is mapped to RINEX snr flag value [0-9]                COMMENT
  L1 & L2: min(max(int(snr_dBHz/6), 0), 9)                  COMMENT
  2008     5    27     0     0    0.0000000     GPS         TIME OF FIRST OBS
                                                            END OF HEADER
 08  5 27  0  0  0.0000000  0 10G31G21G23G16G24G30G 6G29G18G 3
 -22807283.68758  21333444.1254   21333439.2344         48.2504         41.2504
 -17504026.92656
 -24781163.71558  20990185.0864   20990179.4924         48.5004         41.2504
 -16519561.60956
  -2798549.02316  25007157.266                          36.500

 -22488549.71958  21284058.6884   21284053.0554         49.5004         39.5004
 -16107469.96956
 -13818165.64857  22717572.2894   22717568.8874         45.7504         30.2504
  -8402721.03555
  -7790345.13356  24235867.4694   24235863.9064         36.5004         20.5004
  -5459946.92253
 -20073887.40257  21735393.5864   21735389.3164         47.5004         36.0004
 -13728112.14156
 -10459639.81657  23301929.2114   23301924.7234         43.5004         29.0004
  -8831240.86354
  -4107709.93456  24909042.2974   24909039.3754         37.0004         16.2504
   -870178.59452
 -11626109.87556  23171446.4224   23171441.9844         40.5004         25.5004
  -6472883.46154
 08  5 27  0  0 30.0000000  0 10G31G21G23G16G24G30G 6G29G18G 3
 -22743500.25448  21345582.0164   21345576.7894         49.2504         40.7504
 -17454325.55546
 -24786305.36348  20989206.5784   20989200.9844         49.7504         41.2504
 -16523568.07846
  -2768073.16046  25012957.6254   25012951.6054         36.7504         18.5004
  -1260121.59453
 -22544283.98048  21273452.8284   21273447.2894         50.0004         40.0004
 -16150899.25446
 -13740655.55947  22732322.1024   22732318.6604         45.7504         29.5004
  -8342323.54344
  -7697922.80145  24253455.2034   24253451.2304         35.7504         19.0004
  -5387929.53943
 -20122559.38748  21726131.5004   21726127.2814         48.0004         36.2504
 -13766038.35246
 -10380331.70747  23317020.7584   23317016.8014         43.5004         29.5004
  -8769442.32844
  -4180421.76646  24895206.6094   24895201.8954         36.2504         15.5004
   -926837.20342
 -11705890.10246  23156264.2584   23156260.8164         40.5004         24.5004
  -6535049.80944
 08  5 27  0  1  0.0000000  0 10G31G21G23G16G24G30G 6G29G18G 3
 -22679264.76648  21357805.5164   21357800.2704         49.5004         40.7504
 -17404271.93446
 -24790935.46548  20988325.3204   20988320.1374         49.0004         41.5004
 -16527175.93046
  -2737172.85245  25018835.7114   25018831.0634         32.0004         16.2504
  -1236043.39842
 -22599817.68748  21262885.2664   21262879.6644         49.7504         40.0004
 -16194172.26246
 -13662768.25447  22747143.2344   22747139.7774         43.7504         30.2504
  -8281632.14545
  -7605355.28945  24271069.4304   24271065.9694         35.5004         19.0004
  -5315798.98843
 -20171002.95347  21716913.4844   21716908.7194         47.2504         36.2504
 -13803786.57046
 -10300993.80947  23332118.3674   23332115.0864         42.5004         29.0004
  -8707620.60944
  -4253119.99246  24881373.2894   24881367.9224         36.7504         16.7504
   -983485.32042
 -11785500.97746  23141114.5554   23141110.9884         40.7504         26.0004
  -6597084.23844
 08  5 27  0  1 30.0000000  0 10G31G21G23G16G24G30G 6G29G18G 3
 -22614579.71948  21370114.6884   21370109.9414         49.7504         40.7504
 -17353868.00046
 -24795054.34448  20987541.5474   20987536.1414         48.7504         41.2504
 -16530385.43046
  -2705849.99645  25024797.0084   25024791.7384         34.7504         18.2504
  -1211635.97743
 -22655149.64148  21252355.6724   21252350.0164         50.0004         39.7504
 -16237288.06646
 -13584506.33647  22762035.8754   22762032.7974         45.2504         29.7504
  -8220648.80544
  -7512643.54345  24288712.5944   24288708.3554         35.5004         20.0004
  -5243556.07843
 -20219218.42248  21707737.9304   21707733.5594         48.0004         35.7504
 -13841357.04745
 -10221627.43747  23347221.0394   23347217.1054         42.7504         29.5004
  -8645776.70344
  -4325801.93746  24867541.3204   24867537.6684         37.5004         16.7504
  -1040120.57442
 -11864942.61346  23125997.3284   23125993.2854         41.5004         24.5004
  -6658986.79344
 08  5 27  0  2  0.0000000  0 10G31G21G23G16G24G30G 6G29G18G 3
 -22549446.62948  21382509.1254   21382503.9654         50.0004         41.0004
 -17303114.94946
 -24798662.10947  20986854.9304   20986849.2814         47.5004         41.0004
 -16533196.66846
  -2674107.19545  25030837.6174   25030831.8834         34.2504         17.2504
  -1186901.25842
 -22710277.89548  21241865.0784   21241859.4534         50.0004         39.7504
 -16280245.13746
 -13505871.96547  22776999.6024   22776996.1254         45.0004         29.7504
  -8159375.28144
  -7419787.82445  24306381.7664   24306378.9884         35.2504         19.5004
  -5171200.98043
 -20267205.72748  21698606.4144   21698602.1374         48.0004         35.7504
 -13878749.73845
 -10142233.62747  23362329.6414   23362325.2584         42.5004         28.5004
  -8583911.40244
  -4398464.55945  24853713.5314   24853710.1684         35.2504         17.2504
  -1096740.85942
 -11944213.93746  23110912.1954   23110908.8914         40.5004         24.0004
  -6720756.62144
 08  5 27  0  2 30.0000000  0 10G31G21G23G16G24G30G 6G29G18G 3
 -22483868.07848  21394988.0004   21394983.2074         48.7504         40.7504
 -17252014.78146
 -24801759.26247  20986265.7734   20986259.9774         46.5004         41.5004
 -16535610.02046
  -2641946.78545  25036956.5164   25036951.6684         34.5004         18.2504
  -1161841.26643
 -22765201.24248  21231413.6414   21231407.8134         49.7504         40.0004
 -16323042.53946
 -13426868.35547  22792033.5004   22792030.3754         45.0004         30.0004
  -8097814.01245
  -7326789.27045  24324079.6024   24324075.8444         34.7504         19.2504
  -5098734.60243
 -20314965.26248  21689518.0634   21689513.6414         48.5004         36.5004
 -13915964.93746
 -10062812.53147  23377442.7894   23377439.1454         43.0004         30.0004
  -8522024.85245
  -4471105.61746  24839891.0554   24839887.7234         36.5004         17.2504
  -1153344.23442
 -12023315.26246  23095860.4144   23095856.2154         41.2504         24.5004
  -6782393.99244
 08  5 27  0  3  0.0000000  0 11G31G21G23G16G24G30G 6G29G18G 3G19
 -22417846.06648  21407552.1024   21407546.7814         49.0004         40.7504
 -17200569.07046
 -24804345.96547  20985773.4614   20985767.8674         46.5004         41.0004
 -16537625.61746
  -2609370.63745  25043157.1564   25043152.4494         33.5004         18.2504
  -1136457.28543
 -22819918.23848  21221001.1174   21220995.3914         49.5004         40.5004
 -16365679.15246
 -13347497.76247  22807137.4384   22807133.9844         44.7504         29.2504
  -8035966.77744
  -7233648.64146  24341803.6174   24341799.8984         36.0004         19.2504
  -5026157.49243
 -20362497.31247  21680473.0164   21680468.5004         47.7504         36.5004
 -13953002.88746
  -9983365.41047  23392561.1564   23392557.2934         42.7504         28.5004
  -8460118.02044
  -4543722.06646  24826073.4064   24826069.2464         36.5004         16.7504
  -1209928.56642
 -12102246.07046  23080840.1644   23080835.7304         41.0004         24.5004
  -6843898.52344
   -176413.33254  25585066.0944   25585062.0864         26.2504         13.7504
    -84807.78952
 08  5 27  0  3 30.0000000  0 11G31G21G23G16G24G30G 6G29G18G 3G19
 -22351382.61348  21420199.1484   21420194.4804         48.5004         40.5004
 -17148779.36746
 -24806421.57447  20985378.5394   20985372.8014         46.2504         41.5004
 -16539242.96546
  -2576380.59845  25049434.8054   25049429.4774         34.0004         14.7504
  -1110750.71542
 -22874427.34048  21210628.7894   21210623.0434         49.7504         41.0004
 -16408153.77346
 -13267762.85247  22822310.4384   22822306.8284         44.0004         29.7504
  -7973835.68744
  -7140366.69945  24359554.3054   24359550.2424         34.5004         19.2504
  -4953470.25843
 -20409802.16048  21671470.7114   21671466.8794         48.0004         36.2504
 -13989863.80546
  -9903893.13747  23407684.9064   23407680.2774         42.7504         29.5004
  -8398191.59444
  -4616311.02046  24812258.9454   24812254.9454         37.0004         16.7504
  -1266491.37142
 -12181005.84046  23065853.0784   23065848.8594         41.0004         25.5004
  -6905269.75844
   -262646.90615  25568657.484                          30.750

 08  5 27  0  4  0.0000000  0 11G31G21G23G16G24G30G 6G29G18G 3G19
 -22284479.54347  21432930.7034   21432925.5434         47.7504         40.5004
 -17096647.10246
 -24807986.54747  20985080.6954   20985075.1994         47.0004         41.7504
 -16540462.41446
  -2542978.96946  25055791.0634   25055785.4614         36.5004         17.2504
  -1084723.45742
 -22928726.54348  21200295.7424   21200289.9534         49.2504         41.0004
 -16450464.84046
 -13187665.88747  22837552.4774   22837548.9024         44.2504         29.7504
  -7911422.45344
  -7046944.05546  24377332.5704   24377328.3954         36.5004         19.0004
  -4880673.38343
 -20456879.77747  21662512.1484   21662507.8714         47.7504         36.7504
 -14026547.64146
  -9824396.34447  23422812.3444   23422807.9024         43.0004         28.5004
  -8336246.07444
  -4688869.95346  24798452.1414   24798448.2664         36.5004         19.2504
  -1323030.80143
 -12259594.11346  23050898.1414   23050894.4494         41.0004         26.0004
  -6966507.32444
   -348778.55514  25552266.523                          29.000

 08  5 27  0  4 30.0000000  0 11G31G21G23G16G24G30G 6G29G18G 3G19
 -22217139.61747  21445744.9224   21445739.9144         47.7504         40.5004
 -17044174.44146
 -24809041.22748  20984880.1024   20984874.6134         49.5004         41.5004
 -16541284.22746
  -2509167.89545  25062223.9614   25062218.7194         32.2504         16.2504
  -1058377.09442
 -22982814.89148  21190003.0784   21189997.2194         49.0004         40.7504
 -16492611.58646
 -13107209.55547  22852862.6804   22852858.9534         43.5004         29.2504
  -7848729.20744
  -6953381.57046  24395135.9694   24395132.8674         36.0004         19.7504
  -4807767.58643
 -20503730.42648  21653597.1484   21653592.5394         48.5004         37.2504
 -14063054.61746
  -9744876.01647  23437944.2344   23437940.0164         42.2504         27.0004
  -8274282.19544
  -4761396.44146  24784651.2424   24784647.0944         37.2504         17.2504
  -1379544.94542
 -12338011.13346  23035975.0554   23035971.4064         40.7504         24.2504
  -7027611.48044
   -434807.496 5  25535896.086                          32.750

 08  5 27  0  5  0.0000000  0 11G31G21G23G16G24G30G 6G29G18G 3G19
 -22149364.89148  21458642.0004   21458636.9144         48.0004         39.7504
 -16991362.96946
 -24809585.99648  20984776.3364   20984770.7624         49.0004         41.5004
 -16541708.71546
  -2474949.40246  25068738.3914   25068730.6994         37.2504         16.7504
  -1031713.42642
 -23036690.61748  21179750.5004   21179744.8714         49.2504         40.2504
 -16534592.67246
 -13026396.44947  22868241.0864   22868238.0744         43.7504         29.0004
  -7785757.94544
  -6859680.26645  24412968.0234   24412963.2544         35.5004         19.0004
  -4734753.59843
 -20550354.28947  21644724.4924   21644720.4844         47.5004         36.7504
 -14099384.87946
  -9665332.91047  23453079.6254   23453076.1094         42.0004         26.5004
  -8212300.55944
  -4833886.87146  24770855.4844   24770852.2114         37.0004         17.2504
  -1436030.92642
 -12416255.86246  23021085.8914   23021081.8094         40.2504         25.0004
  -7088581.36844
   -520736.46115  25519544.438                          33.000

 08  5 27  0  5 30.0000000  0 11G31G21G23G16G24G30G 6G29G18G 3G19
 -22081157.24648  21471621.5864   21471616.7584         48.5004         40.2504
 -16938214.16046
 -24809621.50848  20984769.2664   20984763.8714         49.0004         41.0004
 -16541736.37946
  -2440325.98846  25075326.0314   25075319.3594         36.5004         19.7504
  -1004734.09843
 -23090352.37148  21169539.3674   21169533.7504         49.5004         41.0004
 -16576407.01646
 -12945229.11747  22883686.6094   22883683.0984         44.0004         29.2504
  -7722510.68744
  -6765840.85545  24430824.5864   24430820.3794         35.5004         19.2504
  -4661631.93043
 -20596751.59448  21635895.6024   21635891.1804         48.7504         36.7504
 -14135538.60946
  -9585767.81647  23468221.5704   23468217.8714         42.2504         28.0004
  -8150301.80544
  -4906338.84046  24757069.2274   24757064.8134         37.5004         17.2504
  -1492486.96942
 -12494328.61346  23006229.2734   23006225.4534         41.2504         26.0004
  -7149417.25044
   -606559.305 4  25503213.438                          28.000

 08  5 27  0  6  0.0000000  0 11G31G21G23G16G24G30G 6G29G18G 3G19
 -22012519.46148  21484682.8204   21484677.9024         48.0004         39.7504
 -16884730.16846
 -24809146.86348  20984859.7344   20984853.8674         49.7504         41.5004
 -16541366.51246
  -2405299.87145  25081989.4924   25081985.4734         34.2504         18.5004
   -977441.07043
 -23143798.57048  21159368.9844   21159363.4964         49.0004         40.2504
 -16618053.41046
 -12863710.16447  22899198.6414   22899195.8754         43.7504         30.2504
  -7658989.40245
  -6671863.74645  24448706.9534   24448703.7074         35.7504         19.5004
  -4588403.03143
 -20642922.81248  21627109.4924   21627105.2114         48.0004         37.0004
 -14171516.17246
  -9506181.65247  23483366.5164   23483362.6564         42.7504         28.5004
  -8088286.62944
  -4978749.89546  24743289.3754   24743285.1294         37.0004         16.7504
  -1548911.15642
 -12572229.32046  22991405.5474   22991401.6564         41.7504         26.7504
  -7210119.07844
   -692278.52715  25486899.914                          31.000

 08  5 27  0  6 30.0000000  0 11G31G21G23G16G24G30G 6G29G18G 3G19
 -21943453.13347  21497825.6094   21497820.7774         47.5004         40.2504
 -16830912.25446
 -24808162.48848  20985047.2344   20985041.3054         49.5004         41.2504
 -16540599.46146
  -2369872.77745  25088731.7344   25088727.1914         35.2504         16.2504
   -949835.35942
 -23197027.01648  21149239.5864   21149233.6644         48.7504         40.5004
 -16659530.10946
 -12781842.07447  22914778.5004   22914774.4694         43.2504         28.0004
  -7595196.07844
  -6577749.87546  24466616.6954   24466612.7194         36.5004         19.5004
  -4515067.59843
 -20688867.93048  21618366.6484   21618361.8874         48.5004         36.7504
 -14207317.53946
  -9426575.04347  23498514.7504   23498510.2814         42.0004         27.0004
  -8026255.52044
  -5051116.84846  24729518.5634   24729513.8054         37.0004         19.2504
  -1605300.95743
 -12649957.14846  22976614.7194   22976610.0904         41.0004         26.0004
  -7270686.18044
   -777893.34015  25470609.320                          32.250

 08  5 27  0  7  0.0000000  0 11G31G21G23G16G24G30G 6G29G18G 3G19
 -21873960.87147  21511049.5164   21511044.7114         47.0004         40.5004
 -16776762.44946
 -24806669.37548  20985331.2344   20985325.4964         49.0004         41.5004
 -16539435.98846
  -2334047.42246  25095548.5234   25095544.0084         36.0004         16.7504
   -921919.66842
 -23250036.67248  21139152.3444   21139146.6294         48.2504         40.7504
 -16700836.32846
 -12699627.43747  22930423.1024   22930419.5354         43.5004         29.0004
  -7531132.71144
  -6483500.43045  24484552.7424   24484547.7814         35.2504         19.0004
  -4441626.46943
 -20734587.29747  21609666.6724   21609662.0784         47.7504         37.0004
 -14242943.00846
  -9346948.81647  23513667.5004   23513663.5354         43.0004         27.7504
  -7964209.14844
  -5123437.17246  24715756.6724   24715752.0744         37.2504         14.7504
  -1661654.37542
 -12727511.85246  22961856.2974   22961852.0744         41.5004         27.0004
  -7331118.38344
   -863403.83214  25454337.430                          29.750

 08  5 27  0  7 30.0000000  0 11G31G21G23G16G24G30G 6G29G18G 3G19
 -21804045.01247  21524354.2274   21524349.1564         47.7504         39.7504
 -16722282.56246
 -24804667.57848  20985712.0704   20985706.1844         49.0004         41.7504
 -16537876.13346
  -2297825.68446  25102442.6884   25102436.6684         36.2504         16.7504
   -893694.91842
 -23302825.97348  21129107.0554   21129101.1094         48.7504         41.0004
 -16741970.84446
 -12617068.78947  22946133.0234   22946130.3014         42.5004         29.0004
  -7466801.30144
  -6389116.01245  24502512.0944   24502508.9104         35.2504         19.5004
  -4368080.11743
 -20780081.17648  21601009.2584   21601004.9184         48.7504         37.0004
 -14278392.77046
  -9267303.97747  23528822.9454   23528819.1334         42.5004         27.5004
  -7902148.26644
  -5195707.97346  24702004.0164   24701999.5084         37.7504         17.7504
  -1717969.19542
 -12804892.82446  22947130.9614   22947126.8014         41.2504         26.5004
  -7391415.20744
   -948809.91445  25438085.5394   25438078.8364         30.5004         15.5004
   -214340.79352
 08  5 27  0  8  0.0000000  0 11G31G21G23G16G24G30G 6G29G18G 3G19
 -21733707.78948  21537738.9614   21537734.1454         48.5004         40.0004
 -16667474.34846
 -24802157.67648  20986189.7504   20986184.0124         48.7504         41.7504
 -16535920.35546
  -2261210.19945  25109410.1174   25109403.8714         34.0004         17.7504
   -865163.42242
 -23355393.51648  21119103.6484   21119097.6764         49.5004         40.7504
 -16782932.56646
 -12534168.80547  22961908.7734   22961904.8714         42.7504         28.5004
  -7402203.90244
  -6294597.88346  24520497.3914   24520495.7624         36.0004         18.5004
  -4294429.62943
 -20825349.83248  21592394.7894   21592390.5554         48.2504         37.2504
 -14313667.02746
  -9187641.13347  23543982.7974   23543977.9454         42.0004         27.5004
  -7840073.34444
  -5267926.90646  24688261.5784   24688256.3714         37.5004         17.2504
  -1774243.67242
 -12882100.21147  22932438.5864   22932434.6804         42.0004         26.7504
  -7451576.77044
  -1034111.14545  25421851.8834   25421847.3164         30.5004         16.2504
   -280809.27342
 08  5 27  0  8 30.0000000  0 11G31G21G23G16G24G30G 6G29G18G 3G19
 -21662950.97748  21551203.8054   21551198.5784         48.0004         39.7504
 -16612339.16446
 -24799139.64848  20986763.8914   20986758.2384         48.2504         41.5004
 -16533568.62946
  -2224202.72746  25116452.2814   25116446.3554         38.2504         16.7504
   -836326.33642
 -23407737.25048  21109143.0004   21109137.0824         49.0004         40.5004
 -16823719.87546
 -12450929.99247  22977749.2114   22977744.9964         43.2504         29.5004
  -7337342.48444
  -6199946.39845  24538511.3984   24538507.6134         35.2504         17.2504
  -4220675.28542
 -20870393.28947  21583823.1334   21583819.0314         47.7504         36.7504
 -14348765.80546
  -9107960.69146  23559145.3594   23559141.4304         41.5004         27.0004
  -7777984.70744
  -5340090.67246  24674528.1174   24674524.5394         36.2504         17.2504
  -1830475.11342
 -12959133.69146  22917780.2504   22917775.5784         41.2504         27.0004
  -7511602.81244
  -1119306.64545  25405640.7424   25405636.1254         31.2504         14.7504
   -347195.42242
 08  5 27  0  9  0.0000000  0 11G31G21G23G16G24G30G 6G29G18G 3G19
 -21591777.50047  21564747.5084   21564742.2774         47.7504         39.7504
 -16556879.31646
 -24795613.74648  20987434.8134   20987429.3484         49.5004         41.5004
 -16530821.16846
  -2186806.08645  25123567.0554   25123562.2854         33.7504         17.2504
   -807186.15642
 -23459855.72748  21099225.3054   21099219.6334         49.2504         41.0004
 -16864331.68046
 -12367355.06647  22993652.4614   22993648.8714         43.7504         28.2504
  -7272219.16444
  -6105162.85246  24556546.9224   24556543.6484         36.5004         19.2504
  -4146817.98843
 -20915212.04347  21575294.7344   21575290.4384         47.2504         37.0004
 -14383689.50046
  -9028263.77047  23574311.1254   23574307.2424         42.2504         27.7504
  -7715883.23844
  -5412196.50446  24660807.9774   24660802.8324         37.0004         17.2504
  -1886661.39842
 -13035992.86346  22903153.5234   22903149.6254         41.0004         27.0004
  -7571493.02344
  -1204396.55145  25389448.4224   25389442.9574         30.7504         16.2504
   -413499.28542
 08  5 27  0  9 30.0000000  0 11G31G21G23G16G24G30G 6G29G18G 3G19
 -21520189.26648  21578370.1954   21578365.3204         48.0004         39.5004
 -16501096.27746
 -24791580.54348  20988202.4224   20988196.9924         49.5004         41.5004
 -16527678.40646
  -2149022.21146  25130759.1954   25130752.4494         37.2504         18.2504
   -777744.18743
 -23511747.59448  21089350.3364   21089344.5124         50.0004         40.0004
 -16904766.89846
 -12283446.50847  23009619.6254   23009615.5004         43.0004         28.2504
  -7206835.84844
  -6010247.65646  24574608.6414   24574605.5784         36.2504         19.2504
  -4072858.08243
 -20959806.20747  21566808.4224   21566804.2074         47.0004         37.5004
 -14418438.18046
  -8948551.18047  23589480.2664   23589476.1334         42.5004         26.5004
  -7653769.55144
  -5484241.93746  24647096.8674   24647092.5554         36.7504         17.2504
  -1942800.66442
 -13112677.30146  22888561.1484   22888557.3444         41.5004         27.2504
  -7631247.06244
  -1289380.20345  25373278.4534   25373271.2584         33.0004         16.2504
   -479720.32042
 08  5 27  0 10  0.0000000  0 11G31G21G23G16G24G30G 6G29G18G 3G19
 -21448188.96147  21592071.3204   21592066.5864         47.5004         39.0004
 -16444992.14846
 -24787040.47748  20989066.8444   20989060.9494         48.5004         41.7504
 -16524140.68446
  -2110853.91045  25138020.7274   25138015.8094         34.5004         18.2504
   -748002.64543
 -23563411.18448  21079519.3594   21079513.5394         49.0004         40.5004
 -16945024.23446
 -12199206.98847  23025649.4304   23025646.0314         43.0004         27.7504
  -7141194.66844
  -5915201.91046  24592695.6334   24592692.5824         36.5004         18.5004
  -3998796.52743
 -21004176.07447  21558365.1564   21558361.0474         46.5004         37.5004
 -14453012.09846
  -8868823.30947  23604651.6564   23604647.5474         42.0004         27.5004
  -7591643.96544
  -5556223.93046  24633399.5864   24633394.9224         37.0004         16.7504
  -1998890.44542
 -13189187.20746  22874002.1564   22873997.8164         41.5004         27.0004
  -7690865.13344
  -1374257.56255  25357125.2424   25357119.8834         33.5004         14.7504
   -545858.66852
 08  5 27  0 10 30.0000000  0 11G31G21G23G16G24G30G 6G29G18G 3G19
 -21375778.31248  21605850.7194   21605846.1134         48.0004         39.7504
 -16388568.27346
 -24781993.57448  20990026.6174   20990020.9964         48.7504         41.5004
 -16520208.02046
  -2072302.80146  25145358.9694   25145352.2344         38.2504         17.7504
   -717962.84042
 -23614844.86348  21069731.8914   21069726.0664         49.5004         41.0004
 -16985102.42646
 -12114638.94147  23041742.7584   23041739.0704         43.0004         28.0004
  -7075297.49244
  -5820026.36346  24610807.3834   24610803.0234         36.5004         17.7504
  -3924633.74242
 -21048321.81647  21549964.5554   21549960.4144         47.5004         37.5004
 -14487411.36746
  -8789080.98847  23619826.3054   23619822.3444         42.2504         27.5004
  -7529507.10244
  -5628139.46546  24619714.3284   24619709.9494         36.5004         18.2504
  -2054928.46943
 -13265522.10546  22859475.6884   22859471.5124         41.5004         26.7504
  -7750346.82444
  -1459028.03145  25340992.8914   25340988.7034         32.0004         16.2504
   -611913.54742
 08  5 27  0 11  0.0000000  0 11G31G21G23G16G24G30G 6G29G18G 3G19
 -21302960.43047  21619707.6094   21619702.4414         47.7504         39.5004
 -16331827.06646
 -24776441.45347  20991083.1414   20991077.3634         47.7504         41.5004
 -16515881.67646
                  25152764.6254   25152759.8204         32.5004         15.5004

 -23666047.12548  21059988.1334   21059982.6724         49.5004         41.0004
 -17025000.29346
 -12029745.39547  23057896.8444   23057893.6334         43.7504         27.0004
  -7009146.66044
  -5724721.46546  24628943.0084   24628938.8874         36.5004         18.2504
  -3850370.19543
 -21092243.85547  21541606.4774   21541602.3324         46.0004         37.7504
 -14521636.30146
  -8709325.22746  23635003.4774   23634998.3954         41.2504         27.2504
  -7467359.76644
  -5699986.27045  24606042.8754   24606038.4734         35.5004         18.2504
  -2110912.90643
 -13341681.67246  22844983.2664   22844979.2424         40.7504         27.7504
  -7809691.89844
  -1543691.45345  25324882.0474   25324877.8014         32.5004         15.5004
   -677885.10542
 08  5 27  0 11 30.0000000  0 11G31G21G23G16G24G30G 6G29G18G 3G19
 -21229737.18047  21633641.6094   21633636.1764         47.7504         39.5004
 -16274769.99646
 -24770383.25447  20992236.2814   20992230.5594         47.5004         41.0004
 -16511160.99246
  -1994062.95746  25160247.0394   25160240.1844         36.7504         17.2504
   -656996.76242
 -23717015.98448  21050289.1024   21050283.5984         49.0004         41.0004
 -17064716.28546
 -11944528.55147  23074113.6414   23074109.7584         43.2504         26.7504
  -6942743.92244
  -5629288.78946  24647102.7194   24647098.8834         36.2504         18.5004
  -3776007.00443
 -21135942.12947  21533290.9224   21533286.6414         46.5004         37.0004
 -14555686.87946
  -8629556.32646  23650182.2974   23650178.1294         41.0004         27.0004
  -7405202.18044
  -5771761.22746  24592383.0474   24592379.3954         37.5004         18.2504
  -2166841.39543
 -13417665.51247  22830523.8364   22830519.4804         42.5004         26.7504
  -7868900.05544
  -1628247.25445  25308792.7114   25308786.7774         34.2504         17.2504
   -743772.77042
 08  5 27  0 12  0.0000000  0 12G31G21G23G16G24G30G 6G29G18G 3G19G22
 -21156111.07848  21647652.2274   21647647.1844         48.0004         39.2504
 -16217399.02346
 -24763820.16048  20993484.8754   20993479.3714         48.0004         41.5004
 -16506046.88346
  -1954379.08645  25167796.6334   25167793.3204         34.2504         14.7504
   -626074.29342
 -23767750.20348  21040634.8364   21040628.9964         48.5004         41.0004
 -17104249.44546
 -11858990.96547  23090391.2894   23090387.6564         43.5004         28.0004
  -6876091.26244
  -5533728.84446  24665287.8674   24665284.2734         36.7504         19.2504
  -3701544.74243
 -21179417.12147  21525017.5474   21525013.5704         46.7504         37.0004
 -14589563.49246
  -8549775.20346  23665364.6174   23665360.8634         41.2504         25.7504
  -7343035.12144
  -5843461.83246  24578740.1724   24578735.3524         37.5004         17.7504
  -2222711.93042
 -13493472.98046  22816098.1724   22816093.9184         41.7504         27.7504
  -7927970.79344
  -1712695.37555  25292721.9694   25292716.9184         34.2504         16.7504
   -809576.48052
    -97768.93014  25496424.508                          29.000

 08  5 27  0 12 30.0000000  0 12G31G21G23G16G24G30G 6G29G18G 3G19G22
 -21082084.83647  21661738.8204   21661733.7304         47.2504         39.7504
 -16159716.24246
 -24756752.47747  20994830.3134   20994824.1134         47.7504         41.7504
 -16500539.58246
  -1914322.133 5  25175419.680                          32.750

 -23818248.27348  21031025.0314   21031019.6414         48.7504         41.2504
 -17143598.59046
 -11773135.44147  23106728.4224   23106724.9384         43.0004         28.0004
  -6809190.84444
  -5438042.52345  24683495.6954   24683492.3324         34.5004         18.2504
  -3626983.98043
 -21222669.03947  21516787.2584   21516783.3094         46.2504         37.5004
 -14623266.26246
  -8469982.62946  23680547.9224   23680544.1454         40.7504         26.7504
  -7280859.09444
  -5915085.13746  24565110.1724   24565105.5784         36.2504         17.2504
  -2278522.34442
 -13569104.46546  22801705.5314   22801701.8164         41.7504         26.7504
  -7986904.37544
  -1797035.35245  25276671.9064   25276667.8324         33.0004         15.5004
   -875296.10942
   -176885.145 5  25481368.453                          34.500

 08  5 27  0 13  0.0000000  0 12G31G21G23G16G24G30G 6G29G18G 3G19G22
 -21007660.45747  21675901.6564   21675896.5744         47.7504         38.7504
 -16101723.22346
 -24749181.43747  20996270.9144   20996265.1764         47.5004         41.0004
 -16494640.06246
  -1873894.41845  25183113.0004   25183107.5514         34.5004         16.2504
   -596990.97752
 -23868508.59848  21021461.3134   21021455.4224         50.5004         41.0004
 -17182762.47746
 -11686964.39547  23123126.0084   23123123.0554         42.5004         26.5004
  -6742044.56644
  -5342230.58646  24701728.3674   24701724.7344         36.2504         18.2504
  -3552325.28143
 -21265698.12947  21508599.0864   21508594.7304         46.5004         37.2504
 -14656795.41046
  -8390179.38346  23695734.6334   23695730.9224         41.2504         26.5004
  -7218674.77744
  -5986627.93746  24551495.6174   24551491.3444         37.0004         17.7504
  -2334269.93042
 -13644559.48047  22787346.7114   22787342.8054         42.5004         26.5004
  -8045700.47744
  -1881266.93745  25260644.6884   25260639.4184         32.7504         16.2504
   -940931.14142
   -256201.781 5  25466274.977                          33.000

 08  5 27  0 13 30.0000000  0 11G31G21G23G16G24G30G 6G29G18G 3G19
 -20932840.45348  21690139.1954   21690134.0084         48.0004         38.7504
 -16043421.93746
 -24741106.18447  20997807.2344   20997801.7974         47.7504         40.7504
 -16488347.63746
  -1833098.48845  25190876.1174   25190871.1994         34.0004         16.2504
   -565201.89542
 -23918528.96148  21011942.3524   21011936.7424         49.0004         41.2504
 -17221739.37946
 -11600480.64146  23139583.4064   23139579.5824         41.7504         27.0004
  -6674654.61344
  -5246294.05145  24719985.5004   24719981.4064         35.7504         19.2504
  -3477569.55943
 -21308504.67247  21500453.9144   21500449.3754         47.5004         38.0004
 -14690151.14846
  -8310365.70746  23710923.0944   23710918.5514         41.7504         27.0004
  -7156482.31244
  -6058087.66046  24537898.2034   24537893.0514         37.7504         18.5004
  -2389952.85543
 -13719837.72347  22773022.6884   22773018.2194         42.5004         27.5004
  -8104358.82044
  -1965389.68745  25244636.3284   25244631.4064         35.5004         17.2504
  -1006481.32842
 08  5 27  0 14  0.0000000  0 12G31G21G23G16G24G30G 6G29G18G 3G19G22
 -20857626.90247  21704452.0394   21704446.6254         47.5004         38.7504
 -15984813.98046
 -24732528.08248  20999439.8674   20999433.9924         48.7504         41.0004
 -16481663.39846
  -1791936.74245  25198710.1484   25198704.9884         32.0004         16.2504
   -533127.94942
 -23968308.35548  21002469.6484   21002464.2974         50.2504         41.5004
 -17260528.51646
 -11513686.73447  23156099.8984   23156097.0204         42.5004         27.5004
  -6607022.98444
  -5150233.82445  24738264.0784   24738260.6024         35.0004         18.2504
  -3402717.40243
 -21351088.94947  21492349.5864   21492345.4844         47.0004         38.0004
 -14723333.70346
  -8230542.56646  23726112.4064   23726108.7624         40.2504         26.5004
  -7094282.48844
  -6129461.67646  24524314.8444   24524311.2544         36.5004         18.5004
  -2445568.89143
 -13794938.83646  22758731.6564   22758726.6484         41.5004         26.2504
  -8162879.16044
  -2049403.06245  25228649.0084   25228643.5204         33.2504         17.2504
  -1071946.29342
   -415425.82415  25435974.922                          32.000

 08  5 27  0 14 30.0000000  0 12G31G21G23G16G24G30G 6G29G18G 3G19G22
 -20782022.61748  21718838.6884   21718833.7774         48.0004         38.7504
 -15925901.55946
 -24723447.85548  21001167.5784   21001162.0044         48.5004         41.5004
 -16474587.87946
  -1750411.77346  25206612.0084   25206606.2584         36.0004         16.2504
   -500770.84042
 -24017844.97348  20993043.1724   20993037.6214         49.5004         41.2504
 -17299128.47346
 -11426585.12946  23172674.6254   23172671.2114         41.5004         25.5004
  -6539151.62544
  -5054050.75045  24756567.7274   24756563.8754         35.2504         18.2504
  -3327769.57843
 -21393451.12547  21484288.4694   21484284.1954         47.7504         37.5004
 -14756343.17246
  -8150710.60246  23741304.4694   23741299.7304         40.7504         26.7504
  -7032075.77344
  -6200747.32846  24510751.1254   24510746.0394         36.0004         19.0004
  -2501116.12143
 -13869862.75846  22744473.5634   22744469.4804         41.0004         27.2504
  -8221261.40244
  -2133307.15245  25212683.0004   25212676.7814         34.2504         17.7504
  -1137326.11742
   -495329.36316  25420771.313                          37.000

 08  5 27  0 15  0.0000000  0 12G31G21G23G16G24G30G 6G29G18G 3G19G22
 -20706030.11348  21733299.8134   21733294.8484         48.0004         38.7504
 -15866686.63746
 -24713865.57848  21002991.0554   21002985.1374         49.0004         41.2504
 -16467121.16046
  -1708526.14845  25214582.1334   25214577.2974         35.0004         15.5004
   -468132.60942
 -24067137.25048  20983663.5784   20983657.6414         50.0004         41.5004
 -17337538.03546
 -11339178.57447  23189307.1484   23189304.2194         42.0004         27.0004
  -6471042.59844
  -4957746.05145  24774893.4064   24774889.7774         35.2504         17.2504
  -3252726.91042
 -21435591.54747  21476269.3054   21476265.3204         47.5004         37.7504
 -14789179.84846
  -8070870.41846  23756496.7424   23756493.4614         40.2504         26.2504
  -6969862.65644
  -6271941.64546  24497202.4924   24497197.9534         37.5004         18.2504
  -2556592.20343
 -13944609.26246  22730249.0944   22730245.7114         40.0004         28.0004
  -8279505.41444
  -2217101.55545  25196737.1254   25196731.9844         33.5004         15.5004
  -1202620.54742
   -575424.68045  25405528.6254   25405522.4924         35.0004         16.7504
   -116444.35552
 08  5 27  0 15 30.0000000  0 12G31G21G23G16G24G30G 6G29G18G 3G19G22
 -20629651.77048  21747834.2814   21747829.0274         48.0004         38.7504
 -15807171.05546
 -24703782.06248  21004909.9534   21004904.3284         49.0004         41.5004
 -16459263.86746
  -1666282.07445  25222620.4384   25222616.5084         34.2504         15.5004
   -435215.11742
 -24116183.44148  20974329.8444   20974324.6174         50.0004         42.0004
 -17375755.84847
 -11251469.90247  23205997.9064   23205994.7664         42.0004         26.5004
  -6402698.18744
  -4861320.18745  24793243.1644   24793239.6524         35.5004         19.0004
  -3177589.90243
 -21477510.46548  21468292.5164   21468288.1994         48.0004         37.2504
 -14821843.93446
  -7991022.78146  23771692.0784   23771688.0314         41.0004         26.2504
  -6907643.75444
  -6343041.81646  24483672.8284   24483668.3204         37.7504         17.7504
  -2611994.93742
 -14019178.04746  22716059.8444   22716055.1024         40.7504         27.5004
  -8337610.94544
  -2300785.80945  25180812.5164   25180807.2074         35.5004         17.2504
  -1267829.06642
   -655708.97345  25390253.0004   25390245.6954         32.2504         15.5004
   -179003.46142
 08  5 27  0 16  0.0000000  0 12G31G21G23G16G24G30G 6G29G18G 3G19G22
 -20552889.81247  21762441.6254   21762436.2034         47.0004         38.2504
 -15747356.55546
 -24693197.71948  21006923.9454   21006918.4144         49.2504         41.5004
 -16451016.32046
  -1623681.78545  25230726.3524   25230723.3984         33.7504         14.7504
   -402020.09842
 -24164981.59448  20965044.1564   20965038.4574         50.7504         41.5004
 -17413780.37546
 -11163461.56247  23222746.0394   23222742.2034         42.2504         27.0004
  -6334120.27344
  -4764774.38345  24811613.6954   24811611.7234         35.0004         17.7504
  -3102359.39142
 -21519208.06247  21460357.7584   21460353.4654         47.0004         37.7504
 -14854335.56246
  -7911168.06646  23786887.7274   23786883.6484         41.0004         26.5004
  -6845419.32844
  -6414044.78546  24470161.0234   24470157.1214         37.5004         19.2504
  -2667321.93043
 -14093568.71946  22701904.0164   22701899.3914         40.0004         27.5004
  -8395577.69144
  -2384359.66845  25164908.9774   25164903.1884         34.5004         17.7504
  -1332951.51642
   -736180.06645  25374938.8284   25374932.7074         34.2504         16.7504
   -241708.24242
 08  5 27  0 16 30.0000000  0 12G31G21G23G16G24G30G 6G29G18G 3G19G22
 -20475746.98047  21777121.1174   21777116.2934         47.7504         38.7504
 -15687245.26246
 -24682113.56248  21009033.5084   21009027.5394         50.5004         41.2504
 -16442379.30146
  -1580728.39845  25238900.6254   25238895.8634         32.7504         16.2504
   -368549.89542
 -24213530.85248  20955805.4694   20955799.7114         50.2504         41.2504
 -17451610.96546
 -11075156.30947  23239549.3594   23239546.0274         42.0004         27.0004
  -6265310.96144
  -4668109.72746  24830009.2194   24830006.3674         36.0004         17.2504
  -3027036.30142
 -21560684.78147  21452464.6954   21452460.5274         47.7504         38.0004
 -14886655.06646
  -7831307.13746  23802084.1334   23802081.0474         41.2504         25.5004
  -6783190.05944
  -6484948.09046  24456668.8834   24456664.4964         37.5004         19.0004
  -2722571.24243
 -14167781.42646  22687781.5864   22687777.3094         41.0004         28.2504
  -8453405.71944
  -2467822.92645  25149026.7274   25149021.0744         35.5004         17.2504
  -1397987.84842
   -816836.43745  25359590.6334   25359584.5864         33.5004         16.7504
   -304557.44942
 08  5 27  0 17  0.0000000  0 12G31G21G23G16G24G30G 6G29G18G 3G19G22
 -20398225.85947  21791872.8674   21791868.1374         47.7504         38.7504
 -15626839.21146
 -24670530.18048  21011237.3204   21011232.1334         50.2504         41.5004
 -16433353.28546
  -1537423.84845  25247140.9384   25247136.7854         35.5004         15.5004
   -334806.10542
 -24261829.16048  20946614.7734   20946608.8914         50.7504         41.7504
 -17489246.00446
 -10986556.39547  23256409.4614   23256405.6764         42.2504         27.2504
  -6196272.07044
  -4571326.91445  24848425.2194   24848423.0514         34.5004         16.7504
  -2951621.11742
 -21601940.84047  21444614.2814   21444609.9734         47.5004         38.0004
 -14918802.63746
  -7751440.30946  23817282.9384   23817278.6414         40.5004         27.0004
  -6720956.19544
  -6555748.74246  24443195.9224   24443191.1374         38.5004         18.5004
  -2777740.57043
 -14241815.16846  22673693.1024   22673688.7814         39.2504         27.2504
  -8511094.34044
  -2551175.20745  25133165.3054   25133159.6684         35.0004         16.7504
  -1462937.60942
   -897675.25445  25344207.1884   25344200.8204         33.0004         16.7504
   -367548.87942
 08  5 27  0 17 30.0000000  0 11G31G21G16G24G30G 6G29G18G 3G19G22
 -20320328.73847  21806696.4224   21806691.1524         47.7504         38.0004
 -15566140.17646
 -24658448.64548  21013536.5234   21013530.4804         49.7504         41.0004
 -16423939.09446
 -24309874.93048  20937471.5944   20937466.0004         50.7504         41.7504
 -17526684.27046
 -10897664.87947  23273325.0554   23273321.3364         42.0004         25.0004
  -6127005.95344
  -4474426.65246  24866865.6094   24866862.7814         36.2504         16.7504
  -2876114.38342
 -21642976.38748  21436805.0634   21436800.9494         48.7504         37.7504
 -14950778.38746
  -7671568.45346  23832482.0634   23832478.0784         41.5004         25.7504
  -6658718.39544
  -6626443.82846  24429742.7424   24429738.6214         38.7504         19.5004
  -2832827.62543
 -14315669.85546  22659638.2504   22659635.2854         40.0004         28.2504
  -8568643.43444
  -2634416.29745  25117325.5394   25117319.0554         34.7504         16.2504
  -1527800.80142
   -978694.47745  25328789.8444   25328783.9344         33.5004         15.5004
   -430680.70342
 08  5 27  0 18  0.0000000  0 12G31G21G25G16G24G30G 6G29G18G 3G19G22
 -20242058.03948  21821590.4144   21821585.7504         48.5004         38.5004
 -15505150.02746
 -24645868.93048  21015930.1564   21015924.6604         50.2504         41.5004
 -16414136.70746
    -97461.30115  25825876.734                          33.500

 -24357666.44948  20928377.2584   20928371.3404         49.7504         41.5004
 -17563924.41446
 -10808483.94947  23290295.2194   23290292.3204         42.5004         26.2504
  -6057514.31244
  -4377409.87145  24885326.9384   24885324.6294         34.7504         17.2504
  -2800516.93042
 -21683791.70748  21429038.5944   21429034.0084         48.0004         37.7504
 -14982582.53946
  -7591692.03946  23847682.3284   23847677.8984         40.7504         24.7504
  -6596477.03544
  -6697030.32446  24416311.0394   24416306.1884         37.0004         19.7504
  -2887830.09443
 -14389345.21946  22645618.8054   22645614.7814         39.5004         29.0004
  -8626052.78944
  -2717545.54746  25101506.4064   25101499.8954         36.5004         18.2504
  -1592576.73443
  -1059891.26645  25313338.4384   25313333.1644         32.0004         13.7504
   -493950.71142
 08  5 27  0 18 30.0000000  0 12G31G21G25G16G24G30G 6G29G18G 3G19G22
 -20163416.50048  21836555.7664   21836551.1024         48.7504         38.5004
 -15443870.91846
 -24632791.80548  21018419.1804   21018413.3134         50.2504         41.0004
 -16403946.72746
   -183977.512 5  25809413.625                          32.500

 -24405202.02048  20919331.6024   20919326.1724         51.2504         41.5004
 -17600965.11746
 -10719016.31247  23307321.0164   23307317.0634         43.0004         26.0004
  -5987799.28144
  -4280277.75845  24903810.5474   24903808.9304         35.7504         16.7504
  -2724829.57442
 -21724387.13348  21421313.8984   21421308.9454         48.5004         38.0004
 -15014215.32846
  -7511811.77746  23862883.0394   23862879.0944         41.0004         24.5004
  -6534232.71944
  -6767505.70746  24402899.8834   24402895.1564         39.2504         19.2504
  -2942745.91843
 -14462841.38346  22631633.0554   22631629.3634         40.5004         28.5004
  -8683322.47344
  -2800562.75845  25085708.4384   25085702.2814         35.7504         17.7504
  -1657265.43042
  -1141264.39845  25297853.9454   25297848.4454         34.5004         16.2504
   -557358.44142
 08  5 27  0 19  0.0000000  0 12G31G21G25G16G24G30G 6G29G18G 3G19G22
 -20084406.68748  21851590.8204   21851585.4224         48.0004         38.5004
 -15382304.83246
 -24619218.46948  21021001.7114   21020996.0204         49.0004         41.5004
 -16393370.09846
   -270258.480 5  25792994.438                          34.000

 -24452480.04748  20910334.7894   20910328.9804         50.0004         41.5004
 -17637805.12946
 -10629264.69547  23324400.3204   23324396.3094         42.2504         26.7504
  -5917862.94144
  -4183031.02345  24922317.2194   24922314.2154         35.5004         17.7504
  -2649052.85542
 -21764762.91048  21413630.2894   21413625.7424         48.7504         38.0004
 -15045676.94546
  -7431928.25046  23878083.4064   23878080.1024         40.7504         25.5004
  -6471985.80944
  -6837867.12146  24389510.8914   24389506.4224         38.2504         19.2504
  -2997573.01643
 -14536158.02746  22617681.7504   22617677.2304         39.7504         28.0004
  -8740452.28544
  -2883468.00846  25069932.7114   25069926.0004         36.0004         19.0004
  -1721866.98043
  -1222811.04345  25282336.7344   25282330.8204         34.2504         16.2504
   -620901.40642
 08  5 27  0 19 30.0000000  0 12G31G21G25G16G24G30G 6G29G18G 3G19G22
 -20005030.98048  21866695.2814   21866690.7114         48.2504         38.0004
 -15320453.65246
 -24605149.37148  21023679.1414   21023673.5944         49.2504         41.7504
 -16382407.15646
   -356301.852 5  25776621.766                          35.000

 -24499499.04348  20901387.2894   20901381.7854         49.7504         41.5004
 -17674443.29746
 -10539231.93747  23341532.9384   23341529.3554         42.5004         27.2504
  -5847707.53544
  -4085670.87545  24940844.5084   24940841.0044         35.0004         16.7504
  -2573187.80542
 -21804919.37148  21405988.6334   21405984.1604         48.7504         38.7504
 -15076967.67246
  -7352042.30146  23893284.8754   23893281.4804         40.7504         25.0004
  -6409737.05544
  -6908111.80946  24376144.5554   24376138.6024         39.5004         19.5004
  -3052309.15243
 -14609294.50446  22603763.4614   22603759.7624         40.2504         29.0004
  -8797441.71544
  -2966261.01246  25054177.4144   25054171.0514         36.0004         19.0004
  -1786380.95343
  -1304529.10945  25266785.7894   25266779.8874         34.5004         14.7504
   -684578.01242
 08  5 27  0 20  0.0000000  0 12G31G21G25G16G24G30G 6G29G18G 3G19G22
 -19925292.23448  21881869.1804   21881864.3014         48.0004         38.2504
 -15258319.58246
 -24590585.53148  21026450.3364   21026444.6844         48.2504         41.7504
 -16371058.70746
   -442105.375 5  25760292.219                          34.500

 -24546257.18748  20892489.8524   20892484.0704         49.0004         41.0004
 -17710878.21946
 -10448920.41447  23358717.6414   23358714.6254         42.2504         26.0004
  -5777334.91844
  -3988198.07445  24959391.2734   24959389.0164         34.5004         16.7504
  -2497234.96542
 -21844856.92248  21398388.7504   21398384.2814         49.5004         38.2504
 -15108087.82846
  -7272154.28546  23908487.2504   23908483.5824         40.7504         25.5004
  -6347486.64544
  -6978236.88746  24362799.8364   24362794.1174         39.5004         19.5004
  -3106952.10943
 -14682251.27746  22589881.0634   22589876.9064         40.5004         29.2504
  -8854291.10544
  -3048941.17245  25038443.0004   25038437.3874         35.5004         17.7504
  -1850807.05942
  -1386416.06645  25251203.2734   25251198.3164         33.2504         16.2504
   -748386.12142
 08  5 27  0 20 30.0000000  0 12G31G21G25G16G24G30G 6G29G18G 3G19G22
 -19845192.44548  21897111.9454   21897106.9414         48.2504         38.2504
 -15195904.18746
 -24575527.98848  21029315.6094   21029309.8594         48.5004         41.0004
 -16359325.54746
   -527666.645 5  25744011.133                          33.500

 -24592752.82848  20883642.1024   20883636.2734         48.5004         41.5004
 -17747108.57846
 -10358332.81247  23375956.0554   23375952.9534         42.2504         26.7504
  -5706747.19544
  -3890613.48045  24977961.6884   24977958.9304         34.5004         16.7504
  -2421195.04742
 -21884575.49648  21390830.5084   21390825.9774         48.5004         38.2504
 -15139037.34446
  -7192264.52346  23923690.4384   23923686.1804         40.0004         25.5004
  -6285234.92244
  -7048239.80146  24349477.4774   24349472.4024         38.7504         19.7504
  -3161499.79343
 -14755027.47746  22576031.8524   22576027.2624         39.7504         28.0004
  -8910999.81644
  -3131508.31245  25022731.6414   25022725.7304         35.2504         19.2504
  -1915145.07843
  -1468469.85945  25235588.4614   25235584.1294         33.5004         14.7504
   -812324.25042
 08  5 27  0 21  0.0000000  0 12G31G21G25G16G24G30G 6G29G18G 3G19G22
 -19764734.77347  21912422.0164   21912417.7734         47.5004         37.7504
 -15133209.90646
 -24559976.82048  21032275.2734   21032269.4694         48.5004         41.2504
 -16347207.75446
   -612983.496 5  25727776.188                          35.250

 -24638984.30548  20874844.2344   20874838.6724         49.5004         42.2504
 -17783133.10247
 -10267471.91047  23393246.7814   23393243.4414         42.0004         26.0004
  -5635946.48044
  -3792918.01245  24996552.5084   24996549.3014         35.2504         16.7504
  -2345068.73442
 -21924075.60948  21383313.8674   21383309.3054         48.0004         38.5004
 -15169816.63746
  -7112373.79346  23938893.3524   23938889.1454         40.5004         25.2504
  -6222982.40244
  -7118117.55846  24336180.7974   24336176.3914         38.5004         19.7504
  -3215949.97343
 -14827623.04746  22562217.6564   22562213.5124         41.5004         29.0004
  -8967567.76644
  -3213962.37145  25007040.7894   25007034.8554         34.2504         17.7504
  -1979395.00042
  -1550687.97345  25219943.2274   25219938.7934         32.7504         14.7504
   -876390.42642
 08  5 27  0 21 30.0000000  0 12G31G21G25G16G24G30G 6G29G18G 3G19G22
 -19683921.56247  21927800.4774   21927795.5084         47.7504         38.0004
 -15070238.59446
 -24543932.99247  21035328.0554   21035322.3054         47.5004         41.7504
 -16334706.05946
   -698053.359 5  25711587.813                          35.500

 -24684950.02748  20866097.4064   20866091.5704         48.5004         41.5004
 -17818950.55146
 -10176340.12546  23410588.4384   23410584.8324         41.2504         24.7504
  -5564934.73044
  -3695112.83645  25015163.9384   25015161.5704         35.2504         15.5004
  -2268856.91842
 -21963357.39147  21375838.7974   21375834.6294         47.7504         38.0004
 -15200425.80546
  -7032482.49246  23954095.6414   23954092.7814         38.7504         24.0004
  -6160729.49244
  -7187866.87146  24322908.0084   24322903.0474         38.0004         20.0004
  -3270300.06243
 -14900037.88746  22548437.3444   22548432.8984         40.5004         28.5004
  -9023994.89144
  -3296302.91045  24991372.4454   24991366.1024         35.5004         19.2504
  -2043556.47743
  -1633067.87945  25204267.1884   25204262.4304         35.0004         16.7504
   -940582.56642
 08  5 27  0 22  0.0000000  0 12G31G21G25G16G24G30G 6G29G18G 3G19G22
 -19602755.26647  21943246.0394   21943241.2034         47.5004         38.0004
 -15006992.14846
 -24527397.62148  21038474.5084   21038468.6214         48.2504         41.5004
 -16321821.35246
   -782874.184 5  25695446.656                          34.750

 -24730648.46948  20857401.2424   20857395.5944         50.2504         41.5004
 -17854559.71946
 -10084940.02746  23427981.5084   23427977.5274         41.0004         24.7504
  -5493713.84844
  -3597199.27045  25033795.5704   25033793.6054         34.5004         17.2504
  -2192560.68042
 -22002421.29348  21368405.3134   21368400.8054         49.0004         38.5004
 -15230865.20746
  -6952591.43046  23969298.1174   23969294.8714         39.7504         23.5004
  -6098476.73043
  -7257485.31646  24309660.1804   24309655.3984         37.0004         20.0004
  -3324548.21143
 -14972271.82846  22534691.6174   22534687.3404         40.7504         28.7504
  -9080281.03544
  -3378529.98046  24975724.6174   24975718.2934         36.0004         19.2504
  -2107629.47743
  -1715607.39845  25188560.7664   25188555.9184         35.0004         15.5004
  -1004899.17642
 08  5 27  0 22 30.0000000  0 12G31G21G25G16G24G30G 6G29G18G 3G19G22
 -19521238.52747  21958758.2814   21958752.8794         47.2504         37.7504
 -14943472.62546
 -24510371.19948  21041714.8134   21041709.0274         48.0004         41.5004
 -16308554.00046
   -867443.461 5  25679353.602                          34.500

 -24776077.58648  20848756.3364   20848750.6414         48.2504         41.7504
 -17889959.02346
  -9993274.19146  23445424.7504   23445421.0664         40.7504         24.2504
  -5422285.94944
  -3499177.54745  25052450.3204   25052446.8874         35.0004         15.5004
  -2116180.18042
 -22041267.29748  21361013.3364   21361008.6884         48.0004         37.5004
 -15261134.82046
  -6872700.98846  23984501.6884   23984497.7114         39.0004         25.5004
  -6036224.43044
  -7326970.10546  24296438.3594   24296432.1724         36.2504         20.5004
  -3378692.20343
 -15044324.42646  22520980.3594   22520975.6564         40.7504         28.7504
  -9136425.87144
  -3460642.73045  24960099.2344   24960093.6054         34.5004         16.7504
  -2171613.46542
  -1798304.22746  25172823.1644   25172818.8134         36.0004         18.5004
  -1069338.42243
 08  5 27  0 23  0.0000000  0 12G31G21G25G16G24G30G 6G29G18G 3G19G22
 -19439374.28147  21974336.6644   21974331.4454         47.0004         37.0004
 -14879682.30946
 -24492855.11748  21045048.0704   21045042.1914         48.5004         41.0004
 -16294905.10246
   -951759.180 5  25663308.508                          33.500

 -24821235.95748  20840162.7584   20840157.5554         48.2504         42.0004
 -17925147.36747
  -9901345.38746  23462917.6414   23462914.7894         41.7504         27.0004
  -5350653.10544
  -3401049.14145  25071122.1564   25071120.1214         34.7504         16.7504
  -2039716.49242
 -22079896.16847  21353661.7344   21353657.7114         47.0004         37.7504
 -15291235.23846
  -6792811.73846  23999703.8524   23999700.3634         37.0004         24.7504
  -5973973.10544
  -7396318.46546  24283241.0394   24283236.5084         37.0004         19.7504
  -3432729.87543
 -15116195.06646  22507304.0864   22507299.8524         41.0004         30.7504
  -9192428.91445
  -3542641.07046  24944495.1804   24944489.6994         36.0004         19.2504
  -2235508.35243
  -1881156.17245  25157057.2664   25157052.0824         34.2504         16.7504
  -1133898.44142
 08  5 27  0 23 30.0000000  0 12G31G21G25G16G24G30G 6G29G18G 3G19G22
 -19357164.82047  21989980.2034   21989975.6134         46.0004         37.2504
 -14815623.00846
 -24474850.05547  21048473.7734   21048468.1294         47.5004         41.5004
 -16280875.17646
  -1035818.910 5  25647312.289                          33.500

 -24866121.97748  20831621.2114   20831615.6524         49.2504         42.2504
 -17960123.48047
  -9809156.25846  23480461.0634   23480458.2624         41.7504         25.7504
  -5278817.43744
  -3302814.69946  25089816.1954   25089813.8054         36.0004         16.7504
  -1963170.20742
 -22118307.87147  21346352.7274   21346348.3984         47.2504         38.0004
 -15321166.42246
  -6712924.35246  24014905.9454   24014902.2304         38.2504         27.0004
  -5911723.19144
  -7465527.41846  24270070.6954   24270066.0904         37.5004         19.2504
  -3486658.88343
 -15187884.16847  22493662.3984   22493657.8054         42.5004         30.2504
  -9248290.51645
  -3624525.27346  24928912.8984   24928907.2344         36.2504         16.2504
  -2299314.24242
  -1964160.99245  25141262.3594   25141257.0474         35.0004         17.7504
  -1198577.59442
 08  5 27  0 24  0.0000000  0 12G31G21G25G16G24G30G 6G29G18G 3G19G22
 -19274612.95347  22005689.7974   22005684.8484         46.5004         37.5004
 -14751296.87946
 -24456356.59048  21051993.7344   21051987.6804         48.2504         41.0004
 -16266464.67246
  -1119620.258 5  25631366.125                          34.500

 -24910733.96548  20823132.5004   20823126.1134         49.0004         42.0004
 -17994886.07047
  -9716709.41046  23498053.7664   23498049.8914         41.7504         26.2504
  -5206780.93744
  -3204475.18445  25108528.5474   25108527.1484         35.5004         16.7504
  -1886542.02742
 -22156502.63347  21339084.3054   21339080.1524         46.7504         38.2504
 -15350928.57846
  -6633039.09446  24030108.4224   24030103.5044         39.0004         25.5004
  -5849474.93044
  -7534594.43046  24256927.6334   24256923.3054         38.0004         20.0004
  -3540477.37543
 -15259391.31646  22480054.2424   22480050.3134         41.2504         28.5004
  -9304010.32844
  -3706294.68746  24913352.8834   24913347.0204         36.2504         18.2504
  -2363030.76243
  -2047315.78945  25125439.5784   25125433.4534         34.7504         17.2504
  -1263373.59842
 08  5 27  0 24 30.0000000  0 12G31G21G25G16G24G30G 6G29G18G 3G19G22
 -19191721.30947  22021463.1484   22021458.4384         46.2504         37.0004
 -14686705.99246
 -24437375.94548  21055605.0234   21055599.3204         48.2504         41.0004
 -16251674.55546
  -1203160.937 5  25615468.195                          35.000

 -24955070.19548  20814695.2974   20814689.5474         48.7504         42.2504
 -18029433.77347
  -9624007.43046  23515693.9844   23515689.4414         41.2504         24.0004
  -5134545.63344
  -3106032.00445  25127261.9534   25127260.1414         34.5004         17.7504
  -1809832.99642
 -22194480.91447  21331857.4614   21331853.2974         45.2504         38.2504
 -15380522.02046
  -6553156.53146  24045309.0704   24045305.0664         38.7504         22.7504
  -5787228.79343
  -7603516.37546  24243812.1954   24243807.6294         37.0004         20.5004
  -3594182.76243
 -15330716.35247  22466481.7504   22466477.3484         42.0004         29.2504
  -9359588.25444
  -3787949.20745  24897814.0084   24897808.1054         35.2504         18.2504
  -2426657.66843
  -2130618.57445  25109587.0314   25109581.4304         35.0004         17.2504
  -1328285.00442
 08  5 27  0 25  0.0000000  0 12G31G21G25G16G24G30G 6G29G18G 3G19G22
 -19108492.34847  22037301.1484   22037295.9804         45.5004         37.2504
 -14621852.26646
 -24417908.92648  21059309.5004   21059304.0394         48.5004         40.5004
 -16236505.44146
  -1286438.75046  25599621.8524   25599618.2304         36.0004         18.2504
    -24839.14553
 -24999128.91048  20806310.6954   20806305.2114         49.2504         42.7504
 -18063765.23847
  -9531052.89846  23533382.6644   23533379.3014         40.7504         26.2504
  -5062113.52344
  -3007486.03946  25146016.0474   25146012.7274         36.5004         16.2504
  -1733043.92242
 -22232242.78947  21324671.5234   21324666.9884         45.5004         38.5004
 -15409946.84046
  -6473277.16446  24060509.3524   24060505.8404         38.7504         24.0004
  -5724985.14544
  -7672290.34446  24230725.5864   24230720.3954         36.7504         19.7504
  -3647772.85243
 -15401858.63747  22452944.0394   22452939.3714         42.2504         30.0004
  -9415023.78945
  -3869488.50446  24882299.1644   24882292.0234         36.0004         17.7504
  -2490194.83642
  -2214066.71945  25093708.0084   25093701.7974         35.0004         17.7504
  -1393309.66442
 08  5 27  0 25 30.0000000  0 12G31G21G25G16G24G30G 6G29G18G 3G19G22
 -19024928.84047  22053203.0084   22053198.0744         46.0004         37.0004
 -14556737.85546
 -24397956.94548  21063106.5704   21063100.9494         48.0004         40.5004
 -16220958.44546
  -1369451.34445  25583823.5474   25583821.1644         35.7504         16.2504
    -89524.29342
 -25042908.58648  20797979.8984   20797974.5474         49.2504         42.5004
 -18097879.27047
  -9437848.50046  23551118.4304   23551115.3014         41.0004         25.0004
  -4989486.71944
  -2908838.17245  25164787.5394   25164784.1764         34.0004         16.2504
  -1656175.41442
 -22269788.74647  21317526.7664   21317522.5044         45.0004         38.2504
 -15439203.41446
  -6393401.42246  24075708.9224   24075705.3324         38.2504         22.7504
  -5662744.32443
  -7740913.64846  24217666.3524   24217661.6024         36.7504         20.7504
  -3701245.55543
 -15472818.66847  22439440.0084   22439436.4264         43.0004         29.5004
  -9470317.30544
  -3950912.30545  24866803.2734   24866797.9734         35.5004         18.2504
  -2553642.01643
  -2297658.03946  25077800.6484   25077794.7344         37.5004         17.7504
  -1458445.93742
 08  5 27  0 26  0.0000000  0 12G31G21G25G16G24G30G 6G29G18G 3G19G22
 -18941033.48447  22069167.5474   22069162.6844         46.5004         37.5004
 -14491364.84446
 -24377520.50447  21066995.3444   21066989.4654         47.5004         41.0004
 -16205033.94546
  -1452196.46945  25568078.0394   25568075.3094         35.0004         17.7504
   -154000.90642
 -25086407.27748  20789702.6174   20789697.0084         49.0004         43.0004
 -18131774.35547
  -9344396.62146  23568902.1804   23568898.0984         40.5004         22.5004
  -4916667.09443
  -2810089.10945  25183578.0784   25183575.6054         35.7504         15.5004
  -1579228.05542
 -22307118.79747  21310423.3054   21310418.6914         44.7504         38.5004
 -15468291.75846
  -6313529.83246  24090908.4454   24090905.0634         38.2504         24.2504
  -5600506.73044
  -7809383.42245  24204637.0944   24204632.5234         35.2504         20.5004
  -3754598.58643
 -15543595.38346  22425972.0554   22425967.2074         40.5004         30.0004
  -9525467.96945
  -4032220.25446  24851331.6254   24851326.0274         36.0004         19.5004
  -2616998.85943
  -2381389.23046  25061866.7584   25061860.9694         36.0004         16.7504
  -1523690.91042
 08  5 27  0 26 30.0000000  0 12G31G21G25G16G24G30G 6G29G18G 3G19G22
 -18856809.08247  22085194.4774   22085189.9264         46.0004         36.7504
 -14425735.44146
 -24356600.68747  21070976.3204   21070970.6684         47.5004         41.0004
 -16188732.78546
  -1534671.98045  25552384.3524   25552381.4344         34.2504         16.2504
   -218267.50842
 -25129623.84048  20781478.8674   20781472.9454         49.2504         42.0004
 -18165449.58647
  -9250700.11746  23586731.2114   23586728.2854         40.5004         23.2504
  -4843656.82443
  -2711240.37545  25202388.7114   25202386.9844         35.7504         15.5004
  -1502203.08642
 -22344233.51647  21303360.5554   21303355.9924         45.0004         38.2504
 -15497212.32446
  -6233663.44946  24106105.4454   24106102.8364         37.0004         24.2504
  -5538273.19144
  -7877696.78945  24191637.5394   24191632.1994         35.7504         20.2504
  -3807829.77343
 -15614189.23046  22412538.1484   22412534.1914         40.7504         30.7504
  -9580476.13345
  -4113412.22746  24835881.7974   24835876.0314         38.0004         19.2504
  -2680265.38743
  -2465259.46545  25045906.2584   25045901.5164         35.0004         16.2504
  -1589044.62542
 08  5 27  0 27  0.0000000  0 12G31G21G25G16G24G30G 6G29G18G 3G19G22
 -18772258.18047  22101284.4774   22101279.6054         45.7504         36.7504
 -14359851.62946
 -24335198.93747  21075048.5314   21075043.1884         47.5004         40.7504
 -16172056.09046
  -1616875.45345  25536741.6484   25536738.2114         34.2504         16.7504
   -282322.07442
 -25172556.30948  20773309.1024   20773303.0164         49.7504         42.2504
 -18198903.45747
  -9156761.53946  23604608.1254   23604604.6414         41.0004         23.5004
  -4770457.94543
  -2612292.86346  25221218.4064   25221215.7304         36.0004         16.2504
  -1425101.06642
 -22381133.10547  21296339.1334   21296334.6914         45.0004         38.2504
 -15525965.23446
  -6153802.14146  24121304.0314   24121300.4064         38.5004         24.2504
  -5476043.64144
  -7945851.19146  24178668.7194   24178663.9454         37.7504         20.2504
  -3860937.04343
 -15684599.53947  22399140.1094   22399136.2854         42.0004         29.7504
  -9635341.28144
  -4194488.40246  24820452.9924   24820447.4024         36.5004         17.7504
  -2743441.66442
  -2549265.01245  25029922.5944   25029916.1054         34.7504         16.7504
  -1654503.51642
 08  5 27  0 27 30.0000000  0 12G31G21G25G16G24G30G 6G29G18G 3G19G22
 -18687383.21547  22117435.4924   22117430.8674         46.0004         36.5004
 -14293715.28546
 -24313315.75047  21079213.1804   21079207.2304         47.0004         41.0004
 -16155004.24646
  -1698804.53145  25521150.6724   25521147.3364         35.0004         16.2504
   -346162.89142
 -25215202.83248  20765193.6804   20765187.7274         50.0004         42.0004
 -18232134.51647
  -9062583.68746  23622528.8444   23622525.4344         41.5004         22.2504
  -4697072.60543
  -2513247.34045  25240065.1724   25240064.0664         35.0004         15.5004
  -1347922.73842
 -22417817.68747  21289358.1334   21289353.6134         45.5004         38.7504
 -15554550.61346
  -6073946.32846  24136499.5234   24136496.0744         37.2504         24.0004
  -5413818.31644
  -8013843.65246  24165729.2664   24165724.7194         37.2504         20.0004
  -3913918.14143
 -15754826.25447  22385775.7034   22385771.8484         42.0004         30.0004
  -9690063.37545
  -4275448.37946  24805046.5164   24805041.1334         36.0004         17.7504
  -2806527.49242
  -2633404.32846  25013910.4384   25013904.7034         36.7504         17.7504
  -1720066.75842
 08  5 27  0 28  0.0000000  0 12G31G21G25G16G24G30G 6G29G18G 3G19G22
 -18602187.26247  22133647.8834   22133642.8674         45.5004         37.0004
 -14227328.83246
 -24290952.12547  21083468.7114   21083462.9144         46.2504         41.0004
 -16137578.03946
  -1780457.18046  25505613.2194   25505608.9104         36.7504         16.7504
   -409788.12942
 -25257561.77348  20757132.8914   20757127.2894         49.5004         42.2504
 -18265141.47747
  -8968169.02346  23640496.0704   23640492.3324         41.5004         24.0004
  -4623502.75044
  -2414104.52745  25258932.0784   25258929.9734         34.5004         15.5004
  -1270668.46942
 -22454287.59447  21282417.9844   21282413.2894         46.0004         38.5004
 -15582968.71146
  -5994096.62546  24151693.9924   24151690.6484         36.2504         24.7504
  -5351597.77744
  -8081671.53146  24152822.6884   24152817.2704         36.7504         20.5004
  -3966771.02743
 -15824869.14546  22372447.0084   22372443.1684         41.0004         30.5004
  -9744642.22745
  -4356291.80546  24789662.8594   24789656.9304         36.7504         18.2504
  -2869522.36343
  -2717673.92246  24997873.8204   24997868.3954         36.2504         17.2504
  -1785731.35942
 08  5 27  0 28 30.0000000  0 12G31G21G25G16G24G30G 6G29G18G 3G19G22
 -18516672.94147  22149920.3754   22149915.7304         44.7504         36.2504
 -14160694.30946
 -24268109.15247  21087815.6254   21087809.5204         46.2504         40.7504
 -16119778.31646
  -1861830.76246  25490127.4924   25490124.8094         36.0004         17.7504
   -473196.12942
 -25299631.35248  20749127.1954   20749121.4694         49.7504         42.2504
 -18297922.96147
  -8873519.99247  23658507.6954   23658502.9964         42.0004         25.2504
  -4549750.27044
  -2314866.27046  25277816.2894   25277813.7774         36.0004         17.2504
  -1193339.94142
 -22490543.15647  21275518.8364   21275514.4494         46.0004         38.5004
 -15611219.78146
  -5914253.33646  24166888.3054   24166884.4804         37.5004         22.7504
  -5289382.23843
  -8149331.48046  24139946.9384   24139942.4734         36.7504         20.5004
  -4019493.02743
 -15894727.94546  22359153.4694   22359149.4694         41.7504         30.2504
  -9799077.63345
  -4437018.26646  24774301.2734   24774295.2114         36.7504         19.2504
  -2932426.18043
  -2802071.83245  24981814.1094   24981808.3834         35.5004         15.5004
  -1851495.88742
 08  5 27  0 29  0.0000000  0 12G31G21G25G16G24G30G 6G29G18G 3G19G22
 -18430842.86347  22166253.6254   22166248.6844         45.7504         36.5004
 -14093813.72746
 -24244787.85247  21092253.3984   21092247.4384         46.7504         41.2504
 -16101605.86746
  -1942923.25845  25474696.6954   25474693.4614         35.2504         15.5004
   -536385.04742
 -25341410.11348  20741177.0784   20741171.0314         50.0004         42.0004
 -18330477.84047
  -8778639.02346  23676562.1804   23676558.5744         41.7504         23.0004
  -4475817.05143
  -2215532.85945  25296719.4774   25296716.7114         35.7504         15.5004
  -1115937.32042
 -22526584.58647  21268660.0164   21268656.2154         47.2504         38.2504
 -15639304.01246
  -5834416.94546  24182079.4384   24182076.4494         38.2504         22.5004
  -5227172.07043
  -8216821.02346  24127104.3914   24127099.2854         37.0004         20.7504
  -4072082.23843
 -15964402.11746  22345895.3284   22345890.8364         41.0004         30.0004
  -9853369.17245
  -4517627.82045  24758962.0704   24758956.5664         35.0004         19.2504
  -2995238.84043
  -2886595.95746  24965729.6414   24965723.8404         37.7504         18.2504
  -1917358.93743
 08  5 27  0 29 30.0000000  0 12G31G21G25G16G24G30G 6G29G18G 3G19G22
 -18344699.84447  22182646.1644   22182640.9264         45.5004         36.0004
 -14026689.30146
 -24220989.63347  21096782.0864   21096776.4144         47.5004         41.0004
 -16083061.79746
  -2023732.65645  25459318.9924   25459315.6134         33.7504         16.2504
   -599353.37542
 -25382896.93448  20733282.3754   20733276.7814         49.7504         42.5004
 -18362805.22747
  -8683529.03147  23694661.3284   23694657.0394         42.0004         22.5004
  -4401705.38343
  -2116105.87945  25315639.9534   25315637.2074         35.2504         14.7504
  -1038461.68442
 -22562412.43447  21261842.3984   21261838.3404         47.5004         38.7504
 -15667221.79346
  -5754588.08246  24197272.0704   24197267.7584         39.2504         22.7504
  -5164967.79343
  -8284137.67245  24114294.5554   24114289.6054         35.2504         21.5004
  -4124536.75843
 -16033891.97746  22332671.4774   22332667.1644         41.0004         30.2504
  -9907517.07845
  -4598120.40245  24743644.3524   24743639.4534         35.2504         19.5004
  -3057960.38343
  -2971243.73045  24949621.8524   24949615.8524         35.5004         17.2504
  -1983318.22342
 08  5 27  0 30  0.0000000  0 12G31G21G25G16G24G30G 6G29G18G 3G19G22
 -18258246.29347  22199098.0084   22199092.4964         45.5004         36.7504
 -13959322.89846
 -24196715.60548  21101401.4534   21101395.4104         49.0004         40.5004
 -16064146.96146
  -2104256.16046  25443995.6484   25443991.9384         36.2504         16.7504
   -662098.83242
 -25424089.31648  20725443.9454   20725437.9024         50.2504         42.0004
 -18394903.18447
  -8588192.48046  23712802.9774   23712799.3404         41.2504         24.5004
  -4327417.16844
  -2016585.80945  25334577.1174   25334575.1884         34.5004         16.2504
   -960913.59442
 -22598026.59448  21255064.6024   21255060.7584         48.0004         38.5004
 -15694973.08646
  -5674767.05546  24212461.0784   24212458.0274         39.0004         24.2504
  -5102769.59044
  -8351278.19946  24101518.4454   24101513.0704         36.7504         21.7504
  -4176853.99243
 -16103196.74246  22319483.6334   22319479.3244         41.0004         31.0004
  -9961520.75045
  -4678495.09046  24728350.5474   24728344.3014         36.5004         19.2504
  -3120589.98043
  -3056011.89545  24933491.1884   24933485.1054         35.5004         18.5004
  -2049371.13743
 08  5 27  0 30 30.0000000  0 12G31G21G25G16G24G30G 6G29G18G 3G19G22
 -18171485.39547  22215607.7194   22215602.6484         44.0004         36.5004
 -13891717.00446
 -24171966.77348  21106110.6414   21106105.2344         48.7504         40.7504
 -16044862.14846
  -2184491.92646  25428727.1724   25428723.1954         36.2504         17.2504
   -724620.16442
 -25464985.86348  20717661.2034   20717655.6844         49.7504         42.7504
 -18426770.62547
  -8492632.17246  23730988.1484   23730983.8984         40.7504         24.2504
  -4252954.59044
  -1916974.13745  25353532.1724   25353531.1294         35.0004         16.7504
   -883294.03542
 -22633427.69947  21248328.5944   21248324.0744         47.0004         38.5004
 -15722558.34446
  -5594954.36946  24227648.1724   24227645.1524         38.7504         22.5004
  -5040577.88543
  -8418239.98046  24088775.4774   24088770.1724         36.0004         21.0004
  -4229031.97343
 -16172316.80146  22306329.9694   22306326.0124         41.0004         30.5004
 -10015380.50845
  -4758752.75846  24713077.4304   24713071.5864         36.7504         18.5004
  -3183128.49243
  -3140898.42645  24917336.3834   24917331.7704         34.2504         16.2504
  -2115516.21942
 08  5 27  0 31  0.0000000  0 12G31G21G25G16G24G30G 6G29G18G 3G19G22
 -18084419.60547  22232175.9694   22232170.9414         44.5004         36.0004
 -13823873.53946
 -24146744.14548  21110910.6564   21110904.9064         49.5004         40.7504
 -16025208.15246
  -2264437.71146  25413513.7114   25413509.8874         36.5004         17.7504
   -786915.55142
 -25505584.94948  20709935.7974   20709929.7544         50.5004         43.0004
 -18458406.27347
  -8396850.53146  23749213.8134   23749210.4064         41.0004         22.0004
  -4178319.55543
  -1817271.76645  25372506.6414   25372503.3164         34.7504         14.7504
   -805603.87942
 -22668615.83248  21241632.6334   21241628.2154         48.0004         38.0004
 -15749977.65246
  -5515150.64546  24242834.9144   24242831.4064         40.0004         21.7504
  -4978393.22743
  -8485020.12546  24076068.0314   24076063.0124         37.0004         22.2504
  -4281068.43443
 -16241251.62946  22293212.3984   22293208.0394         40.7504         31.0004
 -10069095.93745
  -4838892.88746  24697827.2894   24697821.5394         37.0004         20.7504
  -3245575.35943
  -3225901.37946  24901161.1644   24901156.3094         37.2504         18.5004
  -2181752.18043
 08  5 27  0 31 30.0000000  0 12G31G21G25G16G24G30G 6G29G18G 3G19G22
 -17997051.99647  22248801.2734   22248796.2624         43.7504         35.5004
 -13755794.88345
 -24121048.69947  21115800.1024   21115794.4384         47.5004         40.5004
 -16005185.71946
  -2344091.15646  25398356.7504   25398352.1484         36.5004         16.2504
   -848983.10242
 -25545884.70348  20702266.6884   20702261.0904         50.0004         42.2504
 -18489808.67647
  -8300850.39846  23767482.4534   23767478.8404         39.0004         22.7504
  -4103514.25443
  -1717479.74645  25391495.3284   25391493.7664         34.0004         14.7504
   -727843.84042
 -22703591.25047  21234976.5474   21234972.0864         47.5004         38.7504
 -15777231.20746
  -5435355.97746  24258019.0704   24258015.6094         39.2504         23.7504
  -4916215.57043
  -8551615.63346  24063394.8284   24063389.6484         36.5004         20.7504
  -4332961.00043
 -16310001.12146  22280129.6254   22280125.2504         41.2504         30.5004
 -10122666.95745
  -4918914.89846  24682599.5554   24682593.6484         36.0004         19.0004
  -3307930.21143
  -3311017.78546  24884964.3984   24884958.3484         36.2504         16.2504
  -2248076.44942
 08  5 27  0 32  0.0000000  0 12G31G21G25G16G24G30G 6G29G18G 3G19G22
 -17909385.21547  22265483.8754   22265478.8134         43.5004         35.7504
 -13687483.11345
 -24094881.91847  21120779.7034   21120773.8484         47.7504         40.7504
 -15984796.00846
  -2423450.01246  25383254.2344   25383250.8754         37.5004         16.2504
   -910821.12942
 -25585883.44548  20694655.5394   20694649.6134         50.0004         42.5004
 -18520976.52747
  -8204634.07046  23785791.8674   23785788.2344         39.5004         22.5004
  -4028540.51243
  -1617599.05945  25410501.6954   25410500.5824         34.7504         14.7504
   -650014.66842
 -22738354.41047  21228361.5634   21228357.3674         47.5004         38.7504
 -15804319.38346
  -5355570.87146  24273202.0234   24273199.1214         38.2504         22.0004
  -4854045.42243
  -8618024.00046  24050757.6724   24050753.1334         36.5004         21.5004
  -4384707.78143
 -16378565.09046  22267082.7424   22267078.6644         41.0004         30.7504
 -10176093.43045
  -4998819.07446  24667394.5314   24667388.7894         37.7504         19.5004
  -3370193.22343
  -3396245.72746  24868744.6094   24868739.8054         36.0004         16.2504
  -2314487.94542
 08  5 27  0 32 30.0000000  0 12G31G21G25G16G24G30G 6G29G18G 3G19G22
 -17821421.76647  22282222.8054   22282217.8444         44.5004         36.0004
 -13618940.16446
 -24068245.01247  21125848.5554   21125842.5394         47.2504         40.5004
 -15964039.98046
  -2502512.07445  25368209.0864   25368205.7934         35.7504         16.7504
   -972427.84442
 -25625579.72348  20687101.1644   20687095.9734         50.5004         42.5004
 -18551908.68447
  -8108203.99646  23804141.5314   23804138.1644         38.5004         22.2504
  -3953400.19143
  -1517630.773 5  25429524.430                          34.500

 -22772905.41447  21221787.0784   21221782.4454         47.2504         39.0004
 -15831242.23046
  -5275795.60546  24288383.3054   24288379.1214         38.7504         22.0004
  -4791882.87543
  -8684242.50446  24038157.2034   24038151.9024         36.5004         21.5004
  -4436306.61743
 -16446943.10546  22254070.3834   22254066.1294         41.0004         30.5004
 -10229374.98445
  -5078605.09846  24652212.4224   24652206.1684         38.5004         20.0004
  -3432364.23843
  -3481582.05946  24852507.0634   24852500.7234         36.5004         17.2504
  -2380983.97342
 08  5 27  0 33  0.0000000  0 12G31G21G25G16G24G30G 6G29G18G 3G19G22
 -17733164.28947  22299017.6644   22299012.0124         44.5004         35.0004
 -13550168.10945
 -24041138.86347  21131006.7114   21131000.9184         46.5004         40.5004
 -15942918.29746
  -2581275.05546  25353221.2974   25353217.3594         36.0004         16.7504
  -1033801.57442
 -25664971.65248  20679604.9534   20679599.3404         49.2504         42.2504
 -18582603.69947
  -8011562.98446  23822531.5164   23822529.1374         39.5004         22.5004
  -3878095.50043
  -1417576.172 5  25448564.297                          35.000

 -22807244.45347  21215252.3984   21215247.8324         47.5004         38.7504
 -15857999.91446
  -5196030.34446  24303561.0704   24303557.8324         38.2504         22.5004
  -4729728.13343
  -8750268.09846  24025591.9844   24025587.8204         36.0004         21.5004
  -4487755.09043
 -16515135.37946  22241093.7974   22241089.4184         40.7504         30.2504
 -10282511.82845
  -5158272.34846  24637052.0554   24637045.5124         38.0004         19.5004
  -3494442.67643
  -3567024.15646  24836247.5474   24836241.9494         36.7504         16.7504
  -2447562.36342
 08  5 27  0 33 30.0000000  0 12G31G21G25G16G24G30G 6G29G18G 3G19G22
 -17644616.00847  22315867.8834   22315862.6644         46.0004         35.7504
 -13481169.44145
 -24013564.86347  21136253.6174   21136247.7544         47.0004         41.0004
 -15921432.05546
  -2659736.82446  25338290.8444   25338286.4964         37.5004         17.7504
  -1094940.55942
 -25704057.66847  20672167.3054   20672161.9734         47.5004         42.5004
 -18613060.33647
  -7914713.76246  23840960.7424   23840958.9654         38.0004         22.2504
  -3802628.60943
  -1317435.785 6  25467620.922                          36.000

 -22841372.23847  21208757.6804   21208753.6604         46.0004         38.7504
 -15884592.98046
  -5116276.06646  24318738.1564   24318734.8324         38.2504         22.5004
  -4667581.99243
  -8816098.20746  24013065.0084   24013060.5204         37.7504         21.5004
  -4539051.25043
 -16583141.37146  22228152.6954   22228148.8014         40.5004         31.0004
 -10335503.49645
  -5237821.58246  24621913.7814   24621908.0904         36.7504         19.5004
  -3556429.06243
  -3652569.33246  24819969.1334   24819963.4454         36.5004         18.2504
  -2514220.88343
 08  5 27  0 34  0.0000000  0 12G31G21G25G16G24G30G 6G29G18G 3G19G22
 -17555779.37947  22332772.6334   22332767.5554         45.7504         35.5004
 -13411946.10245
 -23985524.25847  21141589.9454   21141583.5864         47.7504         40.7504
 -15899582.22346
  -2737895.19546  25323417.3284   25323413.6454         37.0004         18.2504
  -1155843.14843
 -25742836.06247  20664788.1954   20664782.3794         47.0004         42.7504
 -18643277.27047
  -7817658.56246  23859431.1724   23859426.9924         38.7504         22.2504
  -3727001.18043
  -1217210.992 5  25486694.133                          33.500

 -22875288.62147  21202304.3054   21202299.5274         45.5004         38.5004
 -15911021.32446
  -5036532.78546  24333912.7344   24333909.3984         37.5004         22.7504
  -4605444.41843
  -8881729.84846  24000576.7584   24000571.0634         37.2504         20.7504
  -4590192.74643
 -16650960.62946  22215247.1954   22215243.1484         41.2504         31.2504
 -10388349.63745
  -5317252.10546  24606799.3444   24606792.8754         37.0004         20.5004
  -3618323.05543
  -3738215.21546  24803670.3754   24803665.3914         37.0004         17.2504
  -2580957.95742
 08  5 27  0 34 30.0000000  0 12G31G21G25G16G24G30G 6G29G18G 3G19G22
 -17466657.59047  22349732.4534   22349726.8014         45.5004         34.7504
 -13342500.55945
 -23957018.37547  21147014.3054   21147008.2464         47.0004         40.7504
 -15877369.84846
  -2815747.88346  25308601.9454   25308598.6134         38.2504         18.5004
  -1216507.52743
 -25781305.37947  20657467.7424   20657462.1024         47.0004         42.2504
 -18673253.35247
  -7720400.25846  23877938.8204   23877934.7934         39.2504         22.5004
  -3651215.51843
  -1116903.055 5  25505781.758                          34.000

 -22908994.15247  21195889.9534   21195885.5554         45.0004         38.7504
 -15937285.36746
  -4956801.12546  24349084.5944   24349081.6844         37.5004         22.7504
  -4543315.84043
  -8947160.41846  23988125.2734   23988120.1134         37.2504         21.5004
  -4641177.59443
 -16718593.33646  22202377.5234   22202372.7234         41.0004         31.5004
 -10441050.44945
  -5396563.75846  24591706.7274   24591700.5394         38.2504         21.0004
  -3680124.32043
  -3823959.36346  24787354.7344   24787348.6994         36.2504         18.2504
  -2647771.51643
 08  5 27  0 35  0.0000000  0 12G31G21G25G16G24G30G 6G29G18G 3G19G22
 -17377253.12147  22366744.5704   22366739.7664         45.5004         34.5004
 -13272834.73845
 -23928048.53148  21152527.2424   21152521.5474         48.5004         40.5004
 -15854795.93446
  -2893292.75046  25293846.6024   25293842.2774         38.2504         18.2504
  -1276932.11743
 -25819463.89147  20650206.5864   20650200.8364         46.5004         42.5004
 -18702987.26247
  -7622941.07846  23896483.7734   23896481.0824         38.7504         22.5004
  -3575273.30543
  -1016512.887 5  25524884.984                          33.250

 -22942488.84047  21189516.4384   21189511.8594         45.0004         38.7504
 -15963385.12146
  -4877081.14146  24364255.6174   24364252.5864         37.5004         24.7504
  -4481196.39144
  -9012386.96546  23975712.8364   23975707.8674         39.0004         21.5004
  -4692003.44943
 -16786039.23846  22189542.2274   22189538.1484         41.0004         31.0004
 -10493605.68445
  -5475756.28546  24576636.8364   24576630.3324         37.2504         20.2504
  -3741832.82843
  -3909799.03946  24771020.2034   24771014.3094         37.0004         17.7504
  -2714659.38742
 08  5 27  0 35 30.0000000  0 12G31G21G25G16G24G30G 6G29G18G 3G19G22
 -17287568.68047  22383811.7664   22383806.5744         46.0004         34.5004
 -13202950.77745
 -23898615.39148  21158127.5704   21158121.9384         49.0004         40.5004
 -15831861.00846
  -2970527.51246  25279149.0394   25279145.7894         37.0004         16.7504
  -1337115.00442
 -25857309.58647  20643005.0004   20642998.8484         46.7504         42.7504
 -18732477.41447
  -7525283.81646  23915067.9614   23915064.0554         38.2504         21.7504
  -3499176.73443
   -916041.320 5  25544002.445                          34.500

 -22975773.00447  21183182.2814   21183177.8634         45.5004         39.0004
 -15989320.81646
  -4797373.28946  24379423.5784   24379420.3914         38.7504         22.2504
  -4419086.40743
  -9077406.65646  23963340.1174   23963335.3134         37.5004         22.2504
  -4742668.14143
 -16853298.32046  22176743.6884   22176739.6134         41.0004         31.2504
 -10546015.35245
  -5554829.73046  24561588.5164   24561583.0004         37.5004         19.5004
  -3803448.50443
  -3995732.37546  24754667.3364   24754661.1764         36.5004         16.7504
  -2781620.39542
 08  5 27  0 36  0.0000000  0 12G31G21G25G16G24G30G 6G29G18G 3G19G22
 -17197607.03547  22400930.4454   22400925.8634         44.5004         34.5004
 -13132850.78545
 -23868720.65248  21163815.8834   21163810.7544         48.5004         40.0004
 -15808566.40246
  -3047450.04746  25264511.1724   25264507.6844         36.7504         17.2504
  -1397054.59842
 -25894840.95347  20635862.5864   20635857.1884         46.7504         42.7504
 -18761722.64147
  -7427430.89546  23933688.3914   23933685.4064         38.7504         21.7504
  -3422927.73843
   -815489.496 5  25563137.102                          33.500

 -23008847.13747  21176888.6724   21176883.9534         45.2504         39.0004
 -16015092.85946
  -4717678.05146  24394588.7734   24394584.9104         38.0004         22.7504
  -4356986.23843
  -9142216.90646  23951007.1334   23951002.3364         38.0004         21.7504
  -4793169.59043
 -16920369.67246  22163980.1564   22163976.1764         41.0004         31.7504
 -10598278.71945
  -5633783.90646  24546564.6804   24546559.5204         37.5004         21.2504
  -3864971.21143
  -4081756.60246  24738298.4694   24738291.5234         36.0004         19.2504
  -2848652.57043
 08  5 27  0 36 30.0000000  0 12G31G21G25G16G24G30G 6G29G18G 3G19G22
 -17107371.59447  22418101.1414   22418096.9454         44.7504         34.0004
 -13062537.45345
 -23838365.46548  21169592.9144   21169587.2194         49.2504         40.0004
 -15784912.99246
  -3124058.11746  25249933.2114   25249929.6054         37.0004         16.7504
  -1456749.17242
 -25932056.32847  20628781.0704   20628775.4344         46.5004         43.0004
 -18790721.63347
  -7329384.86346  23952346.0864   23952342.8244         39.2504         22.0004
  -3346528.25843
   -714858.277 5  25582287.453                          32.750

 -23041711.21147  21170634.8284   21170630.2114         46.2504         39.2504
 -16040701.22346
  -4637995.69946  24409752.6724   24409748.3364         38.5004         22.0004
  -4294896.14843
  -9206814.83246  23938714.2894   23938709.9224         38.0004         22.0004
  -4843505.64143
 -16987253.54746  22151252.7274   22151248.0664         41.5004         31.0004
 -10650396.02045
  -5712618.55946  24531562.9694   24531557.5824         38.0004         21.5004
  -3926400.78943
  -4167868.34845  24721910.8204   24721905.2814         35.0004         16.7504
  -2915752.68742
 08  5 27  0 37  0.0000000  0 12G31G21G25G16G24G30G 6G29G18G 3G19G22
 -17016864.72347  22435324.5864   22435319.7544         44.5004         34.5004
 -12992012.62945
 -23807551.52048  21175456.5554   21175450.8094         48.7504         40.5004
 -15760902.11746
  -3200349.67646  25235415.0394   25235411.2074         37.2504         17.2504
  -1516197.13342
 -25968954.12947  20621759.3594   20621754.0084         46.5004         42.5004
 -18819473.16047
  -7231148.58646  23971040.1954   23971036.7734         39.0004         21.5004
  -3269980.52043
   -614149.309 5  25601451.453                          32.500

 -23074365.85947  21164420.8204   21164416.0044         45.2504         39.7504
 -16066146.38746
  -4558326.64846  24424913.1414   24424909.0864         38.2504         22.5004
  -4232816.40643
  -9271197.70346  23926463.1254   23926457.8324         38.7504         22.5004
  -4893674.07043
 -17053949.64546  22138560.9774   22138556.5664         41.0004         31.2504
 -10702366.98045
  -5791333.73046  24516583.6414   24516578.3554         38.5004         21.5004
  -3987737.28543
  -4254065.21545  24705509.5394   24705502.3204         34.0004         17.2504
  -2982919.09842
 08  5 27  0 37 30.0000000  0 12G31G21G25G16G24G30G 6G29G18G 3G19G22
 -16926088.85947  22452598.7664   22452593.8364         44.5004         34.0004
 -12921278.19945
 -23776280.02348  21181407.3444   21181401.5634         48.5004         40.7504
 -15736534.70746
  -3276322.18046  25220958.0634   25220954.2704         37.0004         17.2504
  -1575396.44142
 -26005532.52047  20614798.8984   20614793.2344         46.5004         43.0004
 -18847975.80947
  -7132724.28946  23989769.1564   23989766.4224         39.0004         22.0004
  -3193286.27343
   -513363.258 5  25620630.914                          33.500

 -23106810.99647  21158246.3834   21158242.2274         45.5004         39.0004
 -16091428.30946
  -4478670.87146  24440071.0474   24440067.0944         38.5004         22.2504
  -4170746.97743
  -9335362.63746  23914252.4844   23914246.9574         38.5004         22.0004
  -4943672.72743
 -17120457.69946  22125905.0634   22125900.9494         41.0004         32.2504
 -10754191.41845
  -5869929.29346  24501628.1254   24501622.2934         37.7504         20.5004
  -4048980.54343
  -4340345.13346  24689089.9694   24689083.4264         36.2504         19.2504
  -3050150.23043
 08  5 27  0 38  0.0000000  0 12G31G21G25G16G24G30G 6G29G18G 3G19G22
 -16835047.32447  22469923.4534   22469918.5354         44.7504         33.7504
 -12850336.74245
 -23744551.97748  21187445.1254   21187439.2664         48.7504         40.2504
 -15711811.54746
  -3351973.90646  25206562.3984   25206558.0234         37.5004         19.0004
  -1634345.78943
 -26041790.11347  20607899.5164   20607893.6174         46.5004         42.5004
 -18876228.47347
  -7034114.62146  24008534.5864   24008530.6684         39.2504         22.0004
  -3116447.60543
   -412501.070 5  25639824.477                          32.750

 -23139047.15647  21152112.4534   21152107.7544         45.2504         39.2504
 -16116547.38346
  -4399029.16046  24455226.2034   24455221.9694         37.5004         22.2504
  -4108688.52343
  -9399307.57446  23902085.1334   23902079.4614         38.7504         22.0004
  -4993499.94143
 -17186777.59446  22113284.0944   22113279.6884         41.2504         32.0004
 -10805869.23045
  -5948405.16846  24486695.1644   24486688.5864         38.7504         21.5004
  -4110130.59443
  -4426705.28545  24672656.3134   24672650.1564         35.0004         19.0004
  -3117443.98443
 08  5 27  0 38 30.0000000  0 12G31G21G25G16G24G30G 6G29G18G 3G19G22
 -16743742.93047  22487298.1024   22487293.2114         43.2504         33.5004
 -12779190.47345
 -23712368.85548  21193569.3754   21193563.3634         49.0004         40.0004
 -15686733.78546
  -3427302.43746  25192227.4774   25192223.5084         37.5004         17.2504
  -1693043.31642
 -26077724.91047  20601061.0234   20601055.3284         46.5004         42.2504
 -18904229.60947
  -6935321.84046  24027333.9534   24027330.6804         39.0004         21.5004
  -3039466.22343
   -311563.906 5  25659032.305                          33.500

 -23171074.45747  21146017.7114   21146013.1134         45.7504         39.0004
 -16141503.71546
  -4319401.57046  24470378.4454   24470375.0514         38.0004         22.0004
  -4046641.07443
  -9463028.38346  23889958.6954   23889954.0744         38.5004         22.5004
  -5043152.52043
 -17252908.85946  22100700.5864   22100695.0824         41.5004         31.5004
 -10857400.09045
  -6026761.12946  24471783.6644   24471777.4104         38.2504         21.2504
  -4171187.23843
  -4513142.73046  24656207.2344   24656201.9734         36.5004         19.2504
  -3184797.98043
 08  5 27  0 39  0.0000000  0 12G31G21G25G16G24G30G 6G29G18G 3G19G22
 -16652178.43747  22504722.2194   22504717.4924         44.0004         34.2504
 -12707841.52345
 -23679732.17248  21199779.6804   21199773.8134         48.7504         40.2504
 -15661302.59846
  -3502305.80146  25177954.9304   25177950.5234         37.5004         18.5004
  -1751487.54343
 -26113335.37147  20594284.5314   20594278.9264         47.0004         42.7504
 -18931978.02047
  -6836348.97746  24046168.1954   24046165.0204         39.7504         22.0004
  -2962344.54343
   -210552.98045  25678253.5084   25678248.3794         35.0004         18.2504
   -569238.75853
 -23202893.35947  21139962.9144   21139958.3874         46.2504         39.5004
 -16166297.65646
  -4239788.71146  24485528.5554   24485524.2774         39.0004         22.0004
  -3984605.10243
  -9526523.32446  23877876.1334   23877871.1844         37.2504         22.2504
  -5092629.09843
 -17318851.93746  22088151.8364   22088147.1134         41.0004         31.0004
 -10908784.28545
  -6104997.16446  24456895.3134   24456890.2894         37.7504         21.5004
  -4232150.35543
  -4599654.94145  24639745.3594   24639739.3244         35.0004         18.5004
  -3252210.14843
 08  5 27  0 39 30.0000000  0 12G31G21G25G16G24G30G 6G29G18G 3G19G22
 -16560356.50847  22522195.4694   22522190.2774         44.0004         34.5004
 -12636291.96145
 -23646643.25448  21206076.4304   21206070.3754         50.0004         40.2504
 -15635519.01246
  -3576981.64146  25163743.8594   25163740.4804         37.7504         18.5004
  -1809676.42243
 -26148619.91047  20587570.0234   20587564.5744         46.5004         42.7504
 -18959472.45747
  -6737198.13346  24065035.6804   24065032.6884         39.7504         21.5004
  -2885084.14843
   -109469.12145  25697488.7974   25697485.6804         33.5004         16.2504
   -490472.18442
 -23234503.90247  21133947.6564   21133943.1094         45.5004         39.5004
 -16190929.24246
  -4160190.55546  24500675.6174   24500671.5514         39.2504         22.5004
  -3922580.63343
  -9589789.22346  23865837.0394   23865831.5744         37.5004         21.5004
  -5141927.19543
 -17384606.16446  22075639.1954   22075634.7344         41.5004         31.7504
 -10960021.34045
  -6183112.78146  24442030.7194   24442025.6254         37.0004         21.5004
  -4293019.65643
  -4686239.56646  24623269.3204   24623262.5864         37.0004         17.7504
  -3319678.80542
 08  5 27  0 40  0.0000000  0 12G31G21G25G16G24G30G 6G29G18G 3G19G22
 -16468280.15647  22539717.6174   22539712.3014         43.0004         34.2504
 -12564544.17245
 -23613103.57848  21212458.7114   21212452.7114         49.2504         40.2504
 -15609384.19546
  -3651327.94146  25149597.5394   25149592.7934         37.0004         18.2504
  -1867608.61343
 -26183577.02047  20580918.1414   20580912.2234         47.2504         43.0004
 -18986711.76247
  -6637872.06246  24083936.8754   24083933.3204         39.2504         21.5004
  -2807687.19943
     -8313.90245  25716738.2034   25716736.4144         34.2504         15.5004
   -411649.82042
 -23265906.40647  21127971.6414   21127967.4844         46.0004         39.5004
 -16215398.72746
  -4080607.46546  24515819.9844   24515816.1954         39.0004         20.7504
  -3860567.83643
  -9652823.31646  23853841.4534   23853836.2544         37.0004         22.0004
  -5191044.68443
 -17450171.26246  22063162.3754   22063157.9344         41.5004         32.0004
 -11011111.02345
  -6261108.42246  24427189.0314   24427182.4774         38.5004         19.7504
  -4353795.52743
  -4772893.98046  24606778.9064   24606772.9844         36.5004         18.2504
  -3387201.89143
 08  5 27  0 40 30.0000000  0 12G31G21G25G16G24G30G 6G29G18G 3G19G22
 -16375952.10247  22557286.6884   22557281.3984         43.2504         34.0004
 -12492600.23045
 -23579114.13348  21218926.8054   21218921.1954         49.5004         40.5004
 -15582898.90246
  -3725342.63346  25135512.1804   25135508.0204         36.5004         17.7504
  -1925282.37942
 -26218204.70747  20574328.6094   20574323.0474         46.5004         42.5004
 -19013694.36347
  -6538373.16846  24102870.8284   24102867.8364         39.0004         20.7504
  -2730155.64543
     92912.21145  25736000.4534   25736000.1994         33.5004         14.7504
   -332772.50842
 -23297101.24647  21122035.5474   21122030.9344         45.5004         39.7504
 -16239706.38746
  -4001039.75046  24530960.8674   24530956.9384         38.7504         20.2504
  -3798566.98043
  -9715622.99646  23841891.3674   23841887.0944         37.5004         24.0004
  -5239979.47744
 -17515547.22347  22050722.1724   22050717.8954         42.7504         32.5004
 -11062053.31645
  -6338983.44146  24412369.9694   24412363.9734         38.5004         22.0004
  -4414477.33243
  -4859615.17646  24590276.6804   24590271.3444         37.2504         19.0004
  -3454776.95743
 08  5 27  0 41  0.0000000  0 12G31G21G25G16G24G30G 6G29G18G 3G19G22
 -16283375.35947  22574903.1954   22574898.3714         43.0004         34.2504
 -12420462.50445
 -23544676.42248  21225479.8754   21225473.8524         49.0004         40.0004
 -15556064.32446
  -3799023.55946  25121490.7814   25121487.0394         37.5004         17.7504
  -1982696.05942
 -26252501.64847  20567802.0084   20567796.2034         46.2504         42.5004
 -19040419.25047
  -6438704.05946  24121837.0704   24121833.9884         39.2504         21.0004
  -2652491.42643
    194207.980 5  25755277.320                          33.500

 -23328088.61747  21116138.9064   21116134.2154         45.2504         39.7504
 -16263852.38346
  -3921487.77046  24546099.3674   24546095.6334         39.0004         22.7504
  -3736578.43043
  -9778185.66046  23829986.6724   23829981.2034         37.5004         22.7504
  -5288729.58243
 -17580733.73447  22038317.5234   22038312.7854         42.5004         31.0004
 -11112847.96545
  -6416738.23846  24397573.5314   24397567.4654         37.7504         21.2504
  -4475065.54343
  -4946400.48446  24573762.4454   24573756.1564         36.7504         19.0004
  -3522401.85243
 08  5 27  0 41 30.0000000  0 12G31G21G25G16G24G30G 6G29G18G 3G19G22
 -16190552.64147  22592566.5004   22592562.2344         43.0004         33.7504
 -12348133.12145
 -23509792.02748  21232118.3834   21232112.8834         49.2504         40.2504
 -15528881.66046
  -3872368.53146  25107534.1024   25107530.0594         37.5004         17.7504
  -2039847.96942
 -26286465.94547  20561339.1174   20561333.2854         46.5004         42.7504
 -19066884.93047
  -6338867.51646  24140835.6254   24140831.6884         39.5004         20.5004
  -2574696.72343
                  25774566.008                          28.750

 -23358868.69948  21110281.7734   21110277.0554         48.2504         39.7504
 -16287836.86746
  -3841952.06246  24561234.9774   24561231.0274         38.5004         20.2504
  -3674602.56243
  -9840508.46546  23818126.7974   23818121.0434         37.5004         22.5004
  -5337292.78943
 -17645730.67647  22025949.0164   22025943.8594         42.2504         32.0004
 -11163494.93745
  -6494372.39146  24382799.4614   24382794.2384         38.7504         21.2504
  -4535559.62943
  -5033247.14845  24557235.7034   24557230.0514         34.0004         19.0004
  -3590074.49243
 08  5 27  0 42  0.0000000  0 12G31G21G25G16G24G30G 6G29G18G 3G19G22
 -16097486.90247  22610276.6174   22610271.9064         43.0004         33.5004
 -12275614.37145
 -23474462.21548  21238841.5164   21238835.7814         49.2504         39.7504
 -15501351.93446
  -3945375.43046  25093641.3674   25093637.0164         37.5004         17.2504
  -2096736.41042
 -26320095.83647  20554939.3204   20554933.6684         46.2504         43.7504
 -19093090.03547
  -6238865.79346  24159865.8054   24159861.9064         39.7504         21.5004
  -2496773.30943
                  25793867.344                          31.000

 -23389441.82448  21104463.6884   21104459.4654         48.0004         39.5004
 -16311660.07846
  -3762432.41846  24576365.7424   24576363.1914         37.7504         22.5004
  -3612639.23443
  -9902588.77346  23806313.4384   23806308.0904         38.0004         23.2504
  -5385667.05143
 -17710537.71147  22013616.0704   22013611.5044         43.0004         31.7504
 -11213993.91045
  -6571885.75846  24368050.4304   24368043.9574         39.5004         22.0004
  -4595959.65243
  -5120153.14545  24540697.4694   24540691.7034         35.5004         18.2504
  -3657793.51243
 08  5 27  0 42 30.0000000  0 12G31G21G25G16G24G30G 6G29G18G 3G19G22
 -16004180.65647  22628032.4774   22628027.1414         43.0004         33.2504
 -12202908.20345
 -23438688.85948  21245648.8134   21245643.3134         49.7504         40.2504
 -15473476.58646
  -4018042.18046  25079813.3674   25079808.6764         36.0004         19.0004
  -2153359.90643
 -26353389.84847  20548604.0164   20548598.1764         46.2504         42.5004
 -19119033.42247
  -6138701.28146  24178925.7814   24178922.9964         38.7504         20.2504
  -2418723.05943
    498502.473 5  25813183.141                          34.250

 -23419808.27747  21098685.0234   21098680.5664         45.5004         39.2504
 -16335322.25046
  -3682928.92246  24591495.0704   24591492.5784         38.7504         22.5004
  -3550688.48843
  -9964423.60246  23794546.3674   23794542.2074         38.5004         23.0004
  -5433850.00843
 -17775154.51647  22001319.8364   22001315.6414         43.0004         32.2504
 -11264344.66045
  -6649278.39146  24353322.4614   24353316.6414         39.2504         21.5004
  -4656265.54343
  -5207115.38745  24524148.8834   24524143.8404         35.0004         20.0004
  -3725556.32843
 08  5 27  0 43  0.0000000  0 12G31G21G25G16G24G30G 6G29G18G 3G19G22
 -15910637.22347  22645832.8444   22645827.8484         43.7504         34.0004
 -12130017.21945
 -23402473.21948  21252540.2974   21252534.2464         49.5004         39.7504
 -15445256.60246
  -4090366.80146  25066050.4384   25066046.1684         36.0004         17.7504
  -2209716.68742
 -26386346.25847  20542332.1414   20542326.4534         46.2504         43.0004
 -19144713.72747
  -6038376.21946  24198017.0554   24198013.9024         39.5004         21.0004
  -2340547.70743
    600066.129 5  25832510.164                          32.000

 -23449968.23847  21092945.8834   21092941.7814         47.7504         39.7504
 -16358823.51246
  -3603442.32046  24606621.1724   24606617.4964         37.2504         19.2504
  -3488750.75843
 -10026010.43046  23782826.1484   23782821.5394         37.0004         23.0004
  -5481839.68443
 -17839581.33647  21989060.3834   21989055.4344         43.2504         32.7504
 -11314547.35245
  -6726550.34846  24338618.0004   24338612.2424         39.0004         21.0004
  -4716477.47743
  -5294130.94545  24507591.4694   24507585.2304         35.7504         18.2504
  -3793360.79743
 08  5 27  0 43 30.0000000  0 12G31G21G25G16G24G30G 6G29G18G 3G19G22
 -15816859.37147  22663678.0314   22663673.1994         44.0004         33.0004
 -12056943.55945
 -23365816.58648  21259515.8754   21259510.2584         50.2504         40.0004
 -15416692.98446
  -4162347.04746  25052352.6174   25052348.3244         38.7504         19.0004
  -2265805.14143
 -26418963.62947  20536125.1254   20536119.7274         46.2504         43.5004
 -19170129.85947
  -5937893.37146  24217139.2114   24217135.5864         39.5004         21.5004
  -2262249.39543
    701694.691 5  25851849.516                          31.750

 -23479921.97748  21087245.5864   21087241.0234         48.7504         39.7504
 -16382164.07446
  -3523973.10246  24621743.8284   24621740.6484         37.2504         22.0004
  -3426826.76243
 -10087346.46546  23771154.3204   23771149.1174         39.0004         22.5004
  -5529633.96143
 -17903817.59846  21976836.2974   21976831.5784         41.2504         33.0004
 -11364601.57045
  -6803701.06646  24323937.1954   24323931.1454         39.2504         21.7504
  -4776594.85943
  -5381197.37546  24491022.9304   24491018.1334         37.0004         20.5004
  -3861204.65643
 08  5 27  0 44  0.0000000  0 11G31G21G25G16G24G 6G29G18G 3G19G22
 -15722849.99247  22681567.6334   22681562.5554         44.0004         32.7504
 -11983689.50445
 -23328720.52048  21266575.0084   21266569.2934         49.5004         39.7504
 -15387786.95746
  -4233981.08646  25038721.8674   25038717.4304         39.5004         19.5004
  -2321623.90243
 -26451240.09847  20529983.2814   20529977.7544         46.2504         43.0004
 -19195280.34847
  -5837255.33246  24236289.5234   24236286.0474         38.5004         20.5004
  -2183830.14543
 -23509669.94948  21081585.4064   21081580.7704         49.5004         39.7504
 -16405344.31246
  -3444521.20746  24636863.0394   24636859.6134         37.5004         20.7504
  -3364916.20743
 -10148428.98846  23759531.7034   23759525.8054         39.0004         22.5004
  -5577230.73443
 -17967863.14547  21964649.0234   21964644.5984         42.2504         32.5004
 -11414507.18745
  -6880730.86346  24309278.1804   24309272.6524         39.0004         20.7504
  -4836618.04343
  -5468312.20345  24474444.5164   24474438.7664         35.0004         16.7504
  -3929086.39542
 08  5 27  0 44 30.0000000  0 11G31G21G25G16G24G 6G29G18G 3G19G22
 -15628611.65647  22699500.6644   22699495.6994         43.5004         32.5004
 -11910257.05145
 -23291186.49648  21273717.6024   21273711.7544         50.2504         39.7504
 -15358539.66446
  -4305266.41846  25025156.6094   25025152.1954         38.2504         19.5004
  -2377170.91043
 -26483174.19947  20523906.7664   20523900.7624         46.2504         43.5004
 -19220164.06647
  -5736464.40246  24255469.2814   24255465.7154         38.5004         20.5004
  -2105291.80143
 -23539212.00448  21075963.4144   21075958.7774         48.7504         39.5004
 -16428364.09446
  -3365086.57446  24651978.7194   24651974.3284         37.7504         21.0004
  -3303019.01643
 -10209255.18746  23747955.5784   23747951.3444         39.0004         22.5004
  -5624627.71143
 -18031717.57847  21952497.3134   21952492.9264         42.2504         32.2504
 -11464263.86745
  -6957639.36746  24294642.9384   24294636.7114         38.2504         21.2504
  -4896546.66843
  -5555472.43046  24457860.5784   24457854.3244         37.0004         22.7504
  -3997003.37943
 08  5 27  0 45  0.0000000  0 11G31G21G25G16G24G 6G29G18G 3G19G22
 -15534147.57447  22717476.3914   22717471.3204         44.5004         32.5004
 -11836648.68045
 -23253216.16448  21280943.0634   21280937.4844         50.5004         39.7504
 -15328952.39146
  -4376201.43746  25011657.8984   25011653.5514         37.5004         17.7504
  -2432444.89142
 -26514764.42247  20517894.9064   20517889.3554         46.2504         42.7504
 -19244779.82847
  -5635523.19546  24274677.7424   24274674.4804         38.0004         19.5004
  -2026636.34843
 -23568548.83248  21070380.8364   21070376.2734         48.2504         39.5004
 -16451223.94946
  -3285670.21146  24667091.4384   24667087.8164         39.0004         21.7504
  -3241136.10543
 -10269822.73046  23736430.0234   23736425.0704         39.0004         22.7504
  -5671823.19943
 -18095381.20747  21940382.8444   21940378.5704         42.2504         32.2504
 -11513871.87945
  -7034426.81246  24280031.3754   24280025.3164         40.0004         22.5004
  -4956380.98843
  -5642675.26646  24441266.5164   24441259.0314         36.5004         19.0004
  -4064953.64543
 08  5 27  0 45 30.0000000  0 11G31G21G25G16G24G 6G29G18G 3G19G22
 -15439460.31247  22735495.0784   22735489.9064         44.0004         32.5004
 -11762866.40645
 -23214810.86348  21288251.5314   21288245.7974         49.5004         40.2504
 -15299026.17246
  -4446783.89546  24998227.0084   24998222.0744         37.5004         18.2504
  -2487444.20743
 -26546008.63747  20511949.4454   20511943.8054         46.7504         42.5004
 -19269125.95747
  -5534433.83646  24293914.6094   24293911.4344         38.0004         19.2504
  -1947865.44943
 -23597680.37948  21064837.1414   21064832.6684         48.5004         39.7504
 -16473923.84846
  -3206271.66446  24682200.6414   24682196.5044         37.5004         20.0004
  -3179267.15243
 -10330128.56246  23724955.0944   23724950.0744         40.0004         24.0004
  -5718814.77744
 -18158853.11347  21928305.2194   21928299.9344         42.0004         33.0004
 -11563330.50045
  -7111093.15246  24265441.9384   24265435.6454         39.2504         22.5004
  -5016120.95743
  -5729917.73045  24424663.4694   24424657.9734         35.7504         21.7504
  -4132934.75843
 08  5 27  0 46  0.0000000  0 11G31G21G25G16G24G 6G29G18G 3G19G22
 -15344552.84047  22753555.5394   22753550.0554         44.7504         32.0004
 -11688912.53545
 -23175972.24648  21295642.2894   21295636.3674         50.0004         39.7504
 -15268762.31646
  -4517011.61346  24984862.0554   24984858.1644         38.0004         18.5004
  -2542167.12143
 -26576905.46947  20506070.2274   20506064.7344         46.2504         43.0004
 -19293201.41047
  -5433199.09046  24313179.1804   24313174.9104         38.2504         19.2504
  -1868981.23043
 -23626607.03147  21059332.7664   21059328.0594         45.2504         39.2504
 -16496464.09046
  -3126891.31646  24697305.1564   24697302.2304         37.7504         21.2504
  -3117412.29343
 -10390170.43446  23713528.9844   23713524.5904         40.0004         22.7504
  -5765600.61343
 -18222133.79747  21916262.6334   21916258.5164         42.0004         33.0004
 -11612640.10545
  -7187638.05946  24250875.4774   24250869.9574         39.2504         21.0004
  -5075766.28143
  -5817197.76246  24408055.2974   24408048.8364         36.7504         20.2504
  -4200945.13343
 08  5 27  0 46 30.0000000  0 11G31G21G25G16G24G 6G29G18G 3G19G22
 -15249428.35547  22771656.7504   22771651.7464         44.0004         32.2504
 -11614789.56245
 -23136701.94548  21303115.1094   21303108.9184         50.7504         40.0004
 -15238162.07446
  -4586882.78146  24971566.8594   24971562.3674         38.7504         19.2504
  -2596612.15643
 -26607453.33247  20500257.0554   20500251.1764         46.7504         43.5004
 -19317004.94147
  -5331821.28546  24332470.7974   24332466.8674         38.7504         19.7504
  -1789985.56643
 -23655328.82848  21053867.3444   21053862.2894         48.7504         39.5004
 -16518844.70346
  -3047529.51246  24712407.4694   24712404.5554         37.0004         22.0004
  -3055571.94543
 -10449945.53546  23702154.6334   23702149.0704         40.5004         24.5004
  -5812178.60944
 -18285222.61747  21904257.4844   21904252.7384         42.5004         32.5004
 -11661800.21145
  -7264061.45746  24236333.5864   24236327.1294         39.2504         21.7504
  -5135316.88743
  -5904512.60246  24391439.4144   24391432.7544         36.0004         19.2504
  -4268982.74643
 08  5 27  0 47  0.0000000  0 11G31G21G25G16G24G 6G29G18G 3G19G22
 -15154089.48847  22789798.8834   22789794.0704         44.5004         31.7504
 -11540499.53145
 -23097001.39548  21310669.8834   21310663.8984         50.0004         39.5004
 -15207226.57046
  -4656395.34046  24958338.3524   24958334.4454         36.5004         19.5004
  -2650777.74243
 -26637650.68048  20494511.1024   20494505.6724         49.5004         43.5004
 -19340535.34047
  -5230302.90646  24351788.2344   24351785.7154         38.5004         20.2504
  -1710880.38343
 -23683846.26248  21048440.4064   21048435.8244         48.5004         40.0004
 -16541066.07046
  -2968186.50046  24727507.0314   24727502.9494         38.5004         20.2504
  -2993746.21943
 -10509450.80146  23690830.4924   23690825.3244         40.2504         23.7504
  -5858546.31643
 -18348119.57447  21892288.2734   21892284.1174         42.0004         33.0004
 -11710810.82845
  -7340363.59046  24221813.9224   24221806.5084         39.0004         22.0004
  -5194773.03143
  -5991859.29346  24374818.3984   24374812.4414         36.7504         20.7504
  -4337045.12143
 08  5 27  0 47 30.0000000  0 11G31G21G25G16G24G 6G29G18G 3G19G22
 -15058539.03547  22807981.9844   22807977.0124         44.5004         32.2504
 -11466044.64145
 -23056871.88348  21318306.1254   21318300.5514         50.5004         39.7504
 -15175956.81246
  -4725547.20346  24945179.6724   24945174.9694         37.5004         19.0004
  -2704662.30543
 -26667495.71947  20488831.4534   20488825.9774         46.7504         43.5004
 -19363791.21147
  -5128646.40246  24371133.4924   24371130.2034         38.7504         19.0004
  -1631667.54343
 -23712159.31247  21043052.3914   21043048.2424         45.5004         39.5004
 -16563128.18046
  -2888862.38746  24742599.9454   24742597.1914         37.0004         20.5004
  -2931935.20343
 -10568683.49646  23679559.7814   23679554.2934         40.7504         22.7504
  -5904701.64543
 -18410823.95747  21880356.2034   21880351.9384         42.0004         33.5004
 -11759671.36745
  -7416544.24646  24207316.3204   24207310.1564         39.0004         22.2504
  -5254134.49643
  -6079235.10546  24358190.7424   24358184.5314         36.5004         20.5004
  -4405130.23043
 08  5 27  0 48  0.0000000  0 11G31G21G25G16G24G 6G29G18G 3G19G22
 -14962779.68047  22826204.1804   22826199.2194         44.5004         31.7504
 -11391426.96145
 -23016315.32848  21326024.0634   21326018.1524         50.2504         39.7504
 -15144354.30546
  -4794336.37945  24932089.8284   24932084.8014         35.0004         19.2504
  -2758264.23843
 -26696987.14548  20483219.4844   20483213.6134         49.7504         43.5004
 -19386771.54347
  -5026854.07046  24390503.6094   24390499.9804         38.0004         19.0004
  -1552348.85243
 -23740268.62148  21037703.7974   21037699.3284         48.2504         40.0004
 -16585031.52346
  -2809557.34446  24757692.3674   24757688.7974         38.5004         21.7504
  -2870139.14843
 -10627641.30946  23668340.2274   23668335.1804         40.7504         22.5004
  -5950642.78143
 -18473335.85547  21868460.3754   21868455.9774         42.2504         33.0004
 -11808381.92645
  -7492603.04346  24192842.2504   24192836.3874         38.5004         22.0004
  -5313400.99643
  -6166636.79346  24341559.1094   24341552.3244         36.2504         19.5004
  -4473235.32443
 08  5 27  0 48 30.0000000  0 11G31G21G25G16G24G 6G29G18G 3G19G22
 -14866814.85547  22844465.7034   22844460.7114         43.7504         32.2504
 -11316649.18445
 -22975333.37948  21333822.2344   21333816.5904         50.5004         39.7504
 -15112420.30546
  -4862761.07045  24919067.7894   24919064.4454         34.0004         19.0004
  -2811582.21543
 -26726123.28148  20477675.2584   20477669.1254         49.7504         43.5004
 -19409475.02047
  -4924928.43746  24409899.3594   24409895.9924         38.5004         19.7504
  -1472926.26643
 -23768174.20748  21032393.5474   21032388.8794         49.0004         40.0004
 -16606776.13746
  -2730271.76646  24772779.6484   24772775.9414         36.7504         19.5004
  -2808358.16843
 -10686321.73846  23657172.8984   23657168.0744         40.0004         22.5004
  -5996367.76243
 -18535655.37947  21856601.7664   21856597.0164         42.2504         33.0004
 -11856942.57445
  -7568540.05146  24178391.8674   24178386.2894         39.5004         22.7504
  -5372572.60243
  -6254062.39545  24324921.5084   24324916.1644         35.2504         20.2504
  -4541359.18043
 08  5 27  0 49  0.0000000  0 11G31G21G25G16G24G 6G29G18G 3G19G22
 -14770647.24647  22862766.1644   22862761.0084         44.0004         32.0004
 -11241713.39145
 -22933927.45748  21341701.5394   21341695.8404         50.5004         38.7504
 -15080155.94146
  -4930819.04345  24906117.7034   24906112.9884         35.0004         19.2504
  -2864614.31643
 -26754902.27348  20472198.4694   20472192.5744         50.0004         42.5004
 -19431900.21147
  -4822872.11346  24429319.9064   24429316.7584         39.0004         20.2504
  -1393401.91043
 -23795876.27748  21027121.5704   21027117.1524         48.0004         39.7504
 -16628362.16446
  -2651005.83646  24787864.4144   24787860.8094         38.7504         20.2504
  -2746592.52743
 -10744721.65246  23646060.2424   23646054.9964         41.0004         24.2504
  -6041874.19944
 -18597782.34847  21844779.5944   21844775.0164         42.5004         34.0004
 -11905353.19545
  -7644355.81646  24163964.7274   24163959.3094         38.5004         22.7504
  -5431649.69943
  -6341508.94946  24308281.9844   24308275.5864         36.5004         19.7504
  -4609499.46143
 08  5 27  0 49 30.0000000  0 11G31G21G25G16G24G 6G29G18G 3G19G22
 -14674279.57447  22881103.7814   22881099.0594         44.0004         31.5004
 -11166621.73445
 -22892099.04748  21349661.4924   21349655.8954         50.0004         39.2504
 -15047562.37146
  -4998508.25445  24893236.7424   24893231.6094         33.5004         18.2504
  -2917359.16043
 -26783322.41848  20466790.4064   20466784.3754         49.2504         43.0004
 -19454045.76647
  -4720687.16046  24448764.9224   24448761.6214         38.7504         19.2504
  -1313777.27043
 -23823374.98848  21021889.2504   21021884.8164         48.2504         40.0004
 -16649789.71546
  -2571759.32446  24802943.4144   24802940.3244         37.0004         19.5004
  -2684842.00443
 -10802838.50446  23635001.1254   23634996.3094         41.0004         23.0004
  -6087160.03543
 -18659716.23847  21832993.6804   21832989.0904         42.2504         33.5004
 -11953613.37145
  -7720049.53946  24149560.4064   24149554.9884         37.0004         22.5004
  -5490631.73843
  -6428973.35246  24291637.5704   24291632.0634         36.2504         19.5004
  -4677653.65643
 08  5 27  0 50  0.0000000  0 11G31G21G25G16G24G 6G29G18G 3G19G22
 -14577715.07047  22899479.5004   22899474.7854         43.5004         31.7504
 -11091376.66045
 -22849850.15248  21357701.1644   21357695.1484         50.2504         39.5004
 -15014641.14846
  -5065827.10945  24880426.4844   24880421.5744         33.5004         19.2504
  -2969815.41843
 -26811382.52348  20461450.5004   20461444.7384         48.7504         43.5004
 -19475910.79347
  -4618376.29346  24468233.4924   24468231.4414         38.5004         18.2504
  -1234054.52743
 -23850670.92248  21016694.6024   21016690.0944         48.5004         39.7504
 -16671059.26646
  -2492533.04346  24818020.6094   24818015.7304         37.2504         19.0004
  -2623107.32443
 -10860670.31646  23623996.0314   23623991.0664         41.2504         22.5004
  -6132223.75843
 -18721456.74647  21821244.3284   21821240.1334         42.2504         33.5004
 -12001722.84045
  -7795621.69546  24135179.5864   24135173.2934         38.7504         22.5004
  -5549519.11343
  -6516453.10946  24274991.0704   24274985.5084         38.0004         20.7504
  -4745819.76243
 08  5 27  0 50 30.0000000  0 11G31G21G25G16G24G 6G29G18G 3G19G22
 -14480956.33647  22917892.5554   22917887.6134         43.2504         30.7504
 -11015980.27745
 -22807182.01248  21365820.5164   21365815.0164         50.2504         39.5004
 -14981393.24246
  -5132773.35545  24867686.7584   24867682.7074         34.0004         20.0004
  -3021981.28143
 -26839080.58648  20456179.8524   20456174.2114         48.2504         43.2504
 -19497493.69547
  -4515941.80646  24487727.3204   24487723.6684         38.5004         18.5004
  -1154235.46443
 -23877763.89548  21011538.8754   21011534.3554         49.0004         40.2504
 -16692170.66846
  -2413326.84046  24833092.6724   24833089.3674         38.7504         20.5004
  -2561388.23043
 -10918213.59446  23613045.2894   23613040.5314         41.2504         24.2504
  -6177062.67644
 -18783003.72747  21809532.6414   21809528.3484         43.2504         33.5004
 -12049681.52045
  -7871072.18446  24120822.2974   24120816.1684         37.2504         23.7504
  -5608311.66043
  -6603945.39846  24258343.1334   24258336.1484         36.7504         19.5004
  -4813995.68043
 08  5 27  0 51  0.0000000  0 11G31G21G25G16G24G 6G29G18G 3G19G22
 -14384006.58247  22936340.9064   22936336.4264         43.5004         31.2504
 -10940435.03145
 -22764096.66048  21374019.6094   21374014.0124         51.0004         39.7504
 -14947820.24246
  -5199345.20745  24855018.7894   24855014.5234         34.5004         20.5004
  -3073855.44143
 -26866415.59048  20450978.1094   20450972.1914         48.7504         43.2504
 -19518793.69547
  -4413386.20746  24507242.8754   24507239.7854         38.0004         19.2504
  -1074322.02743
 -23904654.39548  21006422.0314   21006417.4964         49.0004         39.7504
 -16713124.30146
  -2334140.79746  24848162.0164   24848157.1644         37.2504         19.2504
  -2499684.87143
 -10975466.14146  23602151.2194   23602145.6994         41.7504         25.5004
  -6221675.03944
 -18844356.85947  21797857.5084   21797852.8244         42.5004         33.2504
 -12097489.15645
  -7946400.86346  24106487.2584   24106481.5164         37.5004         22.7504
  -5667009.27343
  -6691447.26246  24241691.0234   24241685.0314         37.5004         20.0004
  -4882178.99643
 08  5 27  0 51 30.0000000  0 11G31G21G25G16G24G 6G29G18G 3G19G22
 -14286868.41847  22954825.6954   22954821.5824         42.7504         31.5004
 -10864742.99645
 -22720595.55948  21382297.4614   21382291.5864         50.2504         39.5004
 -14913923.27346
  -5265540.60245  24842421.8594   24842417.4264         34.0004         18.2504
  -3125436.25043
 -26893385.55948  20445846.2504   20445840.2934         48.2504         43.5004
 -19539809.25047
  -4310711.81646  24526781.2814   24526777.9184         38.5004         19.5004
   -994316.07043
 -23931342.51248  21001343.4064   21001338.9844         48.7504         40.2504
 -16733920.22746
  -2254975.21546  24863225.8524   24863222.4654         37.2504         21.2504
  -2437997.38343
 -11032425.31246  23591311.7344   23591307.0554         41.5004         23.7504
  -6266058.79743
 -18905515.91447  21786219.1724   21786215.4534         42.5004         33.5004
 -12145145.55145
  -8021607.34846  24092176.6644   24092170.0824         39.2504         22.7504
  -5725611.66443
  -6778955.93046  24225039.1024   24225033.0314         38.0004         21.5004
  -4950367.54343
 08  5 27  0 52  0.0000000  0 11G31G21G25G16G24G 6G29G18G 3G19G22
 -14189544.73847  22973346.1484   22973341.0594         42.7504         31.5004
 -10788906.38345
 -22676680.18048  21390654.0864   21390648.6604         50.2504         39.2504
 -14879703.49246
  -5331357.71545  24829896.9924   24829892.5554         34.7504         19.5004
  -3176722.35543
 -26919988.85948  20440783.4774   20440777.7584         48.5004         43.2504
 -19560539.09847
  -4207921.24246  24546341.6884   24546338.1214         37.5004         19.5004
   -914219.51643
 -23957828.44548  20996303.2034   20996298.7854         48.7504         39.5004
 -16754558.60546
  -2175830.37146  24878287.1334   24878283.8674         37.0004         19.0004
  -2376326.16843
 -11089088.57046  23580529.3524   23580523.8554         41.2504         24.7504
  -6310211.97744
 -18966480.95747  21774617.8834   21774612.9534         43.0004         34.0004
 -12192650.77045
  -8096692.02746  24077888.4534   24077881.4264         39.7504         22.7504
  -5784119.18743
  -6866468.85246  24208385.4454   24208380.0274         37.5004         21.2504
  -5018559.39843
 08  5 27  0 52 30.0000000  0 11G31G21G25G16G24G 6G29G18G 3G19G22
 -14092038.41847  22991900.9064   22991895.6914         43.5004         31.2504
 -10712927.43745
 -22632352.35248  21399089.6094   21399083.7464         50.0004         39.2504
 -14845162.32046
  -5396794.28646  24817446.6024   24817441.1374         38.5004         20.0004
  -3227711.85343
 -26946223.93448  20435791.4534   20435785.1454         48.2504         43.2504
 -19580982.00847
  -4105016.24246  24565924.3674   24565920.5514         37.2504         17.7504
   -834033.78542
 -23984112.32848  20991301.7424   20991297.2584         49.5004         40.2504
 -16775039.54346
  -2096706.30146  24893344.2344   24893340.2384         38.2504         20.0004
  -2314671.07843
 -11145453.12146  23569803.6884   23569798.8554         41.5004         26.0004
  -6354132.39844
 -19027251.78947  21763054.0084   21763049.7424         44.2504         33.7504
 -12240004.66045
  -8171654.53146  24063623.8524   24063616.7934         38.5004         22.5004
  -5842531.55143
  -6953982.59046  24191732.7194   24191725.7774         37.7504         21.0004
  -5086751.94543
 08  5 27  0 53  0.0000000  0 11G31G21G25G16G24G 6G29G18G 3G19G22
 -13994352.58247  23010490.0164   23010484.8954         42.5004         30.2504
 -10636808.62145
 -22587613.85548  21407602.9064   21407597.4304         50.0004         39.2504
 -14810301.14546
  -5461849.11746  24805065.6954   24805061.6294         37.0004         19.2504
  -3278403.91843
 -26972089.40648  20430868.8674   20430863.1254         48.5004         43.0004
 -19601136.91447
  -4001999.37545  24585527.2274   24585523.7464         35.0004         18.2504
   -753760.92643
 -24010194.76648  20986338.6024   20986333.7234         48.5004         40.5004
 -16795363.50446
  -2017603.38346  24908395.8444   24908393.0704         36.0004         20.0004
  -2253032.44543
 -11201516.53947  23559135.0164   23559130.3054         42.0004         26.0004
  -6397818.14544
 -19087827.95747  21751526.3524   21751522.0594         44.5004         34.2504
 -12287206.85545
  -8246495.39146  24049381.5234   24049375.8984         39.7504         25.0004
  -5900849.04744
  -7041494.95746  24175079.4844   24175072.4654         36.7504         21.0004
  -5154943.44543
 08  5 27  0 53 30.0000000  0 11G31G21G25G16G24G 6G29G18G 3G19G22
 -13896489.91446  23029112.2274   23029107.4734         41.2504         29.5004
 -10560552.00844
 -22542466.18748  21416194.5554   21416188.5124         50.5004         39.0004
 -14775121.15246
  -5526519.79346  24792759.8134   24792754.8834         37.0004         20.2504
  -3328796.62543
 -26997583.68748  20426017.3524   20426012.0044         49.0004         43.2504
 -19621002.59447
  -3898873.27746  24605151.8594   24605148.3554         36.2504         19.7504
   -673402.94143
 -24036075.61748  20981413.1174   20981408.7274         49.5004         40.0004
 -16815530.40246
  -1938521.25046  24923445.7894   24923442.6804         38.2504         21.2504
  -2191410.05943
 -11257275.98446  23548524.2664   23548519.5204         41.5004         25.0004
  -6441267.06244
 -19148209.22747  21740036.1644   21740031.7274         45.7504         34.0004
 -12334257.19545
  -8321214.37046  24035163.0164   24035156.8714         39.2504         22.5004
  -5959071.61243
  -7129003.21146  24158427.2504   24158421.0434         36.5004         21.5004
  -5223131.69543
 08  5 27  0 54  0.0000000  0 11G31G21G25G16G24G 6G29G18G 3G19G22
 -13798453.40247  23047768.7504   23047763.4064         42.0004         30.7504
 -10484159.94945
 -22496911.18748  21424863.2424   21424857.3554         50.5004         39.0004
 -14739623.73846
  -5590804.44145  24780526.9774   24780521.6684         35.2504         20.2504
  -3378888.56643
 -27022705.12948  20421237.1334   20421231.4024         49.5004         44.0004
 -19640577.73847
  -3795640.14846  24624795.7814   24624792.9344         36.5004         18.5004
   -592961.54343
 -24061755.25848  20976526.1884   20976522.1174         49.2504         40.0004
 -16835540.50046
  -1859460.42245  24938489.2814   24938487.4304         35.7504         19.2504
  -2129804.21543
 -11312729.10247  23537971.5704   23537965.7734         42.7504         25.5004
  -6484477.27344
 -19208395.78147  21728582.8834   21728578.8244         46.0004         33.5004
 -12381155.80145
  -8395810.88346  24020967.2194   24020959.9844         38.5004         22.5004
  -6017198.74243
  -7216504.12946  24141776.4384   24141770.2344         37.2504         21.5004
  -5291314.25843
 08  5 27  0 54 30.0000000  0 11G31G21G25G16G24G 6G29G18G 3G19G22
 -13700245.81247  23066456.3984   23066451.4454         42.5004         30.5004
 -10407634.56245
 -22450950.45348  21433608.8284   21433603.6024         50.2504         39.0004
 -14703810.18046
  -5654701.24245  24768366.6174   24768362.6644         34.2504         19.5004
  -3428678.31243
 -27047452.20748  20416528.3134   20416522.1644         48.7504         43.0004
 -19659861.16847
  -3692302.26646  24644460.7814   24644457.3914         37.2504         17.7504
   -512438.50442
 -24087233.79348  20971678.1644   20971673.6334         49.5004         40.0004
 -16855393.89846
  -1780420.84846  24953530.5234   24953527.0594         37.0004         19.0004
  -2068214.95343
 -11367873.16047  23527478.5314   23527472.6644         42.0004         26.2504
  -6527446.68444
 -19268386.95747  21717167.2664   21717163.6334         45.7504         34.0004
 -12427902.16845
  -8470285.30546  24006796.0164   24006789.4734         39.7504         25.5004
  -6075230.75044
  -7303994.77746  24125126.9064   24125121.1254         36.7504         20.2504
  -5359488.73043
 08  5 27  0 55  0.0000000  0 11G31G21G25G16G24G 6G29G18G 3G19G22
 -13601870.44946  23085177.0164   23085171.8634         41.7504         29.5004
 -10330978.45344
 -22404585.67648  21442432.1334   21442426.3594         50.5004         38.7504
 -14667681.78146
  -5718208.55545  24756282.3204   24756277.8444         34.5004         19.7504
  -3478164.45343
 -27071823.58648  20411890.1954   20411884.5164         50.0004         43.0004
 -19678851.84847
  -3588862.03946  24664145.0314   24664140.6724         36.7504         18.5004
   -431835.73443
 -24112511.52048  20966868.2114   20966863.3484         49.0004         40.2504
 -16875090.81646
  -1701402.85945  24968567.9454   24968564.1524         33.5004         20.0004
  -2006642.52743
 -11422706.00047  23517044.3834   23517039.4844         42.7504         25.0004
  -6570173.53944
 -19328182.98447  21705788.1024   21705784.1054         46.7504         34.7504
 -12474496.45345
  -8544637.78546  23992647.5474   23992641.2464         38.0004         24.7504
  -6133167.69944
  -7391472.75046  24108481.7194   24108474.4964         36.5004         21.5004
  -5427653.38343
 08  5 27  0 55 30.0000000  0 11G31G21G25G16G24G 6G29G18G 3G19G22
 -13503329.98846  23103928.6334   23103923.3954         41.2504         30.5004
 -10254193.71145
 -22357818.57448  21451331.5084   21451325.8754         50.7504         38.5004
 -14631239.87946
  -5781324.32845  24744271.6884   24744266.7934         34.7504         19.2504
  -3527345.56643
 -27095817.41048  20407324.5864   20407318.4844         49.7504         43.2504
 -19697548.33247
  -3485321.91446  24683847.6024   24683844.2274         36.7504         18.2504
   -351155.09843
 -24137588.66848  20962096.4224   20962091.5554         49.0004         39.7504
 -16894631.44946
  -1622406.36345  24983599.4614   24983596.4384         34.2504         19.0004
  -1945086.80543
 -11477224.74247  23506669.8524   23506664.7384         42.2504         26.0004
  -6612655.66444
 -19387783.28547  21694446.7814   21694442.4144         46.2504         34.7504
 -12520938.23445
  -8618868.06446  23978520.5784   23978514.9654         38.5004         22.0004
  -6191009.40243
  -7478935.10546  24091836.7424   24091830.6724         36.5004         21.5004
  -5495805.84843
 08  5 27  0 56  0.0000000  0 11G31G21G25G16G24G 6G29G18G 3G19G22
 -13404627.36746  23122711.3984   23122705.8204         41.7504         30.5004
 -10177282.60945
 -22310651.00448  21460306.8204   21460301.4144         49.7504         38.5004
 -14594485.92646
  -5844046.74645  24732336.2584   24732331.5864         35.0004         20.7504
  -3576220.15243
 -27119432.34048  20402830.5784   20402824.7114         49.5004         43.5004
 -19715949.57447
  -3381683.97345  24703568.1644   24703565.6174         35.0004         17.7504
   -270398.23442
 -24162465.32848  20957362.0784   20957357.3874         49.0004         40.0004
 -16914015.86346
  -1543431.75045  24998628.5084   24998624.9304         35.7504         18.5004
  -1883548.16043
 -11531426.68447  23496355.4534   23496349.9344         42.2504         24.0004
  -6654890.93044
 -19447187.35547  21683142.4614   21683138.2234         46.0004         35.0004
 -12567227.10245
  -8692976.43446  23964418.4384   23964412.0744         38.5004         22.7504
  -6248756.16043
  -7566379.03146  24075197.8364   24075190.6954         36.7504         20.0004
  -5563944.02343
 08  5 27  0 56 30.0000000  0 11G31G21G25G16G24G 6G29G18G 3G19G22
 -13305765.47747  23141523.7114   23141519.1094         42.0004         30.5004
 -10100247.37945
 -22263084.64848  21469358.7274   21469353.1684         50.0004         39.0004
 -14557421.23446
  -5906374.18745  24720475.4144   24720470.7774         34.7504         20.0004
  -3624786.95743
 -27142666.46947  20398409.2424   20398403.5784         47.7504         43.5004
 -19734054.07847
  -3277950.75045  24723309.5634   24723305.7464         35.5004         18.2504
   -189567.23843
 -24187141.84848  20952665.9614   20952661.5784         48.0004         40.2504
 -16933244.30946
  -1464479.06246  25013653.0314   25013649.0824         37.2504         18.5004
  -1822026.56243
 -11585309.73847  23486101.6724   23486096.2234         42.0004         24.2504
  -6696877.73044
 -19506395.45347  21671875.7034   21671871.0554         45.7504         34.5004
 -12613363.26645
  -8766962.47746  23950339.3284   23950333.2934         37.2504         24.0004
  -6306407.54344
  -7653801.46946  24058561.8284   24058555.1954         38.0004         22.7504
  -5632065.40643
 08  5 27  0 57  0.0000000  0 11G31G21G25G16G24G 6G29G18G 3G19G22
 -13206746.98846  23160366.4224   23160361.4184         41.7504         30.0004
 -10023090.14545
 -22215121.20748  21478485.8984   21478480.3984         50.7504         39.0004
 -14520047.12146
  -5968304.58645  24708690.2344   24708685.7074         34.2504         19.2504
  -3673044.42243
 -27165518.86348  20394060.5864   20394055.0274         49.0004         43.2504
 -19751861.13747
  -3174124.85246  24743066.4384   24743063.1454         37.5004         17.7504
   -108663.94542
 -24211618.25448  20948008.9454   20948004.1564         48.2504         40.5004
 -16952316.83246
  -1385548.29746  25028671.9454   25028670.0554         36.5004         19.2504
  -1760522.07443
 -11638871.18446  23475908.8914   23475904.1644         41.0004         24.0004
  -6738613.90644
 -19565407.09047  21660646.3834   21660641.7074         45.7504         35.0004
 -12659346.35945
  -8840826.41846  23936283.2344   23936277.7274         38.5004         24.5004
  -6363963.77044
  -7741199.48846  24041929.1804   24041924.1564         37.0004         22.5004
  -5700167.69543
 08  5 27  0 57 30.0000000  0 11G31G21G25G16G24G 6G29G18G 3G19G22
 -13107574.60946  23179238.5554   23179233.5434         41.5004         30.0004
  -9945812.96945
 -22166762.69548  21487688.2114   21487682.1604         50.0004         38.5004
 -14482365.16846
  -6029836.25845  24696981.7194   24696976.4454         35.5004         19.7504
  -3720991.14543
 -27187987.69948  20389784.6724   20389779.4064         50.0004         43.2504
 -19769369.32047
  -3070208.11746  24762840.8984   24762837.8244         39.0004         18.2504
    -27689.78143
 -24235894.82448  20943388.8364   20943384.6764         49.0004         40.0004
 -16971233.62946
  -1306639.67246  25043688.7274   25043685.8874         36.7504         20.2504
  -1699034.86743
 -11692108.46146  23465778.7274   23465773.7154         41.2504         24.0004
  -6780097.49644
 -19624221.98047  21649454.1484   21649449.4104         46.0004         34.2504
 -12705176.12545
  -8914568.26246  23922250.0164   23922244.6884         38.5004         25.0004
  -6421424.87544
  -7828570.48846  24025303.9534   24025297.0554         36.7504         21.7504
  -5768249.10243
 08  5 27  0 58  0.0000000  0 11G31G21G25G16G24G 6G29G18G 3G19G22
 -13008252.30946  23198138.7424   23198134.2344         41.5004         30.2504
  -9868418.98845
 -22118010.57448  21496965.3364   21496959.4804         49.7504         38.5004
 -14444376.50446
  -6090967.43046  24685348.7814   24685343.0434         37.0004         20.0004
  -3768625.83243
 -27210071.75447  20385582.5634   20385576.7584         46.7504         43.5004
 -19786577.66447
  -2966203.14546  24782632.5864   24782629.2664         38.2504         17.7504
     53353.09042
 -24259971.92647  20938807.2194   20938802.6724         46.2504         40.0004
 -16989995.00846
  -1227753.38346  25058699.0784   25058696.5824         37.2504         18.2504
  -1637565.03943
 -11745019.19946  23455709.6804   23455704.8484         41.5004         26.0004
  -6821326.60544
 -19682840.47747  21638299.2034   21638295.0744         45.5004         35.5004
 -12750852.86745
  -8988187.85246  23908242.2664   23908234.9804         38.2504         24.5004
  -6478790.73844
  -7915911.57846  24008682.6644   24008677.1134         37.0004         21.7504
  -5836307.05543
 08  5 27  0 58 30.0000000  0 11G31G21G25G16G24G 6G29G18G 3G19G22
 -12908781.86747  23217067.3754   23217062.5554         42.5004         30.5004
  -9790909.55945
 -22068866.46548  21506317.3054   21506311.5044         50.0004         39.2504
 -14406082.38746
  -6151696.07846  24673792.0944   24673787.3674         36.7504         20.5004
  -3815946.83643
 -27231769.03948  20381454.0084   20381447.6764         49.0004         43.0004
 -19803484.63747
  -2862111.71546  24802440.1414   24802437.1644         37.7504         18.2504
    134463.34043
 -24283849.26648  20934263.6334   20934258.9844         49.7504         40.5004
 -17008600.70746
  -1148889.06246  25073706.9774   25073703.8634         36.5004         17.2504
  -1576112.30942
 -11797600.52846  23445703.7664   23445698.4454         41.5004         24.0004
  -6862299.06244
 -19741261.78147  21627182.1564   21627177.8714         45.0004         35.0004
 -12796375.94545
  -9061685.14846  23894255.9224   23894249.4574         38.5004         24.7504
  -6536061.25844
  -8003219.49246  23992069.0704   23992063.0274         38.5004         22.2504
  -5904339.14843
 08  5 27  0 59  0.0000000  0 11G31G21G25G16G24G 6G29G18G 3G19G22
 -12809166.70747  23236023.6644   23236018.2934         42.0004         29.2504
  -9713287.37144
 -22019332.59848  21515743.3834   21515737.5864         49.5004         38.2504
 -14367484.56246
  -6212020.81246  24662312.8984   24662307.6414         37.5004         20.7504
  -3862953.11743
 -27253078.35248  20377398.7034   20377392.9384         49.5004         43.5004
 -19820089.28947
  -2757936.31245  24822264.2114   24822261.5474         35.7504         16.2504
    215638.93442
 -24307527.39548  20929757.7584   20929753.1484         49.2504         40.0004
 -17027051.19546
  -1070047.39846  25088711.1724   25088707.7114         36.7504         19.0004
  -1514677.23843
 -11849850.28147  23435761.5314   23435755.8674         42.5004         26.2504
  -6903013.14544
 -19799485.73847  21616102.4924   21616098.1564         44.5004         35.5004
 -12841745.25045
  -9135060.31246  23880292.1254   23880286.3954         38.0004         24.5004
  -6593236.63344
  -8090492.22746  23975461.8284   23975455.0164         39.0004         21.5004
  -5972343.90643
 08  5 27  0 59 30.0000000  0 11G31G21G25G16G24G 6G29G18G 3G19G22
 -12709409.84447  23255005.9844   23255001.3634         42.5004         29.2504
  -9635554.78544
 -21969410.42248  21525243.1724   21525237.1884         50.0004         38.5004
 -14328584.16446
  -6271939.75846  24650910.8754   24650905.7304         38.0004         20.5004
  -3909643.18743
 -27273998.14148  20373417.7734   20373412.0984         49.7504         43.5004
 -19836390.41847
  -2653679.35245  24842103.8054   24842100.2854         34.7504         15.5004
    296878.14142
 -24331006.43748  20925289.8204   20925285.5204         49.5004         40.5004
 -17045346.54746
   -991228.14145  25103708.3284   25103705.9734         35.2504         17.2504
  -1453259.64542
 -11901766.28147  23425882.2344   23425876.8014         42.0004         26.0004
  -6943467.15244
 -19857512.16447  21605060.8134   21605055.8914         45.2504         35.0004
 -12886960.64145
  -9208313.37946  23866352.8674   23866345.8284         38.5004         24.7504
  -6650316.92244
  -8177725.93046  23958862.3444   23958855.3874         39.7504         22.2504
  -6040318.19543
 08  5 27  1  0  0.0000000  0 11G31G21G25G16G24G 6G29G18G 3G19G22
 -12609514.12947  23274016.1804   23274011.6994         42.0004         29.7504
  -9557713.99244
 -21919102.00048  21534816.3524   21534810.8554         50.0004         38.5004
 -14289382.79746
  -6331451.15646  24639586.0164   24639580.9224         37.0004         19.2504
  -3956015.70343
 -27294527.21148  20369511.1024   20369505.1804         50.0004         44.0004
 -19852387.09447
  -2549343.43745  24861958.8984   24861955.2304         35.7504         17.7504
    378178.85542
 -24354286.79748  20920859.7274   20920855.3404         50.0004         40.5004
 -17063487.06646
   -912431.57046  25118704.1884   25118700.4774         36.5004         19.2504
  -1391859.69943
 -11953345.48047  23416066.4924   23416061.0234         42.2504         25.0004
  -6983658.72344
 -19915340.89547  21594056.3594   21594051.5274         45.5004         34.7504
 -12932021.97745
  -9281444.59046  23852435.8524   23852429.8524         37.5004         23.0004
  -6707302.22343
  -8264918.36346  23942270.0234   23942263.3204         38.5004         21.7504
  -6108260.40643
 08  5 27  1  0 30.0000000  0 11G31G21G25G16G24G 6G29G18G 3G19G22
 -12509482.08247  23293051.4844   23293046.5514         42.2504         28.2504
  -9479766.96144
 -21868408.85248  21544463.2504   21544457.1844         50.2504         38.2504
 -14249881.63346
  -6390553.17246  24628339.5084   24628333.9694         37.7504         20.5004
  -4002069.23043
 -27314663.60248  20365679.0944   20365673.8164         49.0004         44.0004
 -19868077.78547
  -2444930.41846  24881828.0784   24881824.3134         37.2504         17.7504
    459539.70342
 -24377368.19148  20916467.5004   20916462.7234         49.2504         40.5004
 -17081472.55946
   -833657.58645  25133693.1484   25133691.4804         34.7504         19.0004
  -1330477.39543
 -12004585.56647  23406316.0084   23406310.9614         42.0004         26.2504
  -7023586.05944
 -19972971.69147  21583089.0004   21583084.4924         45.5004         34.7504
 -12976929.07845
  -9354453.37946  23838543.4144   23838537.2114         39.0004         24.5004
  -6764192.09844
  -8352066.53146  23925685.6804   23925679.6334         38.5004         22.5004
  -6176168.02743
 08  5 27  1  1  0.0000000  0 12G31G21G25G16G24G 7G 6G29G18G 3G19G22
 -12409316.89847  23312112.1024   23312107.4964         42.5004         28.5004
  -9401716.16044
 -21817332.87548  21554182.1644   21554176.6254         49.0004         38.5004
 -14210082.17646
  -6449244.23446  24617170.4064   24617166.1174         37.5004         21.5004
  -4047802.48843
 -27334406.09848  20361922.3834   20361916.8754         48.7504         44.0004
 -19883461.54347
  -2340442.66046  24901711.4774   24901707.9534         37.2504         17.2504
    540958.75442
   -223403.61715  25661969.563                          31.250

 -24400251.00847  20912112.9534   20912108.4184         47.7504         40.2504
 -17099303.32046
   -754906.42246  25148679.9064   25148676.6524         37.5004         19.0004
  -1269112.71543
 -12055484.33646  23396630.2894   23396625.2464         41.0004         25.5004
  -7063247.41844
 -20030404.17247  21572159.8834   21572155.5944         45.0004         34.7504
 -13021681.65245
  -9427340.10546  23824673.6024   23824666.7584         39.7504         25.0004
  -6820986.94944
  -8439167.19546  23909111.6884   23909105.0004         39.0004         22.7504
  -6244038.64843
 08  5 27  1  1 30.0000000  0 12G31G21G25G16G24G 7G 6G29G18G 3G19G22
 -12309021.16047  23331197.8914   23331192.9384         42.5004         29.0004
  -9323563.64844
 -21765875.86748  21563974.3444   21563968.6334         49.7504         38.0004
 -14169985.80146
  -6507522.50846  24606080.8914   24606076.0234         38.7504         21.5004
  -4093214.11343
 -27353753.24248  20358240.7034   20358235.1054         49.7504         43.5004
 -19898537.23847
  -2235882.30546  24921607.8054   24921605.5664         36.0004         18.2504
    622434.39543
   -312175.96545  25645078.2274   25645075.0274         34.7504         16.7504
   -165303.94552
 -24422935.32848  20907796.4064   20907791.7974         49.5004         40.2504
 -17116979.39546
   -676178.22345  25163661.2274   25163658.9024         35.7504         18.5004
  -1207766.12543
 -12106039.23046  23387010.1174   23387004.1564         41.2504         26.2504
  -7102640.85244
 -20087637.97347  21561268.3284   21561264.2584         45.5004         35.0004
 -13066279.39845
  -9500104.36746  23810826.4224   23810820.3364         38.7504         24.5004
  -6877686.33244
  -8526217.61346  23892545.8134   23892539.7464         38.7504         22.0004
  -6311870.10943
 08  5 27  1  2  0.0000000  0 12G31G21G25G16G24G 7G 6G29G18G 3G19G22
 -12208598.33646  23350307.7194   23350303.1414         41.5004         28.7504
  -9245312.11744
 -21714039.94548  21573838.9534   21573832.7464         49.5004         38.0004
 -14129594.16846
  -6565386.55946  24595069.4384   24595064.4414         38.2504         22.5004
  -4138302.99243
 -27372703.71148  20354634.6724   20354628.6604         49.7504         43.5004
 -19913303.84047
  -2131251.62946  24941519.0784   24941515.7894         37.5004         18.2504
    703964.78543
   -400658.19145  25628239.8054   25628237.3054         35.2504         16.2504
   -234251.02042
 -24445421.52748  20903517.2424   20903512.4534         50.0004         40.5004
 -17134501.10246
   -597472.62945  25178638.7034   25178634.7664         35.5004         16.2504
  -1146436.99642
 -12156248.10246  23377454.9454   23377450.2234         41.5004         25.0004
  -7141764.60944
 -20144673.23047  21550415.5704   21550411.4024         45.7504         35.2504
 -13110722.43445
  -9572746.73446  23797003.0704   23796996.5944         38.7504         24.7504
  -6934290.69544
  -8613215.29746  23875989.8754   23875984.6684         38.7504         22.5004
  -6379660.48043
 08  5 27  1  2 30.0000000  0 12G31G21G25G16G24G 7G 6G29G18G 3G19G22
 -12108051.08647  23369441.7974   23369437.1414         42.0004         29.7504
  -9166963.63744
 -21661826.51248  21583774.5784   21583768.6914         49.5004         37.7504
 -14088908.37946
  -6622834.48046  24584137.5704   24584132.6214         37.0004         21.0004
  -4183067.62543
 -27391255.77747  20351104.3754   20351098.6174         46.5004         43.2504
 -19927759.98847
  -2026552.91845  24961441.3364   24961439.3444         35.5004         16.7504
    785548.24242
   -488847.85545  25611458.7034   25611455.2384         35.2504         15.5004
   -302970.25042
 -24467709.69547  20899276.2344   20899271.3754         47.5004         40.0004
 -17151868.48846
   -518790.18045  25193611.2734   25193607.8954         35.0004         17.7504
  -1085126.02342
 -12206108.01647  23367967.5944   23367962.4964         42.0004         26.5004
  -7180616.49244
 -20201509.73847  21539599.6644   21539595.6524         45.0004         35.0004
 -13155010.59845
  -9645266.91846  23783203.6954   23783196.8714         40.5004         25.2504
  -6990799.90644
  -8700157.01646  23859446.4144   23859439.6884         38.5004         22.7504
  -6447407.32443
 08  5 27  1  3  0.0000000  0 12G31G21G25G16G24G 7G 6G29G18G 3G19G22
 -12007382.27046  23388597.8284   23388592.7114         41.2504         27.7504
  -9088520.42644
 -21609237.57848  21593781.8674   21593775.7544         48.5004         38.2504
 -14047929.97746
  -6679864.69546  24573285.1724   24573279.9774         38.0004         19.5004
  -4227506.76643
 -27409408.21148  20347649.9224   20347644.1994         49.2504         43.7504
 -19941904.73847
  -1921788.32845  24981377.6414   24981375.1764         34.5004         16.7504
    867183.00842
   -576742.23845  25594732.3284   25594729.3364         33.0004         15.5004
   -371459.28542
 -24489799.92648  20895072.1884   20895067.4964         49.0004         40.2504
 -17169081.64546
   -440130.83245  25208579.9614   25208576.1054         35.5004         16.7504
  -1023833.03542
 -12255616.58647  23358546.4534   23358541.2384         42.5004         25.7504
  -7219194.58244
 -20258146.83647  21528822.4304   21528817.1524         45.0004         35.5004
 -13199143.39145
  -9717665.00846  23769426.3524   23769419.8094         40.0004         25.2504
  -7047213.91044
  -8787039.83246  23842912.8594   23842906.8754         37.7504         22.5004
  -6515108.29743
 08  5 27  1  3 30.0000000  0 12G31G21G25G16G24G 7G 6G29G18G 3G19G22
 -11906594.44546  23407777.7034   23407772.2814         40.7504         27.5004
  -9009984.44944
 -21556275.04348  21603859.8754   21603854.4734         49.5004         37.7504
 -14006660.46546
  -6736475.39546  24562512.8134   24562507.4804         37.5004         20.5004
  -4271619.02043
 -27427159.38348  20344272.0474   20344266.3754         49.2504         43.5004
 -19955736.82847
  -1816960.05145  25001327.2194   25001323.2464         33.5004         17.2504
    948867.38742
   -664338.93745  25578063.8134   25578060.6454         33.5004         16.2504
   -439716.51642
 -24511692.34048  20890906.3284   20890901.5394         49.0004         39.7504
 -17186140.65246
   -361494.50045  25223544.1024   25223540.2304         35.0004         18.5004
   -962557.95743
 -12304771.62546  23349192.8054   23349187.5904         41.2504         26.0004
  -7257497.19544
 -20314584.51247  21518082.3134   21518077.3674         45.7504         36.0004
 -13243120.78546
  -9789941.07046  23755672.9534   23755665.7734         41.2504         26.2504
  -7103532.88744
  -8873860.50846  23826391.5474   23826385.4694         39.5004         23.0004
  -6582760.74243
 08  5 27  1  4  0.0000000  0 12G31G21G25G16G24G 7G 6G29G18G 3G19G22
 -11805691.05946  23426978.4304   23426974.2304         40.5004         27.7504
  -8931358.47744
 -21502940.79748  21614009.1484   21614003.3874         49.5004         38.5004
 -13965101.30946
  -6792665.19546  24551819.5004   24551815.1334         38.5004         20.7504
  -4315403.24243
 -27444508.43448  20340970.8444   20340964.9734         49.5004         43.0004
 -19969255.55947
  -1712070.46545  25021285.2584   25021283.1524         33.2504         16.2504
   1030599.55942
   -751635.62945  25561450.6484   25561445.5044         33.5004         19.7504
   -476471.86753
 -24533387.32448  20886778.1804   20886773.1884         48.5004         39.7504
 -17203045.82446
   -282881.52346  25238503.4694   25238500.3324         36.2504         16.7504
   -901301.03542
 -12353570.78547  23339906.3134   23339901.2934         42.2504         25.5004
  -7295522.48844
 -20370822.73047  21507380.9694   21507376.2814         45.7504         35.5004
 -13286942.75445
  -9862095.18746  23741942.4144   23741935.5394         40.2504         25.0004
  -7159756.87144
  -8960616.73046  23809882.5394   23809877.1524         38.2504         22.7504
  -6650362.99643
 08  5 27  1  4 30.0000000  0 12G31G21G25G16G24G 7G 6G29G18G 3G19G22
 -11704674.57446  23446201.2114   23446196.3984         41.5004         28.5004
  -8852644.32444
 -21449236.61348  21624228.8054   21624223.3204         49.0004         37.7504
 -13923253.88346
  -6848432.19946  24541207.7734   24541203.4344         38.7504         22.5004
  -4358858.04343
 -27461453.38748  20337746.2584   20337740.6024         50.0004         43.5004
 -19982459.42247
  -1607121.54745  25041256.6804   25041254.5164         35.2504         16.2504
   1112377.91842
   -838629.75845  25544897.1884   25544892.3444         34.5004         17.2504
   -544259.39842
 -24554884.80548  20882687.1954   20882682.3984         49.5004         40.0004
 -17219797.10246
   -204291.34446  25253458.7734   25253455.7034         37.2504         15.5004
   -840061.96942
 -12402011.76247  23330688.1644   23330682.8594         42.2504         26.5004
  -7333268.70744
 -20426860.97347  21496716.4384   21496712.1914         45.5004         36.5004
 -13330608.89846
  -9934127.10946  23728234.3834   23728228.9844         40.2504         26.7504
  -7215885.56244
  -9047305.30546  23793385.9614   23793380.2814         39.5004         23.0004
  -6717912.54743
 08  5 27  1  5  0.0000000  0 12G31G21G25G16G24G 7G 6G29G18G 3G19G22
 -11603548.09046  23465445.2034   23465440.5084         40.5004         28.0004
  -8773844.47744
 -21395164.49248  21634518.5554   21634512.6844         49.0004         37.7504
 -13881119.77046
  -6903775.10546  24530676.6644   24530671.4734         39.0004         21.2504
  -4401982.38343
 -27477992.82048  20334598.8444   20334593.1524         49.0004         43.0004
 -19995347.28947
  -1502115.71945  25061239.1884   25061236.4694         34.5004         16.2504
   1194200.66042
   -925318.87945  25528398.9064   25528396.8524         31.2504         14.7504
   -611809.36342
 -24576184.97748  20878634.1094   20878629.1294         49.0004         40.5004
 -17236394.62146
   -125724.54345  25268408.1174   25268406.2734         34.2504         17.2504
   -778841.10942
 -12450092.02747  23321538.7814   23321533.6844         42.7504         26.7504
  -7370733.85244
 -20482699.06247  21486091.2344   21486086.6724         46.0004         35.7504
 -13374119.08245
 -10006036.88746  23714551.1174   23714544.6414         41.2504         27.0004
  -7271919.08644
  -9133923.08246  23776903.5084   23776897.2274         39.0004         22.7504
  -6785406.92643
 08  5 27  1  5 30.0000000  0 12G31G21G25G16G24G 7G 6G29G18G 3G19G22
 -11502314.77346  23484709.0784   23484704.5704         40.7504         28.0004
  -8694961.35544
 -21340726.17648  21644877.8204   21644871.8324         49.0004         37.7504
 -13838700.29346
  -6958692.35446  24520224.8914   24520220.7544         38.5004         20.2504
  -4444775.07243
 -27494125.62148  20331528.7974   20331522.9774         48.7504         43.5004
 -20007918.29747
  -1397054.90645  25081230.0084   25081228.6844         34.7504         17.2504
   1276066.28942
  -1011700.14855  25511963.9694   25511959.2384         34.0004         15.5004
   -679119.43452
 -24597287.98448  20874618.1644   20874613.1484         49.0004         40.0004
 -17252838.51646
    -47180.87946  25283356.1254   25283352.4184         37.2504         17.2504
   -717638.25442
 -12497809.39147  23312458.2734   23312453.0824         42.5004         26.5004
  -7407916.19544
 -20538336.42647  21475503.6174   21475499.1414         46.0004         35.5004
 -13417472.86745
 -10077824.75046  23700890.1804   23700882.7734         40.2504         23.5004
  -7327857.68043
  -9220467.44146  23760433.8364   23760428.4024         38.7504         23.0004
  -6852843.98043
 08  5 27  1  6  0.0000000  0 12G31G21G25G16G24G 7G 6G29G18G 3G19G22
 -11400977.05146  23503992.6884   23503988.0004         40.2504         27.5004
  -8615996.89844
 -21285923.55148  21655306.1254   21655300.3634         49.2504         37.5004
 -13795996.94146
  -7013182.30946  24509856.3594   24509852.0824         36.7504         19.7504
  -4487234.73443
 -27509850.25848  20328536.3594   20328530.6524         49.5004         43.7504
 -20020171.25847
  -1291941.03945  25101233.0234   25101231.6804         33.7504         14.7504
   1357973.17642
  -1097771.29745  25495583.0944   25495579.9104         34.5004         16.7504
   -746187.84042
 -24618193.95348  20870639.9614   20870635.1684         49.5004         40.2504
 -17269128.87946
     31339.12145  25298295.2974   25298294.8364         33.0004         19.0004
   -656453.87143
 -12545161.31247  23303447.6564   23303442.6604         42.2504         27.0004
  -7444813.78944
 -20593773.30147  21464954.6094   21464950.1844         46.5004         36.0004
 -13460670.41846
 -10149490.75446  23687252.1804   23687246.6844         40.2504         26.7504
  -7383701.26644
  -9306935.29746  23743979.9384   23743973.8204         39.5004         23.0004
  -6920221.49243
 08  5 27  1  6 30.0000000  0 12G31G21G25G16G24G 7G 6G29G18G 3G19G22
 -11299538.00446  23523296.1954   23523291.6054         40.7504         28.5004
  -8536953.52044
 -21230758.51648  21665803.9384   21665797.9734         49.5004         37.5004
 -13753011.20346
  -7067243.25446  24499569.2664   24499564.9774         36.2504         21.5004
  -4529360.13343
 -27525165.48848  20325622.2424   20325616.4024         48.7504         42.5004
 -20032105.20347
  -1186776.78145  25121245.7114   25121243.9924         34.5004         14.7504
   1439919.39842
  -1183530.12545  25479264.6024   25479260.1564         34.2504         16.7504
   -813012.86342
 -24638903.11748  20866698.8914   20866694.3134         49.2504         40.2504
 -17285265.88746
    109835.92245  25313234.5784   25313232.8914         35.0004         16.7504
   -595287.65242
 -12592145.55946  23294506.8834   23294501.6024         41.7504         27.0004
  -7481424.86344
 -20649009.02747  21454443.3524   21454439.0514         46.0004         36.2504
 -13503711.25046
 -10221034.59446  23673638.3914   23673632.3554         40.7504         26.5004
  -7439449.65244
  -9393323.83246  23727540.6024   23727534.4224         39.0004         23.0004
  -6987537.16843
 08  5 27  1  7  0.0000000  0 12G31G21G25G16G24G 7G 6G29G18G 3G19G22
 -11198000.24246  23542618.2664   23542613.1644         39.7504         27.0004
  -8457833.14544
 -21175232.99648  21676370.0704   21676364.1334         48.7504         37.5004
 -13709744.55946
  -7120873.68046  24489363.5474   24489359.2344         38.0004         22.0004
  -4571150.10243
 -27540069.86748  20322785.7664   20322780.0944         49.0004         43.5004
 -20043719.00847
  -1081564.32445  25141267.5004   25141264.7304         35.7504         16.2504
   1521903.10942
  -1268973.85545  25463004.1334   25463000.4924         33.7504         17.7504
   -879592.34442
 -24659415.59048  20862795.3444   20862791.0664         49.2504         39.7504
 -17301249.62946
    188309.18845  25328168.0474   25328165.0514         35.5004         18.2504
   -534139.54743
 -12638760.04747  23285636.7584   23285631.0664         42.2504         27.0004
  -7517747.84044
 -20704043.69947  21443970.3284   21443965.9614         46.7504         36.5004
 -13546595.39146
 -10292456.56646  23660047.3204   23660039.9574         40.5004         26.0004
  -7495103.13744
  -9479630.27146  23711116.9454   23711110.8984         40.0004         24.7504
  -7054788.85544
 08  5 27  1  7 30.0000000  0 12G31G21G25G16G24G 7G 6G29G18G 3G19G22
 -11096366.95346  23561958.3984   23561953.2664         41.0004         27.5004
  -8378638.32044
 -21119348.86748  21687004.2894   21686998.6454         48.7504         37.7504
 -13666198.47746
  -7174072.07845  24479240.2274   24479235.9184         35.5004         22.7504
  -4612603.39543
 -27554562.34048  20320027.9144   20320022.3444         48.0004         43.5004
 -20055011.84047
   -976305.57846  25161298.0704   25161294.9804         37.0004         16.2504
   1603922.89542
  -1354099.88745  25446806.3754   25446801.7664         34.0004         15.5004
   -945924.28542
 -24679731.48848  20858929.3834   20858924.9024         49.7504         40.5004
 -17317080.19146
    266759.21945  25343095.5944   25343094.5664         32.0004         16.7504
   -473009.76242
 -12685002.32846  23276836.5474   23276832.0514         41.0004         27.0004
  -7553780.77744
 -20758877.16847  21433536.2584   21433531.4104         46.5004         36.2504
 -13589322.75446
 -10363756.73046  23646477.8834   23646472.2814         39.7504         26.0004
  -7550661.70744
  -9565851.27346  23694709.7424   23694703.2344         39.5004         22.7504
  -7121973.96543
 08  5 27  1  8  0.0000000  0 12G31G21G25G16G24G 7G 6G29G18G 3G19G22
 -10994640.88746  23581316.0004   23581311.4184         40.5004         27.0004
  -8299371.28944
 -21063108.07448  21697706.6564   21697700.9964         49.0004         37.2504
 -13622374.49246
  -7226836.88346  24469199.2504   24469195.1024         38.2504         22.0004
  -4653718.80943
 -27568641.01648  20317348.9774   20317343.1524         48.5004         43.2504
 -20065982.23447
   -871002.59846  25181335.3134   25181333.5274         36.0004         15.5004
   1685977.24642
  -1438906.26645  25430667.3134   25430663.8914         32.2504         15.5004
  -1012007.16042
 -24699850.85548  20855101.0234   20855096.3094         49.2504         40.5004
 -17332757.61746
    345185.90246  25358021.4844   25358017.5274         36.2504         17.7504
   -411898.10942
 -12730869.77346  23268108.1954   23268103.6134         41.2504         25.5004
  -7589521.64544
 -20813508.78147  21423139.9534   21423135.3484         46.0004         35.7504
 -13631892.83645
 -10434934.83646  23632934.1024   23632928.1054         40.7504         27.5004
  -7606125.11344
  -9651983.96146  23678318.8594   23678313.5394         40.0004         25.2504
  -7189090.24644
 08  5 27  1  8 30.0000000  0 12G31G21G25G16G24G 7G 6G29G18G 3G19G22
 -10892824.94946  23600692.1804   23600686.8204         41.7504         28.0004
  -8220034.15244
 -21006512.40248  21708476.5164   21708470.5664         48.7504         38.0004
 -13578273.95746
  -7279166.64546  24459241.4844   24459236.7074         36.0004         21.5004
  -4694495.23843
 -27582304.78548  20314748.8754   20314743.2584         48.5004         43.2504
 -20076629.31647
   -765657.60245  25201382.0234   25201379.9494         35.2504         15.5004
   1768064.21142
  -1523390.05555  25414591.7894   25414587.0594         35.2504         17.2504
  -1077838.54352
 -24719773.79748  20851309.7584   20851305.0354         49.2504         40.5004
 -17348281.97746
    423589.41845  25372938.5474   25372937.0354         31.7504         15.5004
   -350804.44942
 -12776360.55947  23259451.6094   23259446.8754         42.2504         26.5004
  -7624968.97744
 -20867938.14547  21412782.4614   21412777.9884         46.5004         35.7504
 -13674305.30945
 -10505991.27346  23619413.3054   23619406.3914         40.7504         26.5004
  -7661493.76644
  -9738025.75046  23661946.4924   23661940.0554         39.5004         24.2504
  -7256135.73844
 08  5 27  1  9  0.0000000  0 12G31G21G25G16G24G 7G 6G29G18G 3G19G22
 -10790922.08246  23620082.5634   23620078.0944         40.0004         26.0004
  -8140629.30944
 -20949563.53148  21719313.2584   21719307.4304         48.2504         37.5004
 -13533898.20346
  -7331059.91046  24449366.6724   24449361.8634         39.0004         21.5004
  -4734931.54343
 -27595552.17648  20312227.9064   20312222.5394         48.2504         43.2504
 -20086951.96147
   -660272.75845  25221436.2664   25221433.9884         34.2504         16.2504
   1850182.26642
  -1607548.81245  25398577.0554   25398572.8834         35.0004         16.2504
  -1143416.84442
 -24739500.41448  20847555.5634   20847551.1994         49.5004         40.7504
 -17363653.36346
    501969.36746  25387855.4144   25387852.1334         36.2504         18.5004
   -289729.19143
 -12821472.15247  23250867.2734   23250861.6884         42.0004         25.7504
  -7660120.87144
 -20922165.39547  21402463.0634   21402459.1484         47.0004         36.7504
 -13716560.29746
 -10576925.83646  23605913.8134   23605907.2074         39.2504         25.2504
  -7716767.42244
  -9823973.65246  23645590.5234   23645584.2074         40.0004         22.5004
  -7323108.06243
 08  5 27  1  9 30.0000000  0 12G31G21G25G16G24G 7G 6G29G18G 3G19G22
 -10688935.13746  23639490.3834   23639484.8914         41.5004         26.7504
  -8061158.92644
 -20892263.70348  21730217.5784   21730211.5864         48.2504         37.2504
 -13489248.99246
  -7382515.25846  24439574.8364   24439570.3984         38.5004         21.7504
  -4775026.60543
 -27608382.09048  20309786.2194   20309780.9844         48.7504         43.2504
 -20096949.29347
   -554850.30545  25241496.6724   25241495.2034         33.5004         16.7504
   1932329.60942
  -1691380.336 5  25382624.219                          35.000

 -24759031.07048  20843839.4224   20843834.8484         49.5004         39.7504
 -17378872.04746
                  25402765.5474   25402762.9884         34.0004         16.7504

 -12866202.64146  23242355.7584   23242349.9024         41.7504         27.0004
  -7694975.78544
 -20976189.86347  21392183.1334   21392178.5824         47.2504         36.2504
 -13758657.27046
 -10647738.43746  23592438.6954   23592431.9614         39.5004         27.0004
  -7771946.07844
  -9909824.41446  23629253.9614   23629247.5904         40.7504         25.2504
  -7390004.72344
 08  5 27  1 10  0.0000000  0 12G31G21G25G16G24G 7G 6G29G18G 3G19G22
 -10586867.04346  23658912.5864   23658908.3404         40.0004         26.0004
  -7981625.35944
 -20834615.05148  21741187.9144   21741181.4654         48.7504         37.0004
 -13444327.95346
  -7433531.25046  24429866.9144   24429862.3834         38.0004         21.2504
  -4814779.28543
 -27620793.31248  20307424.7894   20307418.8364         49.5004         43.0004
 -20106620.37147
   -449392.32045  25261565.6484   25261562.7384         33.5004         16.7504
   2014504.70342
  -1774882.293 6  25366733.227                          36.500

 -24778365.89848  20840160.1334   20840155.4844         49.5004         40.0004
 -17393938.14546
    658658.64145  25417672.2114   25417669.9844         35.0004         16.2504
   -167633.69942
 -12910549.76247  23233916.3674   23233911.2584         42.0004         26.5004
  -7729531.98044
 -21030012.00447  21381940.7814   21381936.7544         47.7504         36.5004
 -13800596.58646
 -10718429.41846  23578987.1414   23578980.1414         41.5004         27.5004
  -7827029.95744
  -9995575.21946  23612935.7974   23612929.7624         40.2504         25.0004
  -7456823.52044
 08  5 27  1 10 30.0000000  0 12G31G21G25G16G24G 7G 6G29G18G 3G19G22
 -10484720.30946  23678350.9694   23678346.6644         41.2504         26.7504
  -7902030.53944
 -20776619.28148  21752223.3444   21752217.4384         48.2504         37.2504
 -13399136.44146
  -7484106.32446  24420242.1024   24420238.3754         38.0004         22.2504
  -4854188.41443
 -27632784.52048  20305142.9064   20305136.8714         48.7504         43.2504
 -20115964.16047
   -343900.60945  25281639.6804   25281637.1684         33.0004         15.5004
   2096705.97342
  -1858051.51645  25350906.9534   25350903.1764         35.2504         16.2504
  -1233984.66052
 -24797504.87148  20836518.0944   20836513.2114         49.7504         40.2504
 -17408851.62546
    736968.12146  25432574.9694   25432572.0314         36.5004         17.7504
   -106613.31642
 -12954511.31246  23225551.2504   23225545.5354         40.5004         27.0004
  -7763787.72344
 -21083631.00447  21371737.6724   21371732.6174         47.2504         36.5004
 -13842377.61346
 -10788998.66446  23565557.4534   23565551.4264         40.2504         26.7504
  -7882018.91844
 -10081223.16446  23596637.3754   23596631.5164         40.2504         25.5004
  -7523562.12544
 08  5 27  1 11  0.0000000  0 12G31G21G25G16G24G 7G 6G29G18G 3G19G22
 -10382498.37546  23697803.4224   23697798.2734         40.7504         26.0004
  -7822377.06644
 -20718278.09048  21763326.0704   21763319.5554         48.5004         36.5004
 -13353675.77346
  -7534238.95746  24410703.1724   24410697.9774         39.7504         21.2504
  -4893252.78543
 -27644354.35548  20302941.3204   20302935.7384         49.7504         43.5004
 -20124979.61747
   -238377.37545  25301720.7194   25301717.9614         34.2504         16.2504
   2178931.85942
  -1940886.02745  25335144.1724   25335140.8164         34.7504         16.7504
  -1298531.00842
 -24816447.94148  20832913.1804   20832908.4344         49.2504         40.7504
 -17423612.44946
    815254.24645  25447470.9774   25447468.3874         34.7504         17.2504
    -45611.21542
 -12998084.48446  23217259.1174   23217253.7934         41.7504         27.0004
  -7797740.83244
 -21137046.32847  21361572.9064   21361568.2194         47.5004         35.7504
 -13883999.93445
 -10859446.21546  23552152.2894   23552146.1334         40.7504         28.2504
  -7936913.09444
 -10166765.09846  23580358.9924   23580353.0744         40.5004         24.2504
  -7590218.14544
 08  5 27  1 11 30.0000000  0 12G31G21G25G16G24G 7G 6G29G18G 3G19G22
 -10280203.87546  23717269.2974   23717264.3484         40.7504         26.7504
  -7742667.07044
 -20659593.66448  21774492.8984   21774486.9804         49.2504         36.5004
 -13307947.63746
  -7583927.85946  24401248.0314   24401242.2894         39.2504         21.5004
  -4931971.45343
 -27655501.22748  20300819.9534   20300814.5634         49.5004         43.5004
 -20133665.49247
   -132824.76245  25321806.5084   25321803.8954         32.2504         14.7504
   2261180.71542
  -2023383.51645  25319445.8914   25319440.8094         35.0004         16.2504
  -1362814.82442
 -24835195.37548  20829345.8284   20829340.9344         49.5004         41.0004
 -17438220.83646
    893516.88745  25462364.6094   25462361.2934         34.2504         15.5004
     15372.66042
 -13041267.34046  23209041.8594   23209036.8834         41.7504         27.5004
  -7831389.79744
 -21190258.50848  21351447.0634   21351442.6524         48.0004         36.7504
 -13925463.95746
 -10929772.04746  23538769.5234   23538763.1174         39.7504         27.2504
  -7991712.44944
 -10252198.09046  23564101.8984   23564095.4144         40.7504         24.7504
  -7656789.27744
 08  5 27  1 12  0.0000000  0 12G31G21G25G16G24G 7G 6G29G18G 3G19G22
 -10177839.64146  23736748.5164   23736743.5784         41.2504         26.7504
  -7662902.72744
 -20600567.84048  21785725.3754   21785719.1604         48.2504         37.0004
 -13261953.49646
  -7633171.64546  24391876.3284   24391871.7584         38.2504         21.2504
  -4970343.21143
 -27666224.03948  20298779.2664   20298773.7504         49.2504         43.7504
 -20142020.92247
    -27244.65645  25341897.4064   25341896.2384         34.2504         16.2504
   2343450.85542
  -2105541.34845  25303811.1174   25303807.5944         32.5004         16.7504
  -1426833.82842
 -24853747.24248  20825815.5394   20825810.6524         49.5004         40.5004
 -17452676.82846
    971756.35245  25477253.9614   25477250.2034         35.7504         16.7504
     76338.40642
 -13084057.67647  23200898.7504   23200893.7624         43.0004         27.5004
  -7864732.89844
 -21243266.61747  21341359.6484   21341355.5434         46.2504         36.0004
 -13966768.95746
 -10999976.39146  23525410.0634   23525403.7114         40.7504         27.0004
  -8046417.10944
 -10337519.32046  23547866.1644   23547859.4454         41.5004         25.5004
  -7723273.32444
 08  5 27  1 12 30.0000000  0 12G31G21G25G16G24G 7G 6G29G18G 3G19G22
 -10075408.23846  23756240.3524   23756235.7424         40.7504         26.0004
  -7583086.01644
 -20541202.48048  21797022.6254   21797016.0004         48.5004         36.5004
 -13215694.77346
  -7681969.02346  24382590.3984   24382586.0594         39.0004         20.7504
  -5008367.10943
 -27676521.61748  20296820.3134   20296814.2974         49.2504         43.5004
 -20150045.01247
     78360.48045  25361993.7194   25361992.2934         33.2504         14.7504
   2425740.58642
  -2187357.05945  25288242.4844   25288238.4024         34.5004         17.2504
  -1490586.33242
 -24872103.47348  20822322.3134   20822317.1914         50.0004         41.0004
 -17466980.37946
   1049972.30545  25492137.1174   25492133.9534         34.0004         17.2504
    137285.89142
 -13126453.72347  23192831.4694   23192826.1254         42.7504         28.7504
  -7897768.77344
 -21296070.82447  21331311.5704   21331307.0394         47.0004         37.0004
 -14007915.07846
 -11070059.14846  23512073.7974   23512066.9774         41.0004         27.2504
  -8101027.03144
 -10422725.77346  23531651.5554   23531645.4144         40.2504         25.2504
  -7789667.91044
 08  5 27  1 13  0.0000000  0 12G31G21G25G16G24G 7G 6G29G18G 3G19G22
  -9972912.93746  23775744.1954   23775739.4844         41.0004         25.2504
  -7503219.55144
 -20481499.69548  21808383.0004   21808377.2504         49.0004         36.7504
 -13169173.11346
  -7730318.51246  24373389.1414   24373386.2424         39.0004         22.2504
  -5046042.02743
 -27686392.76648  20294941.6564   20294936.1054         48.5004         43.5004
 -20157736.80547
    183989.02045  25382094.0234   25382092.4454         33.0004         15.5004
   2508048.51642
  -2268828.24645  25272739.4064   25272734.5984         35.5004         15.5004
  -1554070.33642
 -24890264.37948  20818866.0944   20818861.2894         49.5004         40.2504
 -17481131.73046
   1128164.98045  25507016.4694   25507013.6334         34.5004         18.2504
    198215.21543
 -13168453.15647  23184839.2194   23184833.6764         42.0004         26.2504
  -7930495.60244
 -21348670.55147  21321302.0944   21321297.3444         46.2504         36.2504
 -14048901.86346
 -11140020.39846  23498761.3444   23498754.1724         40.5004         27.2504
  -8155542.29344
 -10507814.60246  23515459.8134   23515453.6764         40.2504         26.2504
  -7855970.89544
 08  5 27  1 13 30.0000000  0 12G31G21G25G16G24G 7G 6G29G18G 3G19G22
  -9870356.11746  23795260.5394   23795255.7504         41.5004         26.0004
  -7423305.13344
 -20421461.54748  21819807.4694   21819802.2274         48.5004         36.7504
 -13122390.14146
  -7778218.77346  24364275.4064   24364270.8914         41.0004         22.5004
  -5083366.85543
 -27695836.34448  20293144.6334   20293138.8834         49.0004         43.2504
 -20165095.44147
    289638.71945  25402198.5234   25402195.9884         32.5004         16.2504
   2590372.87142
  -2349952.42645  25257300.2814   25257296.8954         33.5004         16.2504
  -1617283.95742
 -24908230.05148  20815447.4454   20815443.0704         50.0004         41.2504
 -17495130.94946
   1206334.45345  25521892.1804   25521889.6724         32.7504         16.2504
    259126.55942
 -13210053.60947  23176922.6484   23176916.9304         42.7504         27.5004
  -7962911.52344
 -21401065.41847  21311331.6804   21311327.4024         47.5004         37.0004
 -14089729.03946
 -11209860.18446  23485470.5314   23485463.7074         41.5004         26.7504
  -8209962.87944
 -10592782.59846  23499290.5474   23499284.5904         40.5004         24.5004
  -7922179.68744
 08  5 27  1 14  0.0000000  0 12G31G21G25G16G24G 7G 6G29G18G 3G19G22
  -9767741.17246  23814788.3364   23814782.6094         41.2504         25.7504
  -7343345.45344
 -20361089.66848  21831296.6174   21831290.1884         49.0004         36.7504
 -13075347.10946
  -7825668.30146  24355246.1174   24355241.1484         41.2504         22.7504
  -5120340.51243
 -27704851.05947  20291429.1174   20291423.1454         46.7504         43.7504
 -20172119.89147
    395307.89845  25422306.0004   25422304.5084         34.0004         16.2504
   2672712.57042
  -2430727.32845  25241930.6644   25241926.1094         34.5004         18.2504
  -1680225.47743
 -24926000.52348  20812065.9064   20812061.1214         49.5004         40.5004
 -17508978.06646
   1284480.89145  25536763.0164   25536760.7504         32.2504         15.5004
    320019.80142
 -13251252.83247  23169082.7664   23169077.8054         43.7504         28.0004
  -7995014.80144
 -21453255.44147  21301400.0314   21301395.7274         46.2504         36.5004
 -14130396.57446
 -11279578.39846  23472204.1644   23472196.8164         40.2504         27.5004
  -8264288.74644
 -10677626.75446  23483145.3674   23483139.2664         40.7504         25.0004
  -7988292.00444
 08  5 27  1 14 30.0000000  0 12G31G21G25G16G24G 7G 6G29G18G 3G19G22
  -9665070.52746  23834325.7034   23834320.6644         41.0004         25.7504
  -7263342.35244
 -20300386.37148  21842847.9694   21842842.2424         48.5004         36.7504
 -13028045.83646
  -7872666.15646  24346302.6484   24346297.3484         39.0004         21.0004
  -5156962.23043
 -27713435.52747  20289795.4774   20289789.6644         46.2504         44.0004
 -20178809.09047
    500994.14845  25442418.5944   25442415.8444         32.7504         16.2504
   2755065.48042
  -2511150.69545  25226626.5084   25226621.6294         35.0004         18.5004
  -1742893.03943
 -24943575.86748  20808721.3834   20808716.9884         50.2504         40.7504
 -17522673.13746
   1362603.82845  25551629.6644   25551627.7814         33.5004         15.5004
    380894.73842
 -13292049.59847  23161319.6724   23161314.3404         43.0004         28.0004
  -8026804.45744
 -21505240.18447  21291508.0634   21291502.9264         47.2504         37.0004
 -14170904.16446
 -11349174.96146  23458959.5784   23458953.5394         39.5004         27.2504
  -8318519.80544
 -10762344.44546  23467023.8914   23467018.4844         41.0004         24.2504
  -8054305.74244
 08  5 27  1 15  0.0000000  0 12G31G21G25G16G24G 7G 6G29G18G 3G19G22
  -9562347.20746  23853873.2344   23853868.0594         41.2504         25.0004
  -7183298.11744
 -20239353.64148  21854462.1334   21854456.0124         48.5004         36.5004
 -12980487.87546
  -7919210.97746  24337444.8834   24337440.5124         39.0004         21.5004
  -5193230.88743
 -27721588.72347  20288243.8204   20288237.9454         45.7504         44.0004
 -20185162.22347
    606695.46545  25462531.7344   25462530.5314         33.2504         14.7504
   2837430.19142
  -2591220.01245  25211389.9534   25211385.7384         33.7504         17.7504
  -1805284.74642
 -24960956.19948  20805414.2734   20805409.6374         50.0004         41.0004
 -17536216.25046
   1440703.410 5  25566491.703                          34.750

 -13332440.99647  23153633.5004   23153627.6174         43.5004         27.7504
  -8058278.27344
 -21557019.57447  21281654.7114   21281649.7154         47.5004         37.0004
 -14211251.73446
 -11418650.48046  23445739.2194   23445732.8364         40.0004         27.7504
  -8372656.56244
 -10846932.35946  23450927.8284   23450920.6374         41.2504         25.2504
  -8120218.39844
 08  5 27  1 15 30.0000000  0 12G31G21G25G16G24G 7G 6G29G18G 3G19G22
  -9459574.02346  23873430.0944   23873424.3164         40.2504         25.5004
  -7103215.10244
 -20177993.13348  21866138.4144   21866132.6054         49.0004         36.2504
 -12932674.47746
  -7965301.28946  24328674.4224   24328670.1844         39.2504         22.0004
  -5229145.41043
 -27729309.41447  20286774.9224   20286769.0594         46.0004         44.2504
 -20191178.35247
    712409.70745  25482648.6254   25482647.7234         33.0004         15.5004
   2919804.83642
  -2670932.98845  25196219.8834   25196216.7274         32.2504         16.2504
  -1867398.71942
 -24978141.62148  20802143.5164   20802139.4414         50.0004         41.5004
 -17549607.48046
   1518779.89145  25581346.9774   25581344.9304         33.5004         14.7504
    452689.38352
 -13372424.87547  23146024.6024   23146019.7854         43.0004         28.0004
  -8089434.52744
 -21608593.17247  21271840.3594   21271835.7934         47.0004         37.5004
 -14251438.94946
 -11488004.80546  23432541.5554   23432534.7154         39.5004         26.7504
  -8426698.87944
 -10931387.87546  23434856.0634   23434850.1684         41.0004         26.5004
  -8186027.87544
 08  5 27  1 16  0.0000000  0 12G31G21G25G16G24G 7G 6G29G18G 3G19G22
  -9356753.60946  23892995.3364   23892990.9304         39.0004         25.2504
  -7023095.23444
 -20116306.71947  21877876.7734   21877871.5204         47.2504         36.0004
 -12884607.14146
  -8010935.87146  24319990.2114   24319985.7894         38.7504         22.5004
  -5264704.80543
 -27736596.22347  20285387.9614   20285382.4774         45.5004         44.0004
 -20196856.37947
    818135.45745  25502767.1884   25502767.4574         30.7504         14.7504
   3002188.58242
  -2750286.89545  25181120.0704   25181115.8834         33.5004         14.7504
  -1929232.90642
 -24995131.98048  20798910.7424   20798906.0744         50.0004         41.0004
 -17562846.71546
   1596833.44145  25596201.6564   25596199.0634         34.2504         15.5004
    513510.23442
 -13411999.53947  23138493.7584   23138488.6054         42.2504         28.0004
  -8120271.91044
 -21659960.63347  21262065.8594   21262060.9844         47.5004         37.0004
 -14291465.53546
 -11557237.87546  23419366.6954   23419360.2704         38.7504         27.5004
  -8480646.70744
 -11015707.59846  23418811.0944   23418804.5554         40.7504         25.5004
  -8251731.53544
 08  5 27  1 16 30.0000000  0 12G31G21G25G16G24G 7G 6G29G18G 3G19G22
  -9253888.93746  23912570.3594   23912565.2304         40.0004         26.2504
  -6942940.91444
 -20054296.34847  21889677.3134   21889671.2384         47.2504         36.0004
 -12836287.38346
  -8056113.44546  24311393.0784   24311389.1054         40.0004         23.2504
  -5299908.07843
 -27743447.90647  20284084.3204   20284078.4574         46.2504         43.7504
 -20202195.35247
    923870.49645  25522889.6564   25522888.0744         34.0004         14.7504
   3084579.49242
  -2829279.60545  25166088.8284   25166083.7464         33.5004         17.7504
  -1990785.64542
 -25011927.52348  20795714.5704   20795710.1994         49.5004         40.7504
 -17575934.14846
   1674864.20745  25611049.5554   25611047.9574         35.0004         17.7504
    574313.48442
 -13451162.80547  23131041.0474   23131035.6884         42.5004         28.0004
  -8150788.73844
 -21711121.75047  21252330.3524   21252325.2894         47.7504         37.5004
 -14331331.32046
 -11626349.55546  23406215.0234   23406208.7664         38.2504         28.0004
  -8534499.95744
 -11099888.69546  23402791.7194   23402785.6844         40.2504         27.0004
  -8317327.19144
 08  5 27  1 17  0.0000000  0 12G31G21G25G16G24G 7G 6G29G18G 3G19G22
  -9150982.57846  23932152.0704   23932147.4804         40.5004         25.2504
  -6862754.10944
 -19991964.29347  21901538.0004   21901532.1764         47.2504         36.0004
 -12787716.93446
  -8100832.89546  24302883.6564   24302879.0084         37.5004         22.5004
  -5334754.38743
 -27749863.61347  20282863.8284   20282857.6644         46.7504         43.5004
 -20207194.60247
   1029612.53145  25543010.6564   25543010.2734         34.5004         13.7504
   3166975.89142
  -2907908.63745  25151126.1024   25151121.4574         34.2504         18.2504
  -2052055.03143
 -25028528.21948  20792555.5864   20792550.8524         49.5004         41.0004
 -17588869.75046
   1752871.64845  25625894.7504   25625893.0234         34.5004         15.5004
    635098.41842
 -13489912.52347  23123667.5084   23123661.6914         42.5004         28.7504
  -8180983.31244
 -21762075.79347  21242633.7504   21242628.7894         47.7504         37.2504
 -14371035.76646
 -11695340.12946  23393086.7734   23393079.9844         39.2504         27.5004
  -8588258.79344
 -11183928.33246  23386799.5784   23386793.7234         40.5004         26.0004
  -8382812.58644
 08  5 27  1 17 30.0000000  0 12G31G21G25G16G24G 7G 6G29G18G 3G19G22
  -9048037.71146  23951742.7814   23951737.8834         40.5004         24.5004
  -6782537.34844
 -19929312.57048  21913460.5944   21913454.9344         48.0004         36.2504
 -12738897.40646
  -8145092.82846  24294461.2664   24294456.0944         37.7504         22.5004
  -5369242.66843
 -27755842.20348  20281725.7114   20281720.0474         49.0004         43.5004
 -20211853.24247
   1135360.004 5  25563134.617                          34.000

  -2986171.68045  25136233.2584   25136228.5394         35.0004         17.7504
  -2113039.22342
 -25044934.16848  20789433.6254   20789429.2344         49.5004         40.7504
 -17601653.60246
   1830856.12945  25640734.0164   25640733.4924         34.2504         16.2504
    695865.53542
 -13528246.69946  23116372.4454   23116366.9264         41.5004         27.5004
  -8210854.09044
 -21812822.64847  21232977.3834   21232972.3914         47.5004         36.5004
 -14410578.76246
 -11764209.00846  23379981.4224   23379974.3794         38.0004         28.2504
  -8641922.83644
 -11267823.35247  23370834.4304   23370828.8484         42.5004         25.2504
  -8448185.31244
 08  5 27  1 18  0.0000000  0 12G31G21G25G16G24G 7G 6G29G18G 3G19G22
  -8945057.35946  23971338.8524   23971333.4184         39.7504         22.7504
  -6702292.89143
 -19866342.97747  21925443.2974   21925437.6844         47.5004         35.5004
 -12689830.19145
  -8188892.26246  24286125.9694   24286121.1564         38.7504         22.0004
  -5403372.06643
 -27761382.44948  20280671.5394   20280665.6374         48.0004         43.5004
 -20216170.31647
   1241110.605 5  25583257.977                          33.750

  -3064066.32046  25121410.6724   25121405.5354         36.5004         17.7504
  -2173736.34042
 -25061145.39848  20786349.0004   20786344.2114         49.7504         41.0004
 -17614285.72746
   1908817.570 5  25655569.148                          31.000

 -13566163.52347  23109157.1484   23109151.7584         42.0004         27.7504
  -8240399.63344
 -21863362.62947  21223359.1644   21223354.4264         46.7504         37.0004
 -14449960.56246
 -11832957.16446  23366898.8364   23366892.2544         37.7504         26.5004
  -8695492.83244
 -11351571.00446  23354898.4384   23354891.6644         41.0004         27.5004
  -8513443.19944
 08  5 27  1 18 30.0000000  0 12G31G21G25G16G24G 7G 6G29G18G 3G19G22
  -8842044.11746  23990941.9224   23990936.5744         40.2504         25.0004
  -6622022.75444
 -19803057.53547  21937486.4844   21937480.6954         47.5004         36.2504
 -12640516.84446
  -8232229.89546  24277879.6094   24277874.3874         38.5004         22.7504
  -5437141.64843
 -27766483.13747  20279700.9614   20279695.0314         47.7504         43.0004
 -20220144.87947
   1346862.797 5  25603382.297                          33.750

  -3141590.32045  25106658.2664   25106653.2504         34.2504         19.2504
  -2234144.62143
 -25077162.00848  20783300.7504   20783296.5594         49.7504         40.7504
 -17626766.20346
   1986756.96515  25670401.578                          32.500

 -13603661.18446  23102021.5634   23102016.3984         41.0004         28.2504
  -8269618.57844
 -21913694.59447  21213781.5084   21213777.1684         47.2504         37.2504
 -14489180.27046
 -11901584.46146  23353839.7194   23353833.3834         38.0004         28.7504
  -8748968.62144
 -11435168.39546  23338989.9534   23338983.7274         40.7504         26.5004
  -8578583.98444
 08  5 27  1 19  0.0000000  0 11G31G21G25G16G24G 7G 6G18G 3G19G22
  -8739000.59046  24010549.8524   24010545.1454         39.0004         25.2504
  -6541729.00844
 -19739458.28548  21949588.8834   21949582.9694         48.0004         35.5004
 -12590959.00045
  -8275104.67646  24269720.7894   24269716.1684         40.0004         22.0004
  -5470550.57843
 -27771143.26248  20278814.2114   20278808.0594         48.5004         43.7504
 -20223776.14547
   1452614.621 5  25623506.578                          33.500

  -3218741.26645  25091976.2664   25091971.9384         35.0004         17.7504
  -2294262.24242
 -25092984.03148  20780289.9144   20780285.2344         50.5004         40.7504
 -17639095.04746
 -13640736.98446  23094966.3284   23094960.8954         41.5004         28.5004
  -8298508.80144
 -21963818.64848  21204243.1564   21204238.8164         48.0004         37.0004
 -14528237.96546
 -11970090.67646  23340802.7894   23340796.7774         37.7504         28.0004
  -8802350.06244
 -11518611.83646  23323111.2504   23323105.5664         40.5004         25.5004
  -8643604.84444
 08  5 27  1 19 30.0000000  0 12G31G21G25G16G24G 7G 6G27G18G 3G19G22
  -8635929.35346  24030164.3054   24030159.3404         39.0004         25.0004
  -6461413.73844
 -19675547.31647  21961750.8364   21961745.1214         47.2504         35.7504
 -12541158.23445
  -8317515.46946  24261650.7814   24261645.6024         39.5004         22.5004
  -5503597.94943
 -27775361.90647  20278011.2734   20278005.6054         46.5004         43.5004
 -20227063.40647
   1558363.980 5  25643628.672                          31.750

  -3295516.95346  25077366.0314   25077360.9804         36.0004         16.7504
  -2354087.46542
 -25108611.62948  20777316.1954   20777311.7464         50.0004         41.0004
 -17651272.39546
    -92809.36715  26106396.375                          34.000

 -13677389.37547  23087991.4774   23087986.3754         42.0004         27.7504
  -8327069.08244
 -22013734.55548  21194744.5864   21194740.0904         48.0004         37.5004
 -14567133.47746
 -12038475.93446  23327790.1564   23327783.6134         38.0004         28.5004
  -8855637.23844
 -11601898.71546  23307262.8674   23307255.8754         40.7504         25.7504
  -8708503.70744
 08  5 27  1 20  0.0000000  0 12G31G21G25G16G24G 7G 6G27G18G 3G19G22
  -8532834.02046  24049782.0784   24049776.8674         39.2504         22.5004
  -6381079.66043
 -19611326.28547  21973971.3834   21973965.4574         47.7504         36.0004
 -12491115.87146
  -8359461.03946  24253668.2974   24253664.1844         38.2504         23.5004
  -5536282.81643
 -27779137.71947  20277292.7344   20277287.0164         47.2504         43.7504
 -20230005.60247
   1664109.395 5  25663751.219                          31.000

  -3371914.89545  25062827.6644   25062823.1684         34.7504         17.2504
  -2413618.32842
 -25124044.63348  20774379.5474   20774374.7074         50.0004         40.7504
 -17663298.10946
   -167775.961 4  26092130.133                          29.750

 -13713616.47347  23081097.5944   23081092.3594         42.0004         27.7504
  -8355297.98444
 -22063441.96548  21185285.3594   21185280.7664         48.0004         37.2504
 -14605866.52346
 -12106740.28546  23314800.1954   23314792.8834         38.7504         28.5004
  -8908830.22344
 -11685026.33246  23291443.9844   23291437.7504         40.5004         27.2504
  -8773278.44944
 08  5 27  1 20 30.0000000  0 12G31G21G25G16G24G 7G 6G27G18G 3G19G22
  -8429716.99646  24069404.6724   24069399.3014         39.0004         23.5004
  -6300728.70743
 -19546797.30148  21986250.8674   21986245.0594         48.0004         35.2504
 -12440833.54345
  -8400940.10946  24245774.3914   24245770.9384         39.7504         22.5004
  -5568604.13343
 -27782469.58647  20276658.7114   20276653.0204         46.5004         43.5004
 -20232601.85947
   1769848.508 5  25683872.844                          33.500

  -3447932.66846  25048363.1644   25048358.1024         37.0004         18.5004
  -2472852.95343
 -25139283.13748  20771479.5704   20771474.8984         49.5004         40.7504
 -17675172.26646
   -242462.78915  26077918.555                          33.500

 -13749416.27347  23074285.1954   23074280.1334         42.7504         27.0004
  -8383193.93744
 -22112940.05547  21175866.3204   21175861.6844         47.7504         37.5004
 -14644436.45346
 -12174883.76646  23301832.1954   23301825.9344         38.0004         28.5004
  -8961929.03544
 -11767991.21946  23275655.6414   23275650.1564         40.2504         26.7504
  -8837926.38744
 08  5 27  1 21  0.0000000  0 12G31G21G25G16G24G 7G 6G27G18G 3G19G22
  -8326581.03546  24089031.4774   24089025.5354         39.7504         24.0004
  -6220363.02344
 -19481962.71947  21998588.3134   21998582.6524         47.5004         36.0004
 -12390313.08646
  -8441951.88746  24237970.5704   24237966.2034         39.0004         22.5004
  -5600561.35243
 -27785356.48847  20276109.2664   20276103.7154         46.2504         43.5004
 -20234851.39847
                  25703992.883                          31.500

  -3523568.10946  25033969.6334   25033964.7034         36.2504         18.2504
  -2531789.65243
 -25154327.37948  20768616.7274   20768612.3014         49.0004         41.0004
 -17686895.05546
   -316867.81615  26063758.953                          30.500

 -13784787.11747  23067553.9694   23067549.3554         43.7504         29.0004
  -8410755.60244
 -22162229.18748  21166487.2194   21166482.0944         48.2504         37.2504
 -14682843.56246
 -12242906.23846  23288888.3444   23288881.7154         38.2504         27.0004
  -9014933.52344
 -11850791.03546  23259899.4064   23259892.9384         39.7504         28.0004
  -8902445.72344
 08  5 27  1 21 30.0000000  0 12G31G21G25G16G24G 7G 6G27G18G 3G19G22
  -8223428.82846  24108659.8674   24108655.4964         38.7504         22.7504
  -6139984.66043
 -19416823.96547  22010984.0944   22010978.5744         47.7504         35.5004
 -12339555.61345
  -8482495.22746  24230256.2974   24230250.6134         40.0004         22.0004
  -5632153.57843
 -27787797.74247  20275644.9844   20275639.1724         46.0004         43.7504
 -20236753.67247
   1981300.17615  25724110.836                          33.000

  -3598819.46946  25019650.6254   25019644.4184         37.0004         17.7504
  -2590427.10942
 -25169177.18748  20765790.5314   20765786.3134         50.2504         40.5004
 -17698466.33246
   -390988.94515  26049654.469                          32.750

 -13819726.98047  23060905.6094   23060900.2154         43.0004         28.5004
  -8437981.45744
 -22211308.72348  21157147.5634   21157142.8794         49.2504         37.5004
 -14721087.34046
 -12310808.01646  23275967.0004   23275959.9184         38.2504         29.0004
  -9067843.98044
 -11933422.37146  23244175.4844   23244169.7934         40.5004         27.5004
  -8966833.75044
 08  5 27  1 22  0.0000000  0 12G31G21G25G16G24G 7G 6G27G18G 3G19G22
  -8120262.90646  24128291.8594   24128286.8834         36.5004         22.5004
  -6059595.55143
 -19351383.54348  22023437.0004   22023431.4694         48.0004         35.2504
 -12288563.07045
  -8522568.97746  24222629.8914   24222625.0234         40.0004         22.5004
  -5663379.86343
 -27789791.52747  20275265.6564   20275259.6334         47.5004         43.7504
 -20238307.27347
   2087009.56615  25744226.406                          34.000

  -3673683.89846  25005404.1414   25005398.4144         36.5004         18.5004
  -2648762.99643
 -25183832.50848  20763002.1564   20762997.7704         50.2504         40.5004
 -17709886.05946
   -464824.42615  26035604.492                          31.750

 -13854233.26646  23054339.2194   23054333.9884         41.7504         28.5004
  -8464869.45744
 -22260178.43448  21147847.7424   21147843.0984         48.5004         38.0004
 -14759167.61746
 -12378589.05546  23263068.4924   23263062.5904         38.5004         29.7504
  -9120660.35544
 -12015882.27746  23228483.4304   23228476.8874         41.0004         27.0004
  -9031088.20744
 08  5 27  1 22 30.0000000  0 12G31G21G25G16G24G 7G 6G27G18G 3G19G22
  -8017086.22746  24147925.3284   24147920.2624         37.5004         21.5004
  -5979198.07443
 -19285643.06248  22035946.6644   22035940.8014         48.0004         35.2504
 -12237336.73045
  -8562172.03146  24215093.6804   24215089.4574         39.0004         24.2504
  -5694239.41444
 -27791337.10948  20274971.2424   20274965.5274         48.0004         44.0004
 -20239511.62147
                  25764340.008                          33.750

  -3748159.21946  24991231.2894   24991226.5904         37.5004         17.7504
  -2706795.70742
 -25198293.23048  20760250.5634   20760245.9024         50.0004         41.0004
 -17721154.14846
   -538371.687 5  26021608.898                          32.250

 -13888304.46147  23047855.3674   23047850.2544         42.0004         28.0004
  -8491418.42644
 -22308838.02048  21138588.1254   21138583.6724         49.0004         37.5004
 -14797084.16046
 -12446249.20346  23250193.2034   23250187.2074         38.7504         29.2504
  -9173382.52044
 -12098167.50846  23212825.5314   23212819.1294         40.7504         26.0004
  -9095206.55144
 08  5 27  1 23  0.0000000  0 12G31G21G25G16G24G 7G 6G27G18G 3G19G22
  -7913901.68746  24167560.5004   24167556.3284         37.7504         22.0004
  -5898794.45343
 -19219604.78148  22048513.7504   22048507.6094         48.0004         34.7504
 -12185878.32445
  -8601303.50446  24207646.6954   24207642.0824         38.2504         22.5004
  -5724731.46143
 -27792433.94148  20274762.6884   20274757.5004         49.0004         43.7504
 -20240366.30147
                  25784450.633                          33.250

  -3822243.18446  24977133.8364   24977128.4574         37.5004         18.5004
  -2764523.49243
 -25212559.64848  20757535.4924   20757531.0234         50.0004         41.2504
 -17732270.84046
   -611629.348 5  26007666.086                          31.250

 -13921939.37946  23041455.6254   23041450.1054         41.2504         28.0004
  -8517627.44144
 -22357286.95748  21129368.5784   21129364.2774         48.5004         38.2504
 -14834836.56646
 -12513789.02046  23237341.7274   23237334.2234         39.0004         29.2504
  -9226010.91844
 -12180275.60246  23197200.4924   23197194.0984         41.0004         28.0004
  -9159186.85944
 08  5 27  1 23 30.0000000  0 12G31G21G25G16G24G 7G 6G27G18G 3G19G22
  -7810711.64546  24187197.0474   24187191.9774         36.7504         23.0004
  -5818386.47343
 -19153270.71547  22061136.6724   22061130.6724         47.5004         34.7504
 -12134189.43445
  -8639962.41046  24200289.9384   24200286.2734         36.0004         24.5004
  -5754855.26244
 -27793080.77048  20274639.4064   20274633.4184         49.0004         43.5004
 -20240870.32047
   2404049.99215  25804559.477                          30.500

  -3895933.06246  24963111.5554   24963106.2234         38.0004         18.5004
  -2821944.19543
 -25226631.86748  20754857.7894   20754853.0124         49.2504         41.0004
 -17743236.19546
   -684595.230 5  25993783.992                          31.500

 -13955135.85946  23035137.8134   23035133.0314         41.7504         29.0004
  -8543494.80144
 -22405525.50848  21120189.0634   21120184.2234         48.5004         38.0004
 -14872425.03546
 -12581208.25046  23224511.7034   23224504.5434         39.0004         29.5004
  -9278545.37944
 -12262203.31646  23181610.5864   23181604.5274         40.5004         27.2504
  -9223026.60944
 08  5 27  1 24  0.0000000  0 12G31G21G25G16G24G 7G 6G27G18G 3G19G22
  -7707519.65246  24206834.8364   24206829.5594         38.7504         22.7504
  -5737977.03143
 -19086642.56647  22073815.2344   22073809.7384         47.2504         35.0004
 -12082271.39845
  -8678147.57446  24193023.4534   24193020.0704         38.2504         23.5004
  -5784609.93043
 -27793276.41848  20274602.4534   20274596.5354         49.5004         43.7504
 -20241022.78147
   2509695.09815  25824661.703                          33.500

  -3969227.56246  24949163.7974   24949158.6134         36.0004         19.0004
  -2879056.77743
 -25240509.50848  20752216.7194   20752212.1254         49.5004         40.5004
 -17754049.94946
   -757267.160 5  25979954.289                          32.250

 -13987891.64147  23028904.7274   23028899.8324         42.0004         29.2504
  -8569018.77344
 -22453552.55148  21111049.8594   21111045.1994         48.5004         37.5004
 -14909848.69946
 -12648506.56646  23211704.6564   23211698.1954         38.7504         28.7504
  -9330985.59444
 -12343947.52746  23166054.5634   23166048.3284         41.5004         28.2504
  -9286723.38744
 08  5 27  1 24 30.0000000  0 12G31G21G25G16G24G 7G 6G27G18G 3G19G22
  -7604328.27346  24226470.7034   24226465.6024         38.5004         22.2504
  -5657568.11343
 -19019722.49647  22086549.5864   22086544.2504         47.5004         35.0004
 -12030125.87945
  -8715858.30946  24185847.4844   24185843.5944         36.7504         23.0004
  -5813994.90243
 -27793020.12548  20274651.2584   20274645.1884         48.7504         43.7504
 -20240823.07447
   2615319.53515  25844760.875                          33.500

  -4042124.21546  24935290.6094   24935286.5784         36.7504         19.5004
  -2935859.35943
 -25254192.93748  20749613.3284   20749608.3134         49.5004         41.0004
 -17764712.34846
   -829643.492 5  25966181.711                          33.000

 -14020205.23447  23022755.2974   23022750.4614         42.0004         28.2504
  -8594198.16844
 -22501368.38348  21101950.6334   21101946.2854         49.2504         38.0004
 -14947107.79346
 -12715684.33646  23198921.2274   23198914.8284         38.5004         29.0004
  -9383331.90244
 -12425505.41846  23150535.2274   23150529.0164         41.7504         29.0004
  -9350274.97344
 08  5 27  1 25  0.0000000  0 12G31G21G25G16G24G 7G 6G27G18G 3G19G22
  -7501140.09046  24246106.5944   24246101.2544         39.5004         22.2504
  -5577161.66443
 -18952512.83647  22099339.4614   22099333.6564         46.7504         35.2504
 -11977754.71145
  -8753093.52746  24178762.5084   24178757.3164         38.7504         22.5004
  -5843009.35543
 -27792310.73848  20274786.3594   20274780.7734         49.2504         44.0004
 -20240270.30947
   2720921.56315  25864856.141                          30.000

  -4114620.67246  24921495.7584   24921490.9614         36.2504         18.2504
  -2992350.10543
 -25267681.89548  20747046.2424   20747041.3954         49.7504         40.7504
 -17775223.22746
   -901722.230 5  25952466.047                          33.500

 -14052074.82047  23016691.2974   23016685.6564         42.5004         28.7504
  -8619031.59844
 -22548972.39148  21092892.3754   21092887.2304         49.0004         38.5004
 -14984201.82046
 -12782741.84846  23186160.7974   23186154.3834         39.2504         29.2504
  -9435584.50844
 -12506874.03546  23135051.2274   23135045.0234         40.5004         26.5004
  -9413679.05944
 08  5 27  1 25 30.0000000  0 12G31G21G25G16G24G 7G 6G27G18G 3G19G22
  -7397957.68446  24265741.8594   24265736.0864         38.5004         22.0004
  -5496759.69543
 -18885015.16847  22112183.8364   22112178.2384         47.0004         34.0004
 -11925159.13345
  -8789852.34046  24171767.5554   24171762.9694         38.5004         23.5004
  -5871652.57043
 -27791147.43747  20275007.4534   20275001.8054         47.0004         44.2504
 -20239363.84047
   2826499.61715  25884947.297                          30.500

  -4186714.54346  24907776.9144   24907771.7814         36.7504         18.5004
  -3048527.13743
 -25280976.49648  20744516.4064   20744511.6604         49.5004         41.2504
 -17785582.64846
   -973500.984 5  25938806.633                          33.500

 -14083498.71946  23010711.2274   23010705.7774         40.7504         29.2504
  -8643517.73044
 -22596363.77748  21083873.9694   21083868.9534         49.7504         38.5004
 -15021130.17646
 -12849679.05146  23173423.3444   23173416.7854         39.2504         30.0004
  -9487743.35945
 -12588050.53547  23119603.8914   23119597.1454         42.5004         27.5004
  -9476933.46944
 08  5 27  1 26  0.0000000  0 12G31G21G25G16G24G 7G 6G27G18G 3G19G22
  -7294783.89146  24285374.5634   24285370.0744         38.0004         22.5004
  -5416364.44543
 -18817232.04747  22125082.7894   22125076.8324         47.0004         34.2504
 -11872341.10545
  -8826133.71546  24164863.2894   24164858.5474         38.5004         22.7504
  -5899923.78143
 -27789529.53948  20275315.4384   20275309.8914         48.0004         43.5004
 -20238103.14847
   2932051.95714  25905034.180                          25.250

  -4258403.64546  24894135.6414   24894129.8794         37.5004         19.2504
  -3104388.77043
 -25294076.80548  20742023.3914   20742018.6994         50.0004         41.0004
 -17795790.67646
  -1044978.074 5  25925204.195                          32.750

 -14114475.04347  23004816.8914   23004811.3204         42.0004         28.5004
  -8667655.10944
 -22643542.99648  21074896.2034   21074891.4614         49.0004         38.5004
 -15057893.19546
 -12916495.68046  23160708.2424   23160702.2894         39.2504         30.0004
  -9539808.25045
 -12669031.88347  23104193.6954   23104187.2704         43.0004         27.5004
  -9540035.78544
 08  5 27  1 26 30.0000000  0 11G31G21G25G16G 7G 6G27G18G 3G19G22
  -7191621.65646  24305005.9454   24305000.8484         37.5004         21.5004
  -5335978.28943
 -18749164.89547  22138035.3834   22138029.8404         47.0004         34.5004
 -11819301.76245
  -8861937.01646  24158050.0234   24158045.2074         39.0004         23.7504
  -5927822.45343
 -27787455.85947  20275710.2734   20275704.1644         47.7504         44.0004
 -20236487.29347
  -4329686.06646  24880570.6724   24880565.2894         36.5004         18.5004
  -3159933.52343
 -25306982.72348  20739567.6884   20739562.7854         49.5004         41.0004
 -17805847.22346
  -1116151.582 5  25911660.422                          33.250

 -14145002.09847  22999006.2734   22999002.3674         43.5004         29.7504
  -8691442.39544
 -22690509.32848  21065958.7034   21065954.2894         48.5004         39.0004
 -15094490.33646
 -12983192.02746  23148016.1954   23148009.8244         39.5004         30.0004
  -9591779.41445
 -12749814.93047  23088820.9304   23088814.6054         43.5004         29.0004
  -9602983.62144
 08  5 27  1 27  0.0000000  0 11G31G21G25G16G 7G 6G27G18G 3G19G22
  -7088472.75046  24324635.0634   24324629.1134         39.5004         22.2504
  -5255602.41843
 -18680815.42247  22151042.1724   22151036.4804         47.0004         34.5004
 -11766042.44145
  -8897261.14146  24151328.0634   24151323.2704         39.7504         22.7504
  -5955347.73643
 -27784925.32448  20276191.5164   20276185.6174         48.7504         43.7504
 -20234515.45347
  -4400559.15645  24867084.4614   24867078.4414         35.5004         17.2504
  -3215159.25842
 -25319694.16448  20737148.5314   20737144.0004         50.0004         41.5004
 -17815752.23446
  -1187019.344 5  25898174.953                          35.500

 -14175078.15247  22993283.6174   22993279.1844         44.0004         29.5004
  -8714878.26644
 -22737262.62548  21057061.6564   21057056.9804         49.5004         38.5004
 -15130921.46946
 -13049768.36346  23135347.4534   23135340.3524         39.2504         30.0004
  -9643657.09845
 -12830396.56647  23073486.7114   23073480.7544         42.5004         28.2504
  -9665774.46144
 08  5 27  1 27 30.0000000  0 11G31G21G25G16G 7G 6G27G18G 3G19G22
  -6985341.27346  24344260.1254   24344254.3324         39.0004         22.5004
  -5175240.17243
 -18612186.36347  22164101.8054   22164095.3674         46.7504         33.2504
 -11712565.24245
  -8932105.35946  24144697.0004   24144692.5704         39.5004         23.7504
  -5982499.06643
 -27781937.19948  20276759.8914   20276754.2544         48.7504         44.0004
 -20232187.03947
  -4471021.37946  24853675.0784   24853670.5634         36.5004         19.5004
  -3270064.88743
 -25332211.23048  20734766.6954   20734762.1764         49.7504         41.0004
 -17825505.78146
  -1257579.625 5  25884747.859                          33.000

 -14204701.62947  22987647.3204   22987641.8204         44.2504         30.0004
  -8737961.47345
 -22783802.28548  21048205.7664   21048200.8674         49.2504         38.7504
 -15167186.12546
 -13116224.30546  23122701.3054   23122694.6804         39.2504         30.5004
  -9695440.94145
 -12910774.24647  23058191.2274   23058184.6564         42.5004         27.5004
  -9728406.41844
 08  5 27  1 28  0.0000000  0 11G31G21G25G16G 7G 6G27G18G 3G19G22
  -6882229.45746  24363881.0704   24363876.3444         36.2504         22.5004
  -5094893.23443
 -18543279.60947  22177214.5164   22177208.5044         47.5004         34.5004
 -11658871.66845
  -8966468.68446  24138158.6954   24138153.8134         40.5004         24.5004
  -6009275.68444
 -27778490.70348  20277416.0314   20277410.2194         48.7504         43.7504
 -20229501.46947
  -4541070.35546  24840345.6804   24840340.8324         37.7504         19.5004
  -3324648.50043
 -25344533.83648  20732421.6174   20732417.2304         50.0004         41.5004
 -17835107.81646
  -1327830.465 5  25871379.602                          32.750

 -14233870.63747  22982096.3444   22982091.2854         43.2504         29.5004
  -8760690.54344
 -22830127.81648  21039390.0944   21039385.4844         48.7504         37.5004
 -15203283.94146
 -13182560.11746  23110078.2274   23110071.1954         39.0004         29.2504
  -9747131.17644
 -12990944.79347  23042935.4694   23042929.5474         43.7504         29.2504
  -9790876.93444
 08  5 27  1 28 30.0000000  0 11G31G21G25G16G 7G 6G27G18G 3G19G22
  -6779139.71946  24383497.6334   24383493.3714         38.2504         22.0004
  -5014563.45743
 -18474097.16847  22190379.0554   22190373.3204         47.5004         34.5004
 -11604963.27745
  -9000350.57446  24131711.4614   24131706.3674         39.2504         24.0004
  -6035677.15244
 -27774585.09048  20278159.4144   20278153.6024         49.0004         43.2504
 -20226458.13747
  -4610703.93446  24827094.1094   24827089.9304         37.2504         19.0004
  -3378908.43043
 -25356661.82048  20730113.7344   20730109.0314         50.2504         41.0004
 -17844558.18746
  -1397769.785 5  25858070.773                          33.250

 -14262583.91447  22976632.4224   22976627.3914         43.0004         30.0004
  -8783064.50445
 -22876239.00048  21030615.4384   21030610.6214         49.2504         38.5004
 -15239214.73046
 -13248775.73846  23097477.7344   23097470.6804         39.2504         29.7504
  -9798727.74644
 -13070904.95347  23027718.8984   23027712.8204         42.5004         27.7504
  -9853183.51244
 08  5 27  1 29  0.0000000  0 11G31G21G25G16G 7G 6G27G18G 3G19G22
  -6676074.71946  24403110.5004   24403105.3324         37.7504         20.0004
  -4934252.94543
 -18404640.64847  22203596.3134   22203590.2074         47.0004         34.2504
 -11550841.31645
  -9033749.76246  24125354.9224   24125350.9024         36.7504         22.5004
  -6061702.49243
 -27770219.03148  20278989.8204   20278984.2344         48.0004         43.5004
 -20223056.01647
  -4679919.84845  24813922.8674   24813918.3984         33.0004         19.0004
  -3432842.92643
 -25368595.27048  20727842.9304   20727838.2384         49.7504         41.5004
 -17853856.97346
  -1467395.621 5  25844821.180                          30.500

 -14290839.30947  22971255.0004   22971250.0554         42.0004         29.2504
  -8805081.67244
 -22922135.58248  21021881.5084   21021876.8834         48.5004         38.7504
 -15274978.30146
 -13314871.17646  23084900.0944   23084892.9224         41.2504         30.2504
  -9850230.69545
 -13150651.96147  23012544.4454   23012537.7664         43.5004         28.7504
  -9915324.03144
 08  5 27  1 29 30.0000000  0 11G31G21G25G16G 7G 6G27G18G 3G19G22
  -6573037.68746  24422718.3674   24422712.9494         36.5004         21.0004
  -4853964.30543
 -18334912.51647  22216865.1254   22216859.1094         46.5004         33.5004
 -11496507.69545
  -9066665.85246  24119091.2584   24119087.0394         37.7504         23.7504
  -6087351.35543
 -27765392.02048  20279908.4304   20279902.8134         49.5004         43.7504
 -20219294.70747
  -4748716.27345  24800831.1484   24800827.1844         35.5004         18.2504
  -3486450.53143
 -25380334.12948  20725608.7504   20725604.4614         49.5004         41.5004
 -17863004.13346
  -1536706.227 5  25831632.000                          32.500

 -14318635.39147  22965966.4224   22965961.0044         42.5004         29.5004
  -8826740.94144
 -22967817.09448  21013188.4614   21013184.1804         48.7504         38.0004
 -15310574.28146
 -13380846.64146  23072345.1484   23072338.9264         39.0004         30.5004
  -9901640.11545
 -13230182.83247  22997410.0394   22997403.8674         42.5004         28.5004
  -9977296.11344
 08  5 27  1 30  0.0000000  0 11G31G21G25G16G 7G 6G27G18G 3G19G22
  -6470031.14846  24442319.7814   24442314.7194         37.5004         22.5004
  -4773699.41443
 -18264914.48047  22230185.1724   22230179.9574         47.2504         34.2504
 -11441963.78145
  -9099098.02346  24112919.6644   24112915.1414         37.2504         22.7504
  -6112623.17243
 -27760102.84048  20280914.9774   20280909.0984         48.7504         43.7504
 -20215173.27047
  -4817090.55946  24787820.2034   24787815.4144         36.0004         19.0004
  -3539729.21943
 -25391878.25448  20723412.5394   20723407.6294         49.7504         41.0004
 -17871999.55546
  -1605699.477 5  25818502.914                          31.250

 -14345970.57047  22960764.5634   22960759.0824         42.5004         28.5004
  -8848041.06244
 -23013283.54748  21004536.5234   21004532.2814         48.2504         38.0004
 -15346002.68446
 -13446702.02346  23059813.9614   23059806.3324         39.7504         29.7504
  -9952956.01644
 -13309494.91847  22982317.9304   22982310.2734         43.7504         28.5004
 -10039097.71944
 08  5 27  1 30 30.0000000  0 11G31G21G25G16G 7G 6G27G18G 3G19G22
  -6367057.30546  24461914.2814   24461909.5824         37.7504         22.7504
  -4693459.98443
 -18194648.92247  22243555.9454   22243550.3554         46.2504         34.0004
 -11387211.38745
  -9131045.58246  24106840.3914   24106835.7974         38.7504         24.0004
  -6137517.36344
 -27754351.32848  20282009.4304   20282003.6484         48.7504         43.5004
 -20210691.57847
  -4885041.25046  24774889.2034   24774885.1414         36.7504         19.0004
  -3592677.82443
 -25403227.89848  20721252.6024   20721247.7704         50.0004         41.5004
 -17880843.42646
  -1674373.570 4  25805434.469                          29.750

 -14372843.28547  22955650.8674   22955645.6804         42.5004         29.2504
  -8868980.82044
 -23058534.11348  20995925.7894   20995921.0004         49.0004         38.7504
 -15381262.86346
 -13512437.35547  23047304.1804   23047297.7034         42.2504         30.2504
 -10004178.32445
 -13388584.87147  22967267.1334   22967260.7194         43.5004         30.0004
 -10100726.23445
 08  5 27  1 31  0.0000000  0 11G31G21G25G16G 7G 6G27G18G 3G19G22
  -6264119.02046  24481501.8914   24481498.3524         36.0004         21.0004
  -4613248.26643
 -18124117.68047  22256978.0634   22256972.1024         46.2504         33.0004
 -11332251.98445
  -9162507.58646  24100853.5554   24100848.8444         40.5004         23.0004
  -6162033.21943
 -27748136.26648  20283192.3444   20283186.5824         49.5004         43.7504
 -20205848.66847
  -4952565.93045  24762040.6024   24762036.1454         35.2504         19.0004
  -3645294.40243
 -25414382.62148  20719129.5634   20719125.4844         50.0004         41.0004
 -17889535.41446
  -1742726.500 4  25792427.203                          28.000

 -14399251.75447  22950625.6024   22950620.3834         43.0004         29.0004
  -8889558.82844
 -23103568.68048  20987355.7344   20987351.2424         48.7504         39.0004
 -15416354.73046
 -13578052.47347  23034818.4614   23034811.5514         43.0004         31.5004
 -10055306.98045
 -13467449.72747  22952259.1954   22952252.7424         44.0004         29.2504
 -10162179.34844
 08  5 27  1 31 30.0000000  0 11G31G21G25G16G 7G 6G27G18G 3G19G22
  -6161219.49646  24501084.1724   24501078.7304         36.5004         19.2504
  -4533066.79343
 -18053322.54347  22270449.6024   22270443.8404         46.7504         34.0004
 -11277086.93045
  -9193483.59446  24094958.7424   24094954.3014         41.0004         24.2504
  -6186170.33244
 -27741457.09448  20284463.1644   20284457.5474         49.5004         44.0004
 -20200644.12547
  -5019662.66846  24749272.1724   24749267.0274         37.2504         19.2504
  -3697577.58243
 -25425342.53948  20717044.2584   20717039.4654         49.7504         41.5004
 -17898075.59846
  -1810756.488 4  25779481.367                          29.250

 -14425194.74647  22945688.3134   22945683.0664         43.5004         29.7504
  -8909774.12944
 -23148386.88348  20978827.5554   20978823.0904         48.2504         39.0004
 -15451278.00046
 -13643547.88747  23022354.8834   23022347.8284         42.0004         30.5004
 -10106342.34845
 -13546086.85947  22937295.6564   22937288.7734         43.5004         29.5004
 -10223455.02044
 08  5 27  1 32  0.0000000  0 11G31G21G25G16G 7G 6G27G18G 3G19G22
  -6058361.01246  24520657.3594   24520651.9064         37.5004         21.0004
  -4452917.16843
 -17982265.55947  22283971.1644   22283965.8484         45.7504         33.5004
 -11221717.85545
  -9223972.67246  24089157.2274   24089151.4184         41.0004         25.0004
  -6209928.06644
 -27734312.80948  20285822.7974   20285816.8714         48.7504         44.0004
 -20195077.15247
  -5086329.47746  24736585.0634   24736581.0394         36.2504         18.5004
  -3749525.75843
 -25436107.56248  20714995.8284   20714990.9924         49.5004         41.2504
 -17906463.92646
  -1878461.727 4  25766597.211                          29.250

 -14450670.52047  22940840.8754   22940835.3134         43.5004         30.0004
  -8929625.36345
 -23192988.09848  20970339.7814   20970335.1564         48.0004         38.7504
 -15486032.18446
 -13708923.38647  23009913.9614   23009907.4534         42.7504         29.7504
 -10157284.28844
 -13624492.87547  22922375.2424   22922368.6094         43.7504         28.7504
 -10284550.60244
 08  5 27  1 32 30.0000000  0 11G31G21G25G16G 7G 6G27G18G 3G19G22
  -5955546.32046  24540221.7274   24540216.9614         36.0004         21.5004
  -4372801.79743
 -17910949.16447  22297542.3674   22297536.8914         46.5004         33.0004
 -11166146.64145
  -9253974.31246  24083448.0944   24083442.8754         41.5004         23.2504
  -6233305.94543
 -27726702.73048  20287271.0394   20287265.4454         49.0004         43.5004
 -20189147.22347
  -5152564.16046  24723982.4774   24723976.8324         37.5004         18.2504
  -3801137.18443
 -25446677.52348  20712984.6564   20712979.6844         50.0004         41.0004
 -17914700.25846
  -1945840.13315  25753776.531                          30.500

 -14475677.51647  22936081.8754   22936076.4414         44.0004         28.7504
  -8949111.31644
 -23237372.00448  20961893.7034   20961889.4964         48.0004         39.0004
 -15520617.03146
 -13774179.03947  22997496.7894   22997489.3794         43.0004         30.2504
 -10208132.84045
 -13702665.52047  22907499.3594   22907493.2034         44.5004         29.0004
 -10345464.32044
 08  5 27  1 33  0.0000000  0 11G31G21G25G16G 7G 6G27G18G 3G19G22
  -5852777.94546  24559778.1644   24559773.4344         36.7504         21.7504
  -4292722.50843
 -17839375.36747  22311162.1484   22311156.4804         46.2504         32.5004
 -11110374.84445
  -9283488.05546  24077831.2504   24077826.9844         41.2504         22.7504
  -6256303.64543
 -27718626.23448  20288808.0784   20288801.9924         48.2504         43.5004
 -20182853.84847
  -5218364.94146  24711460.5314   24711456.1644         38.5004         20.0004
  -3852410.50843
 -25457052.65648  20711010.1564   20711005.3094         50.0004         41.2504
 -17922784.77346
  -2012890.05545  25741017.4924   25741012.2544         31.0004         19.2504
     -3072.65653
 -14500214.41847  22931413.0474   22931407.5664         43.2504         28.7504
  -8968230.96144
 -23281538.43748  20953489.9064   20953484.9184         48.5004         39.0004
 -15555032.43046
 -13839314.73047  22985101.5314   22985094.9574         43.7504         31.0004
 -10258887.89845
 -13780600.95747  22892668.4384   22892662.2034         43.7504         28.7504
 -10406193.20744
 08  5 27  1 33 30.0000000  0 11G31G21G25G16G 7G 6G27G18G 3G19G22
  -5750058.35545  24579324.9774   24579320.4454         35.2504         20.7504
  -4212681.26643
 -17767545.62147  22324831.2504   22324825.8244         45.5004         33.0004
 -11054403.61345
  -9312512.92246  24072308.5944   24072303.0514         40.2504         23.0004
  -6278920.41843
 -27710082.51648  20290433.3674   20290427.8204         48.0004         43.2504
 -20176196.41047
  -5283729.64146  24699021.6254   24699017.0664         38.7504         21.2504
  -3903344.03943
 -25467232.66048  20709072.8444   20709068.4414         49.0004         41.5004
 -17930717.24246
  -2079609.59445  25728321.1414   25728317.1334         31.0004         16.7504
    -55061.91842
 -14524279.53547  22926833.6174   22926827.8284         44.5004         30.0004
  -8986982.99245
 -23325486.75848  20945126.4694   20945121.2704         48.0004         39.0004
 -15589277.86746
 -13904330.75747  22972729.4304   22972722.9694         43.2504         30.7504
 -10309549.73045
 -13858296.57847  22877883.5234   22877876.9264         44.0004         29.2504
 -10466735.23044
 08  5 27  1 34  0.0000000  0 11G31G21G25G16G 7G 6G27G18G 3G19G22
  -5647390.84446  24598862.9614   24598857.4104         36.0004         20.7504
  -4132680.53543
 -17695462.05147  22338548.6334   22338542.6604         46.0004         33.2504
 -10998234.60245
  -9341048.60546  24066877.6884   24066872.9734         40.7504         25.5004
  -6301156.02344
 -27701070.97748  20292148.3134   20292142.7304         48.5004         43.2504
 -20169174.43047
  -5348656.44146  24686666.8364   24686661.6294         37.5004         20.2504
  -3953936.33643
 -25477217.55948  20707172.9224   20707167.8634         50.2504         41.5004
 -17938497.68446
                  25715687.3834   25715684.7074         32.5004         13.7504

 -14547871.52747  22922343.8204   22922338.5944         44.2504         29.0004
  -9005366.33244
 -23369216.77348  20936804.8674   20936800.2464         48.7504         39.0004
 -15623353.19946
 -13969227.12546  22960380.4774   22960373.3204         40.7504         30.5004
 -10360118.30145
 -13935749.68047  22863144.5394   22863138.5274         43.5004         29.2504
 -10527088.29744
 08  5 27  1 34 30.0000000  0 11G31G21G25G16G 7G 6G27G18G 3G19G22
  -5544777.62546  24618389.2114   24618383.6994         38.0004         20.7504
  -4052722.03543
 -17623126.66847  22352313.5314   22352307.5124         45.7504         32.7504
 -10941869.36745
  -9369094.30946  24061540.8594   24061536.1294         40.5004         23.7504
  -6323009.78943
 -27691590.88348  20293952.3204   20293946.8364         48.5004         43.7504
 -20161787.35247
  -5413143.04346  24674395.3054   24674390.3634         37.0004         20.0004
  -4004185.60943
 -25487007.07048  20705310.1094   20705305.6294         49.7504         41.5004
 -17946125.87946
                  25703117.3054   25703115.9494         33.0004         16.2504

 -14570988.87947  22917945.0784   22917939.2704         43.7504         29.2504
  -9023379.84444
 -23412728.18748  20928524.9844   20928520.2894         48.2504         39.5004
 -15657258.18046
 -14034003.35246  22948053.6414   22948046.7344         41.2504         31.2504
 -10410593.28945
 -14012957.17247  22848453.2814   22848446.4264         42.2504         30.0004
 -10587249.94545
 08  5 27  1 35  0.0000000  0 11G31G21G25G16G 7G 6G27G18G 3G19G22
  -5442221.60546  24637904.5474   24637899.1524         37.0004         19.2504
  -3972808.17243
 -17550541.81647  22366125.6414   22366119.5744         45.5004         32.5004
 -10885309.73445
  -9396649.59846  24056297.8594   24056293.0164         40.2504         23.2504
  -6344481.44943
 -27681641.62548  20295845.8834   20295839.9804         48.2504         44.0004
 -20154034.68447
  -5477187.75046  24662207.8674   24662203.2384         38.0004         19.7504
  -4054090.56243
 -25496601.29748  20703484.0704   20703479.6484         49.5004         41.2504
 -17953601.89546
                  25690611.7584   25690609.6174         34.5004         14.7504

 -14593630.18747  22913636.4614   22913631.0204         42.5004         30.2504
  -9041022.41045
 -23456020.41848  20920286.6254   20920282.0634         48.2504         39.0004
 -15690992.37946
 -14098660.04746  22935749.8594   22935743.3444         41.2504         30.7504
 -10460975.10945
 -14089916.19147  22833807.5634   22833800.9964         44.2504         29.5004
 -10647218.02044
 08  5 27  1 35 30.0000000  0 11G31G21G25G16G 7G 6G27G18G 3G19G22
  -5339725.04746  24657408.5314   24657403.8714         36.0004         19.2504
  -3892940.68443
 -17477709.27047  22379985.2584   22379979.1804         45.5004         32.7504
 -10828557.10245
  -9423713.77046  24051146.9144   24051142.7154         40.5004         24.5004
  -6365570.40244
 -27671222.27048  20297828.5234   20297822.8094         48.5004         43.5004
 -20145915.70347
  -5540788.30546  24650105.1334   24650100.2544         38.0004         19.5004
  -4103649.42243
 -25505999.93748  20701695.6484   20701691.0434         50.0004         41.0004
 -17960925.52046
                  25678171.7034   25678168.6134         33.0004         16.2504

 -14615794.03147  22909418.5864   22909413.3524         43.7504         30.0004
  -9058292.93045
 -23499092.99248  20912089.9924   20912085.5864         48.0004         38.7504
 -15724555.41846
 -14163197.08246  22923469.0634   22923461.8594         40.2504         30.5004
 -10511263.69545
 -14166623.60947  22819210.9144   22819204.8834         43.7504         30.5004
 -10706989.98845
 08  5 27  1 36  0.0000000  0 11G31G21G25G16G 7G 6G27G18G 3G19G22
  -5237290.53546  24676902.0474   24676896.0784         37.5004         21.7504
  -3813121.57843
 -17404631.32447  22393891.9384   22393885.9924         45.0004         32.0004
 -10771613.26245
  -9450286.63346  24046091.1094   24046086.1454         40.5004         23.5004
  -6386276.51643
 -27660332.49648  20299900.7114   20299894.8754         49.0004         44.0004
 -20137430.17247
  -5603943.35546  24638086.8134   24638081.6644         38.2504         19.7504
  -4152861.12943
 -25515203.25048  20699944.1884   20699939.6054         49.5004         41.5004
 -17968096.91846
                  25665796.883                          35.000

 -14637479.29347  22905292.3134   22905286.4144         44.5004         29.7504
  -9075190.52044
 -23541945.63748  20903935.2584   20903930.9494         48.0004         39.0004
 -15757947.08246
 -14227614.60546  22911210.0164   22911203.8204         41.0004         31.7504
 -10561459.14845
 -14243076.82847  22804662.7664   22804655.6254         44.2504         30.2504
 -10766563.92645
 08  5 27  1 36 30.0000000  0 11G31G21G25G16G 7G 6G27G18G 3G19G22
  -5134920.89146  24696381.9304   24696377.0044         37.2504         22.0004
  -3733353.01243
 -17331309.67247  22407844.5394   22407838.3404         44.7504         32.7504
 -10714479.49645
  -9476367.26646  24041127.7424   24041122.7074         40.0004         22.2504
  -6406599.10543
 -27648971.49248  20302062.7194   20302057.0274         48.2504         43.2504
 -20128577.43447
  -5666650.02046  24626153.2114   24626149.6684         38.2504         19.7504
  -4201723.44943
 -25524210.62948  20698230.4304   20698225.5704         50.0004         41.2504
 -17975115.65646
  -2472885.13715  25653482.438                          33.250

 -14658684.14547  22901257.0084   22901251.3914         43.2504         29.5004
  -9091713.76244
 -23584577.67247  20895823.1484   20895818.0434         47.7504         39.0004
 -15791166.84046
 -14291912.37146  22898974.6024   22898968.7034         40.2504         31.0004
 -10611561.27345
 -14319272.39547  22790162.6804   22790156.4224         42.5004         30.5004
 -10825937.08245
 08  5 27  1 37  0.0000000  0 11G31G21G25G16G 7G 6G27G18G 3G19G22
  -5032618.64146  24715849.6954   24715843.9494         37.0004         20.0004
  -3653636.88743
 -17257746.04747  22421842.7814   22421836.7194         45.5004         31.5004
 -10657157.18745
  -9501955.43746  24036258.9454   24036252.8954         41.5004         24.7504
  -6426537.91844
 -27637138.48048  20304314.5164   20304308.3984         48.2504         44.2504
 -20119356.91447
  -5728907.30946  24614306.9384   24614302.6764         37.7504         19.7504
  -4250235.61743
 -25533022.30548  20696553.5634   20696548.9534         49.5004         41.2504
 -17981981.89546
  -2537240.19515  25641235.414                          31.750

 -14679407.43747  22897313.7344   22897308.0634         43.2504         30.7504
  -9107861.77345
 -23626989.18748  20887752.2664   20887747.5394         48.7504         39.7504
 -15824214.76646
 -14356090.49246  22886762.2664   22886755.7424         40.7504         30.7504
 -10661570.19145
 -14395207.68447  22775713.0234   22775706.3404         42.5004         30.2504
 -10885107.42245
 08  5 27  1 37 30.0000000  0 11G31G21G25G16G 7G 6G27G18G 3G19G22
  -4930386.74246  24735303.3674   24735298.3634         37.0004         19.7504
  -3573975.62943
 -17183942.91847  22435887.1804   22435881.7074         44.0004         33.0004
 -10599648.27045
  -9527050.80546  24031482.2194   24031478.1724         40.5004         24.0004
  -6446092.74244
 -27624833.22748  20306656.1174   20306650.5044         48.7504         43.5004
 -20109768.39847
  -5790713.25446  24602546.9774   24602541.5124         38.5004         21.5004
  -4298396.03943
 -25541638.19548  20694913.8444   20694909.6484         49.5004         41.2504
 -17988695.57846
  -2601250.328 5  25629056.063                          32.000

 -14699648.12547  22893461.4774   22893456.2464         44.2504         29.5004
  -9123633.71144
 -23669179.58648  20879723.5084   20879719.0164         48.2504         39.0004
 -15857090.40646
 -14420149.15246  22874572.2974   22874565.7464         40.0004         31.2504
 -10711486.02745
 -14470880.00847  22761312.8984   22761307.3014         43.2504         30.5004
 -10944072.85945
 08  5 27  1 38  0.0000000  0 11G31G21G25G16G 7G 6G27G18G 3G19G22
  -4828227.15645  24754743.1644   24754738.5394         34.2504         18.2504
  -3494370.75043
 -17109902.26647  22449976.4924   22449970.8164         45.2504         33.0004
 -10541954.25045
  -9551652.60546  24026800.9384   24026796.9804         41.0004         25.5004
  -6465262.98044
 -27612055.00048  20309087.6024   20309081.6844         48.5004         43.2504
 -20099811.35247
  -5852065.82846  24590871.0164   24590866.0354         38.2504         20.7504
  -4346203.22743
 -25550058.05548  20693311.7424   20693306.9414         49.0004         41.0004
 -17995256.51246
  -2664913.820 5  25616941.508                          32.500

 -14719404.30547  22889702.6254   22889696.6644         43.0004         29.2504
  -9139028.12944
 -23711148.30548  20871737.2034   20871732.5744         48.5004         39.7504
 -15889793.29746
 -14484088.35946  22862405.2894   22862398.6254         39.5004         30.0004
 -10761308.76645
 -14546286.51647  22746963.5704   22746957.1214         43.5004         30.7504
 -11002831.15245
 08  5 27  1 38 30.0000000  0 11G31G21G25G16G 7G 6G27G18G 3G19G22
  -4726142.95746  24774169.2814   24774164.5434         36.5004         20.2504
  -3414824.52043
 -17035625.93447  22464110.9774   22464104.9224         44.5004         32.2504
 -10484076.58645
  -9575760.69946  24022213.2034   24022208.8634         40.7504         25.5004
  -6484048.48844
 -27598803.14848  20311609.3134   20311603.8874         48.7504         44.0004
 -20089485.22747
  -5912963.09846  24579282.1024   24579276.9694         38.0004         19.2504
  -4393655.63343
 -25558281.79748  20691746.6174   20691742.0084         49.0004         41.7504
 -18001664.62546
  -2728228.609 5  25604892.406                          30.250

 -14738675.15247  22886035.0554   22886029.8204         44.0004         29.7504
  -9154044.35544
 -23752895.10548  20863793.2664   20863788.7194         48.7504         39.7504
 -15922323.26646
 -14547907.68046  22850260.8134   22850253.9264         40.2504         31.2504
 -10811038.09845
 -14621423.66047  22732665.2734   22732658.5784         44.0004         30.5004
 -11061379.57445
 08  5 27  1 39  0.0000000  0 11G31G21G25G16G 7G 6G27G18G 3G19G22
  -4624136.50846  24793581.4774   24793575.3204         37.7504         22.0004
  -3335338.90643
 -16961116.04747  22478289.6334   22478284.0234         45.0004         31.5004
 -10426016.94545
  -9599374.69946  24017720.5554   24017715.3754         41.0004         24.7504
  -6502449.00044
 -27585077.08248  20314221.4844   20314215.7304         49.0004         43.2504
 -20078789.59047
  -5973403.41046  24567780.6564   24567776.1174         37.7504         20.5004
  -4440751.98043
 -25566309.34048  20690219.2424   20690214.5824         49.2504         41.5004
 -18007919.84046
  -2791193.27045  25592911.9614   25592907.1524         31.5004         17.7504
   -285156.89852
 -14757459.21547  22882460.6804   22882455.3164         43.7504         29.0004
  -9168681.27044
 -23794419.63348  20855891.2504   20855886.3674         48.2504         39.5004
 -15954680.03546
 -14611607.66846  22838139.1094   22838132.1294         40.0004         32.0004
 -10860674.43745
 -14696289.01247  22718419.1644   22718412.8134         43.5004         31.0004
 -11119716.18445
 08  5 27  1 39 30.0000000  0 11G31G21G25G16G 7G 6G27G18G 3G19G22
  -4522210.70745  24812976.2034   24812970.4654         35.7504         21.2504
  -3255916.13743
 -16886374.38747  22492512.2894   22492506.5434         44.7504         32.0004
 -10367776.68445
  -9622494.10546  24013320.8524   24013316.0314         41.0004         25.5004
  -6520464.13744
 -27570876.55548  20316923.4384   20316917.9064         48.0004         43.5004
 -20067724.25047
  -6033384.59446  24556367.2974   24556362.3324         38.7504         20.0004
  -4487490.51243
 -25574140.56248  20688728.9534   20688724.3914         49.5004         41.5004
 -18014022.09846
  -2853806.00045  25580996.5164   25580992.2504         32.2504         17.7504
   -333946.01242
 -14775755.43747  22878979.4534   22878973.5394         43.7504         29.7504
  -9182938.05144
 -23835721.24648  20848032.1254   20848027.2894         49.2504         39.5004
 -15986863.10546
 -14675188.02746  22826040.0704   22826033.6134         40.5004         32.0004
 -10910217.57045
 -14770879.53147  22704225.1644   22704218.1804         42.7504         30.2504
 -11177838.65245
 08  5 27  1 40  0.0000000  0 11G31G21G25G16G 7G 6G27G18G 3G19G22
  -4420367.41045  24832356.8674   24832351.2974         35.0004         19.7504
  -3176557.69143
 -16811403.06647  22506778.9224   22506773.6024         44.2504         31.7504
 -10309357.48845
  -9645118.35946  24009015.8524   24009011.0274         40.7504         23.0004
  -6538093.40643
 -27556200.66048  20319716.3444   20319710.5784         48.5004         43.5004
 -20056288.48447
  -6092904.69146  24545041.5164   24545036.2114         38.7504         21.7504
  -4533869.82843
 -25581774.98848  20687276.5164   20687271.5824         49.5004         41.5004
 -18019971.00046
  -2916064.72345  25569149.2734   25569144.3794         32.5004         16.7504
   -382459.30942
 -14793562.30947  22875590.7814   22875584.9064         43.7504         29.7504
  -9196813.53544
 -23876799.39548  20840214.8364   20840210.1094         48.7504         39.2504
 -16018872.06246
 -14738648.67246  22813963.4774   22813956.9414         40.2504         32.2504
 -10959667.40645
 -14845192.19947  22690083.0394   22690077.3554         43.7504         30.2504
 -11235744.61345
 08  5 27  1 40 30.0000000  0 11G31G21G25G16G 7G 6G27G18G 3G19G22
  -4318609.96545  24851720.1804   24851715.1884         35.2504         19.0004
  -3097266.14543
 -16736203.89147  22521088.9614   22521083.5664         44.5004         31.7504
 -10250760.72345
  -9667247.41046  24004804.5784   24004799.3794         40.7504         23.0004
  -6555336.82443
 -27541049.20748  20322599.4774   20322593.5124         49.0004         43.7504
 -20044482.16447
  -6151962.37146  24533802.5474   24533798.1134         38.5004         20.5004
  -4579888.78143
 -25589212.94148  20685860.7424   20685856.2194         48.7504         41.0004
 -18025766.80546
  -2977968.03945  25557369.5474   25557365.2734         34.7504         16.7504
   -430695.59842
 -14810878.62547  22872295.5944   22872289.4144         43.5004         29.7504
  -9210306.75844
 -23917654.01248  20832440.6254   20832435.8634         48.0004         39.2504
 -16050706.82446
 -14801990.09446  22801909.8524   22801903.5314         40.5004         31.7504
 -11009024.34045
 -14919224.45747  22675995.4844   22675989.5554         43.7504         30.2504
 -11293432.07845
 08  5 27  1 41  0.0000000  0 11G31G21G25G16G 7G 6G27G18G 3G19G22
  -4216940.62546  24871067.7424   24871061.5394         36.2504         18.2504
  -3018043.22743
 -16660779.14147  22535442.1414   22535435.9414         44.7504         31.0004
 -10191988.19945
  -9688880.98846  24000688.0084   24000682.6764         41.2504         25.2504
  -6572194.14844
 -27525421.73847  20325573.2504   20325567.8594         47.5004         43.2504
 -20032304.91847
  -6210555.89546  24522652.5554   24522647.9104         36.5004         19.2504
  -4625546.06243
 -25596454.05148  20684483.0864   20684478.2504         49.0004         41.5004
 -18031409.22746
  -3039514.27045  25545657.1094   25545653.3914         34.2504         16.2504
   -478653.70342
 -14827703.17647  22869093.2424   22869087.8554         43.5004         28.5004
  -9223416.76244
 -23958284.71548  20824708.9694   20824704.1054         48.7504         39.2504
 -16082367.10246
 -14865211.86746  22789879.3134   22789872.6484         40.5004         32.0004
 -11058288.05145
 -14992973.25847  22661961.9774   22661955.1604         43.5004         30.0004
 -11350898.65245
 08  5 27  1 41 30.0000000  0 11G31G21G25G16G 7G 6G27G18G 3G19G22
  -4115361.77046  24890397.4064   24890391.8834         37.2504         17.7504
  -2938890.75042
 -16585131.12947  22549837.1564   22549831.7934         44.5004         31.5004
 -10133041.69945
  -9710018.46546  23996665.5474   23996660.6954         40.5004         23.0004
  -6588664.90643
 -27509317.55147  20328637.9774   20328632.2854         47.7504         44.0004
 -20019756.19547
  -6268683.20746  24511591.0704   24511586.1374         38.2504         20.5004
  -4670840.02343
 -25603498.23448  20683142.6724   20683137.7814         48.5004         41.5004
 -18036898.19546
  -3100701.78945  25534013.7894   25534010.0204         35.0004         17.2504
   -526332.26242
 -14844035.23047  22865985.4454   22865980.1174         43.0004         29.2504
  -9236143.03944
 -23998690.78947  20817019.9064   20817014.5784         46.2504         39.5004
 -16113852.34846
 -14928314.14546  22777871.6094   22777865.2544         40.2504         31.5004
 -11107458.64545
 -15066435.64547  22647982.6884   22647975.7974         43.5004         31.2504
 -11408142.04745
 08  5 27  1 42  0.0000000  0 11G31G21G25G16G 7G 6G27G18G 3G19G22
  -4013876.21546  24909708.8754   24909703.8714         37.5004         20.2504
  -2859811.07443
 -16509261.02047  22564274.8914   22564268.9694         44.5004         31.5004
 -10073922.14145
  -9730659.89546  23992737.7194   23992732.4494         41.5004         23.2504
  -6604749.15243
 -27492736.17247  20331793.3134   20331787.4304         46.7504         43.2504
 -20006835.64547
  -6326342.59846  24500618.7584   24500614.0314         39.0004         22.0004
  -4715769.42643
 -25610345.26648  20681839.6564   20681834.9614         48.7504         41.0004
 -18042233.55146
  -3161528.62546  25522438.8204   25522435.3874         36.0004         16.2504
   -573729.82842
 -14859873.23447  22862972.1884   22862966.2274         43.2504         30.0004
  -9248484.33645
 -24038871.71547  20809373.6564   20809368.7734         47.0004         39.5004
 -16145162.15646
 -14991297.01246  22765886.5004   22765879.9184         40.2504         32.0004
 -11156536.18445
 -15139608.81247  22634057.8914   22634051.2934         43.7504         30.7504
 -11465160.08245
 08  5 27  1 42 30.0000000  0 11G31G21G25G16G 7G 6G27G18G 3G19G22
  -3912486.24246  24929002.9534   24928997.1914         36.5004         20.0004
  -2780805.88743
 -16433170.94147  22578754.6644   22578748.6724         44.5004         31.5004
 -10014631.17645
  -9750804.81646  23988904.7194   23988899.2664         41.2504         25.7504
  -6620446.49244
 -27475677.32848  20335039.7504   20335033.8324         48.5004         44.0004
 -19993543.04347
  -6383532.19546  24489736.6254   24489731.9614         39.0004         22.0004
  -4760332.75843
 -25616994.95748  20680574.2974   20680569.7704         49.5004         41.7504
 -18047415.12146
  -3221992.95745  25510933.2814   25510928.8284         35.7504         16.7504
   -620844.91442
 -14875216.08647  22860051.4694   22860046.7234         44.5004         30.5004
  -9260439.78145
 -24078827.19548  20801770.3054   20801765.6174         48.0004         40.2504
 -16176296.28546
 -15054160.17246  22753923.9774   22753917.1374         40.5004         31.7504
 -11205520.45345
 -15212489.91447  22620188.7194   22620182.6644         44.0004         31.0004
 -11521950.53545
 08  5 27  1 43  0.0000000  0 11G31G21G25G16G 7G 6G27G18G 3G19G22
  -3811194.64545  24948278.3444   24948272.9024         35.0004         18.5004
  -2701877.39543
 -16356863.00447  22593275.4614   22593269.7194         44.0004         31.5004
  -9955170.44945
  -9770453.08646  23985164.7274   23985160.1214         40.5004         24.0004
  -6635756.79344
 -27458140.58248  20338376.4774   20338370.6994         48.5004         43.5004
 -19979878.05147
  -6440250.57046  24478943.1804   24478938.0634         38.7504         21.0004
  -4804528.88343
 -25623447.30148  20679346.1174   20679341.7114         49.7504         42.0004
 -18052442.91447
  -3282093.49645  25499495.4694   25499492.1024         35.2504         17.2504
   -667676.48842
 -14890063.00047  22857226.4924   22857221.3914         44.0004         30.0004
  -9272008.79745
 -24118556.73448  20794209.8364   20794205.3204         48.0004         39.2504
 -16207254.36746
 -15116904.01646  22741983.7894   22741977.1134         40.5004         32.5004
 -11254411.74645
 -15285076.07447  22606376.3834   22606370.1374         44.0004         31.2504
 -11578511.16845
 08  5 27  1 43 30.0000000  0 11G31G21G25G16G 7G 6G27G18G 3G19G22
  -3710003.73046  24967534.7504   24967528.6764         36.0004         18.5004
  -2623027.35543
 -16280339.55547  22607837.3364   22607831.6294         44.0004         31.2504
  -9895541.78545
  -9789604.50446  23981520.3674   23981515.8134         41.5004         25.5004
  -6650679.98844
 -27440125.59047  20341804.5704   20341799.1604         47.0004         44.2504
 -19965840.39847
  -6496496.23446  24468239.9454   24468235.1334         38.2504         20.5004
  -4848356.63343
 -25629702.15648  20678155.8524   20678151.3634         50.0004         41.0004
 -18057316.83246
  -3341828.54745  25488127.8054   25488125.4494         35.5004         16.7504
   -714223.23842
 -14904412.73447  22854495.9774   22854490.9654         43.0004         29.2504
  -9283190.38744
 -24158059.97747  20786692.7664   20786688.1024         47.0004         39.5004
 -16238036.10946
 -15179528.16846  22730067.2734   22730061.1454         40.5004         32.5004
 -11303209.77045
 -15357364.73047  22592620.0314   22592614.2074         43.5004         31.5004
 -11634839.96945
 08  5 27  1 44  0.0000000  0 11G31G21G25G16G 7G 6G27G18G 3G19G22
  -3608916.16046  24986770.6644   24986765.4184         36.5004         19.0004
  -2544257.78943
 -16203601.92247  22622440.3674   22622434.3284         43.7504         30.7504
  -9835746.24245
  -9808259.01647  23977971.1024   23977966.1684         42.0004         26.0004
  -6665215.96144
 -27421631.85248  20345324.0554   20345318.1094         48.2504         43.5004
 -19951429.69547
  -6552267.33246  24457626.3754   24457621.9574         38.2504         20.7504
  -4891814.59443
 -25635759.27048  20677003.2814   20676998.6604         49.0004         41.2504
 -18062036.65646
  -3401196.60945  25476831.6954   25476828.3244         35.7504         15.5004
   -760484.09042
 -14918263.87547  22851860.5314   22851855.2274         44.0004         30.5004
  -9293983.47345
 -24197336.53947  20779218.9454   20779213.9804         47.2504         39.7504
 -16268641.21946
 -15242032.90246  22718172.8284   22718165.9574         41.0004         32.5004
 -11351914.74245
 -15429352.68447  22578921.2504   22578915.2424         44.2504         31.7504
 -11690934.44145
 08  5 27  1 44 30.0000000  0 11G31G21G25G16G 7G 6G27G18G 3G19G22
  -3507934.42646  25005987.5864   25005981.2274         37.5004         19.7504
  -2465570.78943
 -16126652.37947  22637082.8834   22637076.9654         44.2504         30.7504
  -9775785.56245
  -9826416.05146  23974515.9454   23974511.3674         41.5004         25.7504
  -6679364.29744
 -27402658.87947  20348934.4924   20348928.6094         47.0004         43.5004
 -19936645.56647
  -6607561.85546  24447104.9384   24447099.8874         39.5004         20.5004
  -4934901.25443
 -25641618.44548  20675888.3674   20675883.7274         49.2504         41.2504
 -18066602.25046
  -3460195.76245  25465604.1094   25465601.1914         34.5004         16.7504
   -806457.46142
 -14931615.69547  22849319.5784   22849313.9884         44.0004         30.0004
  -9304387.48845
 -24236385.62947  20771788.1094   20771783.3484         47.0004         40.0004
 -16299069.07846
 -15304418.40246  22706301.4614   22706295.0314         41.0004         33.0004
 -11400526.80545
 -15501037.12947  22565280.0314   22565273.4734         43.5004         31.7504
 -11746792.43445
 08  5 27  1 45  0.0000000  0 11G31G21G25G16G 7G 6G27G18G 3G19G22
  -3407060.55145  25025182.2194   25025177.0474         34.7504         17.7504
  -2386967.69142
 -16049493.06247  22651766.1174   22651760.4804         44.5004         30.5004
  -9715661.42645
  -9844075.81646  23971154.9454   23971150.4844         41.5004         24.2504
  -6693125.14844
 -27383206.64147  20352635.9844   20352630.2194         47.7504         43.2504
 -19921487.98847
  -6662378.49246  24436673.4304   24436668.6764         38.5004         20.7504
  -4977615.49643
 -25647279.39848  20674811.0864   20674806.3054         49.7504         41.7504
 -18071013.38346
  -3518824.23045  25454446.8444   25454443.7344         33.5004         17.7504
   -852141.93742
 -14944467.16447  22846874.1414   22846868.3484         43.5004         29.0004
  -9314401.61744
 -24275207.07848  20764400.6254   20764395.6684         48.0004         40.0004
 -16329319.55546
 -15366684.35946  22694452.0164   22694445.6804         41.0004         32.7504
 -11449045.72345
 -15572415.24647  22551697.5314   22551690.9884         44.5004         31.7504
 -11802411.73045
 08  5 27  1 45 30.0000000  0 11G31G21G25G16G 7G 6G27G18G 3G19G22
  -3306297.55545  25044357.6484   25044351.8954         34.0004         17.2504
  -2308451.13342
 -15972125.65247  22666488.2734   22666482.4184         43.7504         30.7504
  -9655375.13745
  -9861238.03546  23967889.0784   23967884.2544         41.2504         26.7504
  -6706498.29344
 -27363274.59447  20356429.0234   20356423.3834         47.2504         43.5004
 -19905956.52347
  -6716715.46546  24426333.6954   24426328.1844         38.2504         21.5004
  -5019955.96943
 -25652742.18748  20673771.3594   20673767.0084         49.5004         41.2504
 -18075270.10246
  -3577080.87145  25443361.5634   25443358.0434         34.7504         16.7504
   -897536.71942
 -14956817.33647  22844523.9844   22844518.4614         43.0004         29.2504
  -9324025.10244
 -24313800.39548  20757056.5394   20757051.8364         48.5004         40.0004
 -16359392.26646
 -15428830.64146  22682626.2274   22682619.9384         41.2504         32.2504
 -11497471.37945
 -15643484.32447  22538173.4064   22538167.4804         44.2504         31.0004
 -11857790.21545
 08  5 27  1 46  0.0000000  0 11G31G21G25G16G 7G 6G27G18G 3G19G22
  -3205647.57845  25063510.0394   25063504.3754         34.2504         16.7504
  -2230022.55142
 -15894552.49647  22681250.4694   22681244.3094         43.5004         31.0004
  -9594928.53545
  -9877902.67646  23964717.8834   23964713.1334         41.0004         26.2504
  -6719483.72744
 -27342862.33647  20360313.1644   20360307.4844         47.5004         43.5004
 -19890050.87147
  -6770571.35246  24416085.7584   24416079.9264         38.7504         21.5004
  -5061921.61343
 -25658006.45348  20672770.0394   20672765.0904         48.2504         41.2504
 -18079372.12146
  -3634963.59445  25432347.2894   25432343.3794         33.5004         17.2504
   -942640.07842
 -14968664.93747  22842269.2894   22842263.7774         42.5004         30.2504
  -9333256.98845
 -24352165.02047  20749755.8914   20749751.3164         47.2504         40.5004
 -16389286.77746
 -15490857.35546  22670823.1644   22670816.0554         41.0004         33.2504
 -11545803.87945
 -15714241.34047  22524708.9924   22524701.6414         43.5004         31.7504
 -11912925.53145
 08  5 27  1 46 30.0000000  0 11G31G21G25G16G 7G 6G27G18G 3G19G22
  -3105113.67245  25082640.4224   25082635.7274         35.0004         17.2504
  -2151684.46542
 -15816775.56647  22696050.4844   22696044.7854         43.0004         30.2504
  -9534323.14545
  -9894069.63346  23961641.7584   23961636.9614         40.7504         26.0004
  -6732081.33244
 -27321969.68447  20364289.0314   20364283.3014         46.2504         43.5004
 -19873770.88347
  -6823944.57846  24405928.4844   24405923.8134         38.2504         21.7504
  -5103511.09043
 -25663072.14548  20671805.3364   20671800.9414         48.7504         41.5004
 -18083319.41846
  -3692471.03945  25421402.8204   25421399.4844         35.5004         16.7504
   -987451.10242
 -14980009.32047  22840110.3364   22840105.0434         43.7504         30.5004
  -9342096.76245
 -24390300.91447  20742499.0234   20742494.0984         47.0004         40.0004
 -16419003.04746
 -15552764.48047  22659042.9144   22659035.8524         42.2504         33.5004
 -11594043.17245
 -15784683.66447  22511304.1954   22511297.7854         43.2504         32.0004
 -11967815.64145
 08  5 27  1 47  0.0000000  0 11G31G21G25G16G 7G 6G27G18G 3G19G22
  -3004697.38745  25101749.8914   25101744.0474         35.7504         18.5004
  -2073438.03143
 -15738796.53947  22710889.5554   22710884.0434         44.2504         30.5004
  -9473560.27045
  -9909738.81246  23958659.4224   23958655.1914         40.0004         26.0004
  -6744291.09844
 -27300596.44947  20368356.1564   20368350.5514         45.5004         43.0004
 -19857116.41447
  -6876833.35546  24395864.2344   24395859.1174         38.7504         21.7504
  -5144723.10943
 -25667938.81248  20670879.7894   20670875.1334         48.0004         41.0004
 -18087111.62146
  -3749601.53145  25410532.2584   25410528.5944         34.7504         16.7504
  -1031968.33642
 -14990849.31647  22838047.8524   22838042.3914         42.2504         29.0004
  -9350543.49244
 -24428207.37947  20735285.5704   20735280.9774         47.0004         40.2504
 -16448540.54746
 -15614551.98047  22647285.0634   22647278.2344         42.0004         32.5004
 -11642189.27045
 -15854808.43447  22497959.9384   22497953.8134         44.0004         32.0004
 -12022458.28945
 08  5 27  1 47 30.0000000  0 11G31G21G25G16G 7G 6G27G18G 3G19G22
  -2904401.90246  25120835.6334   25120830.0864         37.5004         19.2504
  -1995285.68443
 -15660617.33247  22725767.0314   22725760.9304         43.5004         30.2504
  -9412641.40645
  -9924910.25446  23955772.5634   23955768.3244         41.5004         25.7504
  -6756112.98844
 -27278742.17247  20372515.0784   20372509.2074         45.5004         43.7504
 -19840087.11747
  -6929235.99246  24385892.5084   24385887.0664         38.7504         21.7504
  -5185556.30943
 -25672606.43748  20669991.6884   20669986.7424         48.5004         41.5004
 -18090748.73446
  -3806353.69545  25399731.8984   25399728.9844         35.7504         15.5004
  -1076190.82442
 -15001184.11347  22836080.7034   22836075.8484         43.0004         29.5004
  -9358596.57044
 -24465883.80547  20728115.7664   20728111.3594         47.5004         39.7504
 -16477898.79346
 -15676220.16047  22635550.4534   22635543.2934         42.0004         33.2504
 -11690242.38345
 -15924612.93047  22484676.1724   22484669.0314         43.5004         32.0004
 -12076851.38345
 08  5 27  1 48  0.0000000  0 11G31G21G25G16G 7G 6G27G18G 3G19G22
  -2804229.24646  25139897.7504   25139891.6764         37.0004         18.5004
  -1917228.98843
 -15582240.07447  22740681.4694   22740675.4344         43.0004         30.0004
  -9351568.24645
  -9939583.82446  23952980.9064   23952976.0984         40.2504         25.0004
  -6767546.95744
 -27256406.62147  20376765.4144   20376759.5944         45.7504         43.5004
 -19822682.78547
  -6981151.12146  24376013.8754   24376007.5004         39.7504         21.5004
  -5226009.66443
 -25677074.89548  20669140.9144   20669136.4964         48.7504         41.2504
 -18094230.64846
  -3862725.88746  25389005.1334   25389001.8324         36.0004         17.7504
  -1120117.15242
 -15011012.86747  22834210.9924   22834205.3674         42.5004         30.5004
  -9366255.34045
 -24503329.61348  20720990.3834   20720985.3364         48.0004         39.7504
 -16507077.33646
 -15737768.67247  22623837.5004   22623830.4804         42.2504         32.2504
 -11738202.25045
 -15994094.08647  22471454.8364   22471448.3444         43.5004         32.5004
 -12130992.51645
 08  5 27  1 48 30.0000000  0 11G31G21G25G16G 7G 6G27G18G 3G19G22
  -2704182.18445  25158936.0004   25158930.7464         35.5004         17.7504
  -1839270.25842
 -15503666.58247  22755633.0944   22755627.5204         43.2504         30.2504
  -9290342.12945
  -9953759.50846  23950283.1094   23950278.3554         40.7504         24.7504
  -6778592.93444
 -27233589.54747  20381107.1334   20381101.3794         46.0004         43.7504
 -19804903.25047
  -7032577.25746  24366226.8674   24366220.9414         38.5004         21.2504
  -5266081.99143
 -25681343.73448  20668329.0704   20668324.6454         48.5004         42.2504
 -18097557.02047
  -3918716.44945  25378349.6484   25378346.0594         35.2504         17.7504
  -1163746.13342
 -15020334.33647  22832436.6094   22832431.7074         43.0004         29.7504
  -9373518.80144
 -24540544.25848  20713908.4614   20713903.7894         48.0004         40.0004
 -16536075.75046
 -15799197.43447  22612147.8914   22612141.4304         43.0004         33.5004
 -11786068.81645
 -16063249.33647  22458295.0784   22458288.2584         42.2504         32.0004
 -12184879.70745
 08  5 27  1 49  0.0000000  0 11G31G21G25G16G 7G 6G27G18G 3G19G22
  -2604262.89145  25177949.3284   25177945.4694         33.5004         16.7504
  -1761411.01642
 -15424898.70747  22770622.3524   22770616.4844         42.7504         30.0004
  -9228964.57845
  -9967437.47746  23947679.9454   23947675.9654         41.2504         26.0004
  -6789251.10244
 -27210290.93447  20385540.8444   20385535.0044         47.5004         43.5004
 -19786748.48447
  -7083513.07446  24356533.9144   24356529.4454         38.2504         21.5004
  -5305772.20343
 -25685412.97747  20667554.5394   20667550.2034         47.5004         41.2504
 -18100727.85946
  -3974324.09046  25367768.7504   25367764.6994         36.0004         16.2504
  -1207076.73042
 -15029148.08247  22830760.4304   22830754.8164         42.5004         29.0004
  -9380386.64144
 -24577527.66048  20706871.0634   20706866.4184         48.2504         39.7504
 -16564893.98446
 -15860506.53547  22600481.4924   22600474.4654         43.0004         33.2504
 -11833842.14545
 -16132076.31647  22445197.3594   22445190.8444         43.0004         32.2504
 -12238511.09445
 08  5 27  1 49 30.0000000  0 11G31G21G25G16G 7G 6G27G18G 3G19G22
  -2504473.61345  25196939.0864   25196934.3954         34.5004         14.7504
  -1683653.12542
 -15345938.33647  22785648.2504   22785642.5664         43.2504         29.7504
  -9167437.03144
  -9980617.64146  23945172.6884   23945167.7344         41.0004         24.7504
  -6799521.36744
 -27186510.34847  20390066.2344   20390060.7384         47.7504         43.5004
 -19768218.16447
  -7133957.00046  24346935.3754   24346929.9024         39.0004         21.5004
  -5345079.15643
 -25689282.25847  20666818.1254   20666813.6484         47.7504         42.0004
 -18103742.88747
  -4029547.14846  25357260.3444   25357256.4104         36.5004         16.7504
  -1250107.65642
 -15037453.10247  22829179.3444   22829174.3834         43.2504         29.5004
  -9386858.07844
 -24614279.09048  20699877.0474   20699872.0664         48.2504         39.5004
 -16593531.45746
 -15921696.02747  22588837.3834   22588830.7774         42.7504         33.2504
 -11881522.26645
 -16200572.09047  22432162.7894   22432156.4264         42.7504         33.0004
 -12291884.42245
 08  5 27  1 50  0.0000000  0 11G31G21G25G16G 7G 6G27G18G 3G19G22
  -2404817.57846  25215902.1954   25215897.6524         36.2504         19.0004
  -1605998.99243
 -15266787.39147  22800709.3834   22800704.0314         43.7504         30.0004
  -9105760.96945
  -9993300.24646  23942759.3984   23942753.6524         41.5004         25.0004
  -6809403.91044
 -27162247.77347  20394683.1804   20394678.0274         47.7504         43.7504
 -19749312.25847
  -7183907.53946  24337430.8594   24337424.7544         40.7504         22.7504
  -5384001.62943
 -25692951.43047  20666120.3204   20666115.4454         46.7504         41.0004
 -18106601.97346
  -4084384.14846  25346825.2424   25346821.4884         36.5004         16.2504
  -1292837.75442
 -15045248.71547  22827696.1484   22827690.7234         42.2504         30.0004
  -9392932.57445
 -24650798.50848  20692927.6094   20692923.0354         48.0004         40.2504
 -16621988.14546
 -15982765.60547  22577215.6484   22577209.7664         43.0004         34.0004
 -11929108.93445
 -16268733.16047  22419192.3754   22419185.8834         42.5004         33.2504
 -12344996.93745
 08  5 27  1 50 30.0000000  0 11G31G21G25G16G 7G 6G27G18G 3G19G22
  -2305296.52746  25234840.6414   25234835.4694         36.0004         19.0004
  -1528450.13343
 -15187447.67247  22815807.1564   22815801.4964         42.5004         29.0004
  -9043937.82044
 -10005484.87546  23940439.8984   23940435.2114         40.7504         26.0004
  -6818898.42644
 -27137502.74647  20399392.2194   20399386.4224         46.2504         43.7504
 -19730030.42647
  -7233362.92646  24328018.5394   24328013.2424         40.0004         22.0004
  -5422538.28143
 -25696420.19148  20665459.7274   20665455.2544         48.2504         40.7504
 -18109304.90246
  -4138833.44945  25336462.3754   25336459.3794         35.2504         16.2504
  -1335265.77342
 -15052533.93747  22826309.6954   22826304.5984         42.0004         30.0004
  -9398609.35945
 -24687084.71548  20686022.3134   20686018.1564         48.2504         40.7504
 -16650263.10546
 -16043715.35247  22565618.0634   22565611.5004         43.7504         34.0004
 -11976602.23845
 -16336557.03547  22406286.0634   22406279.3244         42.5004         33.2504
 -12397846.69145
 08  5 27  1 51  0.0000000  0 11G31G21G25G16G 7G 6G27G18G 3G19G22
  -2205912.82446  25253752.9534   25253747.6254         36.0004         17.7504
  -1451008.16042
 -15107921.65647  22830941.2584   22830935.4694         43.5004         30.0004
  -8981969.49245
 -10017172.14846  23938215.9844   23938211.7074         41.0004         25.0004
  -6828005.37944
 -27112275.54747  20404192.3444   20404186.4924         47.0004         43.5004
 -19710372.86347
  -7282322.18446  24318702.0394   24318697.5004         39.2504         21.5004
  -5460688.32043
 -25699688.42648  20664837.9614   20664833.0824         48.0004         41.0004
 -18111851.57446
  -4192893.68046  25326176.6334   25326172.7074         36.0004         18.2504
  -1377390.64543
 -15059308.25847  22825020.2814   22825015.1724         42.2504         29.5004
  -9403888.03944
 -24723137.83647  20679162.2424   20679157.7304         47.5004         40.0004
 -16678356.43446
 -16104545.33647  22554041.8524   22554035.6454         42.7504         33.7504
 -12024002.22345
 -16404041.35947  22393443.9304   22393437.4614         42.5004         33.2504
 -12450431.85945
 08  5 27  1 51 30.0000000  0 11G31G21G25G16G 7G 6G27G18G 3G19G22
  -2106668.75846  25272638.0554   25272633.4964         36.2504         17.7504
  -1373675.10542
 -15028210.73447  22846109.4844   22846104.1644         43.5004         29.5004
  -8919857.10944
 -10028362.00846  23936086.6334   23936081.6174         41.5004         25.5004
  -6836724.74644
 -27086565.82847  20409084.7424   20409079.1134         45.7504         43.5004
 -19690339.31247
  -7330783.46546  24309479.8134   24309475.0824         38.7504         20.2504
  -5498450.35943
 -25702755.69547  20664254.3204   20664249.8284         47.7504         41.2504
 -18114241.65646
  -4246563.57446  25315963.0864   25315959.4694         36.7504         17.2504
  -1419211.35242
 -15065570.80147  22823828.5004   22823823.7624         43.7504         29.5004
  -9408767.93744
 -24758957.09447  20672345.8284   20672341.4144         47.7504         39.5004
 -16706267.53946
 -16165255.31247  22542489.4614   22542482.2544         43.0004         32.5004
 -12071308.69545
 -16471183.21947  22380667.2974   22380661.0274         42.5004         32.7504
 -12502750.17245
 08  5 27  1 52  0.0000000  0 11G31G21G25G16G 7G 6G27G18G 3G19G22
  -2007567.08245  25291497.1334   25291491.4414         34.5004         16.7504
  -1296452.97742
 -14948317.18447  22861312.6644   22861307.1524         43.2504         29.0004
  -8857602.41444
 -10039054.73046  23934051.8834   23934047.4304         40.7504         25.7504
  -6845056.74244
 -27060373.34447  20414069.2344   20414063.4144         45.7504         43.5004
 -19669929.59047
  -7378745.95746  24300352.7194   24300347.9574         39.7504         21.5004
  -5535823.71543
 -25705621.98847  20663708.8984   20663704.4344         46.2504         41.2504
 -18116475.12946
  -4299841.82845  25305824.4694   25305821.1254         35.2504         17.2504
  -1460726.80542
 -15071320.48447  22822734.0164   22822729.4844         42.5004         29.7504
  -9413248.20344
 -24794541.96947  20665574.1954   20665569.6884         47.0004         40.7504
 -16733996.01646
 -16225845.53947  22530959.3834   22530952.3914         43.5004         34.2504
 -12118521.83245
 -16537979.98447  22367956.3524   22367949.7234         44.0004         33.2504
 -12554799.59045
 08  5 27  1 52 30.0000000  0 11G31G21G25G16G 7G 6G27G18G 3G19G22
  -1908610.20345  25310328.2274   25310323.2734         33.0004         16.7504
  -1219343.74242
 -14868242.96947  22876550.1564   22876544.6884         42.5004         29.0004
  -8795206.93044
 -10049250.37546  23932111.6564   23932107.2734         40.7504         25.0004
  -6853001.39144
 -27033698.35947  20419145.2034   20419139.8914         45.5004         43.5004
 -19649143.89147
  -7426208.09446  24291321.1724   24291316.6334         39.7504         21.0004
  -5572807.20343
 -25708287.12147  20663201.3364   20663196.9694         47.0004         40.7504
 -18118551.85246
  -4352726.83246  25295760.7734   25295756.9414         36.2504         16.7504
  -1501935.89842
 -15076556.91446  22821738.4534   22821732.7234         41.2504         29.2504
  -9417328.52344
 -24829891.83247  20658847.0084   20658842.5944         47.5004         40.5004
 -16761541.36346
 -16286315.77347  22519453.1174   22519445.5784         44.2504         34.0004
 -12165641.49245
 -16604428.86347  22355311.4144   22355305.0944         43.5004         33.2504
 -12606577.93445
 08  5 27  1 53  0.0000000  0 11G31G21G25G16G 7G 6G27G18G 3G19G22
  -1809800.18745  25329130.4454   25329126.3634         32.2504         16.2504
  -1142348.95742
 -14787990.26647  22891822.0944   22891816.0124         44.0004         28.5004
  -8732672.35944
 -10058949.09046  23930265.8914   23930261.4844         40.2504         24.5004
  -6860558.83244
 -27006540.43047  20424313.3284   20424307.6214         45.5004         43.0004
 -19627981.86747
  -7473168.32846  24282385.3054   24282380.6134         39.2504         22.5004
  -5609399.58643
 -25710750.55947  20662732.7584   20662728.3014         47.0004         41.7504
 -18120471.41046
  -4405216.91845  25285772.4224   25285768.1094         35.5004         17.2504
  -1542837.25442
 -15081279.61347  22820839.2894   22820834.3674         42.7504         29.7504
  -9421008.54344
 -24865006.28947  20652165.4144   20652160.7934         47.0004         40.0004
 -16788903.27346
 -16346665.98447  22507967.6484   22507961.4844         43.0004         34.0004
 -12212667.62145
 -16670527.28147  22342733.5784   22342727.2274         44.2504         32.5004
 -12658083.15645
 08  5 27  1 53 30.0000000  0 11G31G21G25G16G 7G 6G27G18G 3G19G22
  -1711139.35946  25347904.6414   25347900.6214         36.7504         16.7504
  -1065470.30142
 -14707560.38347  22907127.5084   22907121.2074         43.5004         29.0004
  -8669999.73844
 -10068151.12546  23928515.2734   23928510.8204         39.2504         25.2504
  -6867729.23444
 -26978899.69547  20429573.3594   20429567.3594         45.5004         43.0004
 -19606443.63747
  -7519625.28546  24273544.1174   24273539.5004         38.5004         21.5004
  -5645599.78143
 -25713012.26647  20662302.3754   20662297.6174         46.2504         41.2504
 -18122233.78146
  -4457310.75845  25275858.9304   25275855.6724         35.2504         18.5004
  -1583429.84043
 -15085487.86346  22820038.2894   22820033.1764         41.2504         30.0004
  -9424287.68745
 -24899885.01647  20645527.8754   20645523.3244         47.5004         40.2504
 -16816081.51246
 -16406896.05947  22496506.4614   22496499.1094         43.2504         33.5004
 -12259600.13345
 -16736272.39847  22330222.4064   22330215.7234         44.5004         33.2504
 -12709313.12145
 08  5 27  1 54  0.0000000  0 11G31G21G25G16G 7G 6G27G18G 3G19G22
  -1612630.14545  25366650.7894   25366645.7544         34.5004         17.2504
   -988709.82442
 -14626955.26247  22922466.0474   22922459.8364         43.5004         28.0004
  -8607190.57444
 -10076856.71946  23926858.4774   23926854.3054         37.7504         24.0004
  -6874512.81244
 -26950776.07447  20434925.1024   20434918.8984         46.5004         43.5004
 -19584529.12947
  -7565577.82446  24264800.4774   24264795.4694         39.7504         22.2504
  -5681406.93443
 -25715072.01247  20661910.7344   20661905.7734         47.7504         41.2504
 -18123838.77046
  -4509006.87146  25266021.6094   25266018.1454         37.0004         18.5004
  -1623712.53943
 -15089180.57847  22819335.6334   22819330.3484         43.0004         29.5004
  -9427165.12144
 -24934527.28547  20638935.9844   20638931.2734         47.2504         40.2504
 -16843075.49246
 -16467006.05947  22485068.4844   22485061.2814         43.7504         34.0004
 -12306439.09045
 -16801661.68047  22317779.7424   22317772.7734         44.2504         33.5004
 -12760265.77745
 08  5 27  1 54 30.0000000  0 11G31G21G25G16G 7G 6G27G18G 3G19G22
  -1514274.68046  25385367.6334   25385362.3674         36.5004         18.2504
   -912069.21943
 -14546177.33247  22937837.2664   22937831.4534         43.0004         28.0004
  -8544246.70344
 -10085066.19146  23925296.4144   23925291.6954         38.0004         25.5004
  -6880909.79744
 -26922169.19147  20440368.5634   20440362.5434         46.0004         43.5004
 -19562238.05547
  -7611024.57446  24256151.7664   24256146.5784         39.0004         22.0004
  -5716819.93743
 -25716929.32448  20661557.0164   20661552.7504         48.2504         41.7504
 -18125286.02746
  -4560303.97745  25256260.4614   25256256.4064         35.5004         18.5004
  -1663684.29343
 -15092357.68046  22818731.2194   22818726.0984         41.5004         30.0004
  -9429640.77345
 -24968932.59447  20632389.1174   20632384.1524         47.7504         40.5004
 -16869884.81646
 -16526995.94947  22473652.3524   22473645.9064         43.5004         34.5004
 -12353184.44545
 -16866692.08647  22305404.1254   22305397.6564         44.7504         33.0004
 -12810938.81645
 08  5 27  1 55  0.0000000  0 11G31G21G25G16G 7G 6G27G18G 3G19G22
  -1416075.86345  25404053.8834   25404049.3054         35.0004         16.7504
   -835550.67642
 -14465227.80147  22953241.5084   22953236.4454         43.0004         29.2504
  -8481169.16844
 -10092779.71946  23923828.3524   23923823.2974         37.5004         25.2504
  -6886920.31644
 -26893079.53547  20445904.1804   20445898.3634         46.5004         43.5004
 -19539570.79347
  -7655964.44146  24247600.2274   24247595.0274         40.0004         22.0004
  -5751838.00843
 -25718584.12147  20661242.1644   20661237.0634         47.2504         41.7504
 -18126575.48446
  -4611200.95345  25246574.8594   25246570.9734         35.5004         17.2504
  -1703344.27742
 -15095018.30147  22818225.0634   22818219.4774         42.0004         29.5004
  -9431713.96544
 -25003100.53147  20625887.0394   20625882.4304         47.5004         40.5004
 -16896509.18446
 -16586865.56247  22462259.3754   22462252.9774         43.2504         34.2504
 -12399836.08645
 -16931361.41047  22293097.7974   22293091.7974         43.5004         33.0004
 -12861330.48045
 08  5 27  1 55 30.0000000  0 11G31G21G25G16G 7G 6G27G18G 3G19G22
  -1318035.64145  25422710.6564   25422705.4024         34.0004         13.7504
   -759155.56242
 -14384108.48847  22968678.4614   22968672.9104         43.5004         26.7504
  -8417959.34044
 -10099997.66446  23922453.9924   23922450.1844         37.0004         24.2504
  -6892544.69944
 -26863506.94947  20451531.7114   20451526.0434         47.2504         43.5004
 -19516527.21547
  -7700395.87546  24239145.2974   24239139.7934         39.2504         21.5004
  -5786459.92243
 -25720035.95747  20660966.1174   20660961.2504         47.2504         41.0004
 -18127706.78946
  -4661696.21146  25236965.4304   25236962.4264         36.0004         17.7504
  -1742691.22742
 -15097161.78946  22817817.1954   22817811.6294         41.5004         29.7504
  -9433384.20344
 -25037030.26647  20619430.3524   20619425.2664         47.0004         40.7504
 -16922947.94146
 -16646614.85947  22450889.5474   22450883.2894         42.5004         34.0004
 -12446393.97345
 -16995666.84847  22280861.3364   22280854.7934         43.7504         33.5004
 -12911438.60545
 08  5 27  1 56  0.0000000  0 11G31G21G25G16G 7G 6G27G18G 3G19G22
  -1220155.96945  25441336.5634   25441330.7304         35.0004         17.2504
   -682885.79342
 -14302821.49247  22984146.4064   22984141.2504         42.7504         27.7504
  -8354618.83244
 -10106720.39146  23921175.4384   23921170.9384         37.0004         23.5004
  -6897783.17643
 -26833451.39848  20457250.8834   20457245.5634         48.0004         42.7504
 -19493107.31247
  -7744317.87546  24230786.8054   24230782.2584         39.5004         22.5004
  -5820684.82843
 -25721284.74247  20660728.2894   20660723.8914         47.0004         41.0004
 -18128679.86346
  -4711788.44946  25227433.7504   25227429.4614         36.7504         16.2504
  -1781724.13742
 -15098787.94146  22817507.2344   22817502.3714         41.2504         30.2504
  -9434651.31645
 -25070721.81247  20613018.6724   20613014.5434         47.2504         40.7504
 -16949201.09446
 -16706243.91447  22439542.8834   22439535.9924         44.0004         34.5004
 -12492858.15645
 -17059605.67647  22268694.2344   22268687.8404         43.5004         33.0004
 -12961261.04745
 08  5 27  1 56 30.0000000  0 11G31G21G25G16G 7G 6G27G18G 3G19G22
  -1122439.15246  25459930.3754   25459926.1724         38.2504         18.5004
   -606742.80143
 -14221369.22747  22999647.0864   22999641.2464         43.2504         28.0004
  -8291149.55144
 -10112947.96546  23919990.0004   23919985.6954         37.5004         24.5004
  -6902635.82444
 -26802912.91047  20463062.1644   20463057.0164         47.7504         43.0004
 -19469311.09447
  -7787728.99246  24222525.8674   24222521.4264         39.5004         22.5004
  -5854511.64543
 -25722330.11747  20660529.6174   20660525.0864         46.5004         41.2504
 -18129494.44946
  -4761476.27346  25217978.3914   25217974.2384         37.5004         18.2504
  -1820441.92243
 -15099895.32847  22817297.0234   22817291.3674         43.2504         30.0004
  -9435514.19945
 -25104174.34847  20606652.9614   20606648.4884         47.0004         40.5004
 -16975268.00046
 -16765752.30547  22428218.7114   22428211.4924         42.5004         33.5004
 -12539228.33245
 -17123175.01647  22256597.1484   22256591.0004         43.7504         33.2504
 -13010795.57445
 08  5 27  1 57  0.0000000  0 11G31G21G25G16G 7G 6G27G18G 3G19G22
  -1024887.84046  25478494.7814   25478489.4804         36.7504         16.7504
   -530728.77742
 -14139753.64847  23015177.3134   23015171.6214         42.5004         27.0004
  -8227552.98844
 -10118681.12146  23918899.2194   23918894.7384         38.7504         24.0004
  -6907103.21944
 -26771891.71548  20468965.5234   20468959.7034         48.2504         43.0004
 -19445138.73447
  -7830628.34846  24214361.9144   24214357.2814         38.7504         22.0004
  -5887939.69543
 -25723171.89848  20660369.2114   20660364.5664         48.7504         41.5004
 -18130150.38346
  -4810758.71146  25208600.5864   25208595.6804         36.5004         17.7504
  -1858843.82842
 -15100484.46947  22817184.2734   22817179.5514         44.0004         30.5004
  -9435973.27045
 -25137387.30547  20600332.8594   20600328.1414         47.5004         40.5004
 -17001148.22346
 -16825140.03147  22416917.4454   22416910.8054         43.7504         34.0004
 -12585504.46145
 -17186372.74647  22244571.1414   22244564.5784         43.7504         32.7504
 -13060040.55145
 08  5 27  1 57 30.0000000  0 11G31G21G25G16G 7G 6G27G18G 3G19G22
   -927503.71546  25497026.2194   25497021.3874         36.5004         18.2504
   -454844.99643
 -14057975.84046  23030739.0784   23030733.5664         41.0004         28.5004
  -8163830.03144
 -10123920.04746  23917902.0234   23917897.5864         38.5004         24.5004
  -6911185.49644
 -26740387.64848  20474960.2194   20474954.8874         48.0004         43.7504
 -19420590.12147
  -7873014.42246  24206296.8444   24206292.1764         40.0004         24.5004
  -5920967.76644
 -25723809.65647  20660247.7274   20660243.0664         46.7504         41.2504
 -18130647.34446
  -4859634.28946  25199299.9614   25199295.4224         37.0004         16.7504
  -1896928.69142
 -15100554.63747  22817171.5234   22817165.8594         43.5004         31.0004
  -9436027.94545
 -25170360.34847  20594058.1174   20594053.9414         46.5004         41.0004
 -17026841.50446
 -16884407.29747  22405639.3754   22405632.4104         43.5004         34.0004
 -12631686.73445
 -17249195.99647  22232616.0084   22232609.8794         42.7504         33.0004
 -13108993.71945
 08  5 27  1 58  0.0000000  0 11G31G21G25G16G 7G 6G27G18G 3G19G22
   -830289.20345  25515525.9064   25515520.1954         34.5004         16.7504
   -379093.41842
 -13976037.95747  23046331.5784   23046325.2894         42.2504         27.7504
  -8099982.34044
 -10128665.09046  23916999.8754   23916995.2234         37.2504         25.7504
  -6914882.91444
 -26708400.88747  20481047.3524   20481041.8014         47.0004         43.0004
 -19395665.37147
  -7914886.63746  24198328.9064   24198323.8794         40.7504         22.7504
  -5953595.47343
 -25724243.12547  20660165.2114   20660160.3834         47.5004         41.2504
 -18130985.10946
  -4908101.56646  25190076.6804   25190073.2734         36.2504         18.5004
  -1934695.38743
 -15100105.15647  22817257.1174   22817251.3484         44.0004         30.0004
  -9435677.68045
 -25203092.81247  20587829.6484   20587825.0704         46.5004         41.0004
 -17052347.31246
 -16943553.81647  22394384.1564   22394377.4024         43.2504         34.7504
 -12677774.92245
 -17311642.15647  22220733.2664   22220726.7734         43.7504         34.0004
 -13157653.04745
 08  5 27  1 58 30.0000000  0 11G31G21G25G16G 7G 6G27G18G 3G19G22
   -733246.664 5  25533992.547                          33.500

 -13893941.76247  23061953.8444   23061947.9774         42.2504         26.0004
  -8036011.25844
 -10132916.68446  23916190.2814   23916185.7344         37.7504         24.5004
  -6918195.84044
 -26675931.73447  20487226.1804   20487220.3594         46.5004         43.7504
 -19370364.73447
  -7956243.24246  24190459.4924   24190453.8594         39.0004         22.5004
  -5985821.40643
 -25724472.12547  20660121.9144   20660117.1254         46.5004         41.0004
 -18131163.55146
  -4956159.05946  25180931.8594   25180927.5124         38.2504         18.5004
  -1972142.79343
 -15099135.47747  22817440.9924   22817436.2074         42.0004         29.2504
  -9434922.08644
 -25235583.75847  20581646.8754   20581642.2894         47.5004         41.0004
 -17077664.92646
 -17002579.31647  22383151.4064   22383145.0704         42.5004         34.7504
 -12723768.80945
 -17373708.58247  22208922.2974   22208916.0004         43.5004         33.2504
 -13206016.46945
 08  5 27  1 59  0.0000000  0 11G31G21G25G16G 7G 6G27G18G 3G19G22
   -636378.133 5  25552424.781                          33.000

 -13811689.33246  23077606.0704   23077600.6524         41.2504         26.5004
  -7971918.46944
 -10136675.38746  23915475.4064   23915470.7664         37.2504         23.5004
  -6921124.69943
 -26642980.08647  20493496.5704   20493490.7074         47.7504         43.0004
 -19344688.12547
  -7997083.48046  24182686.4694   24182682.3794         39.2504         22.0004
  -6017644.96143
 -25724496.30547  20660117.2974   20660112.6954         47.0004         41.7504
 -18131182.39846
  -5003805.88346  25171864.3594   25171860.8874         37.5004         19.2504
  -2009270.16843
 -15097645.56247  22817725.2504   22817719.8054         42.0004         29.0004
  -9433761.09444
 -25267833.19147  20575509.5944   20575505.2664         47.2504         41.0004
 -17102794.34846
 -17061484.02347  22371942.7894   22371935.7774         43.5004         35.2504
 -12769668.57045
 -17435392.68747  22197184.5394   22197177.7624         44.2504         33.5004
 -13254082.00045
 08  5 27  1 59 30.0000000  0 11G31G21G25G16G 7G 6G27G18G 3G19G22
   -539686.55115  25570825.047                          31.250

 -13729281.93447  23093287.4694   23093281.6994         42.2504         27.0004
  -7907704.92644
 -10139941.83646  23914853.0234   23914849.2974         36.5004         24.0004
  -6923669.97744
 -26609546.23047  20499858.9304   20499853.1844         46.7504         43.0004
 -19318635.77747
  -8037406.41846  24175013.8204   24175008.9774         39.5004         21.5004
  -6049065.39843
 -25724315.32447  20660151.5164   20660146.8094         47.0004         41.0004
 -18131041.37546
  -5051040.76246  25162876.5634   25162872.2584         36.2504         18.5004
  -2046076.57843
 -15095634.64546  22818108.2034   22818102.3244         41.2504         29.7504
  -9432194.14544
 -25299840.84847  20569419.0944   20569414.2974         47.0004         41.2504
 -17127735.37146
 -17120267.88347  22360755.9454   22360749.3874         42.5004         35.0004
 -12815474.17645
 -17496692.11747  22185519.3594   22185512.9184         44.7504         34.0004
 -13301847.76645
 08  5 27  2  0  0.0000000  0 10G21G25G16G 7G 6G27G18G 3G19G22
 -13646722.35546  23108997.6804   23108992.2424         41.2504         27.7504
  -7843372.77744
 -10142716.18046  23914326.0704   23914321.3244         37.7504         24.7504
  -6925831.78944
 -26575630.28548  20506312.6644   20506307.1914         48.2504         43.0004
 -19292207.77047
  -8077210.51646  24167439.4844   24167434.8984         38.7504         22.0004
  -6080081.56243
 -25723928.93047  20660225.0554   20660220.9224         46.5004         41.5004
 -18130740.28146
  -5097862.58245  25153966.7424   25153961.8054         35.7504         17.2504
  -2082561.09042
 -15093102.58646  22818588.8054   22818583.6294         41.7504         30.0004
  -9430221.09845
 -25331605.95747  20563374.3204   20563369.7544         46.0004         40.5004
 -17152487.39846
 -17178930.59447  22349593.4454   22349586.4614         42.5004         34.5004
 -12861185.36345
 -17557604.20747  22173928.5784   22173921.9804         46.0004         34.0004
 -13349311.71145
 08  5 27  2  0 30.0000000  0 10G21G25G16G 7G 6G27G18G 3G19G22
 -13564012.19546  23124737.5234   23124731.9144         41.5004         26.5004
  -7778923.33644
 -10144999.07446  23913890.8524   23913887.0944         36.5004         22.7504
  -6927610.67243
 -26541232.38348  20512858.5474   20512852.5864         48.5004         43.5004
 -19265404.21947
  -8116494.94146  24159963.8524   24159958.6294         37.5004         22.7504
  -6110692.79743
 -25723336.84847  20660337.5164   20660332.9264         47.2504         41.5004
 -18130278.91846
  -5144269.94146  25145134.8674   25145131.1374         37.0004         18.2504
  -2118722.69543
 -15090048.88347  22819170.2974   22819165.1884         42.0004         29.7504
  -9427841.58244
 -25363127.70748  20557375.8834   20557371.4224         48.0004         41.0004
 -17177049.80146
 -17237472.27347  22338453.1174   22338446.3634         42.5004         34.5004
 -12906802.25445
 -17618126.34447  22162410.6484   22162404.5434         45.7504         34.2504
 -13396471.79745
 08  5 27  2  1  0.0000000  0 10G21G25G16G 7G 6G27G18G 3G19G22
 -13481152.35947  23140504.9224   23140499.3714         42.0004         27.5004
  -7714357.23044
 -10146790.90246  23913549.8754   23913545.7854         37.0004         23.5004
  -6929006.89143
 -26506352.70748  20519495.6804   20519490.0824         49.5004         42.7504
 -19238225.25047
  -8155258.80546  24152587.5394   24152583.0394         37.7504         23.0004
  -6140898.40643
 -25722538.61747  20660489.4144   20660485.0354         47.5004         41.5004
 -18129656.92246
  -5190261.68046  25136383.6254   25136378.5594         36.7504         18.5004
  -2154560.39543
 -15086473.38347  22819850.4924   22819845.1254         42.5004         30.2504
  -9425055.46945
 -25394405.12947  20551423.7274   20551419.4344         47.7504         40.7504
 -17201421.81646
 -17295892.49647  22327335.9384   22327329.7854         42.2504         34.5004
 -12952324.49645
 -17678255.97747  22150969.1174   22150962.1484         46.0004         34.2504
 -13443326.03945
 08  5 27  2  1 30.0000000  0 10G21G25G16G 7G 6G27G18G 3G19G22
 -13398145.49647  23156301.0084   23156295.1214         42.0004         27.0004
  -7649676.54344
 -10148092.40646  23913301.9064   23913297.6454         39.7504         24.7504
  -6930021.05944
 -26470991.58248  20526225.0234   20526219.4264         49.5004         42.5004
 -19210671.12947
  -8193501.11746  24145310.7424   24145305.9104         37.0004         22.5004
  -6170697.60543
 -25721534.12147  20660680.4614   20660676.4844         47.0004         41.5004
 -18128874.19946
  -5235836.59446  25127711.1484   25127706.2194         36.5004         18.5004
  -2190073.30143
 -15082375.30546  22820630.8914   22820624.7464         41.2504         30.2504
  -9421862.14845
 -25425438.36748  20545518.5474   20545514.1024         48.0004         41.0004
 -17225603.55946
 -17354191.25847  22316242.2424   22316235.3054         42.7504         35.0004
 -12997752.09845
 -17737990.88747  22139601.2344   22139595.1174         45.5004         34.5004
 -13489872.71145
 08  5 27  2  2  0.0000000  0 10G21G25G16G 7G 6G27G18G 3G19G22
 -13314993.33646  23172124.5944   23172118.3954         41.0004         26.5004
  -7584882.66844
 -10148904.16046  23913148.2504   23913143.2344         39.7504         24.0004
  -6930653.59444
 -26435149.19148  20533045.6254   20533040.1884         49.7504         42.7504
 -19182742.00047
  -8231220.71146  24138132.9844   24138126.8794         37.0004         22.2504
  -6200089.49243
 -25720322.92647  20660910.9384   20660906.6294         47.7504         41.2504
 -18127930.41046
  -5280993.37146  25119117.7424   25119113.2274         36.0004         18.5004
  -2225260.41843
 -15077755.22347  22821509.4144   22821504.0984         43.0004         29.2504
  -9418262.07444
 -25456226.84847  20539659.3674   20539655.0634         47.5004         41.0004
 -17249594.58246
 -17412368.59847  22305171.6724   22305164.7034         42.5004         34.7504
 -13043085.08245
 -17797328.28547  22128309.8914   22128303.7774         45.5004         34.0004
 -13536109.62945
 08  5 27  2  2 30.0000000  0 10G21G25G16G 7G 6G27G18G 3G19G22
 -13231697.59047  23187974.8594   23187969.2704         42.0004         26.0004
  -7519976.90244
 -10149226.51846  23913085.6804   23913081.6134         39.7504         24.7504
  -6930904.79544
 -26398826.02748  20539957.6024   20539951.8834         50.0004         43.2504
 -19154438.24647
  -8268416.52046  24131054.5394   24131049.1724         38.5004         21.7504
  -6229073.23443
 -25718904.64148  20661180.9844   20661176.7234         49.0004         41.5004
 -18126825.25046
  -5325731.22345  25110604.0944   25110599.9024         35.7504         18.5004
  -2260121.03143
 -15072612.17647  22822488.2894   22822483.1174         44.2504         29.2504
  -9414254.49644
 -25486770.00848  20533847.8204   20533842.8594         48.7504         40.7504
 -17273394.44546
 -17470424.02747  22294124.3594   22294117.2734         42.5004         35.0004
 -13088323.06245
 -17856265.76647  22117094.5394   22117088.3914         46.0004         34.2504
 -13582034.92645
 08  5 27  2  3  0.0000000  0 10G21G25G16G 7G 6G27G18G 3G19G22
 -13148259.94146  23203852.3914   23203846.9774         41.2504         27.5004
  -7454960.55144
 -10149060.33246  23913118.3444   23913113.5004         39.5004         25.0004
  -6930775.29744
 -26362021.66448  20546961.0084   20546955.5984         49.5004         43.0004
 -19125759.52347
  -8305087.78146  24124075.6414   24124070.5514         37.5004         22.0004
  -6257648.26643
 -25717279.05548  20661490.4614   20661485.6564         48.7504         41.0004
 -18125558.55546
  -5370048.78945  25102170.5084   25102166.6134         35.0004         18.5004
  -2294654.18443
 -15066946.00447  22823566.6564   22823561.0984         44.2504         29.5004
  -9409839.27344
 -25517066.97348  20528081.8914   20528077.8404         49.0004         40.5004
 -17297002.46946
 -17528357.62947  22283099.6724   22283092.5824         42.5004         34.7504
 -13133466.12145
 -17914800.75847  22105955.5864   22105949.1724         46.0004         34.2504
 -13627646.59045
 08  5 27  2  3 30.0000000  0 10G21G25G16G 7G 6G27G18G 3G19G22
 -13064682.44947  23219756.6564   23219751.1524         42.2504         26.0004
  -7389835.25044
 -10148406.19646  23913242.2814   23913238.1914         39.7504         23.7504
  -6930265.58143
 -26324736.93448  20554056.4064   20554050.6094         49.5004         43.2504
 -19096706.48847
  -8341233.59446  24117197.8834   24117192.6604         37.7504         21.5004
  -6285813.82843
 -25715445.79347  20661839.3834   20661834.9654         47.5004         41.7504
 -18124130.03946
  -5413945.09046  25093818.2734   25093813.2074         36.2504         17.7504
  -2328859.13342
 -15060756.53947  22824744.7034   22824739.7154         44.0004         29.5004
  -9405016.30144
 -25547117.67248  20522364.2584   20522359.6374         48.7504         40.7504
 -17320418.59846
 -17586169.55147  22272097.6884   22272091.4694         43.0004         35.5004
 -13178514.36345
 -17972930.81647  22094893.9454   22094887.7664         45.7504         34.2504
 -13672942.72345
 08  5 27  2  4  0.0000000  0 10G21G25G16G 7G 6G27G18G 3G19G22
 -12980966.86346  23235686.9534   23235681.9064         41.0004         26.0004
  -7324602.32844
 -10147264.66046  23913459.8754   23913455.8094         38.2504         24.5004
  -6929376.07844
 -26286971.96548  20561242.9224   20561237.0434         49.5004         43.0004
 -19067279.24247
  -8376853.33246  24110419.1644   24110414.7544         38.0004         21.5004
  -6313569.46543
 -25713404.52348  20662227.7114   20662223.0314         49.0004         41.5004
 -18122539.43746
  -5457418.96146  25085544.2194   25085541.1054         36.2504         19.2504
  -2362734.82443
 -15054043.71947  22826021.9304   22826016.5664         44.0004         29.5004
  -9399785.52744
 -25576920.90648  20516692.4304   20516687.6804         49.0004         40.7504
 -17343641.89846
 -17643859.75447  22261119.7734   22261113.4144         42.5004         35.0004
 -13223467.77345
 -18030653.65647  22083909.9304   22083903.0784         45.2504         35.2504
 -13717921.55145
 08  5 27  2  4 30.0000000  0 10G21G25G16G 7G 6G27G18G 3G19G22
 -12897114.82047  23251643.7194   23251638.0354         42.0004         27.2504
  -7259263.08644
 -10145636.68446  23913769.7664   23913765.2194         39.5004         24.5004
  -6928107.52044
 -26248727.36748  20568520.1564   20568514.9304         50.0004         43.0004
 -19037478.26647
  -8411946.06646  24103741.7894   24103736.4144         39.2504         22.7504
  -6340914.45743
 -25711155.10948  20662655.7974   20662651.3094         48.2504         41.5004
 -18120786.65246
  -5500469.41446  25077353.4844   25077349.1414         36.5004         19.0004
  -2396280.61743
 -15046807.23047  22827399.3134   22827393.8404         44.5004         30.2504
  -9394146.69145
 -25606476.25448  20511068.1564   20511063.9534         49.0004         40.5004
 -17366672.03546
 -17701428.02347  22250164.8284   22250158.2154         42.5004         35.5004
 -13268326.16445
 -18087966.75447  22073003.2194   22072996.6844         44.7504         35.0004
 -13762581.09045
 08  5 27  2  5  0.0000000  0 10G21G25G16G 7G 6G27G18G 3G19G22
 -12813128.77046  23267625.2664   23267619.6054         41.2504         25.2504
  -7193819.39844
 -10143522.66846  23914172.4694   23914167.4924         40.0004         25.0004
  -6926460.23844
 -26210003.55148  20575889.2814   20575883.6724         49.2504         42.7504
 -19007303.87147
  -8446510.68046  24097163.9224   24097158.9494         38.7504         22.5004
  -6367847.93443
 -25708696.85248  20663124.1804   20663119.0084         48.0004         41.5004
 -18118871.12946
  -5543095.19546  25069241.3054   25069238.0474         36.7504         19.7504
  -2429495.51243
 -15039047.21947  22828875.1724   22828870.4694         44.5004         30.0004
  -9388099.92245
 -25635783.16848  20505491.4064   20505486.6134         48.2504         40.7504
 -17389508.59046
 -17758873.82047  22239234.0864   22239227.0474         42.5004         35.0004
 -13313089.11345
 -18144867.46547  22062175.2974   22062169.0744         45.2504         35.0004
 -13806919.29345
 08  5 27  2  5 30.0000000  0 10G21G25G16G 7G 6G27G18G 3G19G22
 -12729009.59046  23283633.5004   23283627.8094         41.5004         26.7504
  -7128272.00844
 -10140923.35246  23914667.4924   23914662.5514         38.7504         26.7504
  -6924434.80944
 -26170800.42648  20583349.3594   20583343.8404         50.0004         42.5004
 -18976755.98047
  -8480546.18746  24090688.2584   24090682.5514         38.2504         22.7504
  -6394369.09843
 -25706029.75447  20663630.9384   20663626.2424         46.7504         41.0004
 -18116792.86346
  -5585295.41846  25061210.3834   25061207.1954         36.2504         19.0004
  -2462378.75043
 -15030763.10247  22830452.2274   22830446.5204         44.5004         29.2504
  -9381644.75844
 -25664841.31647  20499961.8364   20499957.3444         46.5004         41.0004
 -17412151.29346
 -17816196.94147  22228326.0394   22228318.9144         42.5004         35.2504
 -13357756.48045
 -18201353.54747  22051426.7114   22051420.2894         45.0004         35.0004
 -13850934.40645
 08  5 27  2  6  0.0000000  0 10G21G25G16G 7G 6G27G18G 3G19G22
 -12644759.97347  23299665.4144   23299659.5354         42.7504         25.2504
  -7062622.94944
 -10137839.64146  23915253.5784   23915249.3014         39.0004         26.0004
  -6922031.92244
 -26131118.76648  20590900.7274   20590895.0944         50.2504         42.5004
 -18945835.20747
  -8514051.87946  24084311.5634   24084307.1134         36.5004         22.2504
  -6420477.44943
 -25703153.25848  20664178.7814   20664174.2234         48.5004         41.5004
 -18114551.43046
  -5627069.09446  25053262.3834   25053256.8524         36.2504         18.5004
  -2494929.67643
 -15021955.03547  22832128.4774   22832122.3914         44.5004         28.7504
  -9374781.31244
 -25693649.93448  20494479.6724   20494475.0394         48.2504         41.0004
 -17434599.57046
 -17873397.60547  22217440.6094   22217433.3444         42.5004         35.0004
 -13402328.42645
 -18257422.32847  22040757.1564   22040750.6174         46.2504         35.7504
 -13894624.36345
 08  5 27  2  6 30.0000000  0 10G21G25G16G 7G 6G27G18G 3G19G22
 -12560380.68447  23315722.4614   23315716.5474         42.0004         26.0004
  -6996872.86744
 -10134272.25846  23915933.5784   23915928.4924         39.0004         26.2504
  -6919252.13344
 -26090958.65648  20598542.9144   20598537.2234         50.0004         42.5004
 -18914541.61747
  -8547027.18746  24078036.5704   24078031.4804         37.7504         23.7504
  -6446172.48843
 -25700066.96947  20664765.9144   20664761.4264         47.5004         41.5004
 -18112146.53146
  -5668415.21946  25045394.1254   25045389.3054         37.5004         19.0004
  -2527147.41043
 -15012622.59847  22833903.9454   22833898.7034         44.0004         30.0004
  -9367509.28145
 -25722208.61748  20489045.1644   20489040.4884         48.0004         40.7504
 -17456853.08646
 -17930475.09447  22206578.8984   22206572.4614         43.0004         36.0004
 -13446804.38346
 -18313071.75047  22030167.4144   22030160.6604         46.0004         35.0004
 -13937987.53145
 08  5 27  2  7  0.0000000  0 10G21G25G16G 7G 6G27G18G 3G19G22
 -12475874.35946  23331802.7504   23331797.9494         41.2504         26.0004
  -6931023.78544
 -10130221.85946  23916703.2974   23916698.8674         38.7504         25.2504
  -6916095.98844
 -26050320.58648  20606275.7974   20606270.5864         50.0004         43.0004
 -18882875.59847
  -8579471.02346  24071862.3754   24071857.4414         36.2504         22.2504
  -6471453.39143
 -25696770.68448  20665393.3134   20665388.6684         48.0004         41.7504
 -18109577.99646
  -5709332.55146  25037607.2344   25037602.9224         36.5004         17.7504
  -2559031.05942
 -15002766.02047  22835779.7664   22835774.6524         45.5004         29.5004
  -9359828.82844
 -25750516.65648  20483658.1804   20483653.6644         48.0004         41.0004
 -17478911.30146
 -17987429.89147  22195741.1564   22195734.0904         42.5004         36.0004
 -13491184.75046
 -18368299.09847  22019657.9144   22019651.6334         46.2504         34.7504
 -13981021.81645
 08  5 27  2  7 30.0000000  0 10G21G25G16G 7G 6G27G18G 3G19G22
 -12391242.36746  23347908.3204   23347903.1054         40.7504         26.0004
  -6865076.79344
 -10125689.41046  23917565.8364   23917561.6484         39.5004         25.5004
  -6912564.20744
 -26009204.98048  20614099.9614   20614094.2774         49.7504         42.0004
 -18850837.46547
  -8611382.79746  24065790.3204   24065785.1804         37.7504         22.0004
  -6496319.69543
 -25693263.83647  20666060.5944   20666056.1254         47.5004         41.2504
 -18106845.38346
  -5749820.29345  25029902.7114   25029898.5434         35.7504         19.0004
  -2590579.91443
 -14992385.32447  22837755.1094   22837749.2544         44.2504         28.5004
  -9351739.96544
 -25778573.20747  20478319.0394   20478314.5944         46.5004         41.5004
 -17500773.54346
 -18044261.32847  22184926.0634   22184919.4304         42.5004         36.2504
 -13535468.96146
 -18423102.11747  22009228.9694   22009222.7734         46.0004         35.2504
 -14023725.44945
 08  5 27  2  8  0.0000000  0 10G21G25G16G 7G 6G27G18G 3G19G22
 -12306486.56646  23364036.4694   23364031.0744         41.5004         25.0004
  -6799033.30544
 -10120675.73046  23918520.0704   23918516.0944         39.2504         26.2504
  -6908657.43044
 -25967612.34448  20622014.5394   20622008.9414         49.5004         42.2504
 -18818427.62147
  -8642762.32046  24059819.1884   24059813.5554         39.0004         21.5004
  -6520771.30143
 -25689546.40247  20666767.7584   20666763.4024         47.5004         41.5004
 -18103948.68046
  -5789877.35245  25022279.1564   25022276.5554         34.7504         18.5004
  -2621793.19543
 -14981480.35947  22839830.2424   22839825.1644         44.7504         30.0004
  -9343242.56645
 -25806378.43448  20473028.2274   20473023.3484         48.0004         41.2504
 -17522439.94546
 -18100969.95747  22174135.1254   22174128.1454         43.0004         35.7504
 -13579657.48845
 -18477479.09847  21998881.5784   21998874.6414         44.7504         34.5004
 -14066097.11345
 08  5 27  2  8 30.0000000  0 10G21G25G16G 7G 6G27G18G 3G19G22
 -12221608.06246  23380187.8984   23380182.5554         41.7504         25.0004
  -6732894.21544
 -10115181.44946  23919565.2664   23919561.0984         39.5004         26.0004
  -6904376.19544
 -25925543.24248  20630020.4304   20630014.8134         50.0004         42.2504
 -18785646.51247
  -8673608.31246  24053948.6254   24053943.7894         38.5004         22.7504
  -6544807.13743
 -25685617.80948  20667515.3054   20667510.8324         48.0004         41.0004
 -18100887.43746
  -5829502.77046  25014739.6724   25014735.7544         36.5004         19.0004
  -2652670.14543
 -14970051.02747  22842005.2814   22841999.7304         44.5004         30.0004
  -9334336.59045
 -25833931.14548  20467784.8284   20467780.4024         48.0004         41.7504
 -17543909.58646
 -18157555.10947  22163367.1884   22163359.9734         43.0004         35.5004
 -13623749.80545
 -18531426.80547  21988615.8674   21988609.2934         45.7504         35.5004
 -14108134.27045
 08  5 27  2  9  0.0000000  0 10G21G25G16G 7G 6G27G18G 3G19G22
 -12136609.18747  23396363.7344   23396357.2544         42.0004         26.2504
  -6666661.34044
 -10109207.54746  23920702.6254   23920698.0434         40.0004         24.7504
  -6899721.20344
 -25882998.10548  20638116.3524   20638110.7194         50.0004         42.7504
 -18752494.46547
  -8703920.13346  24048180.2194   24048175.3524         38.7504         22.5004
  -6568426.71943
 -25681477.63348  20668303.3984   20668298.9024         48.7504         41.0004
 -18097661.33646
  -5868695.80545  25007281.7344   25007277.6374         35.0004         19.2504
  -2683210.19943
 -14958097.24647  22844279.8364   22844274.2584         44.5004         30.0004
  -9325021.94545
 -25861230.93748  20462590.0634   20462585.3984         48.2504         41.5004
 -17565182.14846
 -18214016.76647  22152622.5634   22152615.7464         43.5004         35.5004
 -13667745.89545
 -18584943.46547  21978431.7664   21978425.4614         45.0004         35.5004
 -14149835.56245
