     2.10           Observation         G (GPS)             RINEX VERSION / TYPE
RINEXCvt v.3.0      ARL:UT/SGL          04/02/2004 02:04:29 PGM / RUN BY / DATE
ARL Rooftop SW                                              MARKER NAME
                    ARL:UT                                  OBSERVER / AGENCY
                    Ashtech Z-XII3      1Y07  1DY4*22       REC # / TYPE / VERS
                                                            ANT # / TYPE
  -740316.4990 -5457075.4372  3207241.2292                  APPROX POSITION XYZ
        0.0000        0.0000        0.0000                  ANTENNA: DELTA H/E/N
     1     1                                                WAVELENGTH FACT L1/2
     9    L1    L2    P1    P2    C1    D1    D2    S1    S2# / TYPES OF OBSERV
     1.500                                                  INTERVAL
  2003     8     2     0    20    0.0000000     GPS         TIME OF FIRST OBS
  2003     8     2     0    29   58.5000000     GPS         TIME OF LAST OBS
                                                            MARKER NUMBER
AshtechFile::B-file = BSW00A03.213                          COMMENT
Edited by GPSTK Rinex Editor ver 3.0 9/8/2003 on 2004/01/09 COMMENT
Edited by GPSTK Rinex Editor ver 3.0 9/8/2003 on 2004/04/01 COMMENT
     8                                                      # OF SATELLITES
   G 1   400   400   400   400   400   400   400   400   400PRN / # OF OBS
   G 2   400   400   400   400   400   400   400   400   400PRN / # OF OBS
   G 3   400   400   400   400   400   400   400   400   400PRN / # OF OBS
   G13   400   400   400   400   400   400   400   400   400PRN / # OF OBS
   G16   400   400   400   400   400   400   400   400   400PRN / # OF OBS
   G20   400   400   400   400   400   400   400   400   400PRN / # OF OBS
   G27   400   400   400   400   400   400   400   400   400PRN / # OF OBS
   G31   400   400   400   400   400   400   400   400   400PRN / # OF OBS
                                                            END OF HEADER
 03  8  2  0 20  0.0000000  0  8G 1G 2G 3G13G16G20G27G31             0.000927231
 -24270360.274   -18900111.444    20466623.429    20466625.791    20466623.546  
       291.238         226.935          52.065          47.676  
 -15203384.683   -11818407.411    22087666.002    22087669.296    22087666.629  
     -1935.217       -1507.964          50.502          45.591  
 -17189279.642   -13382596.623    21800517.662    21800520.407    21800517.695  
      1183.433         922.145          51.544          45.417  
 -17946557.303   -13969052.482    21381451.284    21381452.646    21381451.112  
      2042.712        1591.722          51.023          45.591  
  -9606184.643    -7472122.257    23138945.679    23138948.560    23138945.729  
     -2966.519       -2311.575          46.680          42.117  
  -4090786.704    -3141795.876    23597409.466    23597412.728    23597410.028  
     -3120.785       -2431.772          49.633          42.117  
  -4852957.470    -3773152.312    23958876.068    23958879.232    23958875.882  
      1959.410        1526.824          47.896          42.290  
 -13810174.492   -10506319.018    22407214.665    22407217.681    22407215.183  
      3041.284        2369.825          50.676          44.549  
 03  8  2  0 20  1.5000000  0  8G 1G 2G 3G13G16G20G27G31             0.000927231
 -24270796.572   -18900451.418    20466540.355    20466542.771    20466540.469  
       290.614         226.456          52.065          47.676  
 -15200481.692   -11816145.342    22088218.355    22088221.774    22088219.147  
     -1935.344       -1508.062          50.502          45.591  
 -17191054.173   -13383979.377    21800180.031    21800182.722    21800180.029  
      1182.733         921.612          51.544          45.244  
 -17949620.950   -13971439.741    21380868.446    21380869.524    21380868.083  
      2042.286        1591.396          51.023          45.765  
  -9601734.717    -7468654.784    23139792.530    23139795.266    23139792.707  
     -2966.515       -2311.576          46.680          42.117  
  -4086105.435    -3138148.143    23598300.303    23598303.618    23598300.740  
     -3120.804       -2431.785          49.633          42.290  
  -4855896.708    -3775442.627    23958316.766    23958320.335    23958316.539  
      1959.566        1526.929          47.896          42.464  
 -13814736.161   -10509873.566    22406346.469    22406349.936    22406347.040  
      3040.995        2369.605          50.676          44.549  
 03  8  2  0 20  3.0000000  0  8G 1G 2G 3G13G16G20G27G31             0.000927231
 -24271231.627   -18900790.424    20466457.559    20466459.879    20466457.685  
       289.853         225.867          52.065          47.676  
 -15197578.222   -11813882.897    22088770.840    22088774.440    22088771.668  
     -1935.550       -1508.214          50.502          45.417  
 -17192827.390   -13385361.105    21799842.408    21799845.287    21799842.547  
      1181.941         920.995          51.544          45.244  
 -17952683.647   -13973826.254    21380285.470    21380286.858    21380285.119  
      2041.725        1590.957          51.023          45.591  
  -9597284.437    -7465187.030    23140639.647    23140642.759    23140639.637  
     -2966.722       -2311.721          46.680          41.943  
  -4081423.883    -3134500.188    23599191.194    23599193.907    23599191.453  
     -3120.900       -2431.868          49.633          42.290  
  -4858835.974    -3777732.966    23957757.447    23957760.960    23957757.112  
      1959.694        1527.038          47.896          42.464  
 -13819297.158   -10513427.593    22405478.613    22405481.557    22405479.108  
      3040.649        2369.350          50.676          44.549  
 03  8  2  0 20  4.5000000  0  8G 1G 2G 3G13G16G20G27G31             0.000927231
 -24271665.408   -18901128.432    20466374.960    20466377.425    20466375.122  
       288.574         224.856          52.065          47.676  
 -15194674.249   -11811620.058    22089323.379    22089326.839    22089324.312  
     -1936.276       -1508.792          50.502          45.591  
 -17194599.257   -13386741.774    21799505.278    21799508.594    21799505.337  
      1180.626         919.958          51.544          45.417  
 -17955745.377   -13976212.016    21379702.779    21379704.326    21379702.409  
      2040.665        1590.129          51.023          45.765  
  -9592833.821    -7461719.020    23141486.108    23141489.530    23141486.752  
     -2967.412       -2312.277          46.680          42.117  
  -4076742.016    -3130851.975    23600082.246    23600085.393    23600082.303  
     -3121.526       -2432.373          49.633          42.117  
  -4861775.228    -3780023.292    23957198.284    23957201.696    23957197.812  
      1959.260        1526.698          47.896          42.464  
 -13823857.452   -10516981.060    22404610.952    22404613.707    22404611.288  
      3039.773        2368.647          50.676          44.549  
 03  8  2  0 20  6.0000000  0  8G 1G 2G 3G13G16G20G27G31             0.000927231
 -24272098.053   -18901465.559    20466292.771    20466295.201    20466292.832  
       287.950         224.373          52.065          47.676  
 -15191769.885   -11809356.924    22089876.122    22089879.467    22089876.928  
     -1936.477       -1508.945          50.502          45.417  
 -17196369.897   -13388121.495    21799168.434    21799170.952    21799168.437  
      1179.929         919.425          51.544          45.417  
 -17958806.266   -13978597.122    21379120.491    21379121.680    21379119.950  
      2040.222        1589.778          51.023          45.591  
  -9588382.922    -7458250.792    23142333.242    23142336.706    23142333.878  
     -2967.449       -2312.297          46.680          41.943  
  -4072059.956    -3127203.618    23600973.087    23600976.026    23600973.292  
     -3121.522       -2432.352          49.633          42.290  
  -4864714.604    -3782313.714    23956638.686    23956642.832    23956638.453  
      1959.473        1526.857          47.896          42.464  
 -13828417.168   -10520534.086    22403742.999    22403746.347    22403743.566  
      3039.496        2368.432          50.676          44.549  
 03  8  2  0 20  7.5000000  0  8G 1G 2G 3G13G16G20G27G31             0.000927231
 -24272529.524   -18901801.771    20466210.650    20466212.968    20466210.732  
       287.480         224.015          52.065          47.676  
 -15188865.113   -11807093.468    22090428.919    22090432.189    22090429.702  
     -1936.447       -1508.914          50.502          45.591  
 -17198139.286   -13389500.239    21798831.731    21798834.499    21798831.774  
      1179.392         919.001          51.544          45.417  
 -17961866.285   -13980981.551    21378538.172    21378539.437    21378537.539  
      2039.940        1589.572          51.023          45.765  
  -9583931.739    -7454782.344    23143179.999    23143183.625    23143181.080  
     -2967.273       -2312.141          46.680          41.943  
  -4067377.665    -3123555.086    23601864.164    23601867.192    23601864.237  
     -3121.394       -2432.245          49.633          42.117  
  -4867654.053    -3784604.184    23956079.276    23956083.456    23956079.234  
      1959.844        1527.158          47.896          42.464  
 -13832976.278   -10524086.638    22402875.440    22402878.498    22402876.079  
      3039.417        2368.372          50.676          44.549  
 03  8  2  0 20  9.0000000  0  8G 1G 2G 3G13G16G20G27G31             0.000927232
 -24272959.696   -18902136.967    20466128.928    20466130.916    20466128.895  
       286.233         223.030          52.065          47.676  
 -15185959.811   -11804829.594    22090981.767    22090985.008    22090982.550  
     -1937.172       -1509.494          50.502          45.591  
 -17199907.305   -13390877.912    21798495.359    21798498.184    21798495.378  
      1178.084         917.978          51.544          45.417  
 -17964925.297   -13983365.197    21377956.069    21377957.377    21377955.444  
      2038.883        1588.733          51.023          45.765  
  -9579480.177    -7451313.593    23144027.073    23144029.928    23144028.235  
     -2967.973       -2312.706          46.680          41.943  
  -4062695.039    -3119906.284    23602754.904    23602757.975    23602755.284  
     -3121.996       -2432.728          49.633          41.943  
  -4870593.473    -3786894.638    23955519.779    23955523.859    23955519.955  
      1959.399        1526.806          47.896          42.290  
 -13837534.627   -10527638.592    22402007.975    22402011.096    22402008.693  
      3038.520        2367.666          50.502          44.549  
 03  8  2  0 20 10.5000000  0  8G 1G 2G 3G13G16G20G27G31             0.000927232
 -24273388.712   -18902471.268    20466047.226    20466049.320    20466047.198  
       285.347         222.342          52.065          47.676  
 -15183054.126   -11802565.428    22091534.863    22091537.863    22091535.549  
     -1937.494       -1509.736          50.502          45.417  
 -17201674.090   -13392254.630    21798159.056    21798161.717    21798159.199  
      1177.151         917.257          51.544          45.417  
 -17967983.472   -13985748.192    21377374.215    21377375.363    21377373.463  
      2038.218        1588.217          51.023          45.765  
  -9575028.355    -7447844.649    23144874.109    23144877.431    23144875.341  
     -2968.292       -2312.965          46.680          41.943  
  -4058012.219    -3116257.334    23603645.923    23603648.955    23603646.355  
     -3122.228       -2432.906          49.633          41.943  
  -4873532.993    -3789185.178    23954960.504    23954963.556    23954960.690  
      1959.378        1526.797          47.896          42.464  
 -13842092.408   -10531190.108    22401140.309    22401143.865    22401141.338  
      3038.011        2367.272          50.502          44.549  
 03  8  2  0 20 12.0000000  0  8G 1G 2G 3G13G16G20G27G31             0.000927232
 -24273816.529   -18902804.632    20465965.960    20465967.986    20465965.816  
       284.835         221.948          52.065          47.676  
 -15180148.004   -11800300.917    22092087.823    22092090.950    22092088.589  
     -1937.501       -1509.742          50.502          45.591  
 -17203439.599   -13393630.350    21797823.110    21797825.884    21797823.243  
      1176.610         916.829          51.544          45.244  
 -17971040.740   -13988130.477    21376792.271    21376793.456    21376791.673  
      2037.903        1587.972          51.023          45.765  
  -9570576.232    -7444375.455    23145721.523    23145725.551    23145722.663  
     -2968.120       -2312.835          46.680          41.943  
  -4053329.138    -3112608.186    23604537.330    23604540.498    23604537.518  
     -3122.087       -2432.804          49.633          41.943  
  -4876472.580    -3791475.763    23954401.081    23954405.023    23954401.370  
      1959.746        1527.062          47.896          42.290  
 -13846649.520   -10534741.104    22400273.133    22400276.755    22400273.990  
      3037.901        2367.196          50.502          44.549  
 03  8  2  0 20 13.5000000  0  8G 1G 2G 3G13G16G20G27G31             0.000927232
 -24274243.225   -18903137.125    20465884.810    20465886.836    20465884.664  
       284.145         221.410          52.065          47.676  
 -15177241.519   -11798036.128    22092640.891    22092644.003    22092641.766  
     -1937.712       -1509.908          50.502          45.591  
 -17205203.900   -13395005.132    21797487.281    21797490.372    21797487.487  
      1175.856         916.250          51.544          45.244  
 -17974097.194   -13990512.128    21376210.608    21376212.163    21376210.025  
      2037.404        1587.580          51.023          45.591  
  -9566123.888    -7440906.107    23146568.916    23146572.372    23146569.817  
     -2968.214       -2312.885          46.680          42.117  
  -4048645.893    -3108958.908    23605428.278    23605431.927    23605428.738  
     -3122.159       -2432.861          49.633          41.943  
  -4879412.318    -3793766.460    23953841.369    23953845.968    23953841.868  
      1959.832        1527.127          47.896          42.464  
 -13851206.095   -10538291.683    22399406.311    22399409.672    22399406.870  
      3037.535        2366.907          50.502          44.549  
 03  8  2  0 20 15.0000000  0  8G 1G 2G 3G13G16G20G27G31             0.000927231
 -24274668.650   -18903468.626    20465803.811    20465805.832    20465803.794  
       283.388         220.823          52.065          47.676  
 -15174334.525   -11795770.939    22093194.059    22093197.130    22093194.968  
     -1937.987       -1510.120          50.502          45.591  
 -17206966.852   -13396378.859    21797151.793    21797154.564    21797152.022  
      1175.034         915.610          51.544          45.244  
 -17977152.669   -13992893.022    21375629.260    21375630.461    21375628.589  
      2036.842        1587.150          51.023          45.591  
  -9561671.133    -7437436.431    23147416.480    23147419.097    23147416.944  
     -2968.395       -2313.024          46.680          41.943  
  -4043962.337    -3105309.382    23606319.423    23606322.203    23606320.027  
     -3122.292       -2432.950          49.633          41.943  
  -4882352.035    -3796057.145    23953281.921    23953286.178    23953282.326  
      1959.935        1527.227          47.722          42.290  
 -13855761.969   -10541841.713    22398539.211    22398542.537    22398539.852  
      3037.171        2366.628          50.502          44.549  
 03  8  2  0 20 16.5000000  0  8G 1G 2G 3G13G16G20G27G31             0.000927232
 -24275092.754   -18903799.093    20465722.978    20465725.349    20465723.171  
       282.164         219.860          52.065          47.676  
 -15171426.984   -11793505.321    22093747.360    22093750.562    22093748.308  
     -1938.660       -1510.648          50.502          45.591  
 -17208728.408   -13397751.498    21796816.672    21796819.479    21796816.854  
      1173.778         914.622          51.544          45.244  
 -17980207.133   -13995273.119    21375048.013    21375049.210    21375047.375  
      2035.884        1586.391          51.023          45.591  
  -9557217.963    -7433966.429    23148263.994    23148266.422    23148264.204  
     -2969.052       -2313.541          46.680          41.943  
  -4039278.408    -3101659.572    23607210.794    23607213.981    23607211.401  
     -3122.842       -2433.394          49.460          42.117  
  -4885291.667    -3798347.768    23952722.586    23952726.710    23952722.836  
      1959.529        1526.900          47.722          42.290  
 -13860317.076   -10545391.142    22397672.385    22397675.938    22397672.964  
      3036.303        2365.937          50.502          44.722  
 03  8  2  0 20 18.0000000  0  8G 1G 2G 3G13G16G20G27G31             0.000927232
 -24275515.836   -18904128.767    20465642.624    20465644.657    20465642.730  
       281.625         219.448          52.065          47.676  
 -15168519.186   -11791239.506    22094300.862    22094303.765    22094301.685  
     -1938.696       -1510.660          50.502          45.591  
 -17210488.871   -13399123.287    21796481.827    21796484.471    21796481.830  
      1173.190         914.171          51.544          45.417  
 -17983260.870   -13997652.654    21374466.956    21374468.133    21374466.317  
      2035.476        1586.085          51.023          45.765  
  -9552764.705    -7430496.366    23149111.631    23149113.541    23149111.678  
     -2968.991       -2313.494          46.680          41.943  
  -4034594.413    -3098009.710    23608102.194    23608105.722    23608102.627  
     -3122.767       -2433.335          49.460          41.943  
  -4888231.573    -3800638.594    23952163.262    23952167.252    23952163.437  
      1959.876        1527.159          47.722          42.464  
 -13864871.718   -10548940.213    22396805.628    22396809.085    22396806.074  
      3036.223        2365.892          50.502          44.549  
 03  8  2  0 20 19.5000000  0  8G 1G 2G 3G13G16G20G27G31             0.000927232
 -24275937.618   -18904457.428    20465562.278    20465564.360    20465562.521  
       280.723         218.737          52.065          47.676  
 -15165610.864   -11788973.282    22094854.290    22094857.040    22094855.152  
     -1939.046       -1510.946          50.676          45.591  
 -17212247.949   -13400493.996    21796146.997    21796149.965    21796147.091  
      1172.233         913.424          51.544          45.417  
 -17986313.628   -14000031.429    21373885.901    21373887.285    21373885.398  
      2034.788        1585.548          51.023          45.765  
  -9548311.023    -7427025.963    23149959.076    23149961.411    23149959.379  
     -2969.244       -2313.704          46.680          41.769  
  -4029910.076    -3094359.579    23608993.719    23608997.150    23608993.972  
     -3123.039       -2433.533          49.460          41.943  
  -4891171.397    -3802929.361    23951603.981    23951607.842    23951604.114  
      1959.785        1527.099          47.722          42.464  
 -13869425.619   -10552488.702    22395939.012    22395942.432    22395939.371  
      3035.629        2365.422          50.502          44.722  
 03  8  2  0 20 21.0000000  0  8G 1G 2G 3G13G16G20G27G31             0.000927232
 -24276358.297   -18904785.232    20465482.270    20465484.327    20465482.527  
       279.963         218.158          52.065          47.676  
 -15162702.191   -11786706.788    22095407.657    22095410.706    22095408.622  
     -1939.351       -1511.180          50.676          45.417  
 -17214005.844   -13401863.782    21795812.459    21795815.418    21795812.594  
      1171.408         912.789          51.544          45.417  
 -17989365.576   -14002409.575    21373305.318    21373306.285    21373304.649  
      2034.248        1585.130          51.023          45.765  
  -9543857.149    -7423555.416    23150806.965    23150808.409    23150806.973  
     -2969.416       -2313.824          46.680          41.769  
  -4025225.604    -3090709.345    23609885.049    23609889.108    23609885.393  
     -3123.146       -2433.617          49.460          41.943  
  -4894111.401    -3805220.275    23951044.416    23951048.675    23951044.551  
      1959.801        1527.120          47.722          42.290  
 -13873978.957   -10556036.758    22395072.677    22395075.858    22395072.879  
      3035.186        2365.073          50.502          44.549  
 03  8  2  0 20 22.5000000  0  8G 1G 2G 3G13G16G20G27G31             0.000927232
 -24276777.629   -18905111.979    20465402.476    20465404.600    20465402.756  
       279.202         217.562          52.065          47.676  
 -15159792.953   -11784439.848    22095961.315    22095964.343    22095962.283  
     -1939.585       -1511.363          50.676          45.591  
 -17215762.317   -13403232.462    21795478.063    21795480.888    21795478.324  
      1170.597         912.158          51.544          45.417  
 -17992416.480   -14004786.902    21372724.650    21372725.606    21372724.040  
      2033.668        1584.686          51.023          45.765  
  -9539402.844    -7420084.530    23151654.666    23151656.331    23151654.797  
     -2969.571       -2313.936          46.680          41.769  
  -4020540.743    -3087058.806    23610776.769    23610780.439    23610776.949  
     -3123.231       -2433.671          49.460          42.117  
  -4897051.325    -3807511.114    23950485.041    23950489.002    23950484.974  
      1959.934        1527.220          47.722          42.464  
 -13878531.514   -10559584.198    22394206.319    22394209.415    22394206.527  
      3034.855        2364.813          50.502          44.549  
 03  8  2  0 20 24.0000000  0  8G 1G 2G 3G13G16G20G27G31             0.000927232
 -24277195.944   -18905437.942    20465322.849    20465325.010    20465323.187  
       278.522         217.030          52.065          47.676  
 -15156883.466   -11782172.718    22096515.054    22096518.275    22096515.952  
     -1939.735       -1511.480          50.676          45.591  
 -17217517.698   -13404600.292    21795144.131    21795147.139    21795144.256  
      1169.902         911.609          51.544          45.417  
 -17995466.677   -14007163.677    21372144.185    21372145.374    21372143.599  
      2033.225        1584.332          51.023          45.765  
  -9534948.432    -7416613.563    23152502.536    23152503.534    23152502.602  
     -2969.606       -2313.990          46.680          41.943  
  -4015855.812    -3083408.215    23611668.450    23611671.620    23611668.455  
     -3123.324       -2433.762          49.460          42.117  
  -4899991.499    -3809802.159    23949925.328    23949929.684    23949925.418  
      1960.117        1527.363          47.722          42.464  
 -13883083.627   -10563131.299    22393340.074    22393343.372    22393340.322  
      3034.559        2364.593          50.502          44.722  
 03  8  2  0 20 25.5000000  0  8G 1G 2G 3G13G16G20G27G31             0.000927232
 -24277612.887   -18905762.834    20465243.444    20465245.593    20465243.903  
       277.561         216.283          52.065          47.676  
 -15153973.384   -11779905.123    22097068.853    22097071.814    22097069.735  
     -1940.190       -1511.836          50.676          45.591  
 -17219271.627   -13405966.986    21794810.370    21794813.490    21794810.459  
      1168.891         910.819          51.544          45.244  
 -17998515.812   -14009539.622    21371563.845    21371565.076    21371563.344  
      2032.450        1583.728          51.023          45.591  
  -9530493.521    -7413142.197    23153349.953    23153352.025    23153350.418  
     -2970.040       -2314.324          46.680          41.769  
  -4011170.479    -3079757.314    23612559.642    23612563.732    23612560.136  
     -3123.635       -2433.988          49.460          42.117  
  -4902931.567    -3812093.123    23949366.023    23949370.012    23949366.084  
      1959.951        1527.234          47.722          42.290  
 -13887634.936   -10566677.771    22392474.031    22392477.511    22392474.252  
      3033.979        2364.140          50.502          44.549  
 03  8  2  0 20 27.0000000  0  8G 1G 2G 3G13G16G20G27G31             0.000927232
 -24278028.701   -18906086.846    20465164.305    20465166.387    20465164.752  
       277.141         215.957          52.065          47.676  
 -15151062.944   -11777637.247    22097622.491    22097625.536    22097623.552  
     -1940.085       -1511.748          50.676          45.591  
 -17221024.346   -13407332.743    21794477.013    21794479.994    21794476.871  
      1168.388         910.443          51.544          45.417  
 -18001564.106   -14011914.918    21370983.781    21370984.951    21370983.324  
      2032.230        1583.567          51.023          45.765  
  -9526038.383    -7409670.669    23154197.856    23154199.158    23154198.305  
     -2969.841       -2314.151          46.854          41.769  
  -4006484.981    -3076106.276    23613451.302    23613455.197    23613451.810  
     -3123.375       -2433.787          49.460          42.117  
  -4905871.768    -3814384.186    23948806.519    23948810.723    23948806.723  
      1960.410        1527.593          47.722          42.464  
 -13892185.677   -10570223.805    22391608.136    22391611.125    22391608.310  
      3033.910        2364.085          50.502          44.549  
 03  8  2  0 20 28.5000000  0  8G 1G 2G 3G13G16G20G27G31             0.000927232
 -24278443.228   -18906409.853    20465085.381    20465087.783    20465085.905  
       275.813         214.916          52.065          47.676  
 -15148151.974   -11775368.958    22098176.451    22098179.621    22098177.440  
     -1940.929       -1512.415          50.676          45.591  
 -17222775.704   -13408697.432    21794143.390    21794146.577    21794143.507  
      1166.987         909.329          51.544          45.417  
 -18004611.430   -14014289.455    21370403.804    21370404.686    21370403.513  
      2031.120        1582.678          51.023          45.765  
  -9521582.895    -7406198.858    23155045.550    23155047.569    23155045.953  
     -2970.624       -2314.778          46.854          41.769  
  -4001799.166    -3072454.997    23614343.256    23614346.684    23614343.527  
     -3124.069       -2434.348          49.460          42.117  
  -4908811.945    -3816675.229    23948247.045    23948251.366    23948247.281  
      1959.942        1527.228          47.722          42.464  
 -13896735.697   -10573769.274    22390742.388    22390745.406    22390742.502  
      3032.981        2363.349          50.502          44.549  
 03  8  2  0 20 30.0000000  0  8G 1G 2G 3G13G16G20G27G31             0.000927232
 -24278856.709   -18906732.047    20465006.784    20465008.891    20465007.209  
       275.017         214.298          52.065          47.676  
 -15145240.736   -11773100.464    22098730.664    22098733.482    22098731.418  
     -1941.228       -1512.651          50.676          45.417  
 -17224525.929   -13410061.243    21793810.468    21793813.584    21793810.457  
      1166.137         908.672          51.544          45.244  
 -18007658.003   -14016663.407    21369824.156    21369825.454    21369823.877  
      2030.477        1582.180          51.023          45.765  
  -9517127.223    -7402726.913    23155893.390    23155895.460    23155893.863  
     -2970.852       -2314.961          46.854          41.943  
  -3997113.248    -3068803.633    23615234.886    23615238.338    23615235.245  
     -3124.252       -2434.483          49.460          42.117  
  -4911752.353    -3818966.451    23947688.108    23947691.802    23947687.657  
      1959.984        1527.245          47.722          42.464  
 -13901285.224   -10577314.361    22389876.459    22389879.844    22389876.728  
      3032.521        2363.003          50.502          44.549  
 03  8  2  0 20 31.5000000  0  8G 1G 2G 3G13G16G20G27G31             0.000927232
 -24279268.855   -18907053.198    20464928.396    20464930.522    20464928.790  
       274.804         214.140          52.065          47.676  
 -15142328.942   -11770831.534    22099284.539    22099287.441    22099285.497  
     -1940.884       -1512.367          50.676          45.417  
 -17226274.750   -13411423.956    21793477.636    21793480.859    21793477.654  
      1165.861         908.469          51.544          45.244  
 -18010703.545   -14019036.559    21369244.720    21369245.590    21369244.457  
      2030.480        1582.197          51.023          45.765  
  -9512671.175    -7399254.668    23156741.668    23156744.001    23156742.023  
     -2970.274       -2314.481          46.854          41.769  
  -3992426.970    -3065151.990    23616126.673    23616130.270    23616127.022  
     -3123.830       -2434.140          49.460          42.117  
  -4914692.687    -3821257.613    23947128.303    23947132.437    23947128.370  
      1960.634        1527.764          47.722          42.464  
 -13905833.977   -10580858.835    22389010.820    22389013.722    22389011.125  
      3032.669        2363.120          50.502          44.549  
 03  8  2  0 20 33.0000000  0  8G 1G 2G 3G13G16G20G27G31             0.000927232
 -24279679.740   -18907373.369    20464850.266    20464852.412    20464850.624  
       273.473         213.091          52.065          47.676  
 -15139416.664   -11768562.226    22099838.691    22099841.917    22099839.678  
     -1941.695       -1513.016          50.676          45.417  
 -17228022.235   -13412785.630    21793145.119    21793148.241    21793145.072  
      1164.507         907.397          51.544          45.417  
 -18013748.125   -14021408.959    21368665.309    21368666.343    21368665.150  
      2029.364        1581.321          51.023          45.591  
  -9508214.739    -7395782.128    23157589.870    23157591.401    23157590.222  
     -2971.088       -2315.142          46.854          41.943  
  -3987740.398    -3061500.117    23617018.206    23617021.905    23617018.893  
     -3124.514       -2434.681          49.460          42.117  
  -4917633.026    -3823548.787    23946568.938    23946573.061    23946568.941  
      1960.153        1527.391          47.722          42.290  
 -13910382.029   -10584402.769    22388145.441    22388148.614    22388145.743  
      3031.737        2362.382          50.502          44.549  
 03  8  2  0 20 34.5000000  0  8G 1G 2G 3G13G16G20G27G31             0.000927232
 -24280089.630   -18907692.764    20464772.085    20464774.482    20464772.589  
       272.507         212.335          52.065          47.676  
 -15136504.141   -11766292.732    22100393.037    22100396.268    22100394.007  
     -1942.159       -1513.375          50.676          45.417  
 -17229768.635   -13414146.460    21792812.877    21792815.819    21792812.791  
      1163.504         906.620          51.544          45.417  
 -18016792.010   -14023780.817    21368085.966    21368087.195    21368085.864  
      2028.611        1580.730          51.023          45.765  
  -9503758.207    -7392309.515    23158438.674    23158440.351    23158438.326  
     -2971.381       -2315.363          46.854          41.943  
  -3983053.779    -3057848.205    23617910.137    23617914.032    23617910.771  
     -3124.863       -2434.953          49.460          42.117  
  -4920573.636    -3825840.174    23946009.384    23946013.159    23946009.434  
      1960.025        1527.285          47.722          42.464  
 -13914929.637   -10587946.364    22387280.272    22387283.170    22387280.439  
      3031.121        2361.905          50.502          44.549  
 03  8  2  0 20 36.0000000  0  8G 1G 2G 3G13G16G20G27G31             0.000927232
 -24280498.195   -18908011.127    20464694.263    20464696.641    20464694.777  
       272.225         212.131          52.065          47.676  
 -15133591.078   -11764022.813    22100947.310    22100950.818    22100948.329  
     -1941.939       -1513.189          50.676          45.417  
 -17231513.632   -13415506.198    21792480.726    21792483.469    21792480.771  
      1163.146         906.353          51.544          45.417  
 -18019834.881   -14026151.886    21367506.982    21367508.202    21367506.714  
      2028.554        1580.696          51.023          45.765  
  -9499301.247    -7388836.545    23159286.450    23159288.380    23159286.613  
     -2971.225       -2315.240          46.854          41.943  
  -3978366.801    -3054196.018    23618802.017    23618805.339    23618802.657  
     -3124.492       -2434.665          49.460          42.117  
  -4923514.197    -3828131.515    23945449.939    23945453.239    23945450.011  
      1960.571        1527.718          47.722          42.290  
 -13919476.486   -10591489.361    22386415.080    22386417.867    22386415.244  
      3031.254        2362.010          50.502          44.549  
 03  8  2  0 20 37.5000000  0  8G 1G 2G 3G13G16G20G27G31             0.000927232
 -24280905.508   -18908328.514    20464616.787    20464619.069    20464617.164  
       271.124         211.264          52.065          47.676  
 -15130677.529   -11761752.518    22101501.767    22101505.092    22101502.720  
     -1942.545       -1513.671          50.676          45.591  
 -17233257.295   -13416864.894    21792148.975    21792152.019    21792148.943  
      1161.987         905.445          51.544          45.244  
 -18022876.798   -14028522.205    21366928.011    21366929.128    21366927.781  
      2027.635        1579.961          51.023          45.765  
  -9494843.976    -7385363.344    23160134.284    23160136.479    23160134.906  
     -2971.798       -2315.699          46.854          41.769  
  -3973679.535    -3050543.612    23619693.745    23619697.048    23619694.500  
     -3124.984       -2435.026          49.460          42.117  
  -4926454.753    -3830422.858    23944890.032    23944893.699    23944890.494  
      1960.330        1527.525          47.722          42.464  
 -13924022.645   -10595031.819    22385549.896    22385552.556    22385550.162  
      3030.459        2361.394          50.502          44.549  
 03  8  2  0 20 39.0000000  0  8G 1G 2G 3G13G16G20G27G31             0.000927232
 -24281311.716   -18908645.040    20464539.382    20464541.720    20464539.768  
       270.410         210.716          52.065          47.676  
 -15127763.666   -11759481.978    22102056.285    22102059.158    22102057.176  
     -1942.698       -1513.785          50.676          45.591  
 -17234999.772   -13418222.669    21791817.556    21791820.405    21791817.366  
      1161.209         904.841          51.544          45.244  
 -18025917.906   -14030891.898    21366349.251    21366350.747    21366349.031  
      2027.115        1579.569          51.023          45.765  
  -9490386.497    -7381889.990    23160982.363    23160984.132    23160983.102  
     -2971.837       -2315.702          46.854          41.769  
  -3968992.136    -3046891.093    23620585.967    23620589.628    23620586.414  
     -3125.058       -2435.107          49.286          42.117  
  -4929395.489    -3832714.338    23944330.466    23944334.032    23944330.769  
      1960.427        1527.611          47.722          42.464  
 -13928568.263   -10598573.858    22384684.964    22384687.675    22384685.292  
      3030.138        2361.148          50.502          44.549  
 03  8  2  0 20 40.5000000  0  8G 1G 2G 3G13G16G20G27G31             0.000927232
 -24281716.634   -18908960.560    20464462.445    20464464.544    20464462.632  
       269.886         210.304          52.065          47.676  
 -15124849.265   -11757211.014    22102610.817    22102613.808    22102611.725  
     -1942.719       -1513.802          50.676          45.591  
 -17236740.889   -13419579.378    21791486.236    21791488.791    21791486.040  
      1160.657         904.409          51.544          45.244  
 -18028958.022   -14033260.822    21365770.698    21365771.874    21365770.557  
      2026.771        1579.317          51.023          45.765  
  -9485928.626    -7378416.325    23161830.302    23161832.550    23161831.619  
     -2971.687       -2315.602          47.028          41.769  
  -3964304.412    -3043238.324    23621478.065    23621481.552    23621478.541  
     -3124.894       -2434.987          49.286          41.943  
  -4932336.183    -3835005.787    23943771.100    23943774.367    23943770.998  
      1960.754        1527.869          47.722          42.464  
 -13933113.152   -10602115.327    22383820.153    22383822.930    22383820.550  
      3030.039        2361.077          50.502          44.549  
 03  8  2  0 20 42.0000000  0  8G 1G 2G 3G13G16G20G27G31             0.000927232
 -24282120.380   -18909275.168    20464385.629    20464387.881    20464385.731  
       268.976         209.599          52.065          47.676  
 -15121934.489   -11754939.761    22103165.776    22103168.722    22103166.405  
     -1943.049       -1514.054          50.676          45.417  
 -17238480.745   -13420935.109    21791155.096    21791157.746    21791154.948  
      1159.710         903.680          51.544          45.244  
 -18031997.246   -14035629.049    21365192.339    21365193.674    21365192.265  
      2026.064        1578.757          51.023          45.765  
  -9481470.478    -7374942.452    23162678.615    23162681.188    23162679.654  
     -2972.050       -2315.860          47.028          41.595  
  -3959616.491    -3039585.404    23622370.440    23622374.152    23622370.803  
     -3125.109       -2435.146          49.286          41.943  
  -4935276.963    -3837297.298    23943211.249    23943214.908    23943211.381  
      1960.663        1527.784          47.722          42.290  
 -13937657.399   -10605656.298    22382955.303    22382958.166    22382955.906  
      3029.512        2360.664          50.502          44.549  
 03  8  2  0 20 43.5000000  0  8G 1G 2G 3G13G16G20G27G31             0.000927233
 -24282522.989   -18909588.889    20464309.014    20464311.468    20464308.990  
       267.867         208.723          52.065          47.676  
 -15119019.325   -11752668.206    22103720.519    22103723.688    22103721.083  
     -1943.702       -1514.579          50.676          45.591  
 -17240219.386   -13422289.893    21790824.240    21790826.893    21790824.106  
      1158.535         902.745          51.544          45.244  
 -18035035.655   -14037996.642    21364614.095    21364615.412    21364614.091  
      2025.148        1578.032          51.023          45.765  
  -9477012.099    -7371468.392    23163526.892    23163529.120    23163527.796  
     -2972.521       -2316.265          47.028          41.769  
  -3954928.381    -3035932.334    23623262.610    23623265.529    23623263.045  
     -3125.626       -2435.559          49.286          41.943  
  -4938217.863    -3839588.908    23942651.618    23942655.569    23942651.863  
      1960.429        1527.600          47.722          42.464  
 -13942201.075   -10609196.824    22382090.699    22382093.358    22382091.343  
      3028.787        2360.093          50.502          44.549  
 03  8  2  0 20 45.0000000  0  8G 1G 2G 3G13G16G20G27G31             0.000927233
 -24282924.248   -18909901.558    20464232.635    20464234.862    20464232.622  
       267.438         208.397          52.065          47.676  
 -15116103.606   -11750396.219    22104275.128    22104278.467    22104275.861  
     -1943.594       -1514.478          50.676          45.417  
 -17241956.607   -13423643.569    21790493.777    21790496.533    21790493.565  
      1158.064         902.393          51.544          45.244  
 -18038072.998   -14040363.399    21364035.993    21364037.625    21364036.063  
      2024.944        1577.884          51.023          45.765  
  -9472553.286    -7367994.003    23164375.379    23164378.649    23164376.005  
     -2972.224       -2315.992          47.028          41.769  
  -3950239.909    -3032278.975    23624154.747    23624158.411    23624155.379  
     -3125.370       -2435.354          49.286          42.117  
  -4941158.708    -3841880.475    23942092.316    23942095.844    23942092.286  
      1960.862        1527.948          47.722          42.290  
 -13946743.944   -10612736.718    22381226.071    22381229.076    22381226.919  
      3028.690        2360.023          50.502          44.549  
 03  8  2  0 20 46.5000000  0  8G 1G 2G 3G13G16G20G27G31             0.000927233
 -24283324.290   -18910213.278    20464156.538    20464158.651    20464156.486  
       266.177         207.406          52.065          47.676  
 -15113187.443   -11748123.883    22104830.215    22104833.370    22104830.773  
     -1944.347       -1515.079          50.676          45.417  
 -17243692.517   -13424996.225    21790163.509    21790165.853    21790163.271  
      1156.712         901.326          51.544          45.244  
 -18041109.428   -14042729.447    21363458.159    21363460.011    21363458.177  
      2023.887        1577.049          51.023          45.765  
  -9468094.139    -7364519.339    23165223.861    23165226.613    23165224.503  
     -2973.059       -2316.679          47.028          41.943  
  -3945551.164    -3028625.408    23625046.924    23625050.237    23625047.784  
     -3126.042       -2435.878          49.286          42.117  
  -4944099.572    -3844172.050    23941532.587    23941536.034    23941532.717  
      1960.365        1527.535          47.722          42.117  
 -13951286.170   -10616276.108    22380361.767    22380364.621    22380362.652  
      3027.714        2359.242          50.502          44.549  
 03  8  2  0 20 48.0000000  0  8G 1G 2G 3G13G16G20G27G31             0.000927233
 -24283723.312   -18910524.206    20464080.622    20464082.911    20464080.581  
       265.700         207.041          52.065          47.676  
 -15110271.039   -11745851.360    22105385.148    22105388.304    22105385.707  
     -1944.337       -1515.068          50.676          45.417  
 -17245427.342   -13426348.037    21789833.339    21789835.791    21789833.194  
      1156.203         900.941          51.544          45.417  
 -18044145.146   -14045094.941    21362880.584    21362882.091    21362880.389  
      2023.597        1576.832          51.023          45.765  
  -9463634.912    -7361044.618    23166072.604    23166075.436    23166072.889  
     -2972.897       -2316.546          47.028          41.943  
  -3940862.390    -3024971.830    23625938.965    23625942.219    23625940.100  
     -3125.890       -2435.764          49.286          41.943  
  -4947040.717    -3846463.856    23940973.205    23940976.119    23940973.060  
      1960.837        1527.924          47.722          42.290  
 -13955827.927   -10619815.142    22379497.711    22379500.290    22379498.433  
      3027.630        2359.194          50.502          44.549  
 03  8  2  0 20 49.5000000  0  8G 1G 2G 3G13G16G20G27G31             0.000927233
 -24284120.943   -18910834.048    20464004.961    20464007.153    20464004.896  
       265.127         206.601          52.065          47.502  
 -15107354.017   -11743578.361    22105940.182    22105943.066    22105940.787  
     -1944.361       -1515.078          50.676          45.417  
 -17247160.683   -13427698.693    21789503.534    21789505.945    21789503.506  
      1155.557         900.440          51.544          45.244  
 -18047179.766   -14047459.579    21362303.096    21362304.628    21362302.885  
      2023.206        1576.525          51.023          45.765  
  -9459175.224    -7357569.543    23166921.696    23166922.995    23166921.359  
     -2972.780       -2316.456          47.028          41.769  
  -3936173.196    -3021317.912    23626831.376    23626834.604    23626832.453  
     -3125.775       -2435.664          49.286          42.117  
  -4949981.687    -3848755.518    23940413.779    23940416.175    23940413.616  
      1960.988        1528.044          47.722          42.290  
 -13960368.856   -10623353.528    22378633.416    22378636.237    22378634.381  
      3027.493        2359.093          50.502          44.549  
 03  8  2  0 20 51.0000000  0  8G 1G 2G 3G13G16G20G27G31             0.000927233
 -24284517.486   -18911143.044    20463929.346    20463931.704    20463929.402  
       264.147         205.829          52.065          47.676  
 -15104436.691   -11741305.121    22106495.345    22106498.532    22106495.908  
     -1944.796       -1515.424          50.676          45.417  
 -17248892.860   -13429048.440    21789174.110    21789176.388    21789174.004  
      1154.528         899.629          51.544          45.244  
 -18050213.601   -14049823.606    21361725.726    21361727.282    21361725.532  
      2022.465        1575.948          51.023          45.765  
  -9454715.311    -7354094.293    23167770.537    23167772.645    23167770.181  
     -2973.212       -2316.782          47.028          41.769  
  -3931483.877    -3017663.899    23627723.931    23627727.478    23627724.810  
     -3126.107       -2435.919          49.286          41.943  
  -4952922.866    -3851047.348    23939853.925    23939857.036    23939854.178  
      1960.981        1528.041          47.896          42.290  
 -13964909.262   -10626891.508    22377769.448    22377772.534    22377770.498  
      3026.864        2358.594          50.502          44.549  
 03  8  2  0 20 52.5000000  0  8G 1G 2G 3G13G16G20G27G31             0.000927233
 -24284912.834   -18911451.108    20463854.321    20463856.383    20463854.210  
       262.970         204.902          52.065          47.676  
 -15101518.939   -11739031.551    22107050.638    22107053.690    22107051.181  
     -1945.484       -1515.964          50.676          45.417  
 -17250623.766   -13430397.201    21788844.536    21788847.041    21788844.750  
      1153.306         898.672          51.544          45.417  
 -18053246.545   -14052186.942    21361148.638    21361150.428    21361148.388  
      2021.501        1575.187          51.023          45.765  
  -9450255.152    -7350618.843    23168619.050    23168621.390    23168619.004  
     -2973.630       -2317.128          47.028          41.769  
  -3926794.331    -3014009.714    23628615.984    23628619.596    23628617.201  
     -3126.637       -2436.345          49.286          42.117  
  -4955864.124    -3853339.238    23939293.916    23939296.889    23939294.624  
      1960.597        1527.722          47.896          42.290  
 -13969449.019   -10630428.980    22376905.748    22376908.359    22376906.674  
      3026.022        2357.935          50.502          44.549  
 03  8  2  0 20 54.0000000  0  8G 1G 2G 3G13G16G20G27G31             0.000927233
 -24285306.878   -18911758.153    20463779.209    20463781.548    20463779.233  
       262.547         204.582          52.065          47.676  
 -15098600.656   -11736757.564    22107605.841    22107609.064    22107606.580  
     -1945.402       -1515.898          50.676          45.417  
 -17252353.286   -13431744.877    21788515.659    21788518.156    21788515.692  
      1152.846         898.330          51.544          45.244  
 -18056278.482   -14054549.488    21360571.797    21360573.374    21360571.370  
      2021.274        1575.020          51.023          45.765  
  -9445794.523    -7347143.023    23169467.519    23169469.887    23169467.845  
     -2973.710       -2317.181          47.028          41.769  
  -3922104.466    -3010355.280    23629508.211    23629511.672    23629509.718  
     -3126.388       -2436.148          49.286          42.117  
  -4958805.330    -3855631.073    23938734.294    23938737.785    23938734.965  
      1960.959        1528.006          47.896          42.290  
 -13973988.047   -10633965.884    22376041.942    22376044.337    22376042.914  
      3026.039        2357.959          50.502          44.549  
 03  8  2  0 20 55.5000000  0  8G 1G 2G 3G13G16G20G27G31             0.000927233
 -24285699.792   -18912064.322    20463704.552    20463706.464    20463704.496  
       261.644         203.883          52.065          47.676  
 -15095682.028   -11734483.313    22108161.368    22108164.571    22108161.998  
     -1945.762       -1516.173          50.676          45.417  
 -17254081.597   -13433091.613    21788186.652    21788188.989    21788186.869  
      1151.899         897.583          51.718          45.244  
 -18059309.584   -14056911.387    21359994.798    21359996.461    21359994.477  
      2020.537        1574.448          51.023          45.765  
  -9441333.751    -7343667.109    23170316.022    23170318.936    23170316.693  
     -2973.866       -2317.287          47.028          41.769  
  -3917414.432    -3006700.715    23630400.904    23630404.791    23630402.195  
     -3126.632       -2436.340          49.286          42.117  
  -4961746.691    -3857923.041    23938174.890    23938177.744    23938175.163  
      1960.930        1527.995          47.896          42.290  
 -13978526.486   -10637502.331    22375178.363    22375181.000    22375179.194  
      3025.500        2357.537          50.502          44.549  
 03  8  2  0 20 57.0000000  0  8G 1G 2G 3G13G16G20G27G31             0.000927234
 -24286091.417   -18912369.483    20463630.074    20463632.119    20463630.064  
       260.754         203.183          52.065          47.676  
 -15092762.880   -11732208.650    22108716.791    22108720.011    22108717.519  
     -1946.147       -1516.483          50.676          45.417  
 -17255808.532   -13434437.276    21787857.980    21787860.359    21787858.241  
      1150.945         896.843          51.718          45.244  
 -18062339.689   -14059272.506    21359418.284    21359419.887    21359417.797  
      2019.841        1573.902          51.023          45.765  
  -9436872.574    -7340190.867    23171164.798    23171167.368    23171165.426  
     -2974.114       -2317.489          47.028          41.769  
  -3912724.088    -3003045.900    23631293.710    23631297.071    23631294.802  
     -3126.854       -2436.507          49.286          42.117  
  -4964688.045    -3860215.007    23937614.848    23937617.383    23937615.412  
      1960.894        1527.965          47.896          42.290  
 -13983064.182   -10641038.195    22374314.876    22374317.281    22374315.731  
      3024.954        2357.100          50.502          44.549  
 03  8  2  0 20 58.5000000  0  8G 1G 2G 3G13G16G20G27G31             0.000927234
 -24286481.902   -18912673.758    20463555.718    20463557.935    20463555.819  
       260.092         202.679          52.065          47.676  
 -15089843.365   -11729933.707    22109272.413    22109275.351    22109273.056  
     -1946.324       -1516.605          50.676          45.417  
 -17257534.257   -13435782.000    21787529.720    21787532.477    21787529.855  
      1150.206         896.278          51.718          45.244  
 -18065368.962   -14061632.976    21358841.857    21358843.427    21358841.296  
      2019.385        1573.563          51.023          45.765  
  -9432411.142    -7336714.445    23172013.827    23172017.222    23172014.252  
     -2974.180       -2317.534          47.028          41.595  
  -3908033.568    -2999390.952    23632185.895    23632189.634    23632187.429  
     -3126.932       -2436.560          49.112          42.117  
  -4967629.505    -3862507.053    23937054.958    23937057.964    23937055.681  
      1961.085        1528.128          47.896          42.290  
 -13987601.293   -10644573.610    22373451.565    22373453.904    22373452.355  
      3024.666        2356.898          50.502          44.549  
 03  8  2  0 21  0.0000000  0  8G 1G 2G 3G13G16G20G27G31             0.000927234
 -24286871.231   -18912977.132    20463481.633    20463483.760    20463481.818  
       259.294         202.050          52.065          47.676  
 -15086923.486   -11727658.476    22109828.101    22109831.220    22109828.740  
     -1946.575       -1516.812          50.676          45.417  
 -17259258.744   -13437125.752    21787201.415    21787203.738    21787201.697  
      1149.367         895.608          51.718          45.244  
 -18068397.371   -14063992.777    21358265.663    21358267.264    21358264.984  
      2018.765        1573.065          51.023          45.765  
  -9427949.458    -7333237.803    23172862.425    23172865.843    23172863.217  
     -2974.492       -2317.794          47.028          41.595  
  -3903342.872    -2995735.871    23633078.872    23633082.745    23633080.062  
     -3127.065       -2436.659          49.112          42.117  
  -4970571.065    -3864799.172    23936495.476    23936498.480    23936495.806  
      1961.104        1528.143          47.896          42.290  
 -13992137.800   -10648108.548    22372588.316    22372590.786    22372589.098  
      3024.252        2356.562          50.502          44.549  
 03  8  2  0 21  1.5000000  0  8G 1G 2G 3G13G16G20G27G31             0.000927234
 -24287259.272   -18913279.501    20463407.860    20463409.868    20463408.043  
       258.341         201.302          52.065          47.676  
 -15084003.089   -11725382.844    22110383.815    22110386.951    22110384.420  
     -1947.011       -1517.148          50.676          45.417  
 -17260981.860   -13438468.436    21786873.642    21786876.139    21786873.765  
      1148.347         894.807          51.718          45.244  
 -18071424.788   -14066351.803    21357689.591    21357691.241    21357688.888  
      2018.028        1572.483          51.023          45.765  
  -9423487.441    -7329760.912    23173711.532    23173714.182    23173712.251  
     -2974.726       -2317.951          47.028          41.595  
  -3898651.853    -2992080.533    23633971.462    23633974.948    23633972.665  
     -3127.396       -2436.930          49.112          42.117  
  -4973512.622    -3867091.298    23935935.405    23935938.231    23935935.955  
      1961.108        1528.136          47.896          42.117  
 -13996673.583   -10651642.925    22371724.962    22371727.879    22371725.950  
      3023.642        2356.084          50.502          44.549  
 03  8  2  0 21  3.0000000  0  8G 1G 2G 3G13G16G20G27G31             0.000927234
 -24287646.111   -18913580.934    20463334.206    20463336.345    20463334.507  
       257.818         200.908          52.065          47.676  
 -15081082.278   -11723106.890    22110939.545    22110942.529    22110940.171  
     -1946.996       -1517.133          50.676          45.417  
 -17262703.706   -13439810.135    21786546.189    21786548.350    21786546.090  
      1147.782         894.385          51.718          45.244  
 -18074451.313   -14068710.136    21357113.676    21357115.590    21357112.987  
      2017.710        1572.254          51.023          45.765  
  -9419025.130    -7326283.796    23174560.700    23174563.894    23174561.234  
     -2974.607       -2317.878          47.028          41.595  
  -3893960.607    -2988425.022    23634864.137    23634867.687    23634865.277  
     -3127.342       -2436.882          49.112          42.117  
  -4976454.203    -3869383.437    23935375.558    23935378.894    23935376.182  
      1961.314        1528.294          47.896          42.290  
 -14001208.730   -10655176.802    22370861.895    22370864.738    22370862.891  
      3023.535        2356.007          50.502          44.549  
 03  8  2  0 21  4.5000000  0  8G 1G 2G 3G13G16G20G27G31             0.000927234
 -24288031.739   -18913881.425    20463260.871    20463262.876    20463261.144  
       256.672         200.001          52.065          47.676  
 -15078161.036   -11720830.599    22111495.629    22111498.908    22111496.079  
     -1947.615       -1517.620          50.676          45.591  
 -17264424.251   -13441150.822    21786218.531    21786220.871    21786218.665  
      1146.563         893.425          51.718          45.244  
 -18077476.937   -14071067.763    21356537.947    21356539.594    21356537.248  
      2016.778        1571.506          51.023          45.765  
  -9414562.508    -7322806.429    23175410.419    23175412.635    23175410.307  
     -2975.248       -2318.375          47.028          41.595  
  -3889269.144    -2984769.334    23635756.851    23635760.528    23635757.911  
     -3127.766       -2437.240          49.112          42.117  
  -4979395.850    -3871675.619    23934815.801    23934819.013    23934816.355  
      1961.079        1528.111          47.896          42.290  
 -14005743.194   -10658710.148    22369999.034    22370001.826    22369999.949  
      3022.716        2355.361          50.502          44.549  
 03  8  2  0 21  6.0000000  0  8G 1G 2G 3G13G16G20G27G31             0.000927234
 -24288416.234   -18914181.033    20463187.683    20463189.633    20463187.983  
       255.945         199.438          52.065          47.676  
 -15075239.430   -11718554.024    22112051.378    22112054.195    22112052.020  
     -1947.845       -1517.797          50.676          45.417  
 -17266143.584   -13442490.565    21785891.289    21785893.809    21785891.501  
      1145.806         892.840          51.718          45.244  
 -18080501.711   -14073424.729    21355962.382    21355963.861    21355961.698  
      2016.223        1571.086          51.023          45.765  
  -9410099.664    -7319328.894    23176259.792    23176261.625    23176259.326  
     -2975.334       -2318.441          47.028          41.422  
  -3884577.509    -2981113.521    23636649.780    23636653.151    23636650.708  
     -3127.864       -2437.298          49.112          42.117  
  -4982337.676    -3873967.950    23934256.103    23934259.477    23934256.518  
      1961.176        1528.192          47.896          42.290  
 -14010277.076   -10662243.043    22369136.186    22369138.925    22369137.118  
      3022.348        2355.076          50.502          44.549  
 03  8  2  0 21  7.5000000  0  8G 1G 2G 3G13G16G20G27G31             0.000927234
 -24288799.401   -18914479.601    20463114.702    20463116.782    20463115.055  
       255.406         199.024          52.065          47.676  
 -15072317.283   -11716277.024    22112607.498    22112610.315    22112608.114  
     -1947.880       -1517.826          50.676          45.417  
 -17267861.506   -13443829.200    21785564.422    21785567.011    21785564.595  
      1145.204         892.368          51.718          45.417  
 -18083525.472   -14075780.905    21355387.025    21355388.552    21355386.347  
      2015.857        1570.805          51.023          45.765  
  -9405636.398    -7315851.027    23177109.212    23177111.347    23177108.599  
     -2975.301       -2318.406          47.028          41.595  
  -3879885.527    -2977457.437    23637542.299    23637546.444    23637543.386  
     -3127.702       -2437.165          49.112          42.117  
  -4985279.401    -3876260.209    23933696.271    23933699.474    23933696.721  
      1961.411        1528.395          47.896          42.290  
 -14014810.200   -10665775.342    22368273.692    22368276.442    22368274.369  
      3022.173        2354.940          50.502          44.549  
 03  8  2  0 21  9.0000000  0  8G 1G 2G 3G13G16G20G27G31             0.000927234
 -24289181.433   -18914777.289    20463042.025    20463044.223    20463042.417  
       254.063         197.968          52.065          47.676  
 -15069394.788   -11713999.757    22113163.605    22113166.484    22113164.301  
     -1948.684       -1518.454          50.676          45.417  
 -17269578.218   -13445166.897    21785237.706    21785240.298    21785237.944  
      1143.817         891.286          51.718          45.244  
 -18086548.396   -14078136.430    21354811.715    21354813.298    21354811.136  
      2014.773        1569.947          51.023          45.765  
  -9401172.948    -7312373.020    23177959.044    23177960.221    23177957.872  
     -2975.902       -2318.878          47.028          41.422  
  -3875193.382    -2973801.225    23638435.085    23638439.073    23638436.090  
     -3128.340       -2437.656          49.112          42.117  
  -4988221.262    -3878552.562    23933136.492    23933139.650    23933136.953  
      1960.965        1528.024          47.896          42.290  
 -14019342.753   -10669307.198    22367410.924    22367414.188    22367411.678  
      3021.238        2354.205          50.502          44.549  
 03  8  2  0 21 10.5000000  0  8G 1G 2G 3G13G16G20G27G31             0.000927234
 -24289562.254   -18915074.032    20462969.584    20462971.472    20462969.975  
       253.541         197.568          52.065          47.676  
 -15066471.866   -11711722.159    22113719.983    22113722.729    22113720.511  
     -1948.675       -1518.441          50.676          45.417  
 -17271293.633   -13446503.582    21784911.264    21784913.768    21784911.565  
      1143.262         890.853          51.718          45.417  
 -18089570.394   -14080491.229    21354236.630    21354238.341    21354236.126  
      2014.462        1569.720          51.023          45.765  
  -9396709.181    -7308894.765    23178807.961    23178809.898    23178807.239  
     -2975.827       -2318.829          47.201          41.595  
  -3870501.005    -2970144.829    23639327.978    23639332.537    23639328.790  
     -3128.260       -2437.605          49.112          42.117  
  -4991163.185    -3880844.965    23932576.278    23932579.751    23932577.143  
      1961.338        1528.306          47.896          42.117  
 -14023874.615   -10672838.517    22366548.575    22366551.555    22366549.204  
      3021.055        2354.073          50.502          44.722  
 03  8  2  0 21 12.0000000  0  8G 1G 2G 3G13G16G20G27G31             0.000927234
 -24289941.742   -18915369.736    20462897.334    20462899.387    20462897.769  
       252.858         197.034          52.065          47.676  
 -15063548.393   -11709444.125    22114276.060    22114279.143    22114276.806  
     -1948.823       -1518.562          50.676          45.417  
 -17273007.626   -13447839.157    21784585.079    21784587.528    21784585.407  
      1142.488         890.255          51.718          45.244  
 -18092591.368   -14082845.232    21353661.767    21353663.346    21353661.326  
      2013.960        1569.321          51.023          45.765  
  -9392244.985    -7305416.162    23179657.573    23179660.050    23179656.628  
     -2975.968       -2318.941          47.201          41.595  
  -3865808.273    -2966488.161    23640220.888    23640225.550    23640221.595  
     -3128.301       -2437.630          48.938          42.117  
  -4994105.043    -3883137.322    23932016.793    23932020.593    23932017.276  
      1961.446        1528.394          47.896          42.117  
 -14028405.709   -10676369.238    22365686.338    22365689.373    22365686.881  
      3020.718        2353.808          50.502          44.722  
 03  8  2  0 21 13.5000000  0  8G 1G 2G 3G13G16G20G27G31             0.000927234
 -24290320.208   -18915664.647    20462825.255    20462827.339    20462825.725  
       251.626         196.071          52.065          47.676  
 -15060624.659   -11707165.899    22114832.537    22114835.409    22114833.071  
     -1949.567       -1519.145          50.676          45.417  
 -17274720.527   -13449173.885    21784259.050    21784261.907    21784259.429  
      1141.198         889.242          51.718          45.417  
 -18095611.611   -14085198.674    21353087.168    21353088.742    21353086.714  
      2012.900        1568.486          51.023          45.938  
  -9387780.682    -7301937.498    23180507.462    23180508.985    23180506.281  
     -2976.603       -2319.423          47.201          41.422  
  -3861115.486    -2962831.446    23641113.990    23641117.889    23641114.559  
     -3128.889       -2438.095          48.938          42.117  
  -4997047.168    -3885429.881    23931456.816    23931460.367    23931457.411  
      1961.116        1528.119          47.896          42.117  
 -14032936.346   -10679899.604    22364824.163    22364826.910    22364824.705  
      3019.886        2353.148          50.502          44.722  
 03  8  2  0 21 15.0000000  0  8G 1G 2G 3G13G16G20G27G31             0.000927234
 -24290697.355   -18915958.527    20462753.512    20462755.559    20462753.983  
       251.132         195.694          52.065          47.676  
 -15057700.408   -11704887.261    22115388.909    22115392.087    22115389.499  
     -1949.527       -1519.102          50.676          45.417  
 -17276432.036   -13450507.527    21783933.321    21783936.253    21783933.765  
      1140.696         888.856          51.718          45.417  
 -18098630.837   -14087551.316    21352512.743    21352514.100    21352512.272  
      2012.634        1568.288          51.023          45.765  
  -9383315.992    -7298458.512    23181357.381    23181357.970    23181355.913  
     -2976.375       -2319.240          47.201          41.595  
  -3856422.370    -2959174.478    23642007.223    23642011.357    23642007.559  
     -3128.760       -2437.988          48.938          42.117  
  -4999989.206    -3887722.378    23930896.802    23930899.861    23930897.560  
      1961.434        1528.400          47.896          42.117  
 -14037466.205   -10683429.363    22363962.048    22363965.070    22363962.640  
      3019.760        2353.071          50.502          44.722  
 03  8  2  0 21 16.5000000  0  8G 1G 2G 3G13G16G20G27G31             0.000927234
 -24291073.313   -18916251.481    20462681.975    20462684.019    20462682.434  
       250.196         194.955          52.065          47.676  
 -15054775.753   -11702608.309    22115945.411    22115948.404    22115945.978  
     -1949.895       -1519.405          50.849          45.417  
 -17278142.257   -13451840.164    21783607.844    21783610.809    21783608.331  
      1139.681         888.057          51.718          45.417  
 -18101649.161   -14089903.254    21351938.184    21351939.871    21351937.967  
      2011.873        1567.687          51.023          45.765  
  -9378851.005    -7294979.304    23182206.579    23182208.523    23182205.688  
     -2976.794       -2319.574          47.201          41.595  
  -3851729.045    -2955517.349    23642900.541    23642904.518    23642900.792  
     -3128.977       -2438.176          48.938          42.117  
  -5002931.335    -3890014.942    23930337.458    23930340.043    23930337.843  
      1961.417        1528.355          47.896          42.117  
 -14041995.430   -10686958.629    22363100.437    22363103.107    22363100.716  
      3019.229        2352.647          50.502          44.722  
 03  8  2  0 21 18.0000000  0  8G 1G 2G 3G13G16G20G27G31             0.000927234
 -24291448.082   -18916543.509    20462610.577    20462612.710    20462611.142  
       248.989         194.015          52.065          47.676  
 -15051850.681   -11700329.032    22116502.058    22116505.065    22116502.578  
     -1950.619       -1519.977          50.849          45.417  
 -17279851.213   -13453171.820    21783282.658    21783285.390    21783283.120  
      1138.418         887.070          51.718          45.417  
 -18104666.591   -14092254.499    21351363.856    21351365.819    21351363.806  
      2010.842        1566.886          51.023          45.765  
  -9374385.745    -7291499.887    23183056.189    23183058.655    23183055.662  
     -2977.329       -2319.997          47.201          41.595  
  -3847035.499    -2951860.041    23643793.647    23643797.278    23643794.052  
     -3129.563       -2438.631          48.938          42.290  
  -5005873.562    -3892307.587    23929777.634    23929780.602    23929778.052  
      1960.894        1527.959          47.896          42.117  
 -14046524.021   -10690487.399    22362238.514    22362241.707    22362238.905  
      3018.420        2351.997          50.502          44.549  
 03  8  2  0 21 19.5000000  0  8G 1G 2G 3G13G16G20G27G31             0.000927234
 -24291821.651   -18916834.602    20462539.414    20462541.553    20462540.036  
       248.457         193.609          52.065          47.676  
 -15048925.202   -11698049.442    22117058.723    22117061.761    22117059.175  
     -1950.645       -1519.977          50.849          45.417  
 -17281558.900   -13454502.486    21782957.795    21782960.421    21782958.172  
      1137.839         886.627          51.718          45.417  
 -18107683.144   -14094605.059    21350790.008    21350791.524    21350789.760  
      2010.513        1566.635          51.023          45.765  
  -9369920.230    -7288020.264    23183905.950    23183908.278    23183905.676  
     -2977.303       -2319.979          47.201          41.422  
  -3842341.759    -2948202.582    23644686.807    23644690.577    23644687.403  
     -3129.427       -2438.510          48.938          42.117  
  -5008815.881    -3894600.300    23929217.518    23929220.940    23929218.210  
      1961.248        1528.264          47.896          42.117  
 -14051051.966   -10694015.663    22361376.739    22361379.814    22361377.247  
      3018.244        2351.873          50.502          44.549  
 03  8  2  0 21 21.0000000  0  8G 1G 2G 3G13G16G20G27G31             0.000927234
 -24292193.948   -18917124.705    20462468.725    20462470.800    20462469.139  
       247.641         192.960          52.065          47.676  
 -15045999.236   -11695769.471    22117615.674    22117618.503    22117615.932  
     -1950.927       -1520.204          50.849          45.417  
 -17283265.233   -13455832.092    21782633.105    21782635.751    21782633.458  
      1137.002         885.963          51.718          45.417  
 -18110698.704   -14096954.845    21350216.092    21350217.765    21350215.909  
      2009.952        1566.190          51.023          45.938  
  -9365454.367    -7284540.380    23184755.884    23184757.658    23184755.600  
     -2977.441       -2320.079          47.201          41.422  
  -3837647.716    -2944544.890    23645580.174    23645584.186    23645580.744  
     -3129.566       -2438.619          48.938          42.117  
  -5011758.187    -3896893.004    23928657.997    23928661.260    23928658.415  
      1961.376        1528.330          47.896          42.117  
 -14055579.175   -10697543.359    22360515.396    22360518.473    22360515.751  
      3017.716        2351.458          50.502          44.722  
 03  8  2  0 21 22.5000000  0  8G 1G 2G 3G13G16G20G27G31             0.000927234
 -24292565.186   -18917413.982    20462397.967    20462400.214    20462398.423  
       246.879         192.381          52.065          47.676  
 -15043072.986   -11693489.278    22118172.557    22118175.169    22118172.754  
     -1951.156       -1520.377          50.849          45.417  
 -17284970.411   -13457160.802    21782308.459    21782311.445    21782308.937  
      1136.166         885.325          51.718          45.417  
 -18113713.493   -14099304.032    21349642.377    21349643.867    21349642.275  
      2009.357        1565.733          51.023          45.938  
  -9360988.346    -7281060.366    23185605.801    23185607.118    23185605.593  
     -2977.681       -2320.266          47.201          41.595  
  -3832953.586    -2940887.129    23646473.231    23646477.546    23646474.056  
     -3129.673       -2438.708          48.938          42.117  
  -5014700.702    -3899185.874    23928098.171    23928100.160    23928098.557  
      1961.419        1528.372          47.896          42.117  
 -14060105.890   -10701070.666    22359654.037    22359656.774    22359654.343  
      3017.387        2351.218          50.502          44.722  
 03  8  2  0 21 24.0000000  0  8G 1G 2G 3G13G16G20G27G31             0.000927234
 -24292935.081   -18917702.212    20462327.743    20462329.858    20462328.023  
       246.658         192.206          52.065          47.676  
 -15040146.180   -11691208.651    22118729.535    22118732.162    22118729.621  
     -1950.876       -1520.158          50.849          45.244  
 -17286674.179   -13458488.415    21781984.137    21781987.564    21781984.681  
      1135.865         885.091          51.718          45.417  
 -18116727.231   -14101652.400    21349068.991    21349070.550    21349068.842  
      2009.300        1565.693          51.023          45.765  
  -9356521.897    -7277580.016    23186455.906    23186457.674    23186455.708  
     -2977.437       -2320.073          47.201          41.422  
  -3828259.087    -2937229.080    23647366.666    23647370.227    23647367.452  
     -3129.294       -2438.405          48.938          42.117  
  -5017643.143    -3901478.682    23927538.180    23927540.781    23927538.679  
      1962.116        1528.933          47.896          42.117  
 -14064631.810   -10704597.358    22358792.747    22358795.713    22358793.093  
      3017.492        2351.299          50.502          44.722  
 03  8  2  0 21 25.5000000  0  8G 1G 2G 3G13G16G20G27G31             0.000927235
 -24293303.730   -18917989.472    20462257.603    20462259.612    20462257.908  
       245.327         191.165          52.065          47.676  
 -15037218.921   -11688927.666    22119286.489    22119289.340    22119286.606  
     -1951.674       -1520.792          50.849          45.417  
 -17288376.618   -13459814.989    21781660.476    21781663.397    21781660.713  
      1134.474         884.008          51.718          45.417  
 -18119740.054   -14104000.054    21348495.473    21348497.302    21348495.496  
      2008.190        1564.823          51.023          45.938  
  -9352055.158    -7274099.448    23187306.075    23187307.796    23187305.929  
     -2977.933       -2320.452          47.201          41.422  
  -3823564.318    -2933570.826    23648259.924    23648263.179    23648260.795  
     -3129.980       -2438.956          48.765          42.117  
  -5020585.587    -3903771.492    23926978.163    23926980.566    23926978.860  
      1961.560        1528.480          47.896          42.117  
 -14069157.026   -10708123.499    22357931.728    22357934.722    22357931.996  
      3016.498        2350.519          50.502          44.722  
 03  8  2  0 21 27.0000000  0  8G 1G 2G 3G13G16G20G27G31             0.000927235
 -24293671.257   -18918275.858    20462187.512    20462189.686    20462187.996  
       244.601         190.601          52.065          47.676  
 -15034291.316   -11686646.420    22119843.532    22119846.468    22119843.609  
     -1951.886       -1520.951          50.849          45.417  
 -17290077.857   -13461140.630    21781336.633    21781339.774    21781336.990  
      1133.703         883.412          51.718          45.417  
 -18122752.026   -14106347.047    21347922.372    21347924.069    21347922.303  
      2007.685        1564.431          51.023          45.938  
  -9347588.182    -7270618.688    23188156.103    23188157.527    23188156.210  
     -2978.121       -2320.593          47.201          41.422  
  -3818869.416    -2929912.460    23649153.243    23649156.559    23649154.219  
     -3130.022       -2438.976          48.765          42.117  
  -5023528.215    -3906064.446    23926418.170    23926420.743    23926418.918  
      1961.680        1528.579          47.896          42.290  
 -14073681.699   -10711649.220    22357070.718    22357073.819    22357070.958  
      3016.194        2350.290          50.502          44.722  
 03  8  2  0 21 28.5000000  0  8G 1G 2G 3G13G16G20G27G31             0.000927235
 -24294037.523   -18918561.258    20462117.707    20462119.890    20462118.271  
       243.894         190.049          52.065          47.676  
 -15031363.246   -11684364.808    22120400.738    22120403.702    22120400.776  
     -1952.057       -1521.070          50.849          45.244  
 -17291777.745   -13462465.217    21781013.072    21781015.950    21781013.453  
      1132.941         882.816          51.718          45.417  
 -18125763.040   -14108693.288    21347349.342    21347351.312    21347349.284  
      2007.159        1564.020          51.023          45.938  
  -9343120.861    -7267137.651    23189006.019    23189007.966    23189006.531  
     -2978.197       -2320.659          47.201          41.422  
  -3814174.228    -2926253.878    23650046.732    23650050.456    23650047.550  
     -3130.079       -2439.022          48.765          42.117  
  -5026470.830    -3908357.385    23925858.390    23925860.926    23925859.070  
      1961.800        1528.659          47.896          42.117  
 -14078205.650   -10715174.375    22356209.708    22356212.791    22356210.105  
      3015.866        2350.021          50.502          44.722  
 03  8  2  0 21 30.0000000  0  8G 1G 2G 3G13G16G20G27G31             0.000927235
 -24294402.604   -18918845.737    20462048.333    20462050.373    20462048.770  
       242.807         189.194          52.065          47.676  
 -15028434.786   -11682082.892    22120958.085    22120960.740    22120958.105  
     -1952.595       -1521.503          50.849          45.417  
 -17293476.378   -13463788.823    21780689.792    21780692.776    21780690.128  
      1131.822         881.926          51.718          45.417  
 -18128773.171   -14111038.844    21346776.509    21346778.370    21346776.446  
      2006.255        1563.307          51.023          45.938  
  -9338653.298    -7263656.433    23189856.250    23189857.303    23189856.916  
     -2978.545       -2320.952          47.201          41.422  
  -3809478.854    -2922595.156    23650940.578    23650943.427    23650940.968  
     -3130.471       -2439.335          48.765          42.117  
  -5029413.549    -3910650.418    23925298.370    23925300.875    23925299.300  
      1961.624        1528.536          47.896          42.117  
 -14082728.965   -10718699.033    22355349.076    22355351.943    22355349.399  
      3015.115        2349.436          50.502          44.722  
 03  8  2  0 21 31.5000000  0  8G 1G 2G 3G13G16G20G27G31             0.000927235
 -24294766.515   -18919129.307    20461979.130    20461981.270    20461979.454  
       242.118         188.669          52.065          47.676  
 -15025505.938   -11679800.677    22121515.471    22121517.884    22121515.521  
     -1952.752       -1521.620          50.849          45.417  
 -17295173.749   -13465111.452    21780366.933    21780369.815    21780367.079  
      1131.074         881.355          51.718          45.244  
 -18131782.424   -14113383.714    21346204.043    21346205.713    21346203.721  
      2005.788        1562.951          51.023          45.765  
  -9334185.470    -7260175.014    23190706.354    23190707.720    23190707.264  
     -2978.701       -2321.057          47.201          41.595  
  -3804783.288    -2918936.270    23651834.112    23651837.442    23651834.561  
     -3130.537       -2439.386          48.765          41.943  
  -5032356.352    -3912943.514    23924738.327    23924741.033    23924739.498  
      1961.742        1528.633          47.896          42.117  
 -14087251.661   -10722223.212    22354488.441    22354491.583    22354488.779  
      3014.823        2349.214          50.502          44.722  
 03  8  2  0 21 33.0000000  0  8G 1G 2G 3G13G16G20G27G31             0.000927235
 -24295129.183   -18919411.907    20461910.232    20461912.261    20461910.338  
       241.734         188.370          52.065          47.502  
 -15022576.641   -11677518.104    22122072.854    22122075.626    22122073.030  
     -1952.619       -1521.523          50.849          45.244  
 -17296869.804   -13466433.052    21780044.250    21780046.467    21780044.262  
      1130.658         881.027          51.718          45.244  
 -18134790.721   -14115727.842    21345631.426    21345633.347    21345631.135  
      2005.608        1562.817          51.023          45.765  
  -9329717.328    -7256693.354    23191556.429    23191558.665    23191557.507  
     -2978.475       -2320.882          47.201          41.595  
  -3800087.482    -2915277.202    23652727.525    23652731.108    23652728.197  
     -3130.216       -2439.111          48.765          41.943  
  -5035299.210    -3915236.650    23924178.424    23924180.525    23924179.517  
      1962.103        1528.920          47.896          41.943  
 -14091773.648   -10725746.839    22353628.016    22353630.969    22353628.305  
      3014.771        2349.184          50.502          44.549  
 03  8  2  0 21 34.5000000  0  8G 1G 2G 3G13G16G20G27G31             0.000927235
 -24295490.632   -18919693.554    20461841.407    20461843.323    20461841.452  
       240.781         187.623          52.065          47.676  
 -15019646.911   -11675235.198    22122630.422    22122633.001    22122630.608  
     -1953.042       -1521.844          50.849          45.417  
 -17298564.555   -13467753.636    21779721.712    21779724.499    21779721.762  
      1129.629         880.232          51.718          45.417  
 -18137798.087   -14118071.241    21345059.127    21345061.016    21345058.726  
      2004.813        1562.187          51.023          45.938  
  -9325248.882    -7253211.444    23192406.692    23192409.221    23192407.960  
     -2978.921       -2321.232          47.201          41.422  
  -3795391.426    -2911617.944    23653621.032    23653623.660    23653621.774  
     -3130.518       -2439.366          48.765          42.117  
  -5038242.105    -3917529.810    23923618.463    23923620.739    23923619.545  
      1962.115        1528.916          47.896          42.117  
 -14096294.959   -10729269.934    22352767.588    22352770.482    22352767.931  
      3014.162        2348.706          50.502          44.722  
 03  8  2  0 21 36.0000000  0  8G 1G 2G 3G13G16G20G27G31             0.000927236
 -24295850.841   -18919974.239    20461772.964    20461775.002    20461772.828  
       239.591         186.699          52.065          47.502  
 -15016716.712   -11672951.928    22123187.871    22123190.397    22123188.263  
     -1953.711       -1522.376          50.849          45.244  
 -17300257.989   -13469073.195    21779399.438    21779402.501    21779399.490  
      1128.366         879.247          51.718          45.417  
 -18140804.511   -14120413.910    21344487.160    21344488.625    21344486.485  
      2003.828        1561.424          51.023          45.938  
  -9320780.124    -7249729.296    23193257.141    23193258.979    23193258.329  
     -2979.569       -2321.730          47.201          41.595  
  -3790695.129    -2907958.488    23654514.637    23654518.260    23654515.250  
     -3131.025       -2439.757          48.591          42.117  
  -5041185.025    -3919822.992    23923057.992    23923061.541    23923059.594  
      1961.832        1528.694          47.896          41.943  
 -14100815.602   -10732792.509    22351907.238    22351910.587    22351907.747  
      3013.376        2348.089          50.502          44.722  
 03  8  2  0 21 37.5000000  0  8G 1G 2G 3G13G16G20G27G31             0.000927236
 -24296209.798   -18920253.944    20461704.585    20461706.561    20461704.535  
       239.004         186.237          52.065          47.676  
 -15013786.067   -11670668.310    22123745.693    22123748.414    22123745.964  
     -1953.774       -1522.420          50.849          45.417  
 -17301950.079   -13470391.706    21779077.283    21779080.246    21779077.432  
      1127.708         878.738          51.718          45.417  
 -18143809.978   -14122755.832    21343915.090    21343916.853    21343914.444  
      2003.438        1561.121          51.023          45.938  
  -9316311.047    -7246246.903    23194107.432    23194109.750    23194108.856  
     -2979.376       -2321.595          47.375          41.422  
  -3785998.542    -2904298.808    23655408.324    23655411.529    23655408.903  
     -3130.996       -2439.722          48.591          42.117  
  -5044127.944    -3922116.166    23922498.056    23922500.852    23922499.614  
      1961.979        1528.811          48.070          42.117  
 -14105335.528   -10736314.526    22351047.373    22351050.410    22351047.737  
      3013.152        2347.908          50.502          44.722  
 03  8  2  0 21 39.0000000  0  8G 1G 2G 3G13G16G20G27G31             0.000927236
 -24296567.585   -18920532.741    20461636.565    20461638.680    20461636.455  
       237.362         184.945          52.065          47.676  
 -15010855.029   -11668384.384    22124303.309    22124306.274    22124303.693  
     -1954.911       -1523.317          50.849          45.244  
 -17303640.924   -13471709.244    21778755.695    21778758.392    21778755.676  
      1126.041         877.420          51.718          45.244  
 -18146814.569   -14125097.073    21343343.294    21343345.216    21343342.514  
      2002.046        1560.023          51.023          45.938  
  -9311841.696    -7242764.301    23194958.187    23194960.405    23194959.261  
     -2980.409       -2322.389          47.375          41.595  
  -3781301.784    -2900639.006    23656302.727    23656305.683    23656302.640  
     -3131.965       -2440.492          48.591          42.117  
  -5047071.021    -3924409.476    23921937.885    23921941.271    23921939.498  
      1961.250        1528.235          48.070          41.943  
 -14109854.840   -10739836.070    22350187.308    22350190.215    22350187.786  
      3011.913        2346.934          50.502          44.549  
 03  8  2  0 21 40.5000000  0  8G 1G 2G 3G13G16G20G27G31             0.000927236
 -24296924.291   -18920810.694    20461568.663    20461570.695    20461568.586  
       237.353         184.951          52.065          47.676  
 -15007923.701   -11666100.231    22124861.201    22124864.107    22124861.380  
     -1954.373       -1522.887          50.849          45.244  
 -17305330.616   -13473025.888    21778434.071    21778436.993    21778434.167  
      1125.998         877.397          51.718          45.244  
 -18149818.360   -14127437.690    21342771.722    21342773.203    21342770.812  
      2002.202        1560.155          51.023          45.938  
  -9307372.228    -7239281.600    23195809.032    23195810.557    23195809.784  
     -2979.783       -2321.909          47.375          41.595  
  -3776604.916    -2896979.114    23657196.197    23657200.290    23657196.391  
     -3131.408       -2440.060          48.591          42.117  
  -5050014.285    -3926702.929    23921377.860    23921381.151    23921379.373  
      1962.135        1528.945          48.070          41.943  
 -14114373.604   -10743357.183    22349327.373    22349330.305    22349327.909  
      3012.215        2347.172          50.502          44.722  
 03  8  2  0 21 42.0000000  0  8G 1G 2G 3G13G16G20G27G31             0.000927236
 -24297279.529   -18921087.502    20461501.068    20461503.011    20461500.998  
       236.415         184.218          52.065          47.676  
 -15004991.704   -11663815.560    22125419.041    22125422.020    22125419.213  
     -1954.801       -1523.220          50.849          45.244  
 -17307018.754   -13474341.319    21778112.810    21778115.616    21778112.978  
      1125.007         876.627          51.718          45.417  
 -18152820.995   -14129777.400    21342200.289    21342202.115    21342199.353  
      2001.461        1559.575          51.023          45.938  
  -9302902.177    -7235798.440    23196659.398    23196660.484    23196660.250  
     -2980.150       -2322.205          47.375          41.422  
  -3771907.620    -2893318.877    23658090.334    23658093.910    23658090.247  
     -3131.613       -2440.228          48.591          42.290  
  -5052957.352    -3928996.218    23920817.948    23920821.035    23920819.252  
      1961.973        1528.805          48.070          42.117  
 -14118891.466   -10746877.595    22348467.480    22348470.522    22348468.181  
      3011.650        2346.743          50.502          44.722  
 03  8  2  0 21 43.5000000  0  8G 1G 2G 3G13G16G20G27G31             0.000927236
 -24297633.758   -18921363.522    20461433.621    20461435.655    20461433.671  
       235.387         183.410          52.065          47.676  
 -15002059.483   -11661530.714    22125977.120    22125979.935    22125977.116  
     -1955.299       -1523.624          50.849          45.244  
 -17308705.791   -13475655.891    21777791.868    21777794.545    21777791.996  
      1123.911         875.766          51.718          45.244  
 -18155822.922   -14132116.561    21341629.107    21341630.661    21341628.042  
      2000.631        1558.924          51.023          45.938  
  -9298432.065    -7232315.233    23197509.858    23197511.569    23197510.933  
     -2980.546       -2322.522          47.375          41.248  
  -3767210.254    -2889658.602    23658983.983    23658987.488    23658984.143  
     -3132.016       -2440.521          48.591          42.117  
  -5055900.663    -3931289.716    23920257.757    23920260.564    23920259.097  
      1961.767        1528.633          48.070          41.943  
 -14123408.852   -10750397.637    22347607.859    22347610.869    22347608.536  
      3010.981        2346.208          50.502          44.722  
 03  8  2  0 21 45.0000000  0  8G 1G 2G 3G13G16G20G27G31             0.000927236
 -24297986.777   -18921638.604    20461366.538    20461368.556    20461366.565  
       235.337         183.385          52.065          47.676  
 -14999126.845   -11659245.545    22126535.099    22126538.156    22126535.104  
     -1954.820       -1523.235          50.849          45.244  
 -17310391.547   -13476969.471    21777470.944    21777473.594    21777471.154  
      1123.791         875.690          51.718          45.244  
 -18158823.920   -14134455.004    21341058.049    21341059.826    21341057.011  
      2000.781        1559.057          51.023          45.938  
  -9293961.652    -7228831.805    23198360.315    23198362.496    23198361.529  
     -2979.905       -2321.994          47.375          41.248  
  -3762512.675    -2885998.154    23659877.724    23659881.413    23659878.100  
     -3131.371       -2440.025          48.591          42.117  
  -5058844.037    -3933583.251    23919697.801    23919700.611    23919698.837  
      1962.619        1529.308          47.896          41.943  
 -14127925.592   -10753917.171    22346748.417    22346751.302    22346748.998  
      3011.302        2346.474          50.502          44.722  
 03  8  2  0 21 46.5000000  0  8G 1G 2G 3G13G16G20G27G31             0.000927236
 -24298338.462   -18921912.645    20461299.595    20461301.537    20461299.674  
       234.189         182.485          52.065          47.676  
 -14996193.657   -11656959.945    22127093.344    22127096.082    22127093.228  
     -1955.426       -1523.696          50.849          45.244  
 -17312075.885   -13478281.940    21777150.417    21777152.783    21777150.523  
      1122.590         874.744          51.718          45.244  
 -18161823.878   -14136792.634    21340487.150    21340488.640    21340486.269  
      1999.816        1558.302          51.023          45.938  
  -9289490.834    -7225348.048    23199211.240    23199213.052    23199212.088  
     -2980.441       -2322.436          47.375          41.248  
  -3757814.760    -2882337.443    23660771.556    23660775.875    23660772.136  
     -3131.865       -2440.399          48.591          42.464  
  -5061787.352    -3935876.742    23919137.428    23919140.386    23919138.581  
      1962.264        1529.038          48.070          41.943  
 -14132441.522   -10757436.078    22345888.983    22345892.144    22345889.624  
      3010.509        2345.854          50.502          44.722  
 03  8  2  0 21 48.0000000  0  8G 1G 2G 3G13G16G20G27G31             0.000927236
 -24298689.092   -18922185.863    20461232.899    20461234.947    20461232.949  
       233.429         181.891          52.065          47.676  
 -14993260.209   -11654674.145    22127651.549    22127654.212    22127651.395  
     -1955.685       -1523.911          50.849          45.244  
 -17313759.095   -13479593.535    21776830.271    21776832.645    21776830.137  
      1121.801         874.133          51.718          45.244  
 -18164823.080   -14139129.673    21339916.500    21339918.043    21339915.672  
      1999.241        1557.859          51.023          45.938  
  -9285019.893    -7221864.200    23200061.585    23200063.128    23200062.690  
     -2980.568       -2322.516          47.375          41.422  
  -3753116.790    -2878676.693    23661665.196    23661669.142    23661666.012  
     -3131.979       -2440.508          48.417          42.117  
  -5064730.857    -3938170.380    23918577.324    23918580.512    23918578.291  
      1962.311        1529.083          48.070          41.943  
 -14136956.969   -10760954.607    22345029.518    22345032.933    22345030.272  
      3010.115        2345.544          50.502          44.722  
 03  8  2  0 21 49.5000000  0  8G 1G 2G 3G13G16G20G27G31             0.000927236
 -24299038.361   -18922458.023    20461166.523    20461168.272    20461166.453  
       232.673         181.311          52.065          47.676  
 -14990326.193   -11652387.898    22128209.820    22128212.527    22128209.838  
     -1955.867       -1524.050          50.849          45.244  
 -17315440.848   -13480903.991    21776509.991    21776512.984    21776509.995  
      1120.970         873.493          51.718          45.244  
 -18167821.233   -14141465.898    21339345.888    21339347.395    21339345.300  
      1998.701        1557.443          51.023          45.938  
  -9280548.528    -7218380.014    23200912.402    23200914.259    23200913.367  
     -2980.783       -2322.679          47.375          41.248  
  -3748418.436    -2875015.644    23662559.485    23662563.843    23662559.990  
     -3132.065       -2440.561          48.417          42.117  
  -5067674.255    -3940463.940    23918017.292    23918020.552    23918018.027  
      1962.441        1529.186          47.896          41.943  
 -14141471.580   -10764472.483    22344170.414    22344173.726    22344171.040  
      3009.715        2345.235          50.502          44.722  
 03  8  2  0 21 51.0000000  0  8G 1G 2G 3G13G16G20G27G31             0.000927236
 -24299386.424   -18922729.239    20461100.132    20461102.009    20461100.222  
       231.668         180.516          52.065          47.676  
 -14987391.757   -11650101.325    22128768.189    22128771.058    22128768.310  
     -1956.375       -1524.448          50.849          45.244  
 -17317121.317   -13482213.444    21776190.225    21776192.859    21776190.189  
      1119.926         872.664          51.718          45.244  
 -18170818.446   -14143801.386    21338775.593    21338776.973    21338775.087  
      1997.910        1556.810          51.023          45.765  
  -9276076.869    -7214895.607    23201763.028    23201766.230    23201764.024  
     -2981.084       -2322.921          47.375          41.248  
  -3743719.884    -2871354.431    23663453.582    23663457.411    23663453.929  
     -3132.351       -2440.792          48.417          42.117  
  -5070617.749    -3942757.566    23917457.084    23917460.577    23917457.986  
      1962.368        1529.109          47.896          41.943  
 -14145985.539   -10767989.851    22343311.335    22343314.519    22343312.025  
      3009.099        2344.759          50.502          44.722  
 03  8  2  0 21 52.5000000  0  8G 1G 2G 3G13G16G20G27G31             0.000927236
 -24299733.289   -18922999.525    20461034.113    20461036.181    20461034.234  
       230.637         179.718          52.065          47.676  
 -14984456.917   -11647814.439    22129326.620    22129329.408    22129326.853  
     -1956.896       -1524.853          50.849          45.244  
 -17318800.510   -13483521.907    21775870.652    21775873.293    21775870.604  
      1118.845         871.822          51.718          45.244  
 -18173814.755   -14146136.173    21338205.430    21338206.800    21338204.973  
      1997.061        1556.153          51.023          45.938  
  -9271604.922    -7211410.979    23202614.148    23202616.209    23202614.687  
     -2981.517       -2323.259          47.375          41.248  
  -3739021.112    -2867693.059    23664347.646    23664351.676    23664347.891  
     -3132.750       -2441.109          48.417          42.117  
  -5073561.312    -3945051.245    23916896.904    23916899.966    23916897.826  
      1962.136        1528.917          47.896          41.943  
 -14150498.836   -10771506.703    22342452.363    22342455.966    22342453.127  
      3008.460        2344.258          50.502          44.722  
 03  8  2  0 21 54.0000000  0  8G 1G 2G 3G13G16G20G27G31             0.000927236
 -24300079.018   -18923268.925    20460968.266    20460970.322    20460968.488  
       230.451         179.577          52.065          47.676  
 -14981521.732   -11645527.283    22129885.296    22129888.040    22129885.460  
     -1956.537       -1524.569          50.849          45.244  
 -17320478.472   -13484829.407    21775551.236    21775553.932    21775551.226  
      1118.578         871.624          51.718          45.244  
 -18176810.213   -14148470.295    21337635.444    21337636.902    21337634.992  
      1997.038        1556.136          51.023          45.938  
  -9267132.762    -7207926.184    23203465.182    23203467.436    23203465.403  
     -2981.147       -2322.966          47.375          41.248  
  -3734322.182    -2864031.557    23665241.638    23665246.128    23665241.860  
     -3132.303       -2440.749          48.417          42.290  
  -5076505.011    -3947345.043    23916336.642    23916339.959    23916337.815  
      1962.825        1529.478          47.896          41.943  
 -14155011.542   -10775023.094    22341593.755    22341596.985    22341594.411  
      3008.597        2344.365          50.502          44.722  
 03  8  2  0 21 55.5000000  0  8G 1G 2G 3G13G16G20G27G31             0.000927236
 -24300423.434   -18923537.300    20460902.773    20460904.795    20460902.947  
       229.030         178.456          52.065          47.676  
 -14978586.028   -11643239.721    22130443.717    22130446.688    22130444.147  
     -1957.469       -1525.302          50.849          45.244  
 -17322155.055   -13486135.832    21775232.239    21775234.668    21775232.143  
      1117.137         870.486          51.718          45.244  
 -18179804.659   -14150803.628    21337065.726    21337067.136    21337065.199  
      1995.803        1555.158          51.023          45.938  
  -9262660.239    -7204441.098    23204316.294    23204318.956    23204316.408  
     -2981.976       -2323.637          47.375          41.248  
  -3729622.936    -2860369.815    23666135.977    23666139.664    23666135.962  
     -3133.060       -2441.349          48.244          42.290  
  -5079448.673    -3949638.797    23915776.592    23915779.751    23915777.615  
      1962.215        1529.004          47.896          41.943  
 -14159523.495   -10778538.899    22340735.159    22340738.236    22340735.826  
      3007.555        2343.539          50.502          44.549  
 03  8  2  0 21 57.0000000  0  8G 1G 2G 3G13G16G20G27G31             0.000927236
 -24300766.715   -18923804.795    20460837.486    20460839.377    20460837.606  
       228.459         178.016          52.065          47.676  
 -14975649.990   -11640951.903    22131002.539    22131005.413    22131002.928  
     -1957.484       -1525.319          50.849          45.244  
 -17323830.417   -13487441.309    21774913.495    21774916.027    21774913.345  
      1116.509         870.002          51.718          45.244  
 -18182798.251   -14153136.299    21336495.895    21336497.719    21336495.560  
      1995.429        1554.880          51.023          45.938  
  -9258187.485    -7200955.838    23205167.601    23205170.166    23205167.515  
     -2981.923       -2323.581          47.375          41.422  
  -3724923.567    -2856707.972    23667030.187    23667034.273    23667030.014  
     -3132.968       -2441.265          48.244          42.117  
  -5082392.531    -3951932.712    23915216.441    23915219.699    23915217.474  
      1962.532        1529.230          47.896          41.943  
 -14164034.858   -10782054.245    22339876.647    22339879.910    22339877.372  
      3007.329        2343.361          50.502          44.549  
 03  8  2  0 21 58.5000000  0  8G 1G 2G 3G13G16G20G27G31             0.000927236
 -24301108.757   -18924071.321    20460772.444    20460774.409    20460772.526  
       228.106         177.750          52.065          47.676  
 -14972713.493   -11638663.721    22131561.314    22131563.698    22131561.731  
     -1957.315       -1525.174          50.849          45.244  
 -17325504.458   -13488745.753    21774594.994    21774597.420    21774594.803  
      1116.070         869.671          51.718          45.244  
 -18185790.894   -14155468.226    21335926.456    21335928.010    21335926.027  
      1995.271        1554.765          51.023          45.938  
  -9253714.445    -7197470.353    23206018.851    23206020.994    23206018.813  
     -2981.626       -2323.324          47.375          41.248  
  -3720223.925    -2853045.924    23667924.330    23667928.681    23667924.406  
     -3132.678       -2441.034          48.244          42.290  
  -5085336.377    -3954226.615    23914656.387    23914659.726    23914657.234  
      1962.973        1529.595          47.896          41.943  
 -14168545.522   -10785569.045    22339018.468    22339021.613    22339019.028  
      3007.329        2343.378          50.502          44.722  
 03  8  2  0 22  0.0000000  0  8G 1G 2G 3G13G16G20G27G31             0.000927236
 -24301449.501   -18924336.833    20460707.695    20460709.231    20460707.675  
       226.642         176.603          52.065          47.676  
 -14969776.500   -11636375.157    22132120.383    22132122.747    22132120.650  
     -1958.220       -1525.888          50.849          45.244  
 -17327177.122   -13490049.122    21774276.673    21774279.287    21774276.558  
      1114.570         868.492          51.718          45.244  
 -18188782.545   -14157799.379    21335357.186    21335358.861    21335356.697  
      1994.001        1553.761          51.023          45.938  
  -9249241.017    -7193984.568    23206870.230    23206872.443    23206870.148  
     -2982.523       -2324.039          47.375          41.248  
  -3715524.001    -2849383.650    23668819.007    23668822.637    23668818.708  
     -3133.411       -2441.609          48.244          42.290  
  -5088280.205    -3956520.505    23914096.195    23914099.837    23914097.093  
      1962.378        1529.143          47.896          41.943  
 -14173055.445   -10789083.269    22338160.189    22338163.167    22338160.856  
      3006.243        2342.524          50.502          44.722  
 03  8  2  0 22  1.5000000  0  8G 1G 2G 3G13G16G20G27G31             0.000927236
 -24301789.243   -18924601.571    20460642.963    20460644.706    20460643.074  
       226.177         176.243          52.065          47.676  
 -14966839.300   -11634086.432    22132679.280    22132681.799    22132679.580  
     -1958.159       -1525.840          50.849          45.244  
 -17328848.697   -13491351.648    21773958.486    21773961.033    21773958.534  
      1114.056         868.088          51.718          45.244  
 -18191773.492   -14160129.987    21334788.253    21334789.490    21334787.499  
      1993.783        1553.593          51.023          45.765  
  -9244767.530    -7190498.731    23207721.919    23207723.746    23207721.696  
     -2982.331       -2323.902          47.375          41.248  
  -3710824.064    -2845721.363    23669713.650    23669717.494    23669713.129  
     -3133.267       -2441.497          48.244          42.290  
  -5091224.282    -3958814.599    23913536.072    23913540.056    23913536.914  
      1962.751        1529.431          47.896          41.943  
 -14177564.898   -10792597.130    22337301.908    22337304.884    22337302.780  
      3006.159        2342.464          50.502          44.549  
 03  8  2  0 22  3.0000000  0  8G 1G 2G 3G13G16G20G27G31             0.000927236
 -24302127.618   -18924865.242    20460578.508    20460580.424    20460578.659  
       224.987         175.314          52.065          47.676  
 -14963901.523   -11631797.255    22133238.354    22133240.812    22133238.755  
     -1958.835       -1526.361          50.849          45.244  
 -17330518.823   -13492653.044    21773640.861    21773643.562    21773640.773  
      1112.804         867.118          51.718          45.244  
 -18194763.354   -14162459.751    21334219.313    21334220.411    21334218.503  
      1992.756        1552.798          51.023          45.765  
  -9240293.605    -7187012.555    23208572.819    23208574.979    23208573.302  
     -2982.900       -2324.349          47.375          41.422  
  -3706123.761    -2842058.792    23670607.802    23670612.388    23670607.636  
     -3133.783       -2441.906          48.244          42.290  
  -5094168.300    -3961108.636    23912976.180    23912978.593    23912976.638  
      1962.459        1529.194          47.896          41.943  
 -14182073.530   -10796110.349    22336444.012    22336447.305    22336444.775  
      3005.317        2341.806          50.502          44.722  
 03  8  2  0 22  4.5000000  0  8G 1G 2G 3G13G16G20G27G31             0.000927236
 -24302464.694   -18925127.896    20460514.467    20460516.228    20460514.507  
       224.205         174.697          52.065          47.676  
 -14960963.248   -11629507.686    22133797.279    22133799.969    22133797.919  
     -1959.069       -1526.551          50.849          45.244  
 -17332187.562   -13493953.358    21773323.254    21773325.812    21773323.257  
      1111.941         866.444          51.718          45.244  
 -18197752.226   -14164788.735    21333650.391    21333651.694    21333649.733  
      1992.165        1552.324          51.023          45.938  
  -9235819.312    -7183526.094    23209424.181    23209426.479    23209424.903  
     -2983.138       -2324.531          47.375          41.422  
  -3701423.139    -2838395.968    23671502.153    23671506.923    23671502.205  
     -3133.889       -2441.982          48.070          42.464  
  -5097112.298    -3963402.656    23912415.777    23912418.287    23912416.291  
      1962.510        1529.225          47.896          41.769  
 -14186581.419   -10799622.986    22335586.299    22335589.496    22335586.849  
      3004.939        2341.499          50.502          44.722  
 03  8  2  0 22  6.0000000  0  8G 1G 2G 3G13G16G20G27G31             0.000927236
 -24302800.736   -18925389.750    20460450.599    20460452.422    20460450.548  
       223.473         174.132          52.065          47.676  
 -14958024.732   -11627217.938    22134356.473    22134359.198    22134357.077  
     -1959.291       -1526.723          50.849          45.244  
 -17333855.191   -13495252.811    21773005.847    21773008.524    21773005.927  
      1111.150         865.827          51.718          45.244  
 -18200740.363   -14167117.156    21333081.800    21333083.101    21333081.031  
      1991.643        1551.930          51.023          45.938  
  -9231344.921    -7180039.555    23210275.664    23210277.886    23210276.592  
     -2983.237       -2324.599          47.375          41.248  
  -3696722.503    -2834733.149    23672397.144    23672401.121    23672396.752  
     -3133.999       -2442.062          48.070          42.290  
  -5100056.549    -3965696.865    23911855.289    23911858.794    23911855.896  
      1962.634        1529.304          47.896          41.943  
 -14191088.799   -10803135.228    22334728.544    22334731.814    22334729.094  
      3004.498        2341.164          50.502          44.722  
 03  8  2  0 22  7.5000000  0  8G 1G 2G 3G13G16G20G27G31             0.000927236
 -24303135.588   -18925650.676    20460386.855    20460388.593    20460386.860  
       222.884         173.682          52.065          47.676  
 -14955085.832   -11624927.889    22134915.863    22134918.365    22134916.334  
     -1959.345       -1526.757          50.849          45.244  
 -17335521.546   -13496551.271    21772688.850    21772691.653    21772688.833  
      1110.484         865.315          51.718          45.244  
 -18203727.589   -14169444.866    21332513.278    21332514.442    21332512.605  
      1991.194        1551.581          51.023          45.765  
  -9226870.270    -7176552.815    23211127.287    23211129.064    23211128.094  
     -2983.167       -2324.528          47.375          41.248  
  -3692021.664    -2831070.162    23673291.408    23673295.718    23673291.396  
     -3133.900       -2441.982          48.070          42.290  
  -5103000.868    -3967991.149    23911295.434    23911297.550    23911295.521  
      1962.885        1529.540          47.896          41.769  
 -14195595.542   -10806646.976    22333870.818    22333874.093    22333871.456  
      3004.313        2341.028          50.502          44.722  
 03  8  2  0 22  9.0000000  0  8G 1G 2G 3G13G16G20G27G31             0.000927236
 -24303468.911   -18925910.403    20460323.387    20460325.333    20460323.444  
       221.580         172.655          52.065          47.676  
 -14952146.185   -11622637.256    22135475.147    22135477.752    22135475.719  
     -1960.110       -1527.360          50.849          45.244  
 -17337186.285   -13497848.467    21772372.039    21772374.677    21772371.978  
      1109.140         864.257          51.544          45.244  
 -18206713.582   -14171771.611    21331945.247    21331946.437    21331944.364  
      1990.089        1550.711          51.023          45.938  
  -9222394.993    -7173065.577    23211978.627    23211980.797    23211979.792  
     -2983.985       -2325.179          47.375          41.422  
  -3687320.282    -2827406.747    23674185.711    23674190.385    23674186.109  
     -3134.572       -2442.532          48.070          42.290  
  -5105944.904    -3970285.199    23910734.944    23910737.858    23910735.204  
      1962.414        1529.153          47.896          41.769  
 -14200101.295   -10810157.946    22333013.529    22333016.666    22333014.050  
      3003.348        2340.263          50.502          44.722  
 03  8  2  0 22 10.5000000  0  8G 1G 2G 3G13G16G20G27G31             0.000927236
 -24303801.370   -18926169.464    20460260.105    20460262.133    20460260.232  
       221.309         172.452          52.065          47.676  
 -14949206.469   -11620346.573    22136034.614    22136037.082    22136035.158  
     -1959.861       -1527.158          50.849          45.244  
 -17338850.074   -13499144.927    21772055.534    21772057.969    21772055.336  
      1108.841         864.036          51.544          45.244  
 -18209699.006   -14174097.918    21331377.097    21331378.228    21331376.309  
      1990.046        1550.682          51.023          45.938  
  -9217919.834    -7169578.446    23212830.573    23212832.710    23212831.398  
     -2983.439       -2324.755          47.375          41.248  
  -3682619.041    -2823743.453    23675080.604    23675084.664    23675080.711  
     -3134.122       -2442.159          48.070          42.464  
  -5108889.339    -3972579.560    23910174.531    23910177.597    23910175.000  
      1962.996        1529.621          48.070          41.943  
 -14204606.735   -10813668.685    22332156.239    22332159.226    22332156.697  
      3003.480        2340.382          50.502          44.549  
 03  8  2  0 22 12.0000000  0  8G 1G 2G 3G13G16G20G27G31             0.000927236
 -24304132.486   -18926427.478    20460197.029    20460199.093    20460197.210  
       220.597         171.898          52.065          47.676  
 -14946266.222   -11618055.472    22136594.043    22136596.763    22136594.682  
     -1960.025       -1527.285          50.849          45.244  
 -17340512.453   -13500440.288    21771739.004    21771741.655    21771738.964  
      1108.068         863.434          51.544          45.244  
 -18212683.383   -14176423.409    21330809.099    21330810.437    21330808.499  
      1989.559        1550.310          51.023          45.938  
  -9213444.214    -7166090.955    23213682.239    23213684.040    23213683.128  
     -2983.541       -2324.817          47.375          41.422  
  -3677917.453    -2820079.879    23675975.739    23675979.139    23675975.446  
     -3134.226       -2442.254          48.070          42.290  
  -5111833.762    -3974873.921    23909614.003    23909616.558    23909614.819  
      1963.198        1529.770          47.896          41.769  
 -14209111.374   -10817178.792    22331298.949    22331301.920    22331299.460  
      3003.093        2340.077          50.502          44.722  
 03  8  2  0 22 13.5000000  0  8G 1G 2G 3G13G16G20G27G31             0.000927236
 -24304462.245   -18926684.432    20460134.341    20460136.408    20460134.492  
       219.520         171.049          52.065          47.676  
 -14943325.411   -11615763.931    22137153.785    22137156.515    22137154.229  
     -1960.613       -1527.753          50.849          45.244  
 -17342173.381   -13501734.515    21771423.109    21771425.923    21771422.908  
      1106.936         862.546          51.544          45.244  
 -18215666.685   -14178748.058    21330241.497    21330242.666    21330240.816  
      1988.624        1549.573          51.023          45.938  
  -9208968.186    -7162603.139    23214534.261    23214536.017    23214534.883  
     -2984.072       -2325.254          47.375          41.422  
  -3673215.524    -2816416.042    23676870.545    23676874.435    23676870.440  
     -3134.618       -2442.556          48.070          42.464  
  -5114778.101    -3977168.206    23909053.976    23909056.928    23909054.624  
      1962.887        1529.501          47.896          41.769  
 -14213615.209   -10820688.268    22330441.984    22330445.099    22330442.407  
      3002.376        2339.511          50.502          44.722  
 03  8  2  0 22 15.0000000  0  8G 1G 2G 3G13G16G20G27G31             0.000927236
 -24304791.008   -18926940.613    20460071.717    20460073.875    20460071.944  
       218.894         170.566          52.065          47.676  
 -14940384.402   -11613472.240    22137713.347    22137715.830    22137713.905  
     -1960.704       -1527.816          50.849          45.244  
 -17343833.234   -13503027.907    21771107.386    21771109.994    21771107.065  
      1106.255         862.015          51.544          45.244  
 -18218649.292   -14181072.169    21329674.099    21329675.086    21329673.252  
      1988.227        1549.270          51.023          45.938  
  -9204492.108    -7159115.295    23215386.447    23215388.222    23215386.594  
     -2984.052       -2325.242          47.375          41.248  
  -3668513.589    -2812752.204    23677765.464    23677768.860    23677765.354  
     -3134.509       -2442.452          47.896          42.464  
  -5117722.711    -3979462.708    23908493.338    23908496.630    23908494.284  
      1963.172        1529.747          47.896          41.595  
 -14218118.567   -10824197.378    22329584.924    22329588.070    22329585.465  
      3002.119        2339.310          50.502          44.722  
 03  8  2  0 22 16.5000000  0  8G 1G 2G 3G13G16G20G27G31             0.000927236
 -24305118.454   -18927195.767    20460009.259    20460011.512    20460009.623  
       218.278         170.096          52.065          47.676  
 -14937442.870   -11611180.139    22138273.023    22138275.850    22138273.613  
     -1960.793       -1527.882          50.849          45.244  
 -17345491.682   -13504320.202    21770791.620    21770794.028    21770791.492  
      1105.596         861.515          51.544          45.244  
 -18221630.868   -14183395.477    21329106.619    21329107.490    21329105.930  
      1987.812        1548.955          51.023          45.938  
  -9200015.660    -7155627.142    23216238.818    23216239.998    23216238.509  
     -2984.009       -2325.200          47.375          41.422  
  -3663811.332    -2809088.108    23678660.308    23678664.055    23678660.203  
     -3134.493       -2442.441          47.896          42.464  
  -5120667.295    -3981757.185    23907932.917    23907935.988    23907933.935  
      1963.454        1529.962          47.896          41.595  
 -14222621.162   -10827705.897    22328728.286    22328731.456    22328728.686  
      3001.856        2339.117          50.502          44.722  
 03  8  2  0 22 18.0000000  0  8G 1G 2G 3G13G16G20G27G31             0.000927237
 -24305444.630   -18927449.930    20459947.468    20459949.165    20459947.511  
       217.062         169.141          52.065          47.676  
 -14934500.876   -11608887.673    22138832.869    22138835.778    22138833.447  
     -1961.428       -1528.378          50.849          45.244  
 -17347148.779   -13505611.446    21770476.440    21770478.930    21770476.206  
      1104.332         860.514          51.544          45.244  
 -18224611.456   -14185718.008    21328539.412    21328540.379    21328538.795  
      1986.791        1548.152          51.023          45.765  
  -9195538.865    -7152138.729    23217090.304    23217091.288    23217090.610  
     -2984.625       -2325.691          47.375          41.074  
  -3659108.829    -2805423.818    23679554.733    23679558.927    23679555.115  
     -3135.055       -2442.897          47.896          42.464  
  -5123611.882    -3984051.659    23907372.855    23907375.171    23907373.617  
      1963.053        1529.645          47.896          41.769  
 -14227123.003   -10831213.821    22327871.619    22327874.448    22327872.028  
      3000.998        2338.433          50.502          44.722  
 03  8  2  0 22 19.5000000  0  8G 1G 2G 3G13G16G20G27G31             0.000927237
 -24305769.734   -18927703.259    20459885.541    20459887.565    20459885.599  
       216.306         168.556          52.065          47.676  
 -14931558.600   -11606594.993    22139392.987    22139395.494    22139393.292  
     -1961.680       -1528.576          50.849          45.244  
 -17348804.722   -13506901.790    21770161.195    21770163.810    21770161.166  
      1103.494         859.868          51.544          45.244  
 -18227591.278   -14188039.949    21327972.405    21327973.653    21327971.786  
      1986.210        1547.699          51.023          45.938  
  -9191061.921    -7148650.198    23217942.197    23217943.820    23217942.574  
     -2984.759       -2325.793          47.375          41.248  
  -3654406.238    -2801759.469    23680449.430    23680453.420    23680449.948  
     -3135.156       -2442.975          47.896          42.638  
  -5126556.666    -3986346.303    23906811.928    23906815.670    23906813.197  
      1963.097        1529.700          47.896          41.769  
 -14231624.347   -10834721.359    22327015.109    22327017.920    22327015.484  
      3000.606        2338.133          50.502          44.722  
 03  8  2  0 22 21.0000000  0  8G 1G 2G 3G13G16G20G27G31             0.000927237
 -24306093.548   -18927955.582    20459823.936    20459825.880    20459823.921  
       215.693         168.079          52.065          47.676  
 -14928615.842   -11604301.937    22139953.020    22139955.356    22139953.319  
     -1961.765       -1528.639          50.676          45.244  
 -17350459.283   -13508191.058    21769846.480    21769849.026    21769846.404  
      1102.808         859.336          51.544          45.244  
 -18230570.094   -14190361.105    21327405.651    21327407.042    21327404.953  
      1985.802        1547.391          51.023          45.765  
  -9186584.637    -7145161.403    23218794.131    23218796.464    23218794.482  
     -2984.752       -2325.770          47.549          41.422  
  -3649703.362    -2798094.891    23681344.371    23681349.596    23681344.790  
     -3135.064       -2442.891          47.896          42.638  
  -5129501.461    -3988640.949    23906251.537    23906255.048    23906252.541  
      1963.414        1529.948          47.896          41.595  
 -14236124.942   -10838228.315    22326158.763    22326161.647    22326159.114  
      3000.351        2337.949          50.502          44.722  
 03  8  2  0 22 22.5000000  0  8G 1G 2G 3G13G16G20G27G31             0.000927237
 -24306416.097   -18928206.921    20459762.432    20459764.403    20459762.500  
       214.536         167.172          52.065          47.676  
 -14925672.609   -11602008.510    22140513.010    22140515.517    22140513.433  
     -1962.377       -1529.126          50.676          45.244  
 -17352112.496   -13509479.272    21769531.854    21769534.729    21769531.895  
      1101.599         858.385          51.544          45.244  
 -18233547.934   -14192681.496    21326839.061    21326839.928    21326838.336  
      1984.837        1546.623          51.023          45.938  
  -9182106.996    -7141672.338    23219646.084    23219647.711    23219646.320  
     -2985.324       -2326.232          47.549          41.422  
  -3645000.227    -2794430.118    23682239.011    23682244.103    23682239.599  
     -3135.545       -2443.266          47.896          42.638  
  -5132446.236    -3990935.573    23905691.142    23905695.087    23905691.879  
      1963.019        1529.613          47.896          41.769  
 -14240624.789   -10841734.691    22325302.474    22325305.439    22325302.808  
      2999.530        2337.296          50.502          44.722  
 03  8  2  0 22 24.0000000  0  8G 1G 2G 3G13G16G20G27G31             0.000927237
 -24306737.512   -18928457.375    20459701.367    20459703.480    20459701.354  
       213.614         166.450          52.065          47.676  
 -14922729.062   -11599714.836    22141073.049    22141075.869    22141073.607  
     -1962.747       -1529.420          50.676          45.244  
 -17353764.495   -13510766.547    21769217.391    21769220.145    21769217.609  
      1100.652         857.644          51.544          45.244  
 -18236524.929   -14195001.232    21326272.485    21326273.312    21326271.815  
      1984.109        1546.051          51.023          45.938  
  -9177629.173    -7138183.131    23220498.125    23220499.988    23220498.377  
     -2985.612       -2326.452          47.549          41.248  
  -3640296.962    -2790765.244    23683134.248    23683138.331    23683134.557  
     -3135.797       -2443.483          47.896          42.638  
  -5135391.177    -3993230.335    23905130.626    23905134.144    23905131.093  
      1962.958        1529.583          47.896          41.769  
 -14245124.048   -10845240.609    22324446.286    22324449.060    22324446.651  
      2998.992        2336.878          50.502          44.722  
 03  8  2  0 22 25.5000000  0  8G 1G 2G 3G13G16G20G27G31             0.000927237
 -24307057.722   -18928706.889    20459640.328    20459642.407    20459640.462  
       213.509         166.382          52.065          47.676  
 -14919785.098   -11597420.837    22141633.302    22141635.977    22141633.973  
     -1962.346       -1529.087          50.676          45.244  
 -17355415.204   -13512052.814    21768903.244    21768905.758    21768903.478  
      1100.472         857.521          51.544          45.417  
 -18239501.013   -14197320.259    21325706.050    21325707.105    21325705.520  
      1984.175        1546.115          51.023          45.765  
  -9173151.092    -7134693.722    23221350.619    23221351.616    23221350.516  
     -2985.070       -2326.016          47.549          41.248  
  -3635593.489    -2787100.202    23684029.207    23684033.665    23684029.594  
     -3135.296       -2443.076          47.896          42.638  
  -5138336.162    -3995525.132    23904570.221    23904573.201    23904570.462  
      1963.706        1530.169          47.896          41.595  
 -14249622.652   -10848746.013    22323590.306    22323592.919    22323590.553  
      2999.259        2337.096          50.676          44.722  
 03  8  2  0 22 27.0000000  0  8G 1G 2G 3G13G16G20G27G31             0.000927237
 -24307376.557   -18928955.331    20459579.719    20459581.604    20459579.805  
       212.023         165.208          52.065          47.676  
 -14916840.572   -11595126.402    22142193.753    22142196.110    22142194.375  
     -1963.248       -1529.804          50.676          45.244  
 -17357064.460   -13513337.948    21768589.452    21768591.915    21768589.618  
      1098.942         856.316          51.544          45.244  
 -18242476.013   -14199638.438    21325140.070    21325141.113    21325139.484  
      1982.877        1545.092          51.023          45.938  
  -9168672.560    -7131203.952    23222202.654    23222204.665    23222202.723  
     -2985.884       -2326.653          47.549          41.248  
  -3630889.676    -2783434.899    23684924.108    23684929.295    23684924.750  
     -3136.008       -2443.643          47.896          42.638  
  -5141281.046    -3997819.840    23904009.580    23904013.370    23904009.848  
      1963.039        1529.618          47.896          41.769  
 -14254120.403   -10852250.754    22322734.335    22322737.159    22322734.637  
      2998.114        2336.188          50.676          44.722  
 03  8  2  0 22 28.5000000  0  8G 1G 2G 3G13G16G20G27G31             0.000927237
 -24307694.366   -18929202.974    20459519.282    20459521.109    20459519.322  
       211.071         164.472          52.065          47.676  
 -14913895.810   -11592831.787    22142754.106    22142756.396    22142754.775  
     -1963.678       -1530.133          50.676          45.244  
 -17358712.604   -13514622.215    21768275.847    21768278.340    21768275.957  
      1097.935         855.535          51.718          45.244  
 -18245450.280   -14201956.052    21324573.914    21324575.007    21324573.638  
      1982.162        1544.545          51.023          45.938  
  -9164193.939    -7127714.118    23223054.998    23223055.972    23223054.815  
     -2986.222       -2326.933          47.549          41.074  
  -3626185.806    -2779769.549    23685819.233    23685824.028    23685819.750  
     -3136.397       -2443.944          47.722          42.638  
  -5144226.179    -4000114.741    23903449.107    23903452.983    23903449.342  
      1962.977        1529.595          47.896          41.595  
 -14258617.695   -10855755.139    22321878.596    22321881.255    22321878.837  
      2997.575        2335.771          50.676          44.722  
 03  8  2  0 22 30.0000000  0  8G 1G 2G 3G13G16G20G27G31             0.000927237
 -24308010.896   -18929449.622    20459459.086    20459461.080    20459459.108  
       210.638         164.134          52.065          47.676  
 -14910950.577   -11590536.801    22143314.353    22143317.133    22143315.248  
     -1963.590       -1530.076          50.676          45.244  
 -17360359.390   -13515905.422    21767962.336    21767965.382    21767962.584  
      1097.465         855.163          51.718          45.244  
 -18248423.544   -14204272.880    21324008.307    21324009.476    21324008.059  
      1981.906        1544.343          51.023          45.938  
  -9159714.967    -7124224.004    23223907.185    23223908.958    23223907.005  
     -2986.039       -2326.791          47.549          41.248  
  -3621481.658    -2776103.984    23686714.181    23686719.070    23686714.675  
     -3136.108       -2443.701          47.722          42.638  
  -5147171.335    -4002409.676    23902888.795    23902891.882    23902888.834  
      1963.411        1529.938          47.896          41.769  
 -14263114.250   -10859258.946    22321022.682    22321025.897    22321023.142  
      2997.479        2335.698          50.676          44.722  
 03  8  2  0 22 31.5000000  0  8G 1G 2G 3G13G16G20G27G31             0.000927237
 -24308326.111   -18929695.245    20459399.105    20459401.070    20459399.136  
       209.721         163.421          52.065          47.676  
 -14908004.831   -11588241.413    22143875.030    22143878.023    22143875.781  
     -1963.943       -1530.351          50.676          45.244  
 -17362004.774   -13517187.536    21767649.221    21767652.365    21767649.482  
      1096.504         854.417          51.718          45.244  
 -18251395.800   -14206588.924    21323442.682    21323443.835    21323442.609  
      1981.191        1543.780          51.023          45.938  
  -9155235.647    -7120733.627    23224759.648    23224761.323    23224759.306  
     -2986.341       -2327.005          47.549          41.248  
  -3616777.225    -2772438.201    23687609.098    23687614.870    23687609.520  
     -3136.370       -2443.920          47.722          42.812  
  -5150116.437    -4004704.553    23902328.277    23902330.950    23902328.265  
      1963.364        1529.888          47.896          41.595  
 -14267610.011   -10862762.133    22320167.375    22320170.300    22320167.663  
      2996.909        2335.252          50.676          44.722  
 03  8  2  0 22 33.0000000  0  8G 1G 2G 3G13G16G20G27G31             0.000927237
 -24308640.289   -18929940.060    20459339.309    20459341.338    20459339.376  
       209.227         163.038          52.065          47.676  
 -14905058.848   -11585945.845    22144435.746    22144438.258    22144436.388  
     -1963.960       -1530.360          50.676          45.244  
 -17363649.030   -13518468.774    21767336.327    21767339.074    21767336.589  
      1095.910         853.961          51.718          45.244  
 -18254367.289   -14208904.371    21322877.224    21322878.014    21322877.292  
      1980.863        1543.529          51.023          45.938  
  -9150756.198    -7117243.152    23225612.008    23225612.623    23225611.697  
     -2986.237       -2326.936          47.549          41.248  
  -3612072.753    -2768772.387    23688504.677    23688510.270    23688504.526  
     -3136.165       -2443.769          47.722          42.812  
  -5153061.749    -4006999.599    23901767.573    23901771.850    23901767.665  
      1963.685        1530.153          47.896          41.769  
 -14272105.277   -10866264.936    22319311.988    22319314.770    22319312.238  
      2996.791        2335.160          50.676          44.722  
 03  8  2  0 22 34.5000000  0  8G 1G 2G 3G13G16G20G27G31             0.000927236
 -24308953.154   -18930183.852    20459279.805    20459281.698    20459279.872  
       208.118         162.171          52.065          47.676  
 -14902112.355   -11583649.877    22144996.293    22144998.974    22144997.106  
     -1964.536       -1530.811          50.676          45.244  
 -17365291.900   -13519748.937    21767023.776    21767026.479    21767023.953  
      1094.757         853.065          51.718          45.244  
 -18257337.767   -14211219.027    21322311.761    21322312.781    21322312.055  
      1979.945        1542.807          51.023          45.938  
  -9146276.407    -7113752.404    23226464.406    23226466.383    23226464.179  
     -2986.603       -2327.225          47.549          41.248  
  -3607367.965    -2765106.328    23689399.929    23689404.880    23689399.553  
     -3136.621       -2444.112          47.722          42.638  
  -5156007.036    -4009294.630    23901207.620    23901211.248    23901207.246  
      1963.391        1529.922          47.896          41.769  
 -14276599.762   -10869767.131    22318456.645    22318460.021    22318457.017  
      2995.988        2334.536          50.676          44.722  
 03  8  2  0 22 36.0000000  0  8G 1G 2G 3G13G16G20G27G31             0.000927236
 -24309264.755   -18930426.657    20459220.385    20459222.381    20459220.604  
       207.434         161.641          52.065          47.676  
 -14899165.404   -11581353.553    22145556.922    22145559.861    22145557.864  
     -1964.670       -1530.905          50.676          45.244  
 -17366933.409   -13521028.032    21766711.333    21766713.843    21766711.477  
      1094.012         852.479          51.718          45.244  
 -18260307.264   -14213532.920    21321746.687    21321747.566    21321746.994  
      1979.443        1542.431          51.023          45.938  
  -9141796.267    -7110261.388    23227317.050    23227318.542    23227316.752  
     -2986.734       -2327.331          47.549          41.248  
  -3602662.929    -2761440.066    23690295.172    23690300.143    23690294.673  
     -3136.667       -2444.152          47.722          42.638  
  -5158952.356    -4011589.684    23900646.930    23900650.363    23900646.787  
      1963.580        1530.074          47.896          41.595  
 -14281093.531   -10873268.765    22317601.414    22317604.844    22317601.864  
      2995.675        2334.299          50.676          44.722  
 03  8  2  0 22 37.5000000  0  8G 1G 2G 3G13G16G20G27G31             0.000927236
 -24309575.205   -18930668.565    20459161.430    20459163.310    20459161.532  
       206.519         160.921          52.065          47.676  
 -14896218.114   -11579056.964    22146117.783    22146120.612    22146118.614  
     -1965.018       -1531.174          50.676          45.244  
 -17368573.700   -13522306.180    21766399.243    21766401.950    21766399.200  
      1093.048         851.726          51.718          45.244  
 -18263275.921   -14215846.153    21321181.873    21321182.811    21321182.068  
      1978.753        1541.876          51.023          45.938  
  -9137315.926    -7106770.206    23228169.729    23228170.982    23228169.265  
     -2987.099       -2327.625          47.549          41.074  
  -3597957.761    -2757773.705    23691190.620    23691195.330    23691189.892  
     -3136.925       -2444.344          47.722          42.812  
  -5161897.808    -4013884.836    23900086.583    23900090.121    23900086.293  
      1963.524        1530.013          47.896          41.769  
 -14285586.704   -10876769.938    22316746.499    22316749.376    22316746.842  
      2995.148        2333.884          50.676          44.722  
 03  8  2  0 22 39.0000000  0  8G 1G 2G 3G13G16G20G27G31             0.000927236
 -24309884.273   -18930909.395    20459102.483    20459104.626    20459102.710  
       205.670         160.262          52.065          47.676  
 -14893270.245   -11576759.922    22146678.875    22146681.664    22146679.439  
     -1965.315       -1531.417          50.676          45.244  
 -17370212.526   -13523583.180    21766087.291    21766090.323    21766087.227  
      1092.135         851.010          51.718          45.244  
 -18266243.475   -14218158.528    21320617.118    21320618.067    21320617.353  
      1978.102        1541.378          51.023          45.765  
  -9132835.145    -7103278.693    23229022.005    23229023.475    23229021.882  
     -2987.280       -2327.759          47.549          41.074  
  -3593252.235    -2754107.075    23692085.798    23692091.349    23692085.056  
     -3137.008       -2444.414          47.722          42.812  
  -5164843.152    -4016179.910    23899525.776    23899529.065    23899525.729  
      1963.603        1530.092          47.722          41.595  
 -14290079.024   -10880270.445    22315891.539    22315894.435    22315891.934  
      2994.682        2333.514          50.676          44.722  
 03  8  2  0 22 40.5000000  0  8G 1G 2G 3G13G16G20G27G31             0.000927236
 -24310192.377   -18931149.481    20459043.892    20459045.851    20459044.052  
       204.997         159.741          52.065          47.676  
 -14890322.211   -11574462.758    22147239.860    22147242.562    22147240.346  
     -1965.475       -1531.537          50.676          45.244  
 -17371850.286   -13524859.359    21765775.554    21765778.474    21765775.532  
      1091.398         850.438          51.718          45.244  
 -18269210.346   -14220470.380    21320052.427    21320053.756    21320052.730  
      1977.583        1540.978          51.023          45.938  
  -9128354.323    -7099787.138    23229874.511    23229876.966    23229874.485  
     -2987.329       -2327.800          47.549          41.074  
  -3588546.724    -2750440.449    23692981.362    23692986.740    23692980.336  
     -3137.067       -2444.458          47.722          42.812  
  -5167788.822    -4018475.241    23898965.451    23898968.494    23898964.929  
      1963.769        1530.215          47.722          41.595  
 -14294570.915   -10883770.620    22315036.624    22315039.490    22315037.077  
      2994.327        2333.240          50.676          44.722  
 03  8  2  0 22 42.0000000  0  8G 1G 2G 3G13G16G20G27G31             0.000927236
 -24310499.071   -18931388.459    20458985.726    20458987.439    20458985.730  
       203.925         158.899          52.065          47.676  
 -14887373.573   -11572165.119    22147801.042    22147803.530    22147801.421  
     -1966.028       -1531.967          50.676          45.244  
 -17373486.554   -13526134.368    21765464.133    21765467.228    21765464.146  
      1090.271         849.558          51.718          45.417  
 -18272176.098   -14222781.353    21319488.187    21319489.032    21319488.336  
      1976.718        1540.296          51.023          45.938  
  -9123873.046    -7096295.244    23230727.312    23230729.976    23230727.037  
     -2987.774       -2328.137          47.549          41.248  
  -3583840.813    -2746773.515    23693876.923    23693881.908    23693875.789  
     -3137.500       -2444.792          47.549          42.812  
  -5170734.343    -4020770.451    23898405.042    23898408.513    23898404.218  
      1963.509        1529.983          47.722          41.595  
 -14299061.930   -10887270.110    22314182.175    22314185.310    22314182.433  
      2993.634        2332.704          50.676          44.722  
 03  8  2  0 22 43.5000000  0  8G 1G 2G 3G13G16G20G27G31             0.000927236
 -24310804.644   -18931626.569    20458927.489    20458929.328    20458927.596  
       203.476         158.554          52.065          47.676  
 -14884424.618   -11569867.228    22148362.236    22148365.031    22148362.531  
     -1965.950       -1531.910          50.676          45.244  
 -17375121.621   -13527408.448    21765152.830    21765156.030    21765152.965  
      1089.778         849.179          51.718          45.417  
 -18275141.011   -14225091.673    21318923.943    21318924.510    21318924.043  
      1976.471        1540.108          51.023          45.765  
  -9119391.593    -7092803.203    23231580.002    23231582.995    23231579.757  
     -2987.563       -2327.965          47.549          41.074  
  -3579134.823    -2743106.510    23694772.505    23694777.267    23694771.473  
     -3137.192       -2444.560          47.549          42.812  
  -5173680.032    -4023065.786    23897844.348    23897847.992    23897843.461  
      1963.910        1530.324          47.722          41.595  
 -14303552.374   -10890769.151    22313327.583    22313330.757    22313327.862  
      2993.524        2332.612          50.676          44.722  
 03  8  2  0 22 45.0000000  0  8G 1G 2G 3G13G16G20G27G31             0.000927236
 -24311109.029   -18931863.755    20458869.584    20458871.469    20458869.656  
       202.334         157.660          52.065          47.676  
 -14881475.296   -11567569.059    22148923.385    22148925.919    22148923.825  
     -1966.518       -1532.350          50.676          45.244  
 -17376755.413   -13528681.532    21764841.945    21764845.141    21764842.023  
      1088.569         848.236          51.544          45.417  
 -18278105.028   -14227401.297    21318359.810    21318360.620    21318359.884  
      1975.526        1539.372          51.023          45.938  
  -9114909.883    -7089310.962    23232432.582    23232435.282    23232432.552  
     -2988.022       -2328.305          47.549          41.074  
  -3574428.627    -2739439.348    23695668.050    23695673.069    23695667.198  
     -3137.719       -2444.978          47.549          42.812  
  -5176625.820    -4025361.206    23897283.644    23897286.749    23897282.749  
      1963.596        1530.079          47.722          41.595  
 -14308042.180   -10894267.704    22312473.096    22312476.217    22312473.470  
      2992.805        2332.058          50.676          44.722  
 03  8  2  0 22 46.5000000  0  8G 1G 2G 3G13G16G20G27G31             0.000927235
 -24311412.164   -18932099.963    20458811.950    20458813.772    20458811.982  
       201.843         157.287          52.065          47.676  
 -14878525.516   -11565270.532    22149484.845    22149487.421    22149485.223  
     -1966.470       -1532.307          50.676          45.244  
 -17378387.874   -13529953.579    21764531.435    21764534.524    21764531.377  
      1088.014         847.802          51.544          45.244  
 -18281068.068   -14229710.155    21317795.957    21317796.834    21317795.936  
      1975.224        1539.139          51.023          45.765  
  -9110427.865    -7085818.482    23233285.917    23233288.448    23233285.393  
     -2988.040       -2328.337          47.549          41.248  
  -3569722.199    -2735772.007    23696563.655    23696568.818    23696562.843  
     -3137.575       -2444.850          47.549          42.812  
  -5179571.668    -4027656.674    23896723.032    23896726.394    23896722.283  
      1964.032        1530.411          47.722          41.769  
 -14312531.236   -10897765.665    22311619.012    22311622.004    22311619.143  
      2992.587        2331.881          50.676          44.722  
 03  8  2  0 22 48.0000000  0  8G 1G 2G 3G13G16G20G27G31             0.000927235
 -24311713.974   -18932335.141    20458754.464    20458756.475    20458754.613  
       200.962         156.597          52.065          47.676  
 -14875575.222   -11562971.600    22150046.309    22150048.729    22150046.676  
     -1966.816       -1532.586          50.676          45.244  
 -17380018.925   -13531224.527    21764221.038    21764223.948    21764221.032  
      1087.108         847.103          51.544          45.244  
 -18284030.071   -14232018.211    21317232.272    21317233.424    21317232.183  
      1974.513        1538.588          51.023          45.765  
  -9105945.457    -7082325.694    23234138.808    23234140.466    23234138.433  
     -2988.219       -2328.480          47.549          41.248  
  -3565015.464    -2732104.430    23697459.401    23697464.070    23697458.696  
     -3137.762       -2445.001          47.549          42.812  
  -5182517.447    -4029952.078    23896162.732    23896165.909    23896161.812  
      1964.006        1530.399          47.722          41.769  
 -14317019.511   -10901263.020    22310764.960    22310768.175    22310764.970  
      2992.076        2331.497          50.676          44.722  
 03  8  2  0 22 49.5000000  0  8G 1G 2G 3G13G16G20G27G31             0.000927235
 -24312014.689   -18932569.465    20458697.260    20458699.116    20458697.407  
       200.000         155.846          52.065          47.676  
 -14872624.634   -11560672.443    22150607.801    22150610.452    22150608.194  
     -1967.295       -1532.955          50.676          45.244  
 -17381648.806   -13532494.563    21763910.836    21763914.054    21763910.826  
      1086.065         846.286          51.544          45.244  
 -18286991.288   -14234325.656    21316668.874    21316669.670    21316668.594  
      1973.759        1537.996          51.023          45.938  
  -9101462.925    -7078832.818    23234991.824    23234993.614    23234991.531  
     -2988.506       -2328.684          47.549          41.074  
  -3560308.654    -2728436.796    23698355.173    23698359.867    23698354.501  
     -3138.049       -2445.226          47.549          42.812  
  -5185463.437    -4032247.648    23895601.951    23895605.474    23895601.185  
      1963.857        1530.263          47.722          41.595  
 -14321507.237   -10904759.955    22309910.776    22309914.138    22309910.868  
      2991.487        2331.032          50.676          44.896  
 03  8  2  0 22 51.0000000  0  8G 1G 2G 3G13G16G20G27G31             0.000927235
 -24312314.188   -18932802.842    20458640.315    20458642.255    20458640.460  
       199.210         155.231          52.065          47.676  
 -14869673.655   -11558372.982    22151169.364    22151171.671    22151169.761  
     -1967.503       -1533.119          50.676          45.244  
 -17383277.379   -13533763.577    21763600.894    21763604.012    21763600.913  
      1085.247         845.643          51.544          45.244  
 -18289951.574   -14236632.375    21316105.540    21316106.352    21316105.228  
      1973.168        1537.533          51.023          45.765  
  -9096980.094    -7075339.706    23235844.581    23235846.333    23235844.556  
     -2988.667       -2328.825          47.722          41.248  
  -3555601.641    -2724768.999    23699251.046    23699255.843    23699250.389  
     -3138.132       -2445.287          47.549          42.812  
  -5188409.476    -4034543.268    23895041.497    23895044.173    23895040.829  
      1963.961        1530.352          47.722          41.769  
 -14325994.295   -10908256.361    22309056.947    22309060.316    22309056.827  
      2991.104        2330.724          50.676          44.722  
 03  8  2  0 22 52.5000000  0  8G 1G 2G 3G13G16G20G27G31             0.000927235
 -24312612.334   -18933035.161    20458583.582    20458585.369    20458583.805  
       198.544         154.715          52.065          47.676  
 -14866722.120   -11556073.084    22151730.993    22151733.469    22151731.451  
     -1967.587       -1533.186          50.676          45.244  
 -17384904.508   -13535031.466    21763291.414    21763294.339    21763291.257  
      1084.491         845.060          51.544          45.417  
 -18292910.793   -14238938.257    21315542.425    21315543.194    21315542.106  
      1972.695        1537.170          51.023          45.938  
  -9092496.872    -7071846.289    23236697.559    23236700.381    23236697.703  
     -2988.723       -2328.871          47.722          41.248  
  -3550894.294    -2721100.935    23700146.921    23700152.200    23700146.245  
     -3138.103       -2445.271          47.549          42.812  
  -5191355.435    -4036838.810    23894480.752    23894483.519    23894480.470  
      1964.030        1530.409          47.722          41.769  
 -14330480.531   -10911752.125    22308203.251    22308206.418    22308203.041  
      2990.761        2330.467          50.676          44.722  
 03  8  2  0 22 54.0000000  0  8G 1G 2G 3G13G16G20G27G31             0.000927235
 -24312909.379   -18933266.625    20458527.033    20458528.931    20458527.352  
       197.459         153.862          52.065          47.676  
 -14863770.283   -11553772.952    22152292.574    22152295.480    22152293.192  
     -1968.164       -1533.631          50.676          45.244  
 -17386530.442   -13536298.430    21762981.915    21762985.029    21762981.846  
      1083.378         844.190          51.544          45.244  
 -18295869.198   -14241243.508    21314979.446    21314980.469    21314979.105  
      1971.821        1536.483          51.023          45.938  
  -9088013.488    -7068352.747    23237551.011    23237552.781    23237550.808  
     -2989.190       -2329.231          47.722          41.248  
  -3546186.820    -2717432.780    23701042.670    23701047.545    23701042.178  
     -3138.596       -2445.652          47.549          42.812  
  -5194301.553    -4039134.490    23893920.073    23893923.860    23893919.928  
      1963.900        1530.313          47.722          41.769  
 -14334966.176   -10915247.435    22307349.677    22307353.191    22307349.424  
      2990.016        2329.877          50.676          44.896  
 03  8  2  0 22 55.5000000  0  8G 1G 2G 3G13G16G20G27G31             0.000927235
 -24313205.262   -18933497.183    20458470.578    20458472.610    20458471.102  
       196.944         153.467          52.065          47.676  
 -14860818.094   -11551472.547    22152854.433    22152857.176    22152854.979  
     -1968.169       -1533.636          50.676          45.244  
 -17388155.141   -13537564.430    21762672.736    21762675.782    21762672.664  
      1082.800         843.745          51.544          45.417  
 -18298826.729   -14243548.076    21314416.741    21314417.387    21314416.274  
      1971.473        1536.221          51.023          45.765  
  -9083529.886    -7064859.032    23238404.462    23238406.343    23238403.991  
     -2989.065       -2329.135          47.722          41.248  
  -3541479.241    -2713764.543    23701938.588    23701943.029    23701938.212  
     -3138.453       -2445.539          47.549          42.985  
  -5197247.822    -4041430.285    23893359.436    23893362.811    23893359.292  
      1964.243        1530.588          47.722          41.595  
 -14339451.221   -10918742.273    22306496.161    22306499.419    22306496.000  
      2989.897        2329.800          50.676          44.722  
 03  8  2  0 22 57.0000000  0  8G 1G 2G 3G13G16G20G27G31             0.000927235
 -24313499.716   -18933726.626    20458414.540    20458416.519    20458415.088  
       195.835         152.599          52.065          47.676  
 -14857865.309   -11549171.671    22153416.313    22153418.812    22153416.843  
     -1968.698       -1534.052          50.676          45.244  
 -17389778.317   -13538829.240    21762363.878    21762366.848    21762363.750  
      1081.614         842.820          51.544          45.244  
 -18301783.125   -14245851.758    21313854.127    21313854.790    21313853.655  
      1970.551        1535.489          51.023          45.938  
  -9079045.800    -7061364.941    23239257.526    23239260.002    23239257.340  
     -2989.530       -2329.491          47.722          41.422  
  -3536771.240    -2710095.970    23702834.275    23702839.697    23702834.256  
     -3138.830       -2445.844          47.549          42.812  
  -5200193.927    -4043725.942    23892798.926    23892802.115    23892798.522  
      1963.925        1530.327          47.722          41.595  
 -14343935.355   -10922236.402    22305642.933    22305646.107    22305642.696  
      2989.096        2329.171          50.676          44.722  
 03  8  2  0 22 58.5000000  0  8G 1G 2G 3G13G16G20G27G31             0.000927234
 -24313793.148   -18933955.277    20458358.733    20458360.573    20458359.345  
       194.991         151.932          52.065          47.676  
 -14854912.287   -11546870.618    22153978.027    22153980.710    22153978.716  
     -1969.021       -1534.306          50.676          45.244  
 -17391400.390   -13540093.190    21762055.539    21762058.313    21762055.067  
      1080.710         842.101          51.544          45.417  
 -18304738.784   -14248154.871    21313291.625    21313292.616    21313291.194  
      1969.899        1534.972          51.023          45.938  
  -9074561.623    -7057870.780    23240111.314    23240113.727    23240110.707  
     -2989.761       -2329.685          47.722          41.248  
  -3532063.212    -2706427.380    23703729.930    23703734.991    23703730.192  
     -3138.970       -2445.951          47.549          42.812  
  -5203140.294    -4046021.815    23892238.098    23892241.315    23892237.788  
      1963.969        1530.372          47.722          41.595  
 -14348419.010   -10925730.158    22304789.720    22304792.918    22304789.543  
      2988.627        2328.801          50.676          44.896  
 03  8  2  0 23  0.0000000  0  8G 1G 2G 3G13G16G20G27G31             0.000927234
 -24314085.301   -18934182.932    20458303.205    20458305.263    20458303.790  
       194.304         151.407          52.065          47.676  
 -14851958.800   -11544569.204    22154540.137    22154542.828    22154540.616  
     -1969.178       -1534.423          50.676          45.244  
 -17393021.093   -13541356.079    21761747.309    21761749.924    21761746.647  
      1079.977         841.542          51.544          45.417  
 -18307693.437   -14250457.202    21312729.463    21312730.248    21312728.907  
      1969.425        1534.621          51.023          45.765  
  -9070077.123    -7054376.364    23240964.456    23240967.471    23240964.134  
     -2989.831       -2329.734          47.722          41.248  
  -3527354.928    -2702758.592    23704625.762    23704631.063    23704626.036  
     -3138.966       -2445.940          47.549          42.812  
  -5206086.665    -4048317.691    23891677.521    23891680.274    23891677.133  
      1964.143        1530.496          47.722          41.595  
 -14352901.913   -10929223.332    22303936.591    22303940.016    22303936.561  
      2988.287        2328.537          50.676          44.722  
 03  8  2  0 23  1.5000000  0  8G 1G 2G 3G13G16G20G27G31             0.000927234
 -24314376.169   -18934409.580    20458247.932    20458249.868    20458248.432  
       193.784         151.004          52.065          47.676  
 -14849004.829   -11542267.405    22155102.270    22155104.891    22155102.508  
     -1969.173       -1534.413          50.676          45.417  
 -17394640.433   -13542617.899    21761439.212    21761441.796    21761438.548  
      1079.391         841.089          51.544          45.417  
 -18310647.106   -14252758.756    21312167.295    21312168.057    21312166.797  
      1969.094        1534.365          51.023          45.938  
  -9065592.287    -7050881.691    23241818.013    23241820.121    23241817.590  
     -2989.644       -2329.583          47.722          41.422  
  -3522646.369    -2699089.593    23705522.515    23705527.129    23705522.074  
     -3138.843       -2445.846          47.722          42.812  
  -5209033.050    -4050613.570    23891116.866    23891119.888    23891116.317  
      1964.425        1530.729          47.722          41.769  
 -14357384.062   -10932715.907    22303083.692    22303086.987    22303083.642  
      2988.121        2328.404          50.676          44.896  
 03  8  2  0 23  3.0000000  0  8G 1G 2G 3G13G16G20G27G31             0.000927234
 -24314665.844   -18934635.300    20458192.779    20458194.543    20458193.254  
       192.708         150.157          52.065          47.676  
 -14846050.490   -11539965.327    22155664.393    22155667.100    22155664.512  
     -1969.653       -1534.791          50.676          45.244  
 -17396258.498   -13543878.728    21761131.172    21761133.883    21761130.724  
      1078.272         840.213          51.544          45.417  
 -18313599.868   -14255059.610    21311605.573    21311606.223    21311604.839  
      1968.200        1533.659          51.023          45.938  
  -9061107.202    -7047386.823    23242672.040    23242673.969    23242671.164  
     -2990.179       -2330.013          47.722          41.422  
  -3517937.640    -2695420.458    23706418.589    23706422.978    23706418.266  
     -3139.150       -2446.095          47.722          42.812  
  -5211979.493    -4052909.502    23890556.003    23890558.843    23890555.431  
      1964.255        1530.586          47.722          41.769  
 -14361865.553   -10936207.976    22302230.941    22302234.503    22302230.839  
      2987.443        2327.875          50.676          44.896  
 03  8  2  0 23  4.5000000  0  8G 1G 2G 3G13G16G20G27G31             0.000927234
 -24314954.329   -18934860.094    20458137.833    20458139.855    20458138.325  
       192.047         149.649          52.065          47.676  
 -14843095.758   -11537662.941    22156226.534    22156229.554    22156226.609  
     -1969.795       -1534.907          50.676          45.244  
 -17397875.284   -13545138.560    21760823.644    21760826.301    21760823.207  
      1077.570         839.672          51.718          45.417  
 -18316551.727   -14257359.756    21311043.859    21311044.354    21311043.103  
      1967.748        1533.307          51.023          45.938  
  -9056621.874    -7043891.769    23243525.344    23243527.924    23243524.918  
     -2990.212       -2330.021          47.722          41.422  
  -3513228.757    -2691751.200    23707314.849    23707319.088    23707314.730  
     -3139.167       -2446.108          47.722          42.812  
  -5214926.067    -4055205.533    23889995.357    23889998.536    23889994.673  
      1964.443        1530.743          47.722          41.769  
 -14366346.392   -10939699.536    22301378.021    22301381.629    22301378.160  
      2987.094        2327.602          50.676          44.896  
 03  8  2  0 23  6.0000000  0  8G 1G 2G 3G13G16G20G27G31             0.000927234
 -24315241.554   -18935083.905    20458083.019    20458085.144    20458083.624  
       191.076         148.891          52.065          47.676  
 -14840140.590   -11535360.212    22156788.877    22156792.023    22156788.801  
     -1970.229       -1535.241          50.676          45.244  
 -17399490.720   -13546397.335    21760516.313    21760519.015    21760515.948  
      1076.500         838.834          51.718          45.417  
 -18319502.609   -14259659.142    21310482.170    21310482.775    21310481.507  
      1966.950        1532.687          51.023          45.938  
  -9052136.227    -7040396.457    23244379.256    23244381.049    23244378.690  
     -2990.569       -2330.308          47.722          41.422  
  -3508519.628    -2688081.747    23708211.215    23708215.373    23708211.046  
     -3139.472       -2446.341          47.722          42.812  
  -5217872.625    -4057501.548    23889434.673    23889438.345    23889434.081  
      1964.341        1530.652          47.722          41.595  
 -14370826.511   -10943190.529    22300525.372    22300528.837    22300525.609  
      2986.479        2327.118          50.676          44.896  
 03  8  2  0 23  7.5000000  0  8G 1G 2G 3G13G16G20G27G31             0.000927234
 -24315527.611   -18935306.808    20458028.838    20458030.502    20458029.164  
       190.106         148.124          52.065          47.676  
 -14837185.057   -11533057.201    22157351.387    22157354.188    22157351.087  
     -1970.679       -1535.608          50.676          45.417  
 -17401104.894   -13547655.135    21760208.966    21760211.413    21760208.907  
      1075.494         838.043          51.718          45.417  
 -18322452.611   -14261957.844    21309920.776    21309921.477    21309920.132  
      1966.148        1532.045          51.023          45.938  
  -9047650.374    -7036900.988    23245232.757    23245235.199    23245232.577  
     -2990.843       -2330.541          47.722          41.422  
  -3503810.337    -2684412.173    23709107.032    23709111.397    23709107.338  
     -3139.790       -2446.592          47.722          42.812  
  -5220819.328    -4059797.681    23888874.035    23888877.201    23888873.264  
      1964.237        1530.553          47.722          41.595  
 -14375305.983   -10946681.027    22299673.165    22299676.332    22299673.200  
      2985.875        2326.641          50.676          44.896  
 03  8  2  0 23  9.0000000  0  8G 1G 2G 3G13G16G20G27G31             0.000927234
 -24315812.438   -18935528.753    20457974.711    20457976.498    20457974.961  
       189.425         147.600          52.065          47.676  
 -14834229.107   -11530753.870    22157913.902    22157916.992    22157913.515  
     -1970.792       -1535.678          50.676          45.244  
 -17402717.761   -13548911.918    21759902.020    21759904.699    21759902.055  
      1074.738         837.450          51.718          45.417  
 -18325401.674   -14264255.816    21309359.713    21309360.612    21309358.896  
      1965.671        1531.687          51.023          45.765  
  -9043164.222    -7033405.289    23246086.367    23246088.194    23246086.269  
     -2990.944       -2330.606          47.722          41.595  
  -3499100.849    -2680742.450    23710003.122    23710007.606    23710003.616  
     -3139.784       -2446.584          47.722          42.985  
  -5223766.077    -4062093.841    23888313.712    23888316.183    23888312.679  
      1964.370        1530.663          47.722          41.422  
 -14379784.768   -10950170.990    22298820.761    22298824.380    22298820.939  
      2985.535        2326.382          50.676          44.896  
 03  8  2  0 23 10.5000000  0  8G 1G 2G 3G13G16G20G27G31             0.000927234
 -24316096.086   -18935749.778    20457920.589    20457922.326    20457920.934  
       188.735         147.064          52.065          47.676  
 -14831272.791   -11528450.252    22158476.855    22158479.672    22158476.167  
     -1970.981       -1535.834          50.676          45.417  
 -17404329.362   -13550167.712    21759595.503    21759598.189    21759595.467  
      1074.005         836.885          51.718          45.417  
 -18328349.845   -14266553.098    21308798.699    21308799.353    21308797.882  
      1965.153        1531.291          51.023          45.765  
  -9038677.849    -7029909.422    23246940.097    23246942.395    23246940.126  
     -2990.926       -2330.591          47.722          41.422  
  -3494391.198    -2677072.602    23710898.999    23710903.837    23710899.948  
     -3139.763       -2446.568          47.722          42.985  
  -5226712.898    -4064390.070    23887752.699    23887754.815    23887752.066  
      1964.549        1530.809          47.722          41.595  
 -14384262.902   -10953660.445    22297968.665    22297972.205    22297968.797  
      2985.221        2326.148          50.676          44.896  
 03  8  2  0 23 12.0000000  0  8G 1G 2G 3G13G16G20G27G31             0.000927234
 -24316378.406   -18935969.765    20457866.677    20457868.546    20457867.146  
       187.877         146.394          52.065          47.676  
 -14828315.966   -11526146.227    22159039.225    22159042.323    22159038.889  
     -1971.246       -1536.036          50.676          45.244  
 -17405939.548   -13551422.397    21759289.088    21759291.599    21759289.213  
      1073.089         836.170          51.718          45.244  
 -18331296.974   -14268849.558    21308237.956    21308238.361    21308237.139  
      1964.532        1530.795          51.023          45.938  
  -9034191.086    -7026413.234    23247793.606    23247796.010    23247793.898  
     -2991.261       -2330.882          47.722          41.422  
  -3489681.241    -2673402.506    23711795.783    23711799.980    23711796.368  
     -3139.969       -2446.730          47.722          42.812  
  -5229659.709    -4066686.292    23887192.008    23887194.677    23887191.495  
      1964.533        1530.794          47.722          41.595  
 -14388740.236   -10957149.280    22297116.696    22297120.177    22297116.712  
      2984.698        2325.741          50.676          44.896  
 03  8  2  0 23 13.5000000  0  8G 1G 2G 3G13G16G20G27G31             0.000927234
 -24316659.575   -18936188.860    20457813.211    20457815.354    20457813.583  
       187.086         145.781          52.065          47.676  
 -14825358.801   -11523841.945    22159602.010    22159604.860    22159601.777  
     -1971.526       -1536.249          50.676          45.244  
 -17407548.495   -13552676.125    21758983.028    21758985.514    21758983.145  
      1072.227         835.508          51.718          45.417  
 -18334243.241   -14271145.353    21307677.414    21307677.868    21307676.555  
      1963.890        1530.302          51.023          45.765  
  -9029704.148    -7022916.930    23248647.738    23248650.482    23248647.662  
     -2991.360       -2330.920          47.722          41.595  
  -3484971.172    -2669732.330    23712691.998    23712696.464    23712692.964  
     -3140.034       -2446.762          47.722          42.985  
  -5232606.671    -4068982.621    23886631.132    23886634.069    23886630.752  
      1964.546        1530.809          47.722          41.595  
 -14393216.959   -10960637.629    22296264.695    22296268.189    22296264.702  
      2984.258        2325.396          50.676          44.896  
 03  8  2  0 23 15.0000000  0  8G 1G 2G 3G13G16G20G27G31             0.000927234
 -24316939.397   -18936406.900    20457760.161    20457762.001    20457760.273  
       186.053         144.976          52.065          47.676  
 -14822401.096   -11521537.236    22160164.923    22160167.717    22160164.729  
     -1971.992       -1536.621          50.676          45.244  
 -17409156.013   -13553928.733    21758677.133    21758679.535    21758677.339  
      1071.157         834.664          51.718          45.417  
 -18337188.431   -14273440.303    21307116.783    21307117.225    21307116.164  
      1963.040        1529.638          51.023          45.765  
  -9025216.815    -7019420.299    23249501.514    23249503.860    23249501.538  
     -2991.705       -2331.207          47.896          41.595  
  -3480260.750    -2666061.876    23713588.105    23713593.051    23713589.352  
     -3140.426       -2447.082          47.722          42.812  
  -5235553.549    -4071278.884    23886070.244    23886073.043    23886070.291  
      1964.453        1530.749          47.722          41.595  
 -14397692.872   -10964125.350    22295413.055    22295416.580    22295412.795  
      2983.594        2324.873          50.676          44.896  
 03  8  2  0 23 16.5000000  0  8G 1G 2G 3G13G16G20G27G31             0.000927234
 -24317218.161   -18936624.122    20457706.985    20457708.869    20457707.202  
       185.246         144.342          52.065          47.676  
 -14819443.156   -11519232.350    22160727.903    22160730.465    22160727.744  
     -1972.272       -1536.842          50.676          45.244  
 -17410762.388   -13555180.453    21758371.405    21758373.968    21758371.743  
      1070.306         833.994          51.718          45.417  
 -18340132.875   -14275734.673    21306556.462    21306557.044    21306555.844  
      1962.455        1529.177          51.023          45.765  
  -9020729.365    -7015923.592    23250355.428    23250357.438    23250355.606  
     -2991.891       -2331.343          47.896          41.595  
  -3475550.307    -2662391.404    23714484.627    23714489.045    23714485.741  
     -3140.596       -2447.222          47.896          42.812  
  -5238500.635    -4073575.315    23885509.782    23885511.911    23885509.791  
      1964.523        1530.788          47.722          41.595  
 -14402168.252   -10967612.658    22294561.321    22294564.886    22294561.038  
      2983.174        2324.545          50.676          44.896  
 03  8  2  0 23 18.0000000  0  8G 1G 2G 3G13G16G20G27G31             0.000927234
 -24317495.622   -18936840.325    20457654.067    20457656.025    20457654.434  
       184.359         143.652          52.065          47.676  
 -14816484.715   -11516927.070    22161290.916    22161293.519    22161290.852  
     -1972.620       -1537.104          50.676          45.244  
 -17412367.373   -13556431.090    21758066.019    21758068.226    21758066.367  
      1069.356         833.276          51.718          45.417  
 -18343076.281   -14278028.236    21305996.377    21305996.954    21305995.815  
      1961.762        1528.647          51.023          45.765  
  -9016241.576    -7012426.613    23251209.627    23251212.461    23251209.671  
     -2992.168       -2331.550          47.896          41.595  
  -3470839.589    -2658720.716    23715381.037    23715385.038    23715382.339  
     -3140.734       -2447.319          47.896          42.985  
  -5241447.698    -4075871.723    23884948.929    23884951.263    23884949.198  
      1964.450        1530.749          47.722          41.769  
 -14406642.866   -10971099.366    22293709.855    22293713.279    22293709.488  
      2982.625        2324.122          50.676          44.896  
 03  8  2  0 23 19.5000000  0  8G 1G 2G 3G13G16G20G27G31             0.000927234
 -24317771.944   -18937055.639    20457601.579    20457603.686    20457601.869  
       184.065         143.437          52.065          47.676  
 -14813525.955   -11514621.546    22161854.113    22161856.455    22161854.010  
     -1972.386       -1536.919          50.676          45.417  
 -17413971.128   -13557680.769    21757760.714    21757763.254    21757761.224  
      1068.981         832.982          51.718          45.417  
 -18346018.838   -14280321.142    21305436.570    21305436.925    21305435.974  
      1961.637        1528.557          51.023          45.765  
  -9011753.572    -7008929.472    23252063.587    23252065.821    23252063.950  
     -2991.889       -2331.335          47.896          41.422  
  -3466128.744    -2655049.928    23716277.759    23716281.886    23716278.879  
     -3140.389       -2447.060          47.896          42.985  
  -5244394.910    -4078168.249    23884388.122    23884391.002    23884388.621  
      1965.019        1531.189          47.722          41.595  
 -14411116.865   -10974585.597    22292858.341    22292862.219    22292858.124  
      2982.661        2324.153          50.676          44.896  
 03  8  2  0 23 21.0000000  0  8G 1G 2G 3G13G16G20G27G31             0.000927234
 -24318046.961   -18937269.940    20457549.298    20457551.118    20457549.536  
       182.688         142.352          52.065          47.676  
 -14810566.705   -11512315.635    22162417.189    22162419.780    22162417.303  
     -1973.194       -1537.560          50.676          45.417  
 -17415573.499   -13558929.370    21757455.666    21757458.133    21757456.284  
      1067.557         831.865          51.718          45.417  
 -18348960.379   -14282613.252    21304876.868    21304877.356    21304876.339  
      1960.492        1527.656          51.023          45.765  
  -9007265.231    -7005432.064    23252918.035    23252919.962    23252918.345  
     -2992.611       -2331.894          47.896          41.595  
  -3461417.633    -2651378.942    23717174.192    23717178.133    23717175.419  
     -3141.038       -2447.535          47.896          42.985  
  -5247342.110    -4080464.769    23883827.544    23883830.474    23883827.897  
      1964.519        1530.789          47.722          41.595  
 -14415590.096   -10978071.230    22292007.405    22292010.389    22292006.938  
      2981.664        2323.375          50.676          44.896  
 03  8  2  0 23 22.5000000  0  8G 1G 2G 3G13G16G20G27G31             0.000927234
 -24318320.836   -18937483.350    20457497.085    20457498.981    20457497.451  
       182.127         141.916          52.065          47.676  
 -14807607.133   -11510009.478    22162980.285    22162983.121    22162980.676  
     -1973.252       -1537.603          50.676          45.417  
 -17417174.645   -13560177.012    21757150.801    21757153.555    21757151.522  
      1066.911         831.355          51.718          45.244  
 -18351901.061   -14284904.691    21304317.247    21304317.626    21304316.843  
      1960.063        1527.320          51.023          45.765  
  -9002776.704    -7001934.512    23253772.281    23253774.333    23253772.587  
     -2992.486       -2331.800          47.896          41.595  
  -3456706.391    -2647707.847    23718070.405    23718074.833    23718071.784  
     -3140.902       -2447.446          47.896          42.985  
  -5250289.466    -4082761.410    23883266.572    23883268.957    23883267.048  
      1964.790        1531.010          47.722          41.595  
 -14420062.718   -10981556.390    22291156.157    22291159.988    22291155.870  
      2981.477        2323.233          50.676          44.896  
 03  8  2  0 23 24.0000000  0  8G 1G 2G 3G13G16G20G27G31             0.000927234
 -24318593.348   -18937695.697    20457445.237    20457447.145    20457445.627  
       181.539         141.467          52.065          47.676  
 -14804647.021   -11507702.898    22163543.540    22163546.375    22163544.198  
     -1973.249       -1537.590          50.676          45.417  
 -17418774.348   -13561423.531    21756846.519    21756849.199    21756847.048  
      1066.285         830.876          51.718          45.417  
 -18354840.679   -14287195.303    21303757.837    21303758.117    21303757.550  
      1959.719        1527.067          51.023          45.938  
  -8998287.760    -6998436.633    23254626.255    23254627.904    23254626.759  
     -2992.448       -2331.767          47.896          41.422  
  -3451994.816    -2644036.499    23718967.040    23718971.657    23718968.393  
     -3140.868       -2447.423          47.896          42.985  
  -5253236.756    -4085057.998    23882705.586    23882708.002    23882706.173  
      1965.046        1531.203          47.722          41.595  
 -14424534.507   -10985040.894    22290305.363    22290308.900    22290304.935  
      2981.236        2323.045          50.676          44.896  
 03  8  2  0 23 25.5000000  0  8G 1G 2G 3G13G16G20G27G31             0.000927234
 -24318864.751   -18937907.183    20457393.738    20457395.578    20457393.997  
       180.657         140.777          52.065          47.676  
 -14801686.606   -11505396.084    22164106.962    22164109.522    22164107.714  
     -1973.604       -1537.868          50.676          45.417  
 -17420372.860   -13562669.126    21756542.151    21756544.915    21756542.730  
      1065.394         830.173          51.718          45.417  
 -18357779.476   -14289485.272    21303198.490    21303199.005    21303198.357  
      1958.999        1526.482          51.023          45.765  
  -8993798.682    -6994938.651    23255480.074    23255482.160    23255481.055  
     -2992.663       -2331.959          47.896          41.422  
  -3447283.157    -2640365.077    23719863.513    23719868.516    23719864.876  
     -3141.047       -2447.580          47.896          42.985  
  -5256184.205    -4087354.710    23882144.808    23882147.766    23882145.206  
      1965.010        1531.191          47.722          41.422  
 -14429005.725   -10988524.961    22289454.455    22289457.771    22289454.135  
      2980.682        2322.616          50.676          44.896  
 03  8  2  0 23 27.0000000  0  8G 1G 2G 3G13G16G20G27G31             0.000927234
 -24319134.888   -18938117.678    20457342.258    20457344.048    20457342.667  
       179.514         139.879          52.065          47.676  
 -14798725.751   -11503088.925    22164670.252    22164672.620    22164671.201  
     -1974.173       -1538.323          50.676          45.417  
 -17421969.997   -13563913.648    21756238.099    21756241.329    21756238.619  
      1064.134         829.197          51.718          45.417  
 -18360717.285   -14291774.473    21302639.413    21302640.312    21302639.349  
      1958.061        1525.762          51.023          45.765  
  -8989309.251    -6991440.389    23256334.705    23256336.759    23256335.422  
     -2993.240       -2332.399          47.896          41.422  
  -3442571.249    -2636693.471    23720760.651    23720764.484    23720761.363  
     -3141.506       -2447.923          47.896          42.985  
  -5259131.697    -4089651.459    23881583.714    23881586.324    23881584.335  
      1964.820        1531.041          47.722          41.595  
 -14433476.191   -10992008.438    22288603.689    22288607.234    22288603.407  
      2979.860        2321.968          50.676          44.896  
 03  8  2  0 23 28.5000000  0  8G 1G 2G 3G13G16G20G27G31             0.000927234
 -24319403.770   -18938327.198    20457291.066    20457292.871    20457291.517  
       178.992         139.478          52.065          47.676  
 -14795764.448   -11500781.416    22165233.850    22165236.418    22165234.758  
     -1974.178       -1538.323          50.676          45.244  
 -17423565.811   -13565157.139    21755934.285    21755937.465    21755934.849  
      1063.595         828.781          51.718          45.244  
 -18363654.131   -14294062.921    21302080.663    21302081.208    21302080.470  
      1957.747        1525.520          51.023          45.765  
  -8984819.548    -6987941.935    23257188.928    23257190.584    23257189.774  
     -2993.102       -2332.271          47.896          41.422  
  -3437859.120    -2633021.681    23721657.097    23721661.613    23721657.820  
     -3141.286       -2447.754          47.896          42.812  
  -5262079.211    -4091948.222    23881022.900    23881025.564    23881023.259  
      1964.973        1531.140          47.722          41.422  
 -14437945.937   -10995491.353    22287753.038    22287756.389    22287752.876  
      2979.715        2321.862          50.676          44.896  
 03  8  2  0 23 30.0000000  0  8G 1G 2G 3G13G16G20G27G31             0.000927234
 -24319671.470   -18938535.796    20457240.136    20457242.040    20457240.574  
       177.801         138.544          52.065          47.676  
 -14792802.783   -11498473.625    22165797.396    22165800.030    22165798.350  
     -1974.846       -1538.848          50.676          45.244  
 -17425160.335   -13566399.622    21755630.727    21755634.069    21755631.348  
      1062.290         827.752          51.718          45.417  
 -18366590.065   -14296350.661    21301521.917    21301522.336    21301521.805  
      1956.723        1524.711          51.023          45.765  
  -8980329.598    -6984443.276    23258043.068    23258044.853    23258044.212  
     -2993.666       -2332.737          47.896          41.422  
  -3433146.822    -2629349.771    23722553.630    23722558.203    23722554.467  
     -3141.870       -2448.200          47.896          42.985  
  -5265026.846    -4094245.080    23880462.192    23880465.136    23880462.263  
      1964.743        1530.959          47.722          41.595  
 -14442415.018   -10998973.752    22286902.731    22286905.947    22286902.475  
      2978.877        2321.197          50.676          44.896  
 03  8  2  0 23 31.5000000  0  8G 1G 2G 3G13G16G20G27G31             0.000927234
 -24319937.980   -18938743.468    20457189.391    20457191.441    20457189.891  
       177.107         138.003          52.065          47.676  
 -14789840.756   -11496165.552    22166360.938    22166363.624    22166362.009  
     -1974.946       -1538.923          50.676          45.244  
 -17426753.594   -13567641.124    21755327.684    21755330.782    21755328.094  
      1061.589         827.209          51.718          45.417  
 -18369525.116   -14298637.712    21300963.291    21300964.075    21300963.364  
      1956.264        1524.363          51.023          45.765  
  -8975839.434    -6980944.452    23258897.811    23258899.064    23258898.649  
     -2993.647       -2332.728          47.896          41.248  
  -3428434.373    -2625677.741    23723450.767    23723455.152    23723451.175  
     -3141.839       -2448.187          47.896          42.985  
  -5267974.551    -4096541.995    23879901.014    23879903.652    23879901.231  
      1964.970        1531.128          47.722          41.422  
 -14446883.456   -11002455.650    22286052.626    22286055.445    22286052.153  
      2978.568        2320.967          50.676          44.896  
 03  8  2  0 23 33.0000000  0  8G 1G 2G 3G13G16G20G27G31             0.000927234
 -24320203.173   -18938950.111    20457138.964    20457140.891    20457139.432  
       176.691         137.685          52.065          47.676  
 -14786878.217   -11493857.079    22166924.601    22166927.533    22166925.817  
     -1974.853       -1538.844          50.676          45.417  
 -17428345.437   -13568881.521    21755024.615    21755027.759    21755025.131  
      1061.080         826.826          51.718          45.417  
 -18372459.114   -14300923.943    21300405.020    21300405.559    21300405.081  
      1955.984        1524.151          51.023          45.765  
  -8971348.886    -6977445.321    23259752.076    23259754.011    23259753.232  
     -2993.513       -2332.594          47.896          41.248  
  -3423721.627    -2622005.476    23724347.457    23724351.765    23724348.072  
     -3141.571       -2447.966          47.896          42.985  
  -5270922.244    -4098838.893    23879339.852    23879343.011    23879340.280  
      1965.343        1531.438          47.722          41.595  
 -14451351.093   -11005936.923    22285202.265    22285205.604    22285201.999  
      2978.478        2320.900          50.676          44.896  
 03  8  2  0 23 34.5000000  0  8G 1G 2G 3G13G16G20G27G31             0.000927234
 -24320467.191   -18939155.841    20457088.684    20457090.688    20457089.204  
       175.878         137.048          52.065          47.676  
 -14783915.331   -11491548.343    22167488.796    22167491.444    22167489.687  
     -1975.133       -1539.052          50.676          45.417  
 -17429936.031   -13570120.943    21754721.905    21754725.292    21754722.349  
      1060.214         826.140          51.718          45.417  
 -18375392.232   -14303209.491    21299846.847    21299847.485    21299847.008  
      1955.362        1523.654          51.023          45.765  
  -8966858.151    -6973946.046    23260607.102    23260608.940    23260607.839  
     -2993.679       -2332.733          47.896          41.422  
  -3419008.736    -2618333.095    23725244.361    23725248.404    23725244.875  
     -3141.722       -2448.087          48.070          42.812  
  -5273870.032    -4101135.877    23878778.927    23878782.188    23878779.280  
      1965.420        1531.502          47.722          41.595  
 -14455818.107   -11009417.710    22284352.334    22284355.424    22284351.921  
      2978.031        2320.546          50.676          44.722  
 03  8  2  0 23 36.0000000  0  8G 1G 2G 3G13G16G20G27G31             0.000927234
 -24320729.989   -18939360.620    20457038.699    20457040.633    20457039.198  
       174.721         136.145          52.065          47.676  
 -14780952.057   -11489239.298    22168052.508    22168055.405    22168053.510  
     -1975.690       -1539.506          50.676          45.244  
 -17431525.318   -13571359.346    21754419.356    21754422.771    21754419.849  
      1059.042         825.228          51.718          45.417  
 -18378324.408   -14305494.301    21299289.081    21299289.380    21299289.143  
      1954.420        1522.923          51.023          45.765  
  -8962367.144    -6970446.565    23261461.310    23261462.829    23261462.439  
     -2994.101       -2333.061          47.896          41.422  
  -3414295.660    -2614660.572    23726141.269    23726145.663    23726141.812  
     -3142.159       -2448.437          48.070          42.985  
  -5276817.896    -4103432.909    23878217.815    23878220.675    23878218.070  
      1965.201        1531.328          47.722          41.422  
 -14460284.411   -11012897.946    22283502.555    22283505.399    22283501.998  
      2977.196        2319.892          50.676          44.896  
 03  8  2  0 23 37.5000000  0  8G 1G 2G 3G13G16G20G27G31             0.000927235
 -24320991.604   -18939564.476    20456988.827    20456990.905    20456989.385  
       174.201         135.741          52.065          47.676  
 -14777988.395   -11486929.951    22168616.332    22168619.252    22168617.430  
     -1975.693       -1539.492          50.676          45.417  
 -17433113.334   -13572596.760    21754117.265    21754120.717    21754117.585  
      1058.444         824.764          51.718          45.417  
 -18381255.688   -14307778.415    21298731.325    21298731.445    21298731.361  
      1954.066        1522.654          51.023          45.765  
  -8957875.896    -6966946.891    23262316.306    23262317.239    23262317.101  
     -2994.107       -2333.074          47.896          41.248  
  -3409582.416    -2610987.928    23727038.753    23727042.733    23727038.785  
     -3142.078       -2448.361          48.070          42.985  
  -5279765.846    -4105730.016    23877657.126    23877660.079    23877656.955  
      1965.436        1531.520          47.722          41.422  
 -14464750.083   -11016377.688    22282652.649    22282655.633    22282652.244  
      2977.096        2319.818          50.676          44.722  
 03  8  2  0 23 39.0000000  0  8G 1G 2G 3G13G16G20G27G31             0.000927235
 -24321251.928   -18939767.327    20456939.273    20456941.267    20456939.782  
       173.112         134.889          52.065          47.676  
 -14775024.280   -11484620.255    22169180.439    22169183.475    22169181.443  
     -1976.213       -1539.905          50.676          45.417  
 -17434699.980   -13573833.103    21753815.420    21753818.901    21753815.580  
      1057.278         823.850          51.718          45.417  
 -18384185.954   -14310061.738    21298173.666    21298174.122    21298173.778  
      1953.174        1521.950          51.023          45.765  
  -8953384.332    -6963446.972    23263171.197    23263172.592    23263171.758  
     -2994.467       -2333.366          47.896          41.422  
  -3404868.944    -2607315.097    23727935.673    23727939.067    23727935.804  
     -3142.427       -2448.648          48.070          42.985  
  -5282713.798    -4108027.116    23877095.870    23877098.888    23877095.851  
      1965.230        1531.333          47.722          41.595  
 -14469214.976   -11019856.826    22281802.852    22281806.162    22281802.621  
      2976.294        2319.193          50.676          44.722  
 03  8  2  0 23 40.5000000  0  8G 1G 2G 3G13G16G20G27G31             0.000927235
 -24321511.018   -18939969.217    20456889.896    20456892.140    20456890.384  
       172.086         134.093          52.065          47.676  
 -14772059.754   -11482310.232    22169744.693    22169747.483    22169745.505  
     -1976.712       -1540.300          50.676          45.417  
 -17436285.302   -13575068.418    21753513.784    21753517.434    21753513.835  
      1056.226         823.033          51.718          45.417  
 -18387115.263   -14312344.312    21297616.265    21297616.573    21297616.361  
      1952.316        1521.281          51.023          45.765  
  -8948892.469    -6959946.819    23264025.814    23264027.541    23264026.656  
     -2994.877       -2333.655          47.896          41.422  
  -3400155.253    -2603642.093    23728832.927    23728836.185    23728832.920  
     -3142.730       -2448.886          48.070          42.985  
  -5285661.806    -4110324.261    23876534.844    23876537.732    23876534.662  
      1965.064        1531.215          47.722          41.595  
 -14473679.164   -11023335.410    22280953.669    22280956.257    22280953.184  
      2975.645        2318.687          50.676          44.722  
 03  8  2  0 23 42.0000000  0  8G 1G 2G 3G13G16G20G27G31             0.000927235
 -24321768.923   -18940170.180    20456840.940    20456842.984    20456841.208  
       171.726         133.811          52.065          47.676  
 -14769094.858   -11479999.927    22170308.831    22170311.633    22170309.639  
     -1976.490       -1540.115          50.676          45.417  
 -17437869.358   -13576302.746    21753212.365    21753215.824    21753212.339  
      1055.797         822.694          51.718          45.417  
 -18390043.675   -14314626.193    21297058.807    21297059.313    21297059.085  
      1952.188        1521.187          51.023          45.765  
  -8944400.394    -6956446.500    23264880.452    23264881.794    23264881.486  
     -2994.582       -2333.434          47.896          41.248  
  -3395441.421    -2599968.978    23729730.023    23729733.358    23729730.120  
     -3142.449       -2448.661          48.070          43.159  
  -5288609.892    -4112621.471    23875973.447    23875976.781    23875973.481  
      1965.494        1531.561          47.722          41.422  
 -14478142.701   -11026813.493    22280104.310    22280107.018    22280103.852  
      2975.619        2318.662          50.676          44.722  
 03  8  2  0 23 43.5000000  0  8G 1G 2G 3G13G16G20G27G31             0.000927235
 -24322025.567   -18940370.162    20456792.084    20456794.111    20456792.306  
       170.528         132.875          52.065          47.676  
 -14766129.505   -11477689.261    22170872.911    22170876.047    22170873.845  
     -1977.222       -1540.697          50.676          45.417  
 -17439452.069   -13577536.028    21752911.172    21752914.498    21752911.096  
      1054.555         821.729          51.718          45.417  
 -18392971.102   -14316907.306    21296501.920    21296502.110    21296501.935  
      1951.120        1520.348          51.023          45.765  
  -8939907.987    -6952945.926    23265735.504    23265736.262    23265736.319  
     -2995.238       -2333.955          47.896          41.595  
  -3390727.348    -2596295.683    23730627.131    23730630.312    23730627.367  
     -3142.940       -2449.044          48.070          42.985  
  -5291558.017    -4114918.706    23875412.495    23875416.169    23875412.179  
      1965.199        1531.308          47.722          41.595  
 -14482605.478   -11030290.978    22279255.258    22279257.827    22279254.755  
      2974.797        2318.024          50.676          44.722  
 03  8  2  0 23 45.0000000  0  8G 1G 2G 3G13G16G20G27G31             0.000927235
 -24322281.091   -18940569.274    20456743.515    20456745.414    20456743.640  
       169.744         132.276          52.065          47.676  
 -14763163.867   -11475378.372    22171437.360    22171440.252    22171438.166  
     -1977.448       -1540.872          50.676          45.417  
 -17441033.565   -13578768.361    21752610.541    21752613.421    21752610.099  
      1053.674         821.048          51.718          45.417  
 -18395897.699   -14319187.768    21295945.031    21295945.074    21295944.972  
      1950.539        1519.900          51.023          45.765  
  -8935415.446    -6949445.241    23266590.315    23266591.677    23266591.170  
     -2995.388       -2334.091          47.896          41.422  
  -3386013.208    -2592622.326    23731524.006    23731527.495    23731524.687  
     -3143.038       -2449.111          48.244          42.985  
  -5294506.303    -4117216.078    23874851.605    23874854.762    23874850.977  
      1965.266        1531.383          47.722          41.422  
 -14487067.672   -11033768.013    22278405.991    22278408.406    22278405.698  
      2974.319        2317.651          50.676          44.722  
 03  8  2  0 23 46.5000000  0  8G 1G 2G 3G13G16G20G27G31             0.000927235
 -24322535.228   -18940767.299    20456695.146    20456697.195    20456695.258  
       169.001         131.683          52.065          47.676  
 -14760197.670   -11473067.050    22172001.837    22172004.851    22172002.617  
     -1977.617       -1541.001          50.676          45.417  
 -17442613.597   -13579999.548    21752309.568    21752312.839    21752309.298  
      1052.907         820.440          51.718          45.417  
 -18398823.184   -14321467.367    21295388.388    21295388.577    21295388.178  
      1949.998        1519.479          51.023          45.765  
  -8930922.502    -6945944.244    23267445.526    23267446.211    23267446.054  
     -2995.374       -2334.047          47.896          41.422  
  -3381298.693    -2588948.681    23732421.016    23732424.410    23732421.952  
     -3143.106       -2449.170          48.244          42.985  
  -5297454.445    -4119513.327    23874290.593    23874293.707    23874289.891  
      1965.272        1531.385          47.722          41.595  
 -14491529.030   -11037244.388    22277556.994    22277559.583    22277556.860  
      2973.959        2317.364          50.676          44.722  
 03  8  2  0 23 48.0000000  0  8G 1G 2G 3G13G16G20G27G31             0.000927235
 -24322788.314   -18940964.514    20456647.054    20456649.087    20456647.019  
       168.109         130.999          52.065          47.676  
 -14757231.237   -11470755.550    22172566.008    22172569.154    22172567.080  
     -1977.977       -1541.275          50.676          45.417  
 -17444192.489   -13581229.858    21752009.254    21752012.398    21752008.825  
      1051.934         819.693          51.718          45.417  
 -18401747.905   -14323746.372    21294831.789    21294831.620    21294831.575  
      1949.275        1518.921          51.023          45.765  
  -8926429.405    -6942443.144    23268300.378    23268302.155    23268301.035  
     -2995.726       -2334.320          47.896          41.422  
  -3376584.186    -2585275.054    23733318.059    23733321.440    23733319.062  
     -3143.298       -2449.313          48.244          42.985  
  -5300402.828    -4121810.770    23873729.595    23873733.188    23873728.821  
      1965.300        1531.393          47.722          41.422  
 -14495989.865   -11040720.366    22276708.037    22276710.775    22276708.095  
      2973.430        2316.965          50.676          44.896  
 03  8  2  0 23 49.5000000  0  8G 1G 2G 3G13G16G20G27G31             0.000927235
 -24323040.055   -18941160.676    20456599.179    20456601.132    20456599.114  
       167.322         130.378          52.065          47.676  
 -14754264.277   -11468443.632    22173130.727    22173134.024    22173131.610  
     -1978.206       -1541.458          50.676          45.417  
 -17445769.951   -13582459.048    21751708.974    21751712.437    21751708.627  
      1051.088         819.036          51.718          45.417  
 -18404671.562   -14326024.544    21294275.365    21294275.512    21294275.220  
      1948.684        1518.450          51.023          45.765  
  -8921935.962    -6938941.755    23269155.260    23269157.067    23269155.965  
     -2995.878       -2334.452          47.896          41.595  
  -3371869.353    -2581601.161    23734215.293    23734219.005    23734216.298  
     -3143.420       -2449.408          48.244          42.985  
  -5303351.182    -4124108.182    23873168.460    23873172.797    23873167.635  
      1965.406        1531.496          47.722          41.422  
 -14500449.861   -11044195.687    22275859.402    22275862.189    22275859.470  
      2972.996        2316.621          50.676          44.722  
 03  8  2  0 23 51.0000000  0  8G 1G 2G 3G13G16G20G27G31             0.000927235
 -24323290.520   -18941355.843    20456551.468    20456553.647    20456551.471  
       166.365         129.629          52.065          47.676  
 -14751296.875   -11466131.370    22173695.591    22173698.516    22173696.222  
     -1978.610       -1541.776          50.676          45.417  
 -17447346.044   -13583687.171    21751409.116    21751412.366    21751408.747  
      1050.084         818.241          51.718          45.417  
 -18407594.233   -14328301.953    21293719.275    21293719.433    21293718.970  
      1947.926        1517.861          51.023          45.765  
  -8917442.215    -6935440.134    23270010.565    23270011.621    23270010.931  
     -2996.149       -2334.680          47.896          41.595  
  -3367154.309    -2577927.099    23735112.244    23735116.166    23735113.613  
     -3143.612       -2449.570          48.244          42.985  
  -5306299.516    -4126405.582    23872607.284    23872610.741    23872606.465  
      1965.289        1531.379          47.722          41.595  
 -14504909.131   -11047670.438    22275010.885    22275013.635    22275010.990  
      2972.381        2316.131          50.676          44.722  
 03  8  2  0 23 52.5000000  0  8G 1G 2G 3G13G16G20G27G31             0.000927235
 -24323539.959   -18941550.211    20456503.958    20456505.968    20456504.069  
       165.890         129.265          52.065          47.676  
 -14748329.266   -11463818.956    22174260.035    22174263.537    22174260.804  
     -1978.504       -1541.695          50.676          45.417  
 -17448921.028   -13584914.430    21751109.662    21751112.730    21751109.123  
      1049.556         817.833          51.718          45.417  
 -18410516.153   -14330578.771    21293163.180    21293163.488    21293162.963  
      1947.639        1517.632          51.023          45.765  
  -8912948.383    -6931938.445    23270865.773    23270867.616    23270865.939  
     -2996.014       -2334.550          47.896          41.595  
  -3362439.240    -2574253.027    23736009.825    23736013.484    23736010.922  
     -3143.430       -2449.422          48.244          42.985  
  -5309248.140    -4128703.221    23872046.247    23872049.484    23872045.127  
      1965.662        1531.695          47.722          41.595  
 -14509367.896   -11051144.801    22274162.367    22274165.155    22274162.642  
      2972.244        2316.025          50.676          44.896  
 03  8  2  0 23 54.0000000  0  8G 1G 2G 3G13G16G20G27G31             0.000927235
 -24323788.071   -18941743.545    20456456.543    20456458.898    20456456.924  
       165.181         128.718          52.065          47.676  
 -14745361.142   -11461506.131    22174824.727    22174827.893    22174825.424  
     -1978.706       -1541.843          50.676          45.417  
 -17450494.601   -13586140.591    21750810.267    21750813.428    21750809.809  
      1048.798         817.249          51.718          45.591  
 -18413437.033   -14332854.780    21292607.317    21292607.684    21292607.125  
      1947.109        1517.232          51.023          45.765  
  -8908454.181    -6928436.470    23271721.261    23271723.059    23271721.125  
     -2996.050       -2334.573          47.896          41.422  
  -3357723.907    -2570578.742    23736907.079    23736910.757    23736908.270  
     -3143.409       -2449.414          48.244          42.985  
  -5312196.723    -4131000.813    23871485.499    23871488.287    23871483.798  
      1965.772        1531.773          47.722          41.422  
 -14513825.843   -11054618.526    22273314.190    22273316.726    22273314.470  
      2971.884        2315.756          50.676          44.722  
 03  8  2  0 23 55.5000000  0  8G 1G 2G 3G13G16G20G27G31             0.000927235
 -24324034.883   -18941935.866    20456409.862    20456411.769    20456409.995  
       164.056         127.836          52.065          47.676  
 -14742392.560   -11459192.950    22175389.642    22175392.716    22175390.194  
     -1979.284       -1542.295          50.676          45.417  
 -17452066.781   -13587365.664    21750511.074    21750514.040    21750510.810  
      1047.587         816.292          51.718          45.417  
 -18416356.889   -14335129.994    21292051.501    21292051.774    21292051.602  
      1946.150        1516.478          51.023          45.765  
  -8903959.651    -6924934.244    23272576.021    23272577.900    23272576.351  
     -2996.597       -2335.000          47.896          41.769  
  -3353008.292    -2566904.239    23737804.321    23737807.577    23737805.758  
     -3143.876       -2449.773          48.244          42.985  
  -5315145.362    -4133298.452    23870924.335    23870927.223    23870922.606  
      1965.711        1531.708          47.722          41.422  
 -14518283.021   -11058091.650    22272465.943    22272468.432    22272466.383  
      2971.117        2315.150          50.676          44.722  
 03  8  2  0 23 57.0000000  0  8G 1G 2G 3G13G16G20G27G31             0.000927235
 -24324280.521   -18942127.273    20456362.981    20456365.142    20456363.212  
       162.968         126.979          52.065          47.676  
 -14739423.636   -11456879.506    22175954.616    22175958.111    22175955.085  
     -1979.801       -1542.707          50.676          45.417  
 -17453637.707   -13588589.762    21750212.327    21750215.355    21750212.082  
      1046.447         815.411          51.718          45.591  
 -18419275.863   -14337404.517    21291496.095    21291496.562    21291496.175  
      1945.283        1515.792          51.023          45.765  
  -8899464.895    -6921431.839    23273431.596    23273433.818    23273431.672  
     -2997.082       -2335.391          47.896          41.595  
  -3348292.539    -2563229.631    23738701.745    23738705.774    23738703.216  
     -3144.294       -2450.113          48.244          42.985  
  -5318094.068    -4135596.142    23870363.474    23870366.677    23870361.391  
      1965.360        1531.456          47.722          41.595  
 -14522739.561   -11061564.276    22271617.987    22271620.118    22271618.390  
      2970.394        2314.584          50.676          44.722  
 03  8  2  0 23 58.5000000  0  8G 1G 2G 3G13G16G20G27G31             0.000927235
 -24324525.056   -18942317.821    20456316.518    20456318.736    20456316.711  
       163.130         127.122          52.065          47.676  
 -14736454.419   -11454565.832    22176519.717    22176522.953    22176520.050  
     -1979.110       -1542.154          50.676          45.417  
 -17455207.444   -13589812.935    21749913.792    21749916.874    21749913.523  
      1046.589         815.535          51.718          45.417  
 -18422194.020   -14339678.406    21290940.924    21290941.161    21290940.849  
      1945.671        1516.120          51.023          45.938  
  -8894970.026    -6917929.345    23274286.871    23274289.093    23274287.047  
     -2996.158       -2334.658          47.896          41.595  
  -3343576.728    -2559554.978    23739599.330    23739602.764    23739600.614  
     -3143.405       -2449.396          48.244          42.985  
  -5321042.988    -4137894.007    23869802.245    23869805.413    23869800.212  
      1966.423        1532.293          47.896          41.595  
 -14527195.518   -11065036.454    22270770.296    22270772.684    22270770.556  
      2970.904        2315.000          50.849          44.722  
 03  8  2  0 24  0.0000000  0  8G 1G 2G 3G13G16G20G27G31             0.000927235
 -24324768.022   -18942507.142    20456270.284    20456272.295    20456270.503  
       161.395         125.751          52.065          47.676  
 -14733484.470   -11452251.588    22177084.968    22177088.424    22177085.203  
     -1980.263       -1543.068          50.676          45.417  
 -17456775.521   -13591034.809    21749615.082    21749618.345    21749615.272  
      1044.762         814.090          51.718          45.417  
 -18425110.872   -14341951.275    21290385.690    21290386.100    21290385.725  
      1944.082        1514.861          51.023          45.765  
  -8890474.539    -6914426.374    23275142.422    23275143.590    23275142.576  
     -2997.315       -2335.560          47.896          41.595  
  -3338860.390    -2555879.918    23740496.531    23740500.574    23740498.154  
     -3144.390       -2450.177          48.417          43.159  
  -5323991.619    -4140191.644    23869241.223    23869244.435    23869239.288  
      1965.491        1531.550          47.896          41.595  
 -14531650.424   -11068507.808    22269922.126    22269924.650    22269922.857  
      2969.506        2313.888          50.849          44.722  
 03  8  2  0 24  1.5000000  0  8G 1G 2G 3G13G16G20G27G31             0.000927235
 -24325010.077   -18942695.758    20456224.245    20456226.290    20456224.535  
       160.562         125.107          52.065          47.676  
 -14730514.432   -11449937.276    22177650.041    22177653.288    22177650.397  
     -1980.563       -1543.301          50.676          45.417  
 -17458342.607   -13592255.915    21749317.139    21749319.954    21749317.210  
      1043.895         813.409          51.718          45.417  
 -18428027.109   -14344223.670    21289830.793    21289830.903    21289830.738  
      1943.446        1514.369          51.023          45.765  
  -8885979.116    -6910923.449    23275997.672    23275999.976    23275997.957  
     -2997.462       -2335.703          47.896          41.769  
  -3334144.172    -2552204.943    23741394.360    23741398.464    23741395.619  
     -3144.588       -2450.332          48.417          42.985  
  -5326940.615    -4142489.553    23868680.125    23868683.557    23868678.182  
      1965.608        1531.631          47.896          41.595  
 -14536104.950   -11071978.870    22269074.665    22269077.315    22269075.160  
      2969.008        2313.505          50.849          44.722  
 03  8  2  0 24  3.0000000  0  8G 1G 2G 3G13G16G20G27G31             0.000927235
 -24325250.816   -18942883.349    20456178.514    20456180.614    20456178.794  
       160.292         124.907          52.065          47.676  
 -14727543.899   -11447622.576    22178215.440    22178218.492    22178215.656  
     -1980.291       -1543.089          50.676          45.417  
 -17459908.277   -13593475.915    21749019.240    21749022.169    21749019.435  
      1043.562         813.164          51.718          45.417  
 -18430942.311   -14346495.254    21289276.026    21289276.452    21289275.956  
      1943.366        1514.305          51.023          45.765  
  -8881483.349    -6907420.256    23276853.674    23276855.398    23276853.397  
     -2997.026       -2335.343          48.070          41.595  
  -3329427.675    -2548529.753    23742291.995    23742295.435    23742293.154  
     -3144.181       -2450.017          48.417          42.985  
  -5329889.598    -4144787.465    23868119.049    23868122.206    23868117.144  
      1966.191        1532.089          47.896          41.595  
 -14540558.691   -11075449.310    22268227.065    22268229.597    22268227.603  
      2969.144        2313.613          50.849          44.896  
 03  8  2  0 24  4.5000000  0  8G 1G 2G 3G13G16G20G27G31             0.000927235
 -24325490.250   -18943069.918    20456132.705    20456134.795    20456133.248  
       159.038         123.923          52.065          47.676  
 -14724572.909   -11445307.513    22178780.903    22178783.813    22178780.997  
     -1980.951       -1543.601          50.676          45.417  
 -17461472.569   -13594694.840    21748721.512    21748724.463    21748721.894  
      1042.247         812.134          51.718          45.591  
 -18433856.493   -14348766.046    21288721.586    21288722.030    21288721.423  
      1942.313        1513.493          51.023          45.765  
  -8876987.213    -6903916.775    23277709.211    23277710.734    23277708.952  
     -2997.686       -2335.854          48.070          41.769  
  -3324710.937    -2544854.376    23743189.006    23743193.782    23743190.697  
     -3144.711       -2450.417          48.417          42.985  
  -5332838.558    -4147085.350    23867557.676    23867560.758    23867556.300  
      1965.740        1531.739          47.896          41.595  
 -14545011.643   -11078919.140    22267379.627    22267382.191    22267380.228  
      2968.202        2312.883          50.849          44.722  
 03  8  2  0 24  6.0000000  0  8G 1G 2G 3G13G16G20G27G31             0.000927235
 -24325728.610   -18943255.657    20456087.399    20456089.520    20456087.898  
       158.473         123.493          52.065          47.676  
 -14721601.658   -11442992.256    22179346.165    22179349.053    22179346.380  
     -1980.954       -1543.591          50.676          45.417  
 -17463035.700   -13595912.866    21748424.012    21748426.726    21748424.593  
      1041.608         811.648          51.718          45.417  
 -18436769.874   -14351036.213    21288166.983    21288167.320    21288167.069  
      1941.927        1513.202          51.023          45.765  
  -8872490.992    -6900413.228    23278564.652    23278566.339    23278564.632  
     -2997.572       -2335.781          48.070          41.595  
  -3319994.139    -2541178.953    23744086.686    23744090.770    23744088.124  
     -3144.589       -2450.300          48.417          43.159  
  -5335787.711    -4149383.395    23866996.640    23866999.561    23866995.251  
      1966.099        1532.033          47.896          41.595  
 -14549464.054   -11082388.552    22266532.335    22266534.919    22266533.005  
      2968.012        2312.746          50.849          44.722  
 03  8  2  0 24  7.5000000  0  8G 1G 2G 3G13G16G20G27G31             0.000927235
 -24325965.661   -18943440.375    20456042.307    20456044.304    20456042.768  
       158.035         123.150          52.065          47.676  
 -14718629.919   -11440676.618    22179911.751    22179914.499    22179911.825  
     -1980.884       -1543.541          50.676          45.417  
 -17464597.428   -13597129.796    21748126.768    21748129.805    21748127.491  
      1041.126         811.270          51.718          45.417  
 -18439682.237   -14353305.583    21287612.754    21287613.182    21287612.841  
      1941.659        1512.983          51.023          45.765  
  -8867994.406    -6896909.396    23279420.391    23279421.905    23279420.373  
     -2997.389       -2335.607          48.070          41.595  
  -3315277.085    -2537503.330    23744984.332    23744988.095    23744985.594  
     -3144.360       -2450.139          48.417          42.985  
  -5338736.829    -4151681.413    23866435.518    23866438.495    23866434.248  
      1966.428        1532.284          47.896          41.595  
 -14553915.677   -11085857.348    22265685.320    22265687.851    22265685.896  
      2967.916        2312.662          50.849          44.896  
 03  8  2  0 24  9.0000000  0  8G 1G 2G 3G13G16G20G27G31             0.000927236
 -24326201.426   -18943624.085    20455997.461    20455999.612    20455997.874  
       156.806         122.182          52.065          47.676  
 -14715657.727   -11438360.627    22180477.409    22180480.327    22180477.339  
     -1981.535       -1544.058          50.676          45.417  
 -17466157.790   -13598345.655    21747829.826    21747832.849    21747830.573  
      1039.860         810.272          51.718          45.417  
 -18442593.584   -14355574.165    21287058.833    21287059.083    21287058.784  
      1940.624        1512.172          51.023          45.765  
  -8863497.492    -6893405.308    23280275.900    23280277.001    23280276.175  
     -2997.996       -2336.099          48.070          41.422  
  -3310559.799    -2533827.528    23745882.099    23745886.092    23745883.101  
     -3144.882       -2450.552          48.417          42.985  
  -5341685.983    -4153979.452    23865874.269    23865877.140    23865873.187  
      1966.105        1532.023          47.896          41.769  
 -14558366.529   -11089325.544    22264838.325    22264840.778    22264838.908  
      2967.024        2311.958          50.849          44.722  
 03  8  2  0 24 10.5000000  0  8G 1G 2G 3G13G16G20G27G31             0.000927236
 -24326436.103   -18943806.953    20455952.775    20455954.787    20455953.204  
       155.946         121.514          52.065          47.676  
 -14712685.277   -11436044.433    22181042.781    22181046.204    22181042.933  
     -1981.886       -1544.330          50.676          45.417  
 -17467716.964   -13599560.598    21747533.013    21747536.032    21747533.917  
      1038.915         809.543          51.718          45.417  
 -18445504.116   -14357842.112    21286505.055    21286505.387    21286504.845  
      1939.944        1511.647          51.023          45.765  
  -8859000.456    -6889901.122    23281131.618    23281132.869    23281131.966  
     -2998.260       -2336.299          48.070          41.595  
  -3305842.453    -2530151.677    23746779.738    23746783.795    23746780.698  
     -3145.054       -2450.693          48.417          43.159  
  -5344635.340    -4156277.651    23865313.101    23865315.814    23865312.078  
      1965.995        1531.932          47.896          41.769  
 -14562816.816   -11092793.301    22263991.510    22263994.015    22263991.944  
      2966.498        2311.558          50.849          44.722  
 03  8  2  0 24 12.0000000  0  8G 1G 2G 3G13G16G20G27G31             0.000927236
 -24326669.396   -18943988.740    20455908.351    20455910.627    20455908.809  
       155.495         121.177          52.065          47.676  
 -14709712.269   -11433727.804    22181608.506    22181611.871    22181608.621  
     -1981.753       -1544.212          50.676          45.417  
 -17469274.682   -13600774.403    21747236.487    21747239.705    21747237.537  
      1038.405         809.157          51.718          45.417  
 -18448413.542   -14360109.195    21285951.270    21285951.706    21285951.201  
      1939.629        1511.407          51.023          45.765  
  -8854503.030    -6886396.640    23281987.520    23281989.427    23281987.879  
     -2998.027       -2336.130          48.070          41.595  
  -3301124.754    -2526475.546    23747677.259    23747681.833    23747678.322  
     -3144.802       -2450.493          48.417          42.985  
  -5347584.596    -4158575.773    23864751.815    23864754.781    23864751.008  
      1966.477        1532.326          47.896          41.595  
 -14567266.242   -11096260.385    22263144.732    22263147.333    22263145.196  
      2966.397        2311.490          50.849          44.896  
 03  8  2  0 24 13.5000000  0  8G 1G 2G 3G13G16G20G27G31             0.000927236
 -24326901.526   -18944169.623    20455864.146    20455866.301    20455864.609  
       154.402         120.313          52.065          47.676  
 -14706738.928   -11431410.914    22182174.475    22182177.495    22182174.348  
     -1982.269       -1544.631          50.676          45.417  
 -17470831.137   -13601987.223    21746940.323    21746943.271    21746941.393  
      1037.236         808.235          51.718          45.417  
 -18451322.086   -14362375.590    21285397.845    21285398.190    21285397.744  
      1938.762        1510.724          51.023          45.765  
  -8850005.384    -6882891.985    23282843.513    23282844.961    23282843.680  
     -2998.478       -2336.488          48.070          41.769  
  -3296406.944    -2522799.338    23748575.171    23748579.339    23748576.018  
     -3145.215       -2450.805          48.591          42.985  
  -5350533.986    -4160873.991    23864190.421    23864193.612    23864189.774  
      1966.327        1532.202          47.896          41.595  
 -14571715.031   -11099726.971    22262298.101    22262300.925    22262298.562  
      2965.666        2310.906          50.849          44.896  
 03  8  2  0 24 15.0000000  0  8G 1G 2G 3G13G16G20G27G31             0.000927236
 -24327132.371   -18944349.498    20455820.122    20455822.415    20455820.623  
       153.257         119.417          52.065          47.676  
 -14703765.117   -11429093.658    22182740.152    22182743.492    22182740.206  
     -1982.855       -1545.084          50.676          45.417  
 -17472386.216   -13603198.970    21746644.422    21746647.359    21746645.472  
      1036.041         807.304          51.718          45.417  
 -18454229.609   -14364641.193    21284844.622    21284844.830    21284844.514  
      1937.804        1509.973          51.023          45.765  
  -8845507.416    -6879387.069    23283698.955    23283700.900    23283699.642  
     -2998.986       -2336.875          48.070          41.769  
  -3291688.890    -2519122.931    23749472.814    23749477.232    23749473.772  
     -3145.633       -2451.155          48.591          43.159  
  -5353483.374    -4163172.208    23863628.626    23863632.313    23863628.446  
      1965.973        1531.922          47.896          41.595  
 -14576163.069   -11103192.973    22261451.735    22261454.600    22261452.060  
      2964.900        2310.305          50.849          44.896  
 03  8  2  0 24 16.5000000  0  8G 1G 2G 3G13G16G20G27G31             0.000927236
 -24327362.141   -18944528.542    20455776.595    20455778.641    20455776.872  
       152.838         119.098          52.065          47.676  
 -14700791.084   -11426776.233    22183306.189    22183309.473    22183306.036  
     -1982.697       -1544.953          50.676          45.244  
 -17473940.134   -13604409.813    21746348.468    21746351.133    21746349.734  
      1035.584         806.946          51.718          45.417  
 -18457136.340   -14366906.180    21284291.395    21284291.739    21284291.406  
      1937.599        1509.821          51.023          45.765  
  -8841009.355    -6875882.099    23284555.338    23284556.811    23284555.573  
     -2998.748       -2336.683          48.070          41.769  
  -3286970.796    -2515446.505    23750370.609    23750374.977    23750371.531  
     -3145.325       -2450.890          48.591          42.985  
  -5356432.982    -4165470.602    23863067.652    23863071.323    23863067.168  
      1966.430        1532.279          47.896          41.595  
 -14580610.541   -11106658.536    22260605.395    22260608.201    22260605.616  
      2964.782        2310.220          50.849          44.896  
 03  8  2  0 24 18.0000000  0  8G 1G 2G 3G13G16G20G27G31             0.000927236
 -24327590.585   -18944706.551    20455733.061    20455735.197    20455733.365  
       152.003         118.447          52.065          47.676  
 -14697816.525   -11424458.395    22183872.116    22183875.366    22183871.962  
     -1983.050       -1545.231          50.676          45.417  
 -17475492.628   -13605619.551    21746052.997    21746055.789    21746054.248  
      1034.689         806.253          51.718          45.417  
 -18460042.014   -14369170.339    21283738.456    21283739.073    21283738.524  
      1936.916        1509.283          51.023          45.938  
  -8836510.935    -6872376.837    23285411.371    23285412.489    23285411.794  
     -2998.909       -2336.792          48.070          41.595  
  -3282252.419    -2511769.855    23751268.437    23751272.709    23751269.350  
     -3145.545       -2451.079          48.591          43.159  
  -5359382.573    -4167768.985    23862506.298    23862509.212    23862505.848  
      1966.511        1532.355          47.896          41.769  
 -14585057.202   -11110123.464    22259759.243    22259761.907    22259759.315  
      2964.305        2309.854          50.849          44.896  
 03  8  2  0 24 19.5000000  0  8G 1G 2G 3G13G16G20G27G31             0.000927236
 -24327817.817   -18944883.617    20455689.792    20455691.948    20455690.086  
       150.969         117.637          52.065          47.676  
 -14694841.591   -11422140.267    22184438.231    22184441.713    22184437.976  
     -1983.578       -1545.650          50.676          45.417  
 -17477043.828   -13606828.277    21745757.917    21745761.025    21745759.023  
      1033.575         805.374          51.718          45.417  
 -18462946.776   -14371433.791    21283185.704    21283186.087    21283185.735  
      1936.063        1508.616          51.023          45.765  
  -8832012.264    -6868871.383    23286267.484    23286268.597    23286267.988  
     -2999.324       -2337.128          48.070          41.595  
  -3277533.881    -2508093.073    23752166.400    23752170.631    23752167.157  
     -3145.889       -2451.337          48.591          42.985  
  -5362332.232    -4170067.418    23861944.694    23861947.473    23861944.618  
      1966.254        1532.129          47.896          41.595  
 -14589503.155   -11113587.843    22258913.080    22258916.018    22258913.234  
      2963.543        2309.257          50.849          44.896  
 03  8  2  0 24 21.0000000  0  8G 1G 2G 3G13G16G20G27G31             0.000927236
 -24328043.785   -18945059.695    20455646.782    20455648.884    20455647.075  
       150.299         117.119          52.065          47.676  
 -14691866.231   -11419821.806    22185004.320    22185007.657    22185004.079  
     -1983.640       -1545.686          50.676          45.417  
 -17478593.680   -13608035.953    21745463.041    21745465.864    21745464.061  
      1032.891         804.852          51.718          45.417  
 -18465850.551   -14373696.476    21282633.267    21282633.616    21282633.123  
      1935.609        1508.270          51.023          45.765  
  -8827513.285    -6865365.685    23287123.515    23287124.706    23287124.226  
     -2999.346       -2337.140          48.070          41.595  
  -3272815.125    -2504416.121    23753064.484    23753068.119    23753065.008  
     -3145.836       -2451.284          48.591          42.985  
  -5365281.898    -4172365.858    23861383.503    23861386.242    23861383.392  
      1966.531        1532.368          47.896          41.595  
 -14593948.380   -11117051.655    22258067.123    22258070.057    22258067.330  
      2963.256        2309.038          50.849          44.896  
 03  8  2  0 24 22.5000000  0  8G 1G 2G 3G13G16G20G27G31             0.000927236
 -24328268.570   -18945234.852    20455604.059    20455606.336    20455604.292  
       149.437         116.437          52.065          47.676  
 -14688890.519   -11417503.069    22185570.539    22185574.531    22185570.254  
     -1983.940       -1545.932          50.676          45.417  
 -17480142.259   -13609242.634    21745168.191    21745171.008    21745169.303  
      1031.925         804.091          51.718          45.244  
 -18468753.412   -14375958.443    21282080.762    21282081.195    21282080.684  
      1934.931        1507.728          51.023          45.765  
  -8823014.115    -6861859.832    23287979.649    23287981.820    23287980.488  
     -2999.528       -2337.296          48.070          41.595  
  -3268096.224    -2500739.057    23753962.497    23753966.332    23753962.889  
     -3145.971       -2451.408          48.591          42.985  
  -5368231.688    -4174664.398    23860822.527    23860825.338    23860822.173  
      1966.526        1532.352          47.896          41.595  
 -14598392.949   -11120514.953    22257221.578    22257224.321    22257221.540  
      2962.803        2308.677          50.849          44.896  
 03  8  2  0 24 24.0000000  0  8G 1G 2G 3G13G16G20G27G31             0.000927236
 -24328492.098   -18945409.032    20455561.439    20455563.690    20455561.740  
       148.422         115.658          52.065          47.676  
 -14685914.372   -11415183.999    22186136.858    22186140.302    22186136.592  
     -1984.398       -1546.273          50.676          45.417  
 -17481689.484   -13610448.263    21744873.716    21744876.817    21744874.762  
      1030.865         803.272          51.718          45.417  
 -18471655.295   -14378219.654    21281528.643    21281529.030    21281528.458  
      1934.088        1507.083          51.023          45.938  
  -8818514.641    -6858353.755    23288835.987    23288837.654    23288836.774  
     -2999.874       -2337.553          48.070          41.595  
  -3263377.104    -2497061.829    23754860.419    23754863.978    23754860.815  
     -3146.314       -2451.681          48.591          43.159  
  -5371181.531    -4176962.970    23860260.969    23860263.855    23860261.063  
      1966.326        1532.187          47.896          41.769  
 -14602836.775   -11123977.673    22256375.793    22256378.462    22256375.834  
      2962.110        2308.133          50.849          44.896  
 03  8  2  0 24 25.5000000  0  8G 1G 2G 3G13G16G20G27G31             0.000927236
 -24328714.435   -18945582.280    20455519.231    20455521.359    20455519.441  
       147.725         115.113          52.065          47.676  
 -14682937.867   -11412864.645    22186703.316    22186707.167    22186703.003  
     -1984.509       -1546.367          50.676          45.417  
 -17483235.425   -13611652.889    21744579.701    21744582.811    21744580.488  
      1030.092         802.670          51.718          45.417  
 -18474556.278   -14380480.159    21280976.584    21280976.892    21280976.450  
      1933.558        1506.666          51.023          45.765  
  -8814014.944    -6854847.499    23289691.957    23289693.996    23289693.107  
     -2999.993       -2337.636          48.070          41.595  
  -3258657.851    -2493384.496    23755758.633    23755762.372    23755758.886  
     -3146.309       -2451.661          48.591          42.985  
  -5374131.477    -4179261.624    23859699.733    23859702.188    23859699.911  
      1966.465        1532.310          47.896          41.595  
 -14607279.933   -11127439.874    22255530.333    22255532.992    22255530.267  
      2961.765        2307.863          50.849          44.896  
 03  8  2  0 24 27.0000000  0  8G 1G 2G 3G13G16G20G27G31             0.000927236
 -24328935.618   -18945754.634    20455477.193    20455479.248    20455477.352  
       147.170         114.688          52.065          47.676  
 -14679961.043   -11410545.044    22187269.809    22187273.245    22187269.427  
     -1984.513       -1546.360          50.676          45.417  
 -17484780.133   -13612856.560    21744285.779    21744288.503    21744286.414  
      1029.495         802.209          51.718          45.417  
 -18477456.376   -14382739.973    21280424.846    21280425.010    21280424.607  
      1933.215        1506.408          51.023          45.765  
  -8809515.070    -6851341.106    23290548.368    23290550.328    23290549.433  
     -2999.862       -2337.566          48.070          41.595  
  -3253938.480    -2489707.066    23756656.566    23756660.663    23756657.083  
     -3146.155       -2451.550          48.765          42.985  
  -5377081.522    -4181560.371    23859138.535    23859141.077    23859138.715  
      1966.786        1532.546          47.896          41.595  
 -14611722.443   -11130901.569    22254684.839    22254688.009    22254684.847  
      2961.537        2307.690          50.849          44.896  
 03  8  2  0 24 28.5000000  0  8G 1G 2G 3G13G16G20G27G31             0.000927236
 -24329155.334   -18945925.836    20455435.218    20455437.568    20455435.548  
       145.940         113.719          52.065          47.676  
 -14676983.576   -11408224.939    22187836.409    22187839.726    22187836.067  
     -1985.212       -1546.913          50.676          45.417  
 -17486323.273   -13614059.006    21743992.180    21743994.740    21743992.696  
      1028.176         801.180          51.718          45.244  
 -18480355.284   -14384998.861    21279873.127    21279873.177    21279872.996  
      1932.173        1505.580          51.023          45.765  
  -8805014.699    -6847834.318    23291405.097    23291406.598    23291405.914  
     -3000.431       -2337.985          48.070          41.595  
  -3249218.699    -2486029.317    23757554.925    23757558.093    23757555.419  
     -3146.698       -2451.989          48.765          42.985  
  -5380031.412    -4183858.973    23858577.340    23858579.699    23858577.464  
      1966.481        1532.319          47.896          41.595  
 -14616164.014   -11134362.531    22253839.783    22253842.911    22253839.676  
      2960.657        2307.003          50.849          44.896  
 03  8  2  0 24 30.0000000  0  8G 1G 2G 3G13G16G20G27G31             0.000927236
 -24329374.070   -18946096.286    20455393.764    20455395.876    20455393.972  
       145.303         113.226          52.065          47.676  
 -14674005.970   -11405904.731    22188403.084    22188406.286    22188402.735  
     -1985.302       -1546.988          50.676          45.417  
 -17487865.351   -13615260.627    21743698.734    21743701.348    21743699.205  
      1027.489         800.638          51.718          45.417  
 -18483253.487   -14387257.202    21279321.829    21279321.838    21279321.495  
      1931.702        1505.219          51.023          45.938  
  -8800514.314    -6844327.531    23292261.333    23292262.407    23292262.368  
     -3000.438       -2337.990          48.070          41.595  
  -3244498.983    -2482351.623    23758453.209    23758456.426    23758453.709  
     -3146.662       -2451.934          48.765          43.159  
  -5382981.630    -4186157.852    23858016.164    23858018.852    23858016.249  
      1966.703        1532.501          47.896          41.595  
 -14620605.124   -11137823.137    22252994.799    22252997.655    22252994.601  
      2960.380        2306.795          50.849          45.070  
 03  8  2  0 24 31.5000000  0  8G 1G 2G 3G13G16G20G27G31             0.000927236
 -24329591.489   -18946265.703    20455352.331    20455354.565    20455352.626  
       144.533         112.620          52.065          47.676  
 -14671027.879   -11403584.141    22188969.919    22188973.342    22188969.453  
     -1985.468       -1547.114          50.676          45.417  
 -17489406.025   -13616461.148    21743405.477    21743408.072    21743405.987  
      1026.677         800.003          51.718          45.244  
 -18486150.662   -14389514.743    21278770.524    21278770.740    21278770.171  
      1931.156        1504.793          51.023          45.938  
  -8796013.592    -6840820.473    23293117.958    23293119.087    23293118.778  
     -3000.622       -2338.131          48.070          41.595  
  -3239779.021    -2478673.734    23759351.782    23759354.703    23759352.065  
     -3146.700       -2451.970          48.765          42.985  
  -5385931.818    -4188456.700    23857454.916    23857456.784    23857454.963  
      1966.746        1532.522          47.896          41.422  
 -14625045.448   -11141283.128    22252149.788    22252152.433    22252149.670  
      2959.950        2306.446          50.849          45.070  
 03  8  2  0 24 33.0000000  0  8G 1G 2G 3G13G16G20G27G31             0.000927237
 -24329807.652   -18946434.144    20455311.349    20455313.279    20455311.525  
       143.852         112.100          52.065          47.676  
 -14668049.363   -11401263.221    22189536.565    22189539.773    22189536.289  
     -1985.638       -1547.240          50.676          45.244  
 -17490945.343   -13617660.618    21743112.542    21743115.185    21743112.978  
      1025.930         799.441          51.718          45.244  
 -18489046.857   -14391771.517    21278219.180    21278219.553    21278219.056  
      1930.648        1504.411          51.023          45.765  
  -8791512.589    -6837313.205    23293974.364    23293975.981    23293975.299  
     -3000.541       -2338.066          48.070          41.595  
  -3235058.844    -2474995.678    23760249.924    23760253.139    23760250.469  
     -3146.670       -2451.939          48.765          42.985  
  -5388882.016    -4190755.550    23856893.815    23856895.824    23856893.751  
      1966.880        1532.646          47.896          41.595  
 -14629485.031   -11144742.539    22251304.932    22251307.805    22251304.831  
      2959.622        2306.200          50.849          45.070  
 03  8  2  0 24 34.5000000  0  8G 1G 2G 3G13G16G20G27G31             0.000927237
 -24330022.571   -18946601.612    20455270.418    20455272.343    20455270.651  
       142.972         111.406          52.065          47.676  
 -14665070.439   -11398941.982    22190103.367    22190106.886    22190103.190  
     -1985.972       -1547.505          50.676          45.417  
 -17492483.338   -13618859.058    21742820.080    21742822.305    21742820.235  
      1025.005         798.711          51.718          45.244  
 -18491942.084   -14394027.537    21277668.380    21277668.561    21277668.145  
      1929.917        1503.833          51.023          45.765  
  -8787011.298    -6833805.708    23294831.025    23294832.248    23294831.933  
     -3000.847       -2338.335          48.070          41.595  
  -3230338.472    -2471317.466    23761148.153    23761151.702    23761148.802  
     -3146.866       -2452.103          48.765          43.159  
  -5391832.264    -4193054.451    23856332.799    23856334.324    23856332.634  
      1966.868        1532.629          47.896          41.595  
 -14633923.886   -11148201.383    22250460.124    22250462.973    22250460.143  
      2959.094        2305.791          51.023          45.070  
 03  8  2  0 24 36.0000000  0  8G 1G 2G 3G13G16G20G27G31             0.000927237
 -24330236.169   -18946768.052    20455229.709    20455231.881    20455230.067  
       141.845         110.527          52.065          47.676  
 -14662091.021   -11396620.358    22190670.487    22190673.768    22190670.161  
     -1986.585       -1547.990          50.676          45.244  
 -17494019.920   -13620056.391    21742527.814    21742530.171    21742527.813  
      1023.788         797.754          51.718          45.244  
 -18494836.262   -14396282.740    21277117.603    21277117.721    21277117.469  
      1928.969        1503.090          51.023          45.938  
  -8782509.667    -6830297.940    23295687.377    23295689.776    23295688.554  
     -3001.271       -2338.647          48.070          41.595  
  -3225617.829    -2467639.048    23762046.444    23762049.928    23762047.171  
     -3147.301       -2452.441          48.938          43.159  
  -5394782.485    -4195353.325    23855771.195    23855772.401    23855771.439  
      1966.595        1532.423          47.896          41.595  
 -14638361.938   -11151659.610    22249615.701    22249618.382    22249615.589  
      2958.317        2305.181          51.023          45.070  
 03  8  2  0 24 37.5000000  0  8G 1G 2G 3G13G16G20G27G31             0.000927237
 -24330448.794   -18946933.735    20455189.232    20455191.416    20455189.644  
       141.305         110.113          52.065          47.676  
 -14659111.479   -11394298.641    22191237.543    22191240.760    22191237.241  
     -1986.508       -1547.921          50.676          45.417  
 -17495555.442   -13621252.902    21742235.332    21742238.028    21742235.544  
      1023.198         797.298          51.718          45.244  
 -18497729.768   -14398537.422    21276567.061    21276567.236    21276566.923  
      1928.649        1502.851          51.023          45.938  
  -8778008.037    -6826790.177    23296544.396    23296545.771    23296545.341  
     -3001.213       -2338.609          48.070          41.595  
  -3220897.281    -2463960.708    23762944.864    23762948.288    23762945.516  
     -3147.111       -2452.274          48.938          43.159  
  -5397733.030    -4197652.456    23855209.834    23855211.354    23855210.307  
      1967.004        1532.730          47.896          41.595  
 -14642799.524   -11155117.468    22248771.229    22248774.158    22248771.261  
      2958.084        2305.004          51.023          45.070  
 03  8  2  0 24 39.0000000  0  8G 1G 2G 3G13G16G20G27G31             0.000927237
 -24330659.921   -18947098.246    20455149.003    20455151.110    20455149.485  
       140.310         109.330          52.065          47.676  
 -14656131.279   -11391976.405    22191804.604    22191807.976    22191804.444  
     -1986.930       -1548.258          50.676          45.244  
 -17497089.376   -13622448.173    21741943.486    21741945.913    21741943.589  
      1022.127         796.459          51.718          45.244  
 -18500622.035   -14400791.132    21276016.711    21276017.016    21276016.557  
      1927.838        1502.207          51.023          45.938  
  -8773505.868    -6823281.990    23297401.225    23297402.259    23297402.218  
     -3001.579       -2338.895          48.070          41.595  
  -3216176.280    -2460282.003    23763843.081    23763846.463    23763843.978  
     -3147.449       -2452.560          48.938          43.159  
  -5400683.381    -4199951.427    23854648.064    23854650.079    23854649.147  
      1966.764        1532.530          48.070          41.595  
 -14647236.135   -11158574.558    22247926.889    22247930.139    22247927.068  
      2957.454        2304.504          51.023          45.070  
 03  8  2  0 24 40.5000000  0  8G 1G 2G 3G13G16G20G27G31             0.000927237
 -24330869.961   -18947261.917    20455109.065    20455111.301    20455109.519  
       139.361         108.593          52.065          47.676  
 -14653150.804   -11389653.959    22192371.871    22192374.902    22192371.720  
     -1987.327       -1548.567          50.676          45.244  
 -17498622.138   -13623642.535    21741651.737    21741654.320    21741651.942  
      1021.156         795.706          51.718          45.417  
 -18503513.496   -14403044.215    21275466.374    21275466.550    21275466.373  
      1927.076        1501.614          51.023          45.938  
  -8769003.599    -6819773.732    23298257.890    23298259.522    23298259.063  
     -3001.878       -2339.119          48.070          41.595  
  -3211455.250    -2456603.278    23764741.694    23764744.709    23764742.374  
     -3147.684       -2452.736          48.938          43.159  
  -5403633.955    -4202250.570    23854086.655    23854088.209    23854087.984  
      1966.746        1532.524          48.070          41.595  
 -14651672.161   -11162031.205    22247082.841    22247085.628    22247083.016  
      2956.808        2304.005          51.023          45.070  
 03  8  2  0 24 42.0000000  0  8G 1G 2G 3G13G16G20G27G31             0.000927238
 -24331078.867   -18947424.703    20455069.384    20455071.619    20455069.753  
       139.209         108.485          52.065          47.676  
 -14650170.045   -11387331.291    22192939.256    22192942.375    22192939.116  
     -1986.971       -1548.285          50.676          45.244  
 -17500153.667   -13624835.935    21741360.511    21741363.228    21741360.548  
      1020.927         795.537          51.718          45.244  
 -18506404.094   -14405296.631    21274916.259    21274916.836    21274916.331  
      1927.090        1501.635          51.023          45.765  
  -8764501.187    -6816265.354    23299114.740    23299116.802    23299116.031  
     -3001.370       -2338.721          48.070          41.595  
  -3206734.127    -2452924.486    23765639.849    23765643.031    23765640.755  
     -3147.132       -2452.304          48.938          43.159  
  -5406584.683    -4204549.832    23853525.082    23853527.253    23853526.652  
      1967.459        1533.091          48.070          41.595  
 -14656107.599   -11165487.389    22246238.809    22246241.685    22246239.052  
      2957.040        2304.194          51.023          45.070  
 03  8  2  0 24 43.5000000  0  8G 1G 2G 3G13G16G20G27G31             0.000927238
 -24331286.368   -18947586.393    20455029.809    20455032.121    20455030.239  
       137.928         107.480          52.065          47.676  
 -14647188.714   -11385008.182    22193506.526    22193509.792    22193506.548  
     -1987.672       -1548.827          50.676          45.244  
 -17501683.712   -13626028.179    21741069.447    21741071.846    21741069.417  
      1019.630         794.521          51.718          45.244  
 -18509293.577   -14407548.177    21274366.316    21274366.911    21274366.529  
      1926.034        1500.809          51.023          45.938  
  -8759998.345    -6812756.652    23299971.994    23299973.460    23299972.962  
     -3001.989       -2339.198          48.070          41.769  
  -3202012.661    -2449245.420    23766538.211    23766542.518    23766539.244  
     -3147.696       -2452.748          48.938          43.159  
  -5409535.307    -4206849.025    23852963.340    23852965.714    23852965.244  
      1967.054        1532.784          48.070          41.769  
 -14660542.158   -11168942.888    22245395.023    22245398.128    22245395.251  
      2956.134        2303.484          51.023          45.070  
 03  8  2  0 24 45.0000000  0  8G 1G 2G 3G13G16G20G27G31             0.000927238
 -24331492.694   -18947747.168    20454990.683    20454992.694    20454990.964  
       137.351         107.037          52.065          47.676  
 -14644207.048   -11382684.806    22194074.016    22194077.254    22194074.003  
     -1987.707       -1548.856          50.676          45.244  
 -17503212.488   -13627219.435    21740778.413    21740780.954    21740778.550  
      1018.954         793.995          51.718          45.244  
 -18512182.149   -14409799.013    21273816.654    21273817.061    21273816.804  
      1925.616        1500.484          51.023          45.938  
  -8755495.283    -6809247.782    23300828.847    23300829.615    23300829.931  
     -3001.950       -2339.173          48.070          41.769  
  -3197291.083    -2445566.274    23767436.817    23767440.406    23767437.724  
     -3147.586       -2452.674          48.938          43.159  
  -5412486.024    -4209148.283    23852402.057    23852403.901    23852403.831  
      1967.304        1532.947          48.070          41.595  
 -14664976.043   -11172397.861    22244551.292    22244554.312    22244551.609  
      2955.852        2303.266          51.023          45.070  
 03  8  2  0 24 46.5000000  0  8G 1G 2G 3G13G16G20G27G31             0.000927238
 -24331697.770   -18947906.964    20454951.593    20454953.756    20454951.912  
       136.268         106.177          52.065          47.676  
 -14641224.975   -11380361.109    22194641.450    22194644.572    22194641.560  
     -1988.199       -1549.240          50.676          45.244  
 -17504739.925   -13628409.644    21740487.563    21740490.197    21740487.903  
      1017.823         793.100          51.718          45.417  
 -18515069.751   -14412049.088    21273267.183    21273268.030    21273267.310  
      1924.709        1499.766          51.023          45.938  
  -8750991.960    -6805738.695    23301685.495    23301687.147    23301686.876  
     -3002.288       -2339.446          48.070          41.769  
  -3192569.308    -2441886.975    23768335.463    23768339.061    23768336.266  
     -3147.909       -2452.912          48.938          43.333  
  -5415436.806    -4211447.591    23851840.738    23851842.347    23851842.247  
      1967.121        1532.802          48.070          41.595  
 -14669409.196   -11175852.260    22243707.713    22243710.667    22243708.132  
      2955.133        2302.692          51.023          45.070  
 03  8  2  0 24 48.0000000  0  8G 1G 2G 3G13G16G20G27G31             0.000927238
 -24331901.530   -18948065.737    20454912.734    20454915.034    20454913.115  
       134.986         105.174          52.065          47.676  
 -14638242.413   -11378037.035    22195208.908    22195211.988    22195209.173  
     -1988.918       -1549.816          50.676          45.244  
 -17506265.959   -13629598.761    21740197.220    21740200.058    21740197.536  
      1016.478         792.057          51.718          45.244  
 -18517956.309   -14414298.354    21272717.954    21272718.665    21272717.968  
      1923.632        1498.929          51.023          45.938  
  -8746488.309    -6802229.355    23302542.637    23302543.666    23302543.906  
     -3002.951       -2339.974          48.070          41.769  
  -3187847.269    -2438207.467    23769233.916    23769237.438    23769234.796  
     -3148.495       -2453.386          49.112          43.159  
  -5418387.582    -4213746.899    23851279.165    23851281.272    23851280.611  
      1966.649        1532.441          48.070          41.595  
 -14673841.552   -11179306.040    22242864.418    22242867.236    22242864.758  
      2954.206        2301.970          51.023          45.070  
 03  8  2  0 24 49.5000000  0  8G 1G 2G 3G13G16G20G27G31             0.000927238
 -24332104.236   -18948223.691    20454874.120    20454876.405    20454874.551  
       134.813         105.046          52.065          47.676  
 -14635259.628   -11375712.790    22195776.760    22195779.704    22195776.804  
     -1988.507       -1549.486          50.676          45.244  
 -17507790.862   -13630786.995    21739907.020    21739909.755    21739907.356  
      1016.251         791.880          51.718          45.244  
 -18520842.102   -14416547.026    21272168.806    21272168.915    21272168.779  
      1923.639        1498.943          51.023          45.938  
  -8741984.540    -6798719.925    23303399.550    23303400.657    23303400.912  
     -3002.516       -2339.625          48.070          41.769  
  -3183125.237    -2434527.963    23770132.606    23770136.315    23770133.453  
     -3147.977       -2452.968          49.112          43.159  
  -5421338.591    -4216046.376    23850717.290    23850720.032    23850718.921  
      1967.408        1533.044          48.070          41.595  
 -14678273.360   -11182759.395    22242020.909    22242023.790    22242021.528  
      2954.367        2302.110          51.023          45.244  
 03  8  2  0 24 51.0000000  0  8G 1G 2G 3G13G16G20G27G31             0.000927239
 -24332305.632   -18948380.623    20454835.763    20454838.001    20454836.166  
       133.960         104.383          52.065          47.676  
 -14632276.371   -11373388.176    22196344.494    22196347.299    22196344.530  
     -1988.869       -1549.768          50.676          45.244  
 -17509314.341   -13631974.120    21739617.029    21739619.908    21739617.423  
      1015.314         791.150          51.718          45.244  
 -18523726.854   -14418794.880    21271619.941    21271620.619    21271619.721  
      1922.948        1498.398          51.023          45.938  
  -8737480.454    -6795210.257    23304256.610    23304257.748    23304258.017  
     -3002.689       -2339.744          48.070          41.769  
  -3178402.936    -2430848.248    23771031.024    23771034.675    23771032.139  
     -3148.200       -2453.152          49.112          43.333  
  -5424289.553    -4218345.829    23850155.680    23850157.658    23850157.199  
      1967.327        1532.972          48.070          41.595  
 -14682704.368   -11186212.128    22241177.820    22241180.654    22241178.472  
      2953.847        2301.697          51.023          45.244  
 03  8  2  0 24 52.5000000  0  8G 1G 2G 3G13G16G20G27G31             0.000927239
 -24332505.827   -18948536.621    20454797.734    20454799.901    20454798.040  
       132.943         103.588          52.065          47.676  
 -14629292.758   -11371063.283    22196912.238    22196914.830    22196912.346  
     -1989.296       -1550.105          50.676          45.244  
 -17510836.542   -13633160.254    21739327.449    21739330.178    21739327.710  
      1014.231         790.303          51.718          45.244  
 -18526610.686   -14421042.024    21271071.023    21271071.679    21271070.869  
      1922.150        1497.772          51.023          45.938  
  -8732976.148    -6791700.418    23305114.009    23305115.066    23305115.229  
     -3003.036       -2340.029          48.070          41.769  
  -3173680.494    -2427168.429    23771929.760    23771933.541    23771930.800  
     -3148.499       -2453.367          49.112          43.159  
  -5427240.628    -4220645.374    23849594.216    23849596.616    23849595.466  
      1967.171        1532.859          48.070          41.595  
 -14687134.687   -11189664.322    22240334.671    22240337.787    22240335.502  
      2953.194        2301.184          51.023          45.244  
 03  8  2  0 24 54.0000000  0  8G 1G 2G 3G13G16G20G27G31             0.000927239
 -24332704.810   -18948691.674    20454759.926    20454762.139    20454760.114  
       132.373         103.149          52.065          47.676  
 -14626308.771   -11368738.099    22197480.077    22197483.021    22197480.181  
     -1989.337       -1550.135          50.676          45.244  
 -17512357.434   -13634345.363    21739038.024    21739040.810    21739038.201  
      1013.601         789.821          51.718          45.244  
 -18529493.571   -14423288.424    21270522.382    21270523.133    21270522.210  
      1921.738        1497.460          51.023          45.938  
  -8728471.602    -6788190.373    23305971.060    23305972.100    23305972.553  
     -3003.010       -2340.014          48.070          41.769  
  -3168957.897    -2423488.490    23772828.538    23772831.938    23772829.466  
     -3148.343       -2453.249          49.112          43.333  
  -5430191.782    -4222944.966    23849032.733    23849034.279    23849033.700  
      1967.424        1533.058          48.070          41.595  
 -14691564.326   -11193115.988    22239491.621    22239494.756    22239492.639  
      2952.940        2300.992          51.023          45.244  
 03  8  2  0 24 55.5000000  0  8G 1G 2G 3G13G16G20G27G31             0.000927239
 -24332902.415   -18948845.652    20454722.219    20454724.555    20454722.428  
       131.194         102.224          52.065          47.676  
 -14623324.244   -11366412.492    22198047.920    22198050.801    22198048.166  
     -1989.953       -1550.626          50.676          45.244  
 -17513876.869   -13635529.336    21738748.921    21738751.689    21738748.984  
      1012.407         788.892          51.718          45.244  
 -18532375.383   -14425533.989    21269973.898    21269974.780    21269973.846  
      1920.771        1496.693          51.023          45.938  
  -8723966.668    -6784680.028    23306828.778    23306829.450    23306829.850  
     -3003.497       -2340.394          48.070          41.769  
  -3164234.975    -2419808.297    23773727.397    23773730.724    23773728.261  
     -3148.852       -2453.656          49.112          43.159  
  -5433142.856    -4225244.503    23848470.944    23848473.559    23848472.081  
      1967.194        1532.882          48.070          41.595  
 -14695993.115   -11196566.987    22238648.961    22238652.060    22238649.897  
      2952.130        2300.345          51.023          45.244  
 03  8  2  0 24 57.0000000  0  8G 1G 2G 3G13G16G20G27G31             0.000927239
 -24333098.916   -18948998.770    20454684.745    20454687.113    20454684.975  
       130.342         101.567          52.065          47.676  
 -14620339.450   -11364086.682    22198615.782    22198618.702    22198616.264  
     -1990.213       -1550.810          50.676          45.244  
 -17515395.093   -13636712.367    21738459.895    21738462.820    21738459.931  
      1011.472         788.154          51.718          45.244  
 -18535256.342   -14427778.894    21269425.898    21269426.681    21269425.594  
      1920.091        1496.175          51.023          45.938  
  -8719461.595    -6781169.592    23307685.566    23307687.233    23307687.134  
     -3003.734       -2340.560          48.070          41.769  
  -3159512.010    -2416128.068    23774626.084    23774629.388    23774627.077  
     -3148.933       -2453.708          49.112          43.333  
  -5436094.067    -4227544.150    23847909.147    23847911.123    23847910.352  
      1967.112        1532.813          48.070          41.595  
 -14700421.305   -11200017.524    22237806.458    22237809.366    22237807.307  
      2951.656        2299.984          51.023          45.244  
 03  8  2  0 24 58.5000000  0  8G 1G 2G 3G13G16G20G27G31             0.000927239
 -24333294.251   -18949150.980    20454647.550    20454650.082    20454647.795  
       129.869         101.194          52.065          47.676  
 -14617354.344   -11361760.621    22199183.969    22199187.003    22199184.401  
     -1990.132       -1550.752          50.676          45.244  
 -17516912.077   -13637894.431    21738171.268    21738174.284    21738171.246  
      1010.942         787.745          51.718          45.244  
 -18538136.422   -14430023.114    21268877.936    21268878.634    21268877.583  
      1919.816        1495.955          51.023          45.938  
  -8714956.347    -6777659.011    23308542.663    23308544.769    23308544.374  
     -3003.531       -2340.418          48.070          41.769  
  -3154788.949    -2412447.762    23775524.975    23775528.765    23775525.884  
     -3148.704       -2453.535          49.112          43.159  
  -5439045.452    -4229843.929    23847348.139    23847349.712    23847348.626  
      1967.623        1533.210          48.070          41.595  
 -14704848.848   -11203467.558    22236963.796    22236966.920    22236964.864  
      2951.530        2299.899          51.023          45.070  
 03  8  2  0 25  0.0000000  0  8G 1G 2G 3G13G16G20G27G31             0.000927240
 -24333488.191   -18949302.103    20454610.805    20454613.034    20454610.870  
       128.949         100.477          52.065          47.676  
 -14614368.664   -11359434.122    22199752.052    22199754.854    22199752.709  
     -1990.514       -1551.048          50.676          45.244  
 -17518427.571   -13639075.332    21737882.989    21737885.779    21737882.818  
      1010.003         787.012          51.718          45.244  
 -18541015.375   -14432266.453    21268329.818    21268331.067    21268329.788  
      1919.060        1495.370          51.023          45.938  
  -8710450.690    -6774148.112    23309400.295    23309402.119    23309401.668  
     -3003.784       -2340.613          48.070          41.769  
  -3150065.538    -2408767.183    23776423.585    23776426.825    23776424.644  
     -3148.917       -2453.706          49.286          43.159  
  -5441996.745    -4232143.632    23846786.519    23846787.533    23846787.051  
      1967.613        1533.212          48.070          41.422  
 -14709275.501   -11206916.894    22236121.400    22236124.177    22236122.510  
      2950.934        2299.427          51.023          45.070  
 03  8  2  0 25  1.5000000  0  8G 1G 2G 3G13G16G20G27G31             0.000927240
 -24333680.972   -18949452.324    20454573.999    20454576.363    20454574.173  
       127.986          99.730          52.065          47.676  
 -14611382.677   -11357107.380    22200320.369    22200323.258    22200320.906  
     -1990.968       -1551.405          50.676          45.244  
 -17519941.822   -13640255.267    21737594.782    21737597.574    21737594.776  
      1008.950         786.191          51.718          45.417  
 -18543893.452   -14434509.110    21267782.117    21267783.060    21267782.073  
      1918.269        1494.751          51.023          45.938  
  -8705944.856    -6770637.076    23310257.619    23310259.570    23310258.994  
     -3004.046       -2340.813          48.070          41.769  
  -3145342.023    -2405086.522    23777322.190    23777326.320    23777323.506  
     -3149.217       -2453.936          49.286          43.159  
  -5444948.116    -4234443.403    23846224.696    23846226.290    23846225.517  
      1967.498        1533.127          48.070          41.422  
 -14713701.522   -11210365.739    22235279.203    22235282.097    22235280.278  
      2950.261        2298.903          51.023          45.070  
 03  8  2  0 25  3.0000000  0  8G 1G 2G 3G13G16G20G27G31             0.000927240
 -24333872.570   -18949601.619    20454537.721    20454539.907    20454537.711  
       127.239          99.143          52.065          47.676  
 -14608396.349   -11354780.375    22200888.599    22200891.395    22200889.293  
     -1991.099       -1551.510          50.676          45.244  
 -17521454.792   -13641434.207    21737306.909    21737309.941    21737306.931  
      1008.129         785.560          51.718          45.244  
 -18546770.609   -14436751.050    21267234.685    21267235.782    21267234.559  
      1917.677        1494.288          51.023          45.938  
  -8701438.795    -6767125.860    23311115.133    23311116.732    23311116.399  
     -3004.203       -2340.943          48.070          41.769  
  -3140618.409    -2401405.797    23778221.008    23778225.208    23778222.235  
     -3149.245       -2453.946          49.286          43.159  
  -5447899.590    -4236743.260    23845663.150    23845664.844    23845664.014  
      1967.530        1533.139          48.070          41.595  
 -14718126.871   -11213814.062    22234437.199    22234440.174    22234438.093  
      2949.872        2298.601          51.023          45.070  
 03  8  2  0 25  4.5000000  0  8G 1G 2G 3G13G16G20G27G31             0.000927240
 -24334062.863   -18949749.900    20454501.240    20454503.683    20454501.451  
       126.566          98.624          52.065          47.676  
 -14605409.570   -11352453.013    22201457.021    22201459.903    22201457.838  
     -1991.224       -1551.600          50.676          45.244  
 -17522966.360   -13642612.053    21737019.202    21737022.044    21737019.311  
      1007.370         784.972          51.718          45.417  
 -18549646.730   -14438992.181    21266687.322    21266688.070    21266687.180  
      1917.211        1493.933          51.023          45.938  
  -8696932.430    -6763614.407    23311972.785    23311973.823    23311973.803  
     -3004.213       -2340.941          48.070          41.769  
  -3135894.533    -2397724.858    23779119.976    23779124.065    23779121.037  
     -3149.211       -2453.920          49.286          43.159  
  -5450851.102    -4239043.139    23845101.537    23845102.997    23845102.442  
      1967.746        1533.278          48.070          41.422  
 -14722551.427   -11217261.765    22233595.145    22233598.258    22233596.088  
      2949.533        2298.336          51.023          45.244  
 03  8  2  0 25  6.0000000  0  8G 1G 2G 3G13G16G20G27G31             0.000927240
 -24334251.899   -18949897.199    20454465.348    20454467.696    20454465.394  
       125.643          97.898          52.065          47.676  
 -14602422.356   -11350125.314    22202025.407    22202028.448    22202026.452  
     -1991.592       -1551.893          50.676          45.070  
 -17524476.577   -13643788.843    21736731.701    21736734.457    21736731.942  
      1006.369         784.186          51.718          45.244  
 -18552521.860   -14441232.540    21266140.167    21266140.965    21266139.984  
      1916.464        1493.337          51.023          45.938  
  -8692425.773    -6760102.729    23312830.345    23312831.932    23312831.274  
     -3004.460       -2341.124          48.070          41.943  
  -3131170.464    -2394043.768    23780018.938    23780022.725    23780019.814  
     -3149.411       -2454.096          49.286          43.159  
  -5453802.624    -4241343.017    23844539.829    23844540.870    23844540.915  
      1967.596        1533.177          48.070          41.422  
 -14726975.220   -11220708.875    22232753.341    22232756.377    22232754.159  
      2948.948        2297.872          51.023          45.244  
 03  8  2  0 25  7.5000000  0  8G 1G 2G 3G13G16G20G27G31             0.000927241
 -24334439.798   -18950043.620    20454429.606    20454432.089    20454429.601  
       125.138          97.513          52.065          47.676  
 -14599434.853   -11347797.393    22202593.859    22202596.701    22202595.025  
     -1991.551       -1551.863          50.676          45.070  
 -17525985.577   -13644964.686    21736444.609    21736447.252    21736444.811  
      1005.865         783.790          51.718          45.417  
 -18555396.145   -14443472.238    21265593.207    21265594.227    21265592.981  
      1916.129        1493.083          51.023          46.112  
  -8687918.969    -6756590.937    23313688.033    23313690.067    23313688.879  
     -3004.312       -2341.014          48.070          41.943  
  -3126446.314    -2390362.618    23780917.769    23780921.519    23780918.658  
     -3149.231       -2453.943          49.286          43.333  
  -5456754.319    -4243643.033    23843977.836    23843979.596    23843979.412  
      1968.057        1533.541          48.070          41.422  
 -14731398.406   -11224155.510    22231911.599    22231914.593    22231912.419  
      2948.821        2297.784          51.023          45.244  
 03  8  2  0 25  9.0000000  0  8G 1G 2G 3G13G16G20G27G31             0.000927241
 -24334626.393   -18950189.019    20454393.969    20454396.538    20454394.109  
       124.288          96.859          52.065          47.676  
 -14596446.894   -11345469.111    22203162.555    22203165.090    22203163.626  
     -1991.829       -1552.072          50.676          45.244  
 -17527493.185   -13646139.447    21736157.701    21736160.291    21736157.978  
      1004.950         783.089          51.718          45.417  
 -18558269.390   -14445711.133    21265046.420    21265047.406    21265046.190  
      1915.442        1492.556          51.023          45.938  
  -8683411.841    -6753078.884    23314545.603    23314547.080    23314546.541  
     -3004.501       -2341.163          48.070          41.943  
  -3121721.933    -2386681.288    23781817.099    23781820.342    23781817.642  
     -3149.372       -2454.053          49.286          43.159  
  -5459706.031    -4245943.076    23843416.448    23843417.561    23843417.864  
      1968.069        1533.566          48.070          41.422  
 -14735820.801   -11227601.531    22231070.169    22231073.111    22231070.888  
      2948.324        2297.409          51.023          45.244  
 03  8  2  0 25 10.5000000  0  8G 1G 2G 3G13G16G20G27G31             0.000927241
 -24334811.708   -18950333.421    20454358.857    20454361.261    20454358.886  
       123.159          95.963          52.065          47.676  
 -14593458.492   -11343140.486    22203731.226    22203733.853    22203732.323  
     -1992.360       -1552.497          50.676          45.244  
 -17528999.415   -13647313.131    21735871.141    21735874.036    21735871.419  
      1003.734         782.129          51.718          45.244  
 -18561141.631   -14447949.240    21264499.819    21264500.720    21264499.587  
      1914.527        1491.837          51.023          45.938  
  -8678904.420    -6749566.605    23315403.368    23315405.283    23315404.336  
     -3005.021       -2341.598          48.070          41.769  
  -3116997.331    -2382999.779    23782716.223    23782720.047    23782716.689  
     -3149.817       -2454.411          49.286          43.159  
  -5462657.755    -4248243.124    23842854.743    23842856.419    23842856.174  
      1967.771        1533.326          48.070          41.595  
 -14740242.409   -11231046.936    22230228.703    22230231.505    22230229.465  
      2947.529        2296.776          51.023          45.070  
 03  8  2  0 25 12.0000000  0  8G 1G 2G 3G13G16G20G27G31             0.000927241
 -24334995.960   -18950476.995    20454323.797    20454326.166    20454323.855  
       122.638          95.560          52.065          47.849  
 -14590469.857   -11340811.684    22204300.160    22204302.923    22204301.031  
     -1992.366       -1552.489          50.676          45.244  
 -17530504.493   -13648485.920    21735584.716    21735587.508    21735585.029  
      1003.147         781.672          51.718          45.244  
 -18564013.081   -14450186.739    21263953.522    21263954.353    21263953.155  
      1914.237        1491.616          51.023          45.938  
  -8674396.906    -6746054.260    23316260.983    23316262.548    23316262.141  
     -3004.875       -2341.452          48.070          41.769  
  -3112272.729    -2379318.274    23783615.319    23783618.861    23783615.734  
     -3149.589       -2454.216          49.286          43.159  
  -5465609.736    -4250543.371    23842292.845    23842293.984    23842294.527  
      1968.204        1533.669          48.070          41.422  
 -14744663.474   -11234491.918    22229387.316    22229390.294    22229388.135  
      2947.302        2296.592          51.023          45.244  
 03  8  2  0 25 13.5000000  0  8G 1G 2G 3G13G16G20G27G31             0.000927241
 -24335178.775   -18950619.445    20454289.081    20454291.317    20454289.144  
       121.398          94.590          52.065          47.676  
 -14587480.647   -11338482.429    22204868.947    22204871.791    22204869.924  
     -1992.989       -1552.982          50.676          45.070  
 -17532008.044   -13649657.514    21735298.781    21735301.301    21735298.859  
      1001.875         780.676          51.718          45.244  
 -18566883.378   -14452423.328    21263407.206    21263407.747    21263406.948  
      1913.128        1490.742          51.023          46.112  
  -8669888.944    -6742541.568    23317118.645    23317120.598    23317119.937  
     -3005.470       -2341.927          48.070          41.769  
  -3107547.761    -2375636.485    23784514.353    23784517.629    23784514.787  
     -3150.070       -2454.609          49.286          43.159  
  -5468561.575    -4252843.498    23841731.321    23841732.021    23841732.887  
      1967.837        1533.383          48.070          41.422  
 -14749083.613   -11237936.180    22228546.123    22228549.314    22228546.964  
      2946.405        2295.892          51.023          45.244  
 03  8  2  0 25 15.0000000  0  8G 1G 2G 3G13G16G20G27G31             0.000927242
 -24335360.414   -18950760.987    20454254.497    20454256.675    20454254.564  
       120.772          94.113          52.065          47.676  
 -14584491.089   -11336152.905    22205437.882    22205440.742    22205438.795  
     -1993.069       -1553.041          50.676          45.070  
 -17533510.326   -13650828.125    21735012.792    21735015.366    21735012.938  
      1001.194         780.156          51.718          45.244  
 -18569752.766   -14454659.215    21262861.147    21262862.181    21262860.890  
      1912.691        1490.411          51.023          45.938  
  -8665380.787    -6739028.719    23317976.728    23317977.857    23317977.798  
     -3005.464       -2341.931          48.070          41.943  
  -3102822.660    -2371954.593    23785413.484    23785417.038    23785413.899  
     -3150.037       -2454.571          49.286          43.159  
  -5471513.482    -4255143.692    23841169.266    23841170.524    23841170.993  
      1968.075        1533.562          48.070          41.422  
 -14753503.090   -11241379.933    22227705.132    22227707.511    22227705.894  
      2946.133        2295.693          51.023          45.070  
 03  8  2  0 25 16.5000000  0  8G 1G 2G 3G13G16G20G27G31             0.000927242
 -24335540.873   -18950901.602    20454220.113    20454222.461    20454220.265  
       119.827          93.367          52.065          47.676  
 -14581501.209   -11333823.132    22206006.913    22206009.230    22206007.714  
     -1993.442       -1553.335          50.676          45.070  
 -17535011.339   -13651997.745    21734727.045    21734729.646    21734727.363  
      1000.175         779.349          51.718          45.244  
 -18572621.256   -14456894.403    21262315.206    21262316.360    21262315.036  
      1911.958        1489.843          51.023          45.938  
  -8660872.457    -6735515.739    23318834.752    23318835.866    23318835.641  
     -3005.630       -2342.044          48.070          41.769  
  -3098097.449    -2368272.615    23786312.811    23786316.062    23786312.960  
     -3150.251       -2454.742          49.286          43.159  
  -5474465.548    -4257443.997    23840607.560    23840609.354    23840609.230  
      1967.993        1533.502          48.070          41.422  
 -14757921.913   -11244823.171    22226864.347    22226867.366    22226864.955  
      2945.556        2295.235          51.023          45.244  
 03  8  2  0 25 18.0000000  0  8G 1G 2G 3G13G16G20G27G31             0.000927242
 -24335720.111   -18951041.270    20454186.293    20454188.398    20454186.208  
       119.085          92.788          52.065          47.849  
 -14578510.954   -11331493.063    22206575.916    22206578.596    22206576.675  
     -1993.602       -1553.462          50.676          45.070  
 -17536511.049   -13653166.348    21734442.027    21734444.369    21734441.992  
       999.394         778.742          51.718          45.244  
 -18575488.798   -14459128.855    21261769.696    21261770.368    21261769.360  
      1911.411        1489.406          51.023          45.938  
  -8656363.858    -6732002.551    23319692.344    23319693.756    23319693.674  
     -3005.790       -2342.176          48.070          41.769  
  -3093372.087    -2364590.519    23787212.073    23787215.901    23787212.086  
     -3150.254       -2454.743          49.460          43.159  
  -5477417.687    -4259744.367    23840045.564    23840047.294    23840047.354  
      1968.046        1533.549          48.070          41.422  
 -14762340.033   -11248265.856    22226023.488    22226026.543    22226024.122  
      2945.170        2294.925          51.023          45.070  
 03  8  2  0 25 19.5000000  0  8G 1G 2G 3G13G16G20G27G31             0.000927242
 -24335898.066   -18951179.936    20454152.269    20454154.495    20454152.304  
       118.409          92.268          52.065          47.849  
 -14575520.245   -11329162.637    22207145.072    22207147.412    22207145.688  
     -1993.770       -1553.584          50.676          45.070  
 -17538009.373   -13654333.868    21734156.911    21734159.127    21734156.996  
       998.618         778.148          51.718          45.244  
 -18578355.332   -14461362.515    21261224.116    21261224.912    21261223.832  
      1910.881        1489.009          51.023          45.938  
  -8651854.963    -6728489.125    23320550.635    23320551.802    23320551.704  
     -3005.832       -2342.210          48.070          41.943  
  -3088646.500    -2360908.244    23788111.179    23788114.632    23788111.312  
     -3150.242       -2454.724          49.460          43.159  
  -5480369.863    -4262044.758    23839483.783    23839485.969    23839485.387  
      1968.169        1533.636          48.070          41.248  
 -14766757.357   -11251707.925    22225182.934    22225185.977    22225183.478  
      2944.815        2294.661          51.023          45.070  
 03  8  2  0 25 21.0000000  0  8G 1G 2G 3G13G16G20G27G31             0.000927242
 -24336074.802   -18951317.653    20454118.666    20454120.848    20454118.631  
       117.644          91.671          52.065          47.676  
 -14572529.160   -11326831.922    22207714.341    22207716.550    22207714.817  
     -1993.971       -1553.743          50.676          45.070  
 -17539506.383   -13655500.369    21733871.941    21733874.405    21733872.229  
       997.775         777.484          51.718          45.244  
 -18581220.904   -14463595.428    21260678.856    21260679.466    21260678.529  
      1910.316        1488.561          51.023          45.938  
  -8647345.836    -6724975.514    23321408.647    23321409.860    23321409.717  
     -3005.928       -2342.292          48.070          41.943  
  -3083920.749    -2357225.846    23789010.470    23789014.320    23789010.577  
     -3150.347       -2454.806          49.460          43.159  
  -5483322.086    -4264345.194    23838921.986    23838924.153    23838923.463  
      1968.378        1533.803          48.070          41.422  
 -14771173.953   -11255149.425    22224342.481    22224344.894    22224342.991  
      2944.363        2294.307          51.023          45.070  
 03  8  2  0 25 22.5000000  0  8G 1G 2G 3G13G16G20G27G31             0.000927242
 -24336250.274   -18951454.385    20454085.266    20454087.454    20454085.234  
       116.663          90.909          52.065          47.849  
 -14569537.667   -11324500.889    22208283.625    22208286.083    22208284.027  
     -1994.336       -1554.035          50.676          45.070  
 -17541002.041   -13656665.817    21733587.350    21733589.501    21733587.723  
       996.745         776.693          51.718          45.244  
 -18584085.484   -14465827.570    21260133.609    21260134.405    21260133.391  
      1909.499        1487.920          51.023          45.938  
  -8642836.430    -6721461.696    23322266.780    23322268.186    23322267.806  
     -3006.253       -2342.521          48.070          41.943  
  -3079194.816    -2353543.300    23789909.674    23789913.250    23789909.797  
     -3150.580       -2454.988          49.460          43.159  
  -5486274.339    -4266645.644    23838360.143    23838361.735    23838361.488  
      1968.182        1533.652          48.070          41.422  
 -14775589.814   -11258590.357    22223502.183    22223504.892    22223502.598  
      2943.757        2293.845          51.023          45.070  
 03  8  2  0 25 24.0000000  0  8G 1G 2G 3G13G16G20G27G31             0.000927243
 -24336424.606   -18951590.230    20454051.976    20454054.260    20454052.120  
       115.598          90.072          52.065          47.676  
 -14566545.873   -11322169.624    22208853.009    22208855.080    22208853.324  
     -1994.817       -1554.406          50.676          45.070  
 -17542496.465   -13657830.305    21733303.046    21733305.304    21733303.499  
       995.622         775.805          51.718          45.244  
 -18586949.194   -14468059.034    21259588.771    21259589.348    21259588.441  
      1908.612        1487.231          51.023          45.938  
  -8638326.873    -6717947.755    23323125.278    23323125.891    23323125.985  
     -3006.679       -2342.885          48.070          41.769  
  -3074468.806    -2349860.699    23790809.000    23790812.650    23790809.137  
     -3150.919       -2455.273          49.460          43.159  
  -5489226.732    -4268946.204    23837798.287    23837799.938    23837799.530  
      1967.998        1533.488          48.070          41.422  
 -14780005.045   -11262030.797    22222661.932    22222664.787    22222662.325  
      2943.035        2293.271          51.197          45.070  
 03  8  2  0 25 25.5000000  0  8G 1G 2G 3G13G16G20G27G31             0.000927243
 -24336597.672   -18951725.085    20454019.123    20454021.509    20454019.277  
       115.300          89.851          52.065          47.676  
 -14563553.661   -11319838.029    22209422.399    22209424.877    22209422.711  
     -1994.564       -1554.196          50.676          45.070  
 -17543989.541   -13658993.745    21733018.917    21733021.311    21733019.430  
       995.300         775.562          51.718          45.244  
 -18589811.926   -14470289.732    21259043.977    21259044.643    21259043.675  
      1908.508        1487.156          51.023          45.938  
  -8633817.035    -6714433.590    23323983.175    23323984.380    23323984.246  
     -3006.290       -2342.568          48.070          41.943  
  -3069742.599    -2346177.947    23791708.471    23791712.379    23791708.457  
     -3150.505       -2454.924          49.460          43.159  
  -5492179.163    -4271246.803    23837236.216    23837238.820    23837237.614  
      1968.530        1533.932          48.070          41.595  
 -14784419.519   -11265470.643    22221821.720    22221824.831    22221822.212  
      2943.063        2293.301          51.023          45.070  
 03  8  2  0 25 27.0000000  0  8G 1G 2G 3G13G16G20G27G31             0.000927243
 -24336769.428   -18951858.919    20453986.444    20453988.726    20453986.639  
       113.947          88.784          52.065          47.676  
 -14560560.987   -11317506.073    22209991.898    22209993.901    22209992.151  
     -1995.385       -1554.861          50.676          45.070  
 -17545481.194   -13660156.070    21732734.923    21732737.326    21732735.630  
       993.846         774.419          51.718          45.244  
 -18592673.615   -14472519.617    21258499.277    21258500.092    21258499.020  
      1907.358        1486.243          51.023          45.938  
  -8629306.882    -6710919.189    23324841.398    23324842.096    23324842.447  
     -3007.009       -2343.132          48.070          41.769  
  -3065016.149    -2342495.001    23792607.850    23792611.220    23792607.844  
     -3151.181       -2455.474          49.460          43.159  
  -5495131.598    -4273547.393    23836674.417    23836677.027    23836675.642  
      1968.010        1533.507          48.070          41.422  
 -14788833.201   -11268909.873    22220982.004    22220984.816    22220982.270  
      2942.035        2292.485          51.197          45.244  
 03  8  2  0 25 28.5000000  0  8G 1G 2G 3G13G16G20G27G31             0.000927243
 -24336940.067   -18951991.888    20453954.051    20453956.182    20453954.194  
       113.090          88.123          52.065          47.676  
 -14557568.054   -11315173.920    22210561.346    22210563.560    22210561.731  
     -1995.680       -1555.073          50.676          45.070  
 -17546971.662   -13661317.477    21732451.322    21732453.821    21732452.039  
       992.962         773.740          51.718          45.244  
 -18595534.464   -14474748.852    21257954.938    21257955.737    21257954.585  
      1906.668        1485.712          51.023          45.938  
  -8624796.595    -6707404.685    23325699.899    23325701.482    23325700.714  
     -3007.201       -2343.256          47.896          41.769  
  -3060289.653    -2338812.024    23793507.456    23793511.524    23793507.180  
     -3151.276       -2455.548          49.460          43.159  
  -5498084.230    -4275848.144    23836112.351    23836115.369    23836113.576  
      1968.181        1533.642          48.070          41.595  
 -14793246.269   -11272348.626    22220142.166    22220145.134    22220142.488  
      2941.527        2292.090          51.197          45.070  
 03  8  2  0 25 30.0000000  0  8G 1G 2G 3G13G16G20G27G31             0.000927243
 -24337109.389   -18952123.828    20453921.765    20453924.020    20453922.008  
       112.977          88.051          52.065          47.849  
 -14554574.632   -11312841.386    22211130.869    22211133.030    22211131.334  
     -1995.196       -1554.674          50.676          45.070  
 -17548460.703   -13662477.769    21732167.879    21732170.234    21732168.733  
       992.743         773.588          51.718          45.244  
 -18598394.274   -14476977.277    21257410.637    21257411.516    21257410.419  
      1906.728        1485.779          51.023          45.938  
  -8620285.976    -6703889.918    23326557.760    23326558.736    23326558.999  
     -3006.664       -2342.832          47.896          41.769  
  -3055562.911    -2335128.850    23794406.799    23794410.058    23794406.623  
     -3150.705       -2455.074          49.460          43.333  
  -5501036.807    -4278148.859    23835550.738    23835552.524    23835551.505  
      1968.890        1534.232          48.070          41.595  
 -14797658.520   -11275786.746    22219302.544    22219305.543    22219302.913  
      2941.720        2292.272          51.197          45.070  
 03  8  2  0 25 31.5000000  0  8G 1G 2G 3G13G16G20G27G31             0.000927243
 -24337277.376   -18952254.727    20453889.740    20453891.872    20453890.069  
       111.413          86.808          52.065          47.849  
 -14551580.722   -11310508.469    22211700.543    22211703.005    22211701.077  
     -1996.202       -1555.480          50.676          45.070  
 -17549948.323   -13663636.952    21731884.844    21731887.436    21731885.622  
       991.161         772.330          51.718          45.244  
 -18601253.012   -14479204.861    21256866.779    21256867.574    21256866.404  
      1905.346        1484.674          51.023          45.938  
  -8615775.023    -6700374.896    23327416.213    23327417.312    23327417.504  
     -3007.557       -2343.554          47.896          41.769  
  -3050835.904    -2331445.470    23795306.392    23795309.890    23795306.233  
     -3151.556       -2455.761          49.460          43.159  
  -5503989.371    -4280449.547    23834988.948    23834990.817    23834989.497  
      1968.175        1533.628          48.070          41.595  
 -14802069.951   -11279224.223    22218463.069    22218465.927    22218463.476  
      2940.526        2291.322          51.197          45.070  
 03  8  2  0 25 33.0000000  0  8G 1G 2G 3G13G16G20G27G31             0.000927243
 -24337444.277   -18952384.778    20453857.964    20453860.226    20453858.338  
       110.552          86.137          52.065          47.676  
 -14548586.577   -11308175.369    22212270.614    22212272.678    22212270.789  
     -1996.516       -1555.725          50.676          45.070  
 -17551434.769   -13664795.224    21731602.017    21731604.257    21731602.773  
       990.232         771.606          51.718          45.244  
 -18604110.940   -14481431.818    21256322.860    21256323.612    21256322.613  
      1904.649        1484.143          51.023          45.938  
  -8611263.951    -6696859.774    23328274.876    23328275.594    23328275.951  
     -3007.795       -2343.744          47.896          41.943  
  -3046108.877    -2327762.076    23796205.560    23796209.938    23796205.760  
     -3151.745       -2455.912          49.460          43.159  
  -5506942.147    -4282750.419    23834427.103    23834428.750    23834427.402  
      1968.197        1533.661          48.070          41.595  
 -14806480.802   -11282661.243    22217623.757    22217626.584    22217624.111  
      2939.981        2290.888          51.197          45.070  
 03  8  2  0 25 34.5000000  0  8G 1G 2G 3G13G16G20G27G31             0.000927243
 -24337609.943   -18952513.869    20453826.352    20453828.647    20453826.757  
       110.050          85.756          52.065          47.676  
 -14545592.050   -11305841.972    22212840.427    22212842.524    22212840.645  
     -1996.467       -1555.689          50.676          45.070  
 -17552919.887   -13665952.458    21731319.397    21731321.683    21731320.163  
       989.652         771.161          51.718          45.244  
 -18606967.891   -14483658.016    21255779.226    21255779.957    21255778.976  
      1904.333        1483.896          51.023          45.938  
  -8606752.639    -6693344.469    23329133.499    23329134.448    23329134.461  
     -3007.675       -2343.640          47.896          41.769  
  -3041381.688    -2324078.557    23797105.328    23797109.414    23797105.283  
     -3151.467       -2455.682          49.460          43.159  
  -5509894.993    -4285051.341    23833865.223    23833867.443    23833865.376  
      1968.544        1533.941          48.070          41.595  
 -14810890.916   -11286097.696    22216784.556    22216787.314    22216784.914  
      2939.847        2290.793          51.197          45.070  
 03  8  2  0 25 36.0000000  0  8G 1G 2G 3G13G16G20G27G31             0.000927243
 -24337774.227   -18952641.881    20453795.145    20453797.520    20453795.449  
       109.045          84.967          52.065          47.676  
 -14542596.987   -11303508.154    22213410.244    22213412.818    22213410.646  
     -1996.890       -1556.021          50.676          45.070  
 -17554403.525   -13667108.537    21731037.041    21731039.458    21731037.772  
       988.585         770.327          51.718          45.244  
 -18609823.732   -14485883.345    21255235.640    21255236.197    21255235.544  
      1903.494        1483.244          51.023          45.938  
  -8602240.957    -6689828.867    23329991.999    23329992.914    23329993.018  
     -3007.913       -2343.841          47.896          41.943  
  -3036654.194    -2320394.798    23798004.825    23798008.082    23798004.908  
     -3151.783       -2455.927          49.460          43.333  
  -5512847.760    -4287352.197    23833303.116    23833306.051    23833303.296  
      1968.509        1533.912          48.070          41.595  
 -14815300.168   -11289533.472    22215945.615    22215948.384    22215945.872  
      2939.205        2290.290          51.197          45.070  
 03  8  2  0 25 37.5000000  0  8G 1G 2G 3G13G16G20G27G31             0.000927243
 -24337937.435   -18952769.061    20453764.220    20453766.371    20453764.376  
       108.174          84.296          52.065          47.849  
 -14539601.705   -11301174.171    22213980.184    22213982.331    22213980.640  
     -1997.162       -1556.224          50.676          45.070  
 -17555886.011   -13668263.722    21730754.690    21730757.248    21730755.542  
       987.671         769.611          51.718          45.244  
 -18612678.780   -14488108.060    21254692.473    21254692.978    21254692.214  
      1902.827        1482.721          51.023          45.765  
  -8597729.164    -6686313.187    23330850.448    23330851.855    23330851.618  
     -3008.164       -2344.012          47.896          41.769  
  -3031926.704    -2316711.046    23798904.347    23798908.722    23798904.519  
     -3151.920       -2456.026          49.460          43.159  
  -5515800.780    -4289653.249    23832741.009    23832742.962    23832741.171  
      1968.454        1533.854          48.070          41.595  
 -14819708.861   -11292968.820    22215106.634    22215109.353    22215106.924  
      2938.644        2289.849          51.197          45.070  
 03  8  2  0 25 39.0000000  0  8G 1G 2G 3G13G16G20G27G31             0.000927243
 -24338099.445   -18952895.305    20453733.282    20453735.514    20453733.561  
       107.713          83.938          52.065          47.676  
 -14536606.064   -11298839.907    22214550.417    22214552.367    22214550.754  
     -1997.105       -1556.181          50.676          45.070  
 -17557367.199   -13669417.896    21730472.984    21730475.462    21730473.550  
       987.131         769.192          51.718          45.244  
 -18615532.886   -14490332.036    21254149.290    21254149.975    21254149.149  
      1902.524        1482.488          51.023          45.938  
  -8593217.162    -6682797.346    23331708.896    23331710.644    23331710.244  
     -3008.044       -2343.928          47.896          41.769  
  -3027199.070    -2313027.177    23799804.140    23799808.368    23799804.187  
     -3151.678       -2455.845          49.460          43.159  
  -5518753.889    -4291954.369    23832179.031    23832181.015    23832179.027  
      1968.834        1534.169          48.070          41.422  
 -14824116.849   -11296403.614    22214267.615    22214270.395    22214268.061  
      2938.487        2289.736          51.197          45.070  
 03  8  2  0 25 40.5000000  0  8G 1G 2G 3G13G16G20G27G31             0.000927243
 -24338259.975   -18953020.390    20453702.750    20453704.914    20453702.984  
       106.237          82.770          52.065          47.849  
 -14533609.798   -11296505.150    22215120.323    22215122.703    22215121.006  
     -1998.007       -1556.895          50.676          45.070  
 -17558846.816   -13670570.841    21730191.311    21730193.910    21730191.899  
       985.578         767.969          51.718          45.244  
 -18618385.781   -14492555.067    21253606.396    21253607.048    21253606.282  
      1901.214        1481.450          51.023          45.938  
  -8588704.699    -6679281.145    23332567.577    23332569.247    23332568.912  
     -3008.779       -2344.516          47.722          41.943  
  -3022471.047    -2309343.004    23800703.816    23800707.817    23800703.912  
     -3152.494       -2456.491          49.460          43.159  
  -5521706.808    -4294255.345    23831617.244    23831619.415    23831616.928  
      1968.073        1533.541          48.070          41.422  
 -14828523.856   -11299837.642    22213429.207    22213431.594    22213429.433  
      2937.352        2288.833          51.197          45.070  
 03  8  2  0 25 42.0000000  0  8G 1G 2G 3G13G16G20G27G31             0.000927243
 -24338419.534   -18953144.724    20453672.410    20453674.572    20453672.619  
       105.639          82.315          52.065          47.676  
 -14530613.406   -11294170.306    22215690.479    22215693.035    22215691.228  
     -1998.054       -1556.924          50.676          44.896  
 -17560325.367   -13671722.958    21729909.924    21729912.634    21729910.435  
       984.919         767.460          51.718          45.244  
 -18621237.982   -14494777.564    21253063.561    21253064.379    21253063.544  
      1900.831        1481.159          51.023          45.938  
  -8584192.228    -6675764.934    23333426.344    23333427.670    23333427.491  
     -3008.685       -2344.422          47.722          41.943  
  -3017743.131    -2305658.924    23801603.182    23801607.530    23801603.610  
     -3152.317       -2456.347          49.460          43.159  
  -5524660.071    -4296556.596    23831055.283    23831057.614    23831054.727  
      1968.438        1533.842          48.070          41.595  
 -14832930.399   -11303271.311    22212590.590    22212593.322    22212590.858  
      2937.093        2288.635          51.197          45.070  
 03  8  2  0 25 43.5000000  0  8G 1G 2G 3G13G16G20G27G31             0.000927243
 -24338577.724   -18953267.988    20453642.390    20453644.608    20453642.562  
       105.172          81.958          52.065          47.849  
 -14527616.493   -11291835.048    22216260.841    22216263.054    22216261.489  
     -1997.970       -1556.852          50.676          45.070  
 -17561802.463   -13672873.943    21729628.980    21729631.780    21729629.241  
       984.400         767.072          51.718          45.417  
 -18624089.080   -14496999.197    21252521.237    21252521.718    21252520.986  
      1900.518        1480.925          51.023          45.938  
  -8579679.377    -6672248.429    23334285.175    23334286.730    23334286.147  
     -3008.579       -2344.347          47.722          41.943  
  -3013014.908    -2301974.595    23802503.071    23802507.085    23802503.262  
     -3152.077       -2456.162          49.460          43.159  
  -5527613.216    -4298857.745    23830493.184    23830495.708    23830492.514  
      1968.861        1534.195          48.070          41.422  
 -14837336.073   -11306704.299    22211752.197    22211755.288    22211752.434  
      2936.945        2288.537          51.197          45.070  
 03  8  2  0 25 45.0000000  0  8G 1G 2G 3G13G16G20G27G31             0.000927243
 -24338734.749   -18953390.348    20453612.486    20453614.651    20453612.713  
       104.285          81.267          52.065          47.676  
 -14524619.270   -11289499.550    22216831.172    22216833.639    22216831.884  
     -1998.268       -1557.095          50.676          45.070  
 -17563278.294   -13674023.939    21729348.122    21729350.713    21729348.373  
       983.465         766.333          51.718          45.244  
 -18626939.283   -14499220.134    21251978.789    21251979.337    21251978.657  
      1899.819        1480.379          51.023          45.938  
  -8575166.352    -6668731.782    23335143.944    23335145.192    23335144.951  
     -3008.756       -2344.470          47.722          42.117  
  -3008286.593    -2298290.199    23803402.790    23803406.495    23803402.909  
     -3152.222       -2456.278          49.460          43.159  
  -5530566.523    -4301159.019    23829931.289    23829933.439    23829930.208  
      1968.880        1534.188          48.070          41.595  
 -14841741.103   -11310136.793    22210914.079    22210916.830    22210914.149  
      2936.442        2288.139          51.197          45.070  
 03  8  2  0 25 46.5000000  0  8G 1G 2G 3G13G16G20G27G31             0.000927243
 -24338890.483   -18953511.701    20453582.830    20453585.025    20453583.154  
       103.288          80.480          52.065          47.849  
 -14521621.614   -11287163.717    22217401.459    22217404.248    22217402.351  
     -1998.650       -1557.391          50.676          44.896  
 -17564752.757   -13675172.872    21729067.534    21729070.313    21729067.814  
       982.410         765.514          51.718          45.244  
 -18629788.469   -14501440.277    21251436.675    21251437.288    21251436.451  
      1899.016        1479.745          51.023          45.938  
  -8570653.038    -6665214.915    23336002.481    23336004.511    23336003.634  
     -3009.178       -2344.811          47.722          41.943  
  -3003558.058    -2294605.630    23804302.604    23804306.531    23804302.569  
     -3152.532       -2456.524          49.460          43.159  
  -5533519.818    -4303460.280    23829369.109    23829371.496    23829368.044  
      1968.730        1534.061          48.070          41.422  
 -14846145.339   -11313568.665    22210075.951    22210078.492    22210075.988  
      2935.777        2287.606          51.197          45.070  
 03  8  2  0 25 48.0000000  0  8G 1G 2G 3G13G16G20G27G31             0.000927243
 -24339045.031   -18953632.128    20453553.441    20453555.523    20453553.765  
       102.806          80.119          52.065          47.676  
 -14518623.612   -11284827.614    22217971.920    22217974.612    22217972.804  
     -1998.572       -1557.326          50.676          45.070  
 -17566225.924   -13676320.796    21728787.205    21728790.032    21728787.479  
       981.887         765.110          51.718          45.244  
 -18632636.731   -14503659.706    21250894.512    21250895.205    21250894.382  
      1898.732        1479.543          51.023          45.938  
  -8566139.539    -6661697.919    23336861.193    23336863.046    23336862.549  
     -3008.902       -2344.596          47.722          41.943  
  -2998829.423    -2290920.988    23805202.621    23805206.676    23805202.243  
     -3152.238       -2456.275          49.460          43.159  
  -5536473.236    -4305761.652    23828807.127    23828809.945    23828805.898  
      1969.221        1534.462          48.070          41.422  
 -14850548.897   -11317000.005    22209238.012    22209240.635    22209238.022  
      2935.660        2287.531          51.197          45.070  
 03  8  2  0 25 49.5000000  0  8G 1G 2G 3G13G16G20G27G31             0.000927243
 -24339198.241   -18953751.512    20453524.352    20453526.338    20453524.641  
       102.069          79.539          52.065          47.849  
 -14515625.128   -11282491.132    22218542.598    22218545.039    22218543.365  
     -1998.790       -1557.497          50.676          45.070  
 -17567697.662   -13677467.601    21728507.155    21728510.082    21728507.465  
       981.012         764.424          51.718          45.244  
 -18635483.936   -14505878.301    21250352.784    21250353.407    21250352.570  
      1898.090        1479.026          51.023          45.938  
  -8561625.686    -6658180.628    23337720.550    23337722.297    23337721.563  
     -3009.011       -2344.699          47.722          41.943  
  -2994100.498    -2287236.110    23806102.582    23806106.148    23806102.091  
     -3152.433       -2456.441          49.460          43.159  
  -5539426.604    -4308062.979    23828245.221    23828247.616    23828243.800  
      1969.187        1534.427          48.070          41.595  
 -14854951.622   -11320430.696    22208400.214    22208402.743    22208400.189  
      2935.220        2287.186          51.197          45.070  
 03  8  2  0 25 51.0000000  0  8G 1G 2G 3G13G16G20G27G31             0.000927243
 -24339350.338   -18953870.030    20453495.370    20453497.372    20453495.705  
       100.919          78.640          52.065          47.676  
 -14512626.380   -11280154.446    22219113.311    22219115.652    22219113.911  
     -1999.363       -1557.947          50.676          45.070  
 -17569168.208   -13678613.483    21728227.359    21728229.870    21728227.634  
       979.872         763.536          51.718          45.244  
 -18638330.296   -14508096.247    21249811.102    21249811.830    21249810.944  
      1897.193        1478.333          51.023          45.938  
  -8557111.691    -6654663.231    23338579.406    23338581.253    23338580.511  
     -3009.467       -2345.040          47.549          41.943  
  -2989371.565    -2283551.234    23807002.419    23807006.174    23807002.080  
     -3152.741       -2456.681          49.460          43.159  
  -5542380.162    -4310364.454    23827683.511    23827685.587    23827681.895  
      1968.978        1534.259          48.070          41.422  
 -14859353.750   -11323860.929    22207562.489    22207565.084    22207562.524  
      2934.416        2286.555          51.197          45.070  
 03  8  2  0 25 52.5000000  0  8G 1G 2G 3G13G16G20G27G31             0.000927243
 -24339501.148   -18953987.547    20453466.612    20453468.814    20453467.041  
       100.387          78.228          52.065          47.676  
 -14509627.206   -11277817.430    22219684.059    22219686.370    22219684.607  
     -1999.306       -1557.893          50.676          44.896  
 -17570637.364   -13679758.280    21727947.756    21727950.337    21727948.032  
       979.262         763.062          51.718          45.244  
 -18641175.630   -14510313.390    21249269.570    21249270.225    21249269.555  
      1896.816        1478.048          51.023          45.938  
  -8552597.387    -6651145.599    23339438.119    23339439.962    23339439.422  
     -3009.449       -2345.017          47.549          41.943  
  -2984642.412    -2279866.183    23807902.475    23807906.011    23807902.133  
     -3152.618       -2456.592          49.460          43.159  
  -5545333.727    -4312665.930    23827121.222    23827123.407    23827120.129  
      1969.268        1534.501          48.070          41.595  
 -14863755.082   -11327290.540    22206724.980    22206727.382    22206725.047  
      2934.215        2286.413          51.197          45.070  
 03  8  2  0 25 54.0000000  0  8G 1G 2G 3G13G16G20G27G31             0.000927243
 -24339650.610   -18954104.007    20453438.171    20453440.462    20453438.634  
        99.250          77.336          52.065          47.849  
 -14506627.538   -11275480.026    22220254.918    22220257.255    22220255.399  
     -1999.835       -1558.312          50.676          44.896  
 -17572105.075   -13680901.950    21727668.325    21727671.157    21727668.734  
       978.049         762.115          51.718          45.244  
 -18644019.898   -14512529.704    21248728.364    21248729.210    21248728.333  
      1895.902        1477.324          51.023          45.938  
  -8548082.753    -6647627.702    23340297.267    23340299.350    23340298.470  
     -3009.862       -2345.356          47.549          41.943  
  -2979912.992    -2276180.914    23808802.360    23808805.698    23808802.052  
     -3152.968       -2456.849          49.460          42.985  
  -5548287.246    -4314967.372    23826559.224    23826561.596    23826558.230  
      1968.987        1534.267          48.070          41.595  
 -14868155.572   -11330719.493    22205887.701    22205890.032    22205887.673  
      2933.458        2285.817          51.197          45.070  
 03  8  2  0 25 55.5000000  0  8G 1G 2G 3G13G16G20G27G31             0.000927243
 -24339798.992   -18954219.634    20453409.966    20453412.193    20453410.358  
        98.112          76.448          52.065          47.849  
 -14503627.622   -11273142.434    22220825.747    22220828.147    22220826.184  
     -2000.454       -1558.803          50.676          45.070  
 -17573571.623   -13682044.716    21727389.393    21727392.105    21727389.697  
       976.825         761.159          51.718          45.417  
 -18646863.339   -14514745.372    21248187.237    21248188.049    21248187.232  
      1894.927        1476.558          51.023          45.938  
  -8543568.041    -6644109.749    23341156.251    23341158.877    23341157.351  
     -3010.374       -2345.768          47.549          42.117  
  -2975183.561    -2272495.651    23809702.207    23809705.743    23809701.983  
     -3153.398       -2457.179          49.460          43.159  
  -5551240.956    -4317268.957    23825997.304    23825999.887    23825996.271  
      1968.730        1534.076          48.070          41.595  
 -14872555.490   -11334148.003    22205050.295    22205052.751    22205050.312  
      2932.641        2285.171          51.197          45.070  
