     2.10           OBSERVATION DATA    G (GPS)             RINEX VERSION / TYPE
teqc  2000Jul20     ARGNET              20040202 03:37:14UTCPGM / RUN BY / DATE
Solaris 2.7|Ultra 2|cc SC5.0|=+-|*Sparc                     COMMENT
BIT 2 OF LLI FLAGS DATA COLLECTED UNDER A/S CONDITION       COMMENT
alic                                                        MARKER NAME
50137M001                                                   MARKER NUMBER
Geoscience AustraliaGeoscience Australia                    OBSERVER / AGENCY
UC2200302004        ASHTECH UZ-12       ZC00                REC # / TYPE / VERS
318                 AOAD/M_T        NONE                    ANT # / TYPE
 -4052059.5100  4212844.0100 -2545111.4500                  APPROX POSITION XYZ
        0.0070        0.0000        0.0000                  ANTENNA: DELTA H/E/N
     1     1                                                WAVELENGTH FACT L1/2
     9    L1    L2    C1    P2    P1    D1    D2    S1    S2# / TYPES OF OBSERV
    30.0000                                                 INTERVAL
Australian Regional GPS Network (ARGN)                      COMMENT
ALICE SPRINGS AU012                                         COMMENT
 SNR is mapped to RINEX snr flag value [1-9]                COMMENT
  L1: 1 -> 1;  90 -> 5; 210 -> 9                            COMMENT
  L2: 1 -> 1; 150 -> 5; 250 -> 9                            COMMENT
teqc windowed: start @ 2004 Feb  1 00:00:00.000             COMMENT
teqc windowed: delta = 86398.560 sec                        COMMENT
  2004     2     1     0     0    0.0000000     GPS         TIME OF FIRST OBS
                                                            END OF HEADER
 04  2  1  0  0  0.0000000  0  9G 3G20G22G31G15G11G14G25G23
 -16176747.00843 -12355304.59442  22418150.425    22418155.516    22418149.647
     -2741.371       -2136.133          50.000          44.000
  -3817114.94143  -2786970.02742  24599165.143    24599170.366    24599163.560
      1731.321        1349.081          43.000          38.000
   2098711.48143   1648338.44742  23617627.241    23617628.394    23617626.128
     -1854.882       -1445.362          48.000          42.000
 -19862225.61543 -15425988.20742  21722920.988    21722924.617    21722919.051
      -786.651        -612.975          53.000          47.000
 -12222589.82943  -9467674.91342  22589840.476    22589845.972    22589839.200
     -2060.072       -1605.251          52.000          45.000
 -13290671.44743 -10306106.20142  22581326.277    22581328.858    22581325.694
      2935.808        2287.643          53.000          45.000
 -16242920.33343 -12645631.31542  21509006.854    21509009.199    21509005.339
     -2448.548       -1907.959          55.000          49.000
 -17420555.79243 -13563552.55842  21811169.016    21811172.916    21811167.995
      2288.533        1783.272          55.000          48.000
 -15985767.55643 -12394562.48942  22255196.271    22255199.723    22255194.972
     -1670.581       -1301.751          51.000          44.000
 04  2  1  0  0 30.0000000  0 10G 1G 3G20G22G31G15G11G14G25G23
                                  24878177.576
      3334.344        2598.190          41.000
 -16094412.37643 -12291147.80142  22433818.867    22433824.458    22433817.491
     -2747.137       -2140.626          51.000          44.000
  -3869054.26943  -2827442.23642  24589280.998    24589285.923    24589279.917
      1730.841        1348.707          42.000          38.000
   2154358.07843   1691699.36042  23628215.212    23628219.487    23628214.918
     -1854.571       -1445.120          47.000          41.000
 -19838391.04843 -15407415.85242  21727455.838    21727460.112    21727454.529
      -802.274        -625.148          53.000          47.000
 -12160634.24743  -9419397.87442  22601630.960    22601636.191    22601629.281
     -2070.478       -1613.359          51.000          45.000
 -13378655.25543 -10374665.00442  22564584.425    22564586.371    22564583.258
      2930.194        2283.268          52.000          45.000
 -16169322.24743 -12588282.18542  21523011.934    21523014.612    21523010.767
     -2457.731       -1915.115          55.000          49.000
 -17489041.20543 -13616917.79142  21798136.155    21798140.246    21798135.340
      2277.291        1774.512          54.000          48.000
 -15935632.53143 -12355496.27842  22264736.510    22264739.814    22264734.800
     -1671.670       -1302.600          51.000          44.000
 04  2  1  0  1  0.0000000  0 10G 1G 3G20G22G31G15G11G14G25G23
                                  24859163.483
      3329.047        2594.063          42.000
 -16011909.07843 -12226859.57042  22449519.694    22449524.017    22449517.961
     -2752.563       -2144.854          51.000          44.000
  -3920984.08143  -2867906.98042  24579402.855    24579403.071    24579401.125
      1731.154        1348.951          43.000          37.000
   2209993.90443   1735051.90142  23638802.991    23638806.192    23638801.336
     -1854.110       -1444.761          48.000          42.000
 -19814084.51843 -15388475.72742  21732081.899    21732085.248    21732080.148
      -817.923        -637.342          54.000          47.000
 -12098356.55543  -9370869.84742  22613481.735    22613487.806    22613480.393
     -2081.200       -1621.714          51.000          45.000
 -13466479.65543 -10443099.58842  22547870.860    22547873.842    22547870.402
      2925.244        2279.411          52.000          45.000
 -16095453.99343 -12530722.53842  21537068.466    21537071.336    21537067.292
     -2466.453       -1921.911          55.000          49.000
 -17557186.41643 -13670017.92842  21785168.594    21785172.554    21785168.037
      2266.020        1765.730          54.000          48.000
 -15885464.28543 -12316404.16742  22274282.666    22274287.213    22274282.094
     -1672.633       -1303.350          51.000          45.000
 04  2  1  0  1 30.0000000  0 10G 1G 3G20G22G31G15G11G14G25G23
                                  24840177.063
      3322.810        2589.203          43.000
 -15929237.71443 -12162440.39242  22465251.359    22465255.258    22465250.002
     -2758.416       -2149.415          51.000          44.000
  -3972902.54243  -2908362.90442  24569520.795    24569525.732    24569521.001
      1730.354        1348.328          43.000          38.000
   2265621.72543   1778398.20742  23649387.308    23649392.519    23649387.444
     -1854.321       -1444.925          47.000          41.000
 -19789305.35743 -15369167.33542  21736797.232    21736800.540    21736795.935
      -833.813        -649.724          53.000          47.000
 -12035754.88343  -9322089.35542  22625394.857    22625399.593    22625393.417
     -2091.972       -1630.108          51.000          45.000
 -13554139.66643 -10511406.07342  22531189.333    22531192.016    22531188.323
      2919.104        2274.626          52.000          45.000
 -16021315.77743 -12472952.53342  21551176.135    21551179.195    21551175.120
     -2475.742       -1929.150          55.000          49.000
 -17624985.96943 -13722848.72142  21772266.696    21772270.921    21772266.085
      2254.137        1756.470          55.000          48.000
 -15835260.39943 -12277284.29242  22283836.045    22283841.419    22283834.410
     -1674.138       -1304.523          51.000          44.000
 04  2  1  0  2  0.0000000  0 10G 1G 3G20G22G31G15G11G14G25G23
                                  24821219.612
      3318.309        2585.695          43.000
 -15846401.61943 -12097892.84642  22481014.164    22481018.161    22481012.896
     -2763.724       -2153.551          51.000          44.000
  -4024810.71443  -2948810.82442  24559644.512    24559648.125    24559642.553
      1730.706        1348.602          44.000          38.000
   2321241.26643   1821738.07042  23659971.618    23659976.468    23659971.965
     -1853.143       -1444.007          47.000          41.000
 -19764055.83143 -15349492.41342  21741601.788    21741605.812    21741600.581
      -848.733        -661.350          54.000          47.000
 -11972830.05843  -9273057.07442  22637368.606    22637374.157    22637367.157
     -2102.143       -1638.033          51.000          45.000
 -13641633.38543 -10579582.98542  22514540.256    22514542.771    22514539.352
      2914.222        2270.822          52.000          45.000
 -15946910.53443 -12414974.45742  21565334.946    21565338.451    21565333.986
     -2483.897       -1935.504          55.000          49.000
 -17692437.04043 -13775407.98042  21759430.918    21759435.382    21759429.988
      2243.509        1748.189          55.000          48.000
 -15785021.50443 -12238137.13642  22293397.747    22293400.793    22293395.633
     -1674.606       -1304.888          52.000          44.000
 04  2  1  0  2 30.0000000  0 10G 1G 3G20G22G31G15G11G14G25G23
                                  24802296.679
      3312.817        2581.416          43.000
 -15763404.08143 -12033219.50242  22496808.148    22496812.498    22496806.951
     -2768.997       -2157.660          51.000          44.000
  -4076709.35643  -2989251.30742  24549768.094    24549772.416    24549767.054
      1730.089        1348.121          44.000          39.000
   2376853.20943   1865071.98642  23670557.363    23670557.976    23670554.821
     -1853.470       -1444.262          49.000          42.000
 -19738337.43243 -15329452.14342  21746496.102    21746500.025    21746495.019
      -864.857        -673.914          53.000          47.000
 -11909582.50043  -9223773.33442  22649404.107    22649409.312    22649403.195
     -2113.364       -1646.777          50.000          45.000
 -13728958.27943 -10647628.33342  22497923.595    22497925.516    22497921.871
      2908.259        2266.176          53.000          45.000
 -15872240.87743 -12356790.33842  21579544.316    21579547.533    21579543.604
     -2493.212       -1942.762          55.000          48.000
 -17759536.47643 -13827693.21742  21746662.745    21746666.907    21746661.595
      2230.937        1738.392          54.000          48.000
 -15734747.35243 -12198962.50242  22302963.602    22302968.470    22302962.619
     -1676.246       -1306.166          51.000          44.000
 04  2  1  0  3  0.0000000  0 10G 1G 3G20G22G31G15G11G14G25G23
                                  24783403.329
      3306.912        2576.815          45.000
 -15680245.94643 -11968421.02642  22512632.166    22512638.462    22512630.721
     -2774.517       -2161.961          51.000          44.000
  -4128597.40443  -3029683.55242  24539893.036    24539897.940    24539891.869
      1729.317        1347.520          44.000          38.000
   2432459.58643   1908401.55942  23681136.760    23681141.108    23681135.659
     -1853.608       -1444.370          48.000          42.000
 -19712150.28343 -15309046.62042  21751478.813    21751482.826    21751477.699
      -880.705        -686.264          53.000          47.000
 -11846010.73643  -9174236.97042  22661502.109    22661506.362    22661500.186
     -2124.600       -1655.532          50.000          44.000
 -13816110.34243 -10715539.02042  22481338.430    22481341.161    22481337.497
      2902.010        2261.306          52.000          45.000
 -15797307.57543 -12298400.78342  21593803.833    21593806.571    21593802.711
     -2502.237       -1949.795          55.000          48.000
 -17826279.60343 -13879700.82642  21733961.585    21733965.952    21733960.941
      2218.614        1728.790          55.000          48.000
 -15684436.07843 -12159758.95742  22312537.372    22312541.222    22312535.292
     -1677.723       -1307.317          51.000          44.000
 04  2  1  0  3 30.0000000  0 10G 1G 3G20G22G31G15G11G14G25G23
  -1511699.89653   -760932.88752  24764537.876    24764547.734    24764537.763
      3301.542        2572.630          45.000          36.000
 -15596932.12043 -11903501.23342  22528487.200    22528491.331    22528485.789
     -2779.647       -2165.959          50.000          44.000
  -4180477.26243  -3070109.38642  24530019.886    24530025.067    24530018.434
      1729.433        1347.610          43.000          38.000
   2488059.05343   1951725.76042  23691717.639    23691720.371    23691715.604
     -1853.164       -1444.024          48.000          42.000
 -19685498.00343 -15288278.64942  21756550.817    21756554.721    21756549.161
      -896.182        -698.324          53.000          47.000
 -11782117.06243  -9124449.73042  22673660.416    22673665.384    22673659.018
     -2135.143       -1663.748          51.000          45.000
 -13903088.76343 -10783314.39342  22464787.622    22464791.145    22464786.380
      2896.384        2256.923          53.000          45.000
 -15722115.23143 -12239809.37942  21608112.583    21608115.397    21608111.476
     -2510.745       -1956.425          55.000          48.000
 -17892665.49043 -13931430.08042  21721328.682    21721333.162    21721327.855
      2206.882        1719.648          54.000          48.000
 -15634089.68143 -12120528.02642  22322117.381    22322122.769    22322116.323
     -1678.975       -1308.292          50.000          44.000
 04  2  1  0  4  0.0000000  0 10G 1G 3G20G22G31G15G11G14G25G23
  -1610655.09143   -838040.82642  24745708.678    24745719.580    24745707.952
      3295.438        2567.874          46.000          36.000
 -15513463.03143 -11838460.45442  22544370.242    22544375.784    22544368.402
     -2785.132       -2170.233          50.000          44.000
  -4232346.83143  -3110527.18642  24520150.135    24520153.937    24520149.626
      1728.610        1346.969          45.000          39.000
   2543654.82043   1995047.08842  23702296.286    23702300.208    23702294.761
     -1853.404       -1444.211          48.000          41.000
 -19658379.51243 -15267147.39642  21761710.953    21761715.325    21761710.518
      -912.035        -710.677          53.000          47.000
 -11717898.99643  -9074409.71442  22685881.334    22685886.453    22685879.861
     -2146.267       -1672.416          52.000          45.000
 -13989888.26143 -10850950.35242  22448269.956    22448273.241    22448269.139
      2890.001        2251.949          52.000          45.000
 -15646663.63143 -12181015.96842  21622470.430    21622473.453    21622469.265
     -2519.558       -1963.292          55.000          48.000
 -17958688.08843 -13982876.22342  21708764.951    21708769.937    21708763.808
      2194.347        1709.881          54.000          48.000
 -15583705.27843 -12081267.49942  22331705.898    22331710.002    22331704.478
     -1680.257       -1309.291          50.000          44.000
 04  2  1  0  4 30.0000000  0 10G 1G 3G20G22G31G15G11G14G25G23
  -1709443.85043   -915019.04442  24726908.359    24726916.170    24726907.401
      3290.204        2563.795          43.000          36.000
 -15429845.07343 -11773303.68042  22560282.038    22560287.126    22560280.870
     -2789.731       -2173.816          50.000          44.000
  -4284210.29343  -3150940.25142  24510281.592    24510284.522    24510279.978
      1728.860        1347.164          46.000          39.000
   2599243.43143   2038362.81842  23712873.584    23712878.391    23712873.490
     -1852.530       -1443.530          48.000          42.000
 -19630800.31043 -15245657.14942  21766959.951    21766963.482    21766958.889
      -926.953        -722.301          53.000          47.000
 -11653360.72043  -9024120.19642  22698161.896    22698168.094    22698160.309
     -2156.543       -1680.423          51.000          45.000
 -14076510.44643 -10918448.14542  22431785.827    22431789.609    22431784.945
      2884.558        2247.708          52.000          45.000
 -15570958.78843 -12122025.22642  21636876.811    21636879.424    21636875.884
     -2527.515       -1969.492          55.000          48.000
 -18024348.16143 -14034039.88642  21696271.148    21696274.967    21696269.752
      2182.717        1700.818          55.000          48.000
 -15533286.39043 -12041980.10142  22341299.604    22341304.758    22341298.490
     -1681.085       -1309.936          50.000          43.000
 04  2  1  0  5  0.0000000  0 10G 1G 3G20G22G31G15G11G14G25G23
  -1808063.68243   -991865.61342  24708142.536    24708149.514    24708142.362
      3284.047        2558.998          44.000          37.000
 -15346080.30343 -11708032.52042  22576221.429    22576227.889    22576220.863
     -2795.083       -2177.987          49.000          44.000
  -4336067.88543  -3191348.77542  24500413.255    24500416.176    24500412.015
      1728.098        1346.570          46.000          39.000
   2654826.00743   2081673.83342  23723453.229    23723454.801    23723451.336
     -1853.100       -1443.974          50.000          42.000
 -19602761.69643 -15223808.90742  21772295.264    21772299.155    21772294.061
      -942.780        -734.634          53.000          47.000
 -11588502.08543  -8973581.06142  22710504.219    22710509.679    22710502.667
     -2167.881       -1689.258          51.000          44.000
 -14162952.04243 -10985805.22242  22415336.748    22415338.983    22415335.712
      2877.796        2242.438          52.000          45.000
 -15495002.93843 -12062838.87942  21651330.774    21651333.280    21651329.425
     -2536.528       -1976.515          55.000          48.000
 -18089641.68343 -14084917.93442  21683845.735    21683849.643    21683844.801
      2169.791        1690.746          55.000          48.000
 -15482832.39043 -12002665.34342  22350900.686    22350906.058    22350898.933
     -1683.177       -1311.566          50.000          44.000
 04  2  1  0  5 30.0000000  0 10G 1G 3G20G22G31G15G11G14G25G23
  -1906514.97143  -1068580.85742  24689406.348    24689413.171    24689405.454
      3279.001        2555.066          44.000          37.000
 -15262173.92043 -11642650.99542  22592189.198    22592194.733    22592188.424
     -2799.147       -2181.153          50.000          44.000
  -4387922.03343  -3231754.59942  24490545.356    24490549.860    24490544.146
      1728.182        1346.635          46.000          39.000
   2710401.16943   2124979.11742  23734028.191    23734030.530    23734026.910
     -1852.475       -1443.487          49.000          42.000
 -19574267.34643 -15201605.55442  21777717.602    21777721.281    21777716.158
      -957.445        -746.061          53.000          47.000
 -11523325.57243  -8922794.23342  22722906.160    22722912.465    22722905.225
     -2177.819       -1697.002          50.000          44.000
 -14249212.30743 -11053020.98342  22398921.357    22398924.732    22398920.889
      2872.347        2238.192          52.000          45.000
 -15418800.41943 -12003460.33242  21665830.784    21665834.853    21665830.226
     -2544.136       -1982.444          54.000          48.000
 -18154568.03143 -14135509.87942  21671491.264    21671494.706    21671490.152
      2158.153        1681.678          55.000          48.000
 -15432345.18143 -11963324.68742  22360509.080    22360513.203    22360506.800
     -1683.501       -1311.819          50.000          44.000
 04  2  1  0  6  0.0000000  0 10G 1G 3G20G22G31G15G11G14G25G23
  -2004790.58943  -1145159.19142  24670707.575    24670712.916    24670706.516
      3273.474        2550.759          45.000          38.000
 -15178123.84043 -11577157.49942  22608183.224    22608188.132    22608181.471
     -2803.723       -2184.719          50.000          44.000
  -4439768.01043  -3272154.07442  24480680.284    24480683.469    24480677.969
      1728.363        1346.776          46.000          39.000
   2765974.42143   2168282.88742  23744601.427    23744605.743    23744601.528
     -1851.969       -1443.093          48.000          41.000
 -19545313.77343 -15179044.36742  21783227.093    21783231.536    21783225.435
      -972.458        -757.759          53.000          47.000
 -11457826.05043  -8871755.70242  22735371.291    22735376.760    22735369.387
     -2188.413       -1705.257          50.000          44.000
 -14335283.56143 -11120089.48642  22382542.841    22382546.650    22382541.981
      2866.251        2233.442          52.000          45.000
 -15342348.61243 -11943887.53542  21680379.611    21680382.788    21680378.519
     -2552.182       -1988.713          55.000          48.000
 -18219118.86243 -14185809.20442  21659206.861    21659211.382    21659205.959
      2145.661        1671.944          55.000          48.000
 -15381819.14743 -11923953.79542  22370123.627    22370128.323    22370122.585
     -1684.537       -1312.626          50.000          44.000
 04  2  1  0  6 30.0000000  0 10G 1G 3G20G22G31G15G11G14G25G23
  -2102912.35743  -1221617.62742  24652034.364    24652041.427    24652033.652
      3266.772        2545.537          44.000          38.000
 -15093956.16543 -11511572.35842  22624200.313    22624205.322    22624199.177
     -2808.796       -2188.672          50.000          44.000
  -4491629.92143  -3312565.93442  24470810.998    24470815.989    24470808.731
      1727.675        1346.240          46.000          39.000
   2821522.93843   2211567.39242  23755173.264    23755176.254    23755171.663
     -1852.504       -1443.510          47.000          41.000
 -19515926.33343 -15156145.10042  21788819.321    21788823.268    21788818.314
      -988.105        -769.952          53.000          47.000
 -11392027.50943  -8820484.17242  22747891.956    22747897.037    22747891.686
     -2199.554       -1713.938          51.000          44.000
 -14421186.80843 -11187027.06142  22366195.699    22366199.198    22366194.520
      2859.388        2228.095          52.000          45.000
 -15265673.42243 -11884140.67642  21694970.282    21694973.697    21694969.262
     -2560.801       -1995.429          55.000          48.000
 -18283314.58043 -14235831.81942  21646991.148    21646994.959    21646989.606
      2132.710        1661.852          55.000          48.000
 -15331277.86843 -11884571.02442  22379741.394    22379746.158    22379741.016
     -1686.170       -1313.899          50.000          44.000
 04  2  1  0  7  0.0000000  0 10G 1G 3G20G22G31G15G11G14G25G23
  -2200835.61543  -1297921.38242  24633399.624    24633408.948    24633398.686
      3260.981        2541.024          43.000          38.000
 -15009630.89743 -11445864.42542  22640247.057    22640251.583    22640245.491
     -2813.168       -2192.079          51.000          44.000
  -4543465.61043  -3352957.36142  24460947.722    24460949.561    24460944.179
      1727.767        1346.312          45.000          39.000
   2877089.86943   2254866.20042  23765747.826    23765749.094    23765746.954
     -1852.174       -1443.252          49.000          41.000
 -19486064.08143 -15132875.85042  21794502.372    21794505.089    21794500.995
     -1003.058        -781.604          53.000          47.000
 -11325887.88043  -8768946.84942  22760478.030    22760483.159    22760476.232
     -2209.975       -1722.058          50.000          44.000
 -14506876.93243 -11253798.57642  22349889.485    22349892.951    22349889.021
      2852.984        2223.104          52.000          45.000
 -15188734.42443 -11824188.24542  21709612.272    21709615.345    21709611.152
     -2568.797       -2001.660          55.000          48.000
 -18347109.56643 -14285542.16742  21634851.463    21634854.908    21634850.325
      2120.039        1651.978          55.000          48.000
 -15280678.27343 -11845142.79842  22389368.931    22389375.383    22389367.459
     -1687.280       -1314.764          50.000          44.000
 04  2  1  0  7 30.0000000  0 10G 1G 3G20G22G31G15G11G14G25G23
  -2298581.06343  -1374086.58042  24614798.883    24614807.748    24614798.177
      3255.307        2536.603          43.000          38.000
 -14925173.35243 -11380053.41542  22656318.452    22656323.605    22656317.433
     -2817.322       -2195.316          50.000          43.000
  -4595298.02443  -3393346.22242  24451082.983    24451087.991    24451081.983
      1727.949        1346.454          45.000          39.000
   2932653.54843   2298162.53042  23776319.234    23776324.933    23776319.661
     -1851.950       -1443.078          47.000          41.000
 -19455751.37643 -15109255.59242  21800270.623    21800274.299    21800269.448
     -1017.932        -793.194          53.000          47.000
 -11259430.15843  -8717161.67742  22773124.757    22773130.186    22773123.395
     -2220.472       -1730.238          50.000          45.000
 -14592373.25243 -11320419.08042  22333621.272    22333623.344    22333619.170
      2846.845        2218.321          53.000          45.000
 -15111556.70143 -11764049.80142  21724298.204    21724300.860    21724296.940
     -2576.376       -2007.566          55.000          48.000
 -18410523.32143 -14334955.46642  21622784.563    21622787.465    21622783.200
      2107.598        1642.284          55.000          48.000
 -15230042.70943 -11805686.56142  22399006.509    22399010.619    22399004.456
     -1688.339       -1315.589          51.000          44.000
 04  2  1  0  8  0.0000000  0 10G 1G 3G20G22G31G15G11G14G25G23
  -2396152.82143  -1450116.44042  24596233.318    24596239.409    24596231.182
      3249.411        2532.009          45.000          38.000
 -14840592.51943 -11314146.35042  22672412.767    22672416.883    22672412.935
     -2821.302       -2198.417          50.000          43.000
  -4647133.65543  -3433737.62042  24441218.663    24441223.565    24441216.970
      1728.110        1346.579          45.000          39.000
   2988208.45443   2341452.01442  23786894.158    23786895.326    23786891.429
     -1851.638       -1442.835          49.000          41.000
 -19424995.99443 -15085290.39242  21806123.256    21806127.502    21806121.780
     -1032.597        -804.621          53.000          47.000
 -11192660.51243  -8665133.44742  22785830.910    22785836.232    22785829.101
     -2230.787       -1738.275          51.000          45.000
 -14677679.73143 -11386891.64942  22317387.470    22317389.585    22317387.015
      2840.283        2213.208          53.000          46.000
 -15034148.73643 -11703731.94842  21739028.434    21739031.432    21739027.295
     -2583.974       -2013.486          55.000          48.000
 -18473558.28743 -14384073.61142  21610789.310    21610792.470    21610788.181
      2094.926        1632.410          55.000          49.000
 -15179376.87143 -11766206.73042  22408647.747    22408651.487    22408645.393
     -1689.184       -1316.247          51.000          44.000
 04  2  1  0  8 30.0000000  0 10G 1G 3G20G22G31G15G11G14G25G23
  -2493542.32843  -1526004.28742  24577701.079    24577707.648    24577698.738
      3243.606        2527.485          44.000          38.000
 -14755884.52143 -11248140.19842  22688532.853    22688539.312    22688531.156
     -2825.340       -2201.564          50.000          43.000
  -4698966.12543  -3474126.54642  24431355.364    24431359.094    24431355.026
      1727.844        1346.372          46.000          39.000
   3043761.76443   2384740.26342  23797463.573    23797466.193    23797463.199
     -1851.508       -1442.733          48.000          41.000
 -19393792.88443 -15060976.30842  21812060.667    21812065.229    21812059.603
     -1047.439        -816.186          53.000          47.000
 -11125572.54343  -8612857.19042  22798597.145    22798602.185    22798595.578
     -2241.409       -1746.552          51.000          44.000
 -14762786.88543 -11453208.90442  22301192.418    22301195.054    22301191.395
      2833.777        2208.138          53.000          46.000
 -14956506.28643 -11643231.37542  21753803.220    21753806.530    21753802.218
     -2591.714       -2019.517          54.000          48.000
 -18536204.59843 -14432888.90342  21598867.411    21598871.717    21598866.417
      2081.887        1622.250          55.000          49.000
 -15128673.77743 -11726697.84642  22418294.845    22418299.518    22418294.512
     -1690.516       -1317.285          50.000          44.000
 04  2  1  0  9  0.0000000  0 10G 1G 3G20G22G31G15G11G14G25G23
  -2590748.45243  -1601749.22942  24559203.266    24559210.142    24559201.601
      3237.513        2522.737          46.000          39.000
 -14671052.70143 -11182037.55942  22704677.791    22704682.680    22704675.662
     -2829.477       -2204.787          51.000          44.000
  -4750796.92443  -3514514.20642  24421491.947    24421495.179    24421490.862
      1727.821        1346.354          46.000          38.000
   3099313.34743   2428027.13942  23808034.880    23808037.656    23808034.694
     -1851.504       -1442.730          47.000          40.000
 -19362144.63443 -15036315.37342  21818083.662    21818087.860    21818081.697
     -1062.192        -827.682          53.000          47.000
 -11058167.35443  -8560333.70942  22811423.022    22811428.889    22811421.863
     -2251.833       -1754.675          50.000          44.000
 -14847693.04043 -11519369.53842  22285034.724    22285037.450    22285033.788
      2827.078        2202.918          53.000          45.000
 -14878632.57343 -11582550.60242  21768622.443    21768625.174    21768621.124
     -2599.328       -2025.450          54.000          48.000
 -18598460.25643 -14481399.79142  21587021.283    21587024.633    21587020.200
      2068.856        1612.095          55.000          49.000
 -15077933.77743 -11687160.22642  22427951.983    22427956.117    22427949.969
     -1691.714       -1318.219          51.000          44.000
 04  2  1  0  9 30.0000000  0 10G 1G 3G20G22G31G15G11G14G25G23
  -2687770.56843  -1677350.83642  24540739.906    24540746.980    24540738.590
      3231.247        2517.855          46.000          39.000
 -14586101.11443 -11115841.59242  22720841.569    22720847.764    22720841.012
     -2833.624       -2208.019          50.000          43.000
  -4802627.66243  -3554901.81642  24411627.689    24411633.707    24411626.673
      1727.727        1346.281          45.000          38.000
   3154862.68343   2471312.25442  23818604.847    23818609.747    23818604.349
     -1851.476       -1442.708          48.000          41.000
 -19330054.47243 -15011310.08442  21824189.774    21824194.011    21824188.396
     -1076.964        -839.193          53.000          47.000
 -10990446.96043  -8507564.61942  22824311.002    22824316.795    22824309.662
     -2262.451       -1762.949          51.000          44.000
 -14932396.50743 -11585372.22742  22268916.272    22268918.530    22268915.760
      2820.136        2197.509          53.000          46.000
 -14800530.99443 -11521692.27242  21783484.588    21783487.798    21783483.354
     -2607.019       -2031.443          55.000          48.000
 -18660323.61243 -14529604.98842  21575248.892    21575252.325    21575247.642
      2055.564        1601.738          55.000          48.000
 -15027158.06843 -11647594.77442  22437614.045    22437618.035    22437612.941
     -1693.105       -1319.302          51.000          44.000
 04  2  1  0 10  0.0000000  0 10G 1G 3G20G22G31G15G11G14G25G23
  -2784606.31243  -1752807.17542  24522312.045    24522319.554    24522311.873
      3225.257        2513.187          46.000          39.000
 -14501032.15943 -11049554.17242  22737030.012    22737035.634    22737029.887
     -2836.956       -2210.615          50.000          43.000
  -4854458.02543  -3595289.12342  24401766.195    24401769.703    24401766.308
      1727.808        1346.344          45.000          38.000
   3210411.00743   2514596.62142  23829177.043    23829180.426    23829175.890
     -1851.362       -1442.620          49.000          41.000
 -19297523.52143 -14985961.32842  21830380.318    21830384.191    21830379.270
     -1091.249        -850.324          53.000          47.000
 -10922411.05943  -8454549.68042  22837258.033    22837263.145    22837255.606
     -2272.799       -1771.012          51.000          44.000
 -15016893.84843 -11651214.29542  22252836.728    22252839.639    22252835.657
      2813.561        2192.385          53.000          46.000
 -14722203.36843 -11460657.79542  21798390.352    21798393.123    21798388.748
     -2614.262       -2037.087          55.000          48.000
 -18721790.92743 -14577501.57942  21563551.453    21563555.511    21563550.564
      2042.748        1591.752          55.000          49.000
 -14976345.51443 -11608000.59942  22447282.243    22447287.225    22447280.577
     -1694.036       -1320.028          50.000          44.000
 04  2  1  0 10 30.0000000  0 10G 1G 3G20G22G31G15G11G14G25G23
  -2881254.78043  -1828117.58742  24503919.980    24503927.622    24503918.736
      3218.252        2507.729          45.000          39.000
 -14415849.38743 -10983178.05742  22753240.063    22753244.519    22753239.440
     -2841.655       -2214.277          50.000          43.000
  -4906289.38443  -3635677.17642  24391902.332    24391907.375    24391901.526
      1727.544        1346.138          44.000          38.000
   3265958.28643   2557880.15242  23839747.079    23839749.823    23839746.274
     -1851.976       -1443.098          48.000          41.000
 -19264554.57843 -14960271.28042  21836654.496    21836658.005    21836653.345
     -1106.644        -862.320          53.000          47.000
 -10854060.82143  -8401289.83142  22850264.240    22850268.699    22850262.613
     -2284.000       -1779.740          50.000          44.000
 -15101182.93643 -11716894.08542  22236797.111    22236799.979    22236796.276
      2805.786        2186.327          53.000          46.000
 -14643652.59843 -11399449.43742  21813337.836    21813340.475    21813336.873
     -2622.418       -2043.442          55.000          48.000
 -18782860.04143 -14625087.88842  21551930.972    21551934.365    21551929.585
      2028.506        1580.654          56.000          49.000
 -14925496.82243 -11568378.27942  22456959.134    22456963.148    22456958.081
     -1696.053       -1321.600          50.000          44.000
 04  2  1  0 11  0.0000000  0 10G 1G 3G20G22G31G15G11G14G25G23
  -2977715.12343  -1903281.42042  24485565.067    24485571.579    24485563.172
      3211.738        2502.653          46.000          39.000
 -14330556.45543 -10916716.10342  22769471.389    22769474.969    22769469.328
     -2845.318       -2217.131          50.000          42.000
  -4958123.22843  -3676067.18142  24382038.659    24382042.949    24382037.838
      1727.506        1346.109          44.000          39.000
   3321503.76343   2601162.30242  23850315.518    23850321.173    23850315.560
     -1851.952       -1443.079          48.000          41.000
 -19231150.34143 -14934242.04142  21843010.715    21843014.036    21843009.354
     -1121.119        -873.599          53.000          46.000
 -10785397.61043  -8347786.10142  22863330.470    22863336.190    22863328.167
     -2294.391       -1787.837          51.000          44.000
 -15185263.08843 -11782411.07942  22220797.121    22220800.275    22220796.711
      2798.813        2180.893          54.000          46.000
 -14564882.66243 -11338070.29942  21828327.209    21828329.971    21828326.039
     -2629.665       -2049.090          55.000          48.000
 -18843528.29843 -14672361.84042  21540385.503    21540389.979    21540384.932
      2015.294        1570.359          55.000          49.000
 -14874612.48043 -11528728.19342  22466642.148    22466646.990    22466640.327
     -1697.088       -1322.406          50.000          44.000
 04  2  1  0 11 30.0000000  0 10G 1G 3G20G22G31G15G11G14G25G23
  -3073983.76743  -1978295.89342  24467245.671    24467251.761    24467243.157
      3205.795        2498.022          45.000          39.000
 -14245154.67443 -10850169.33442  22785720.849    22785725.699    22785719.959
     -2848.437       -2219.561          49.000          42.000
  -5009958.40843  -3716458.22242  24372175.026    24372180.281    24372174.009
      1727.919        1346.430          45.000          39.000
   3377050.19243   2644445.15742  23860888.498    23860890.551    23860887.829
     -1851.347       -1442.608          49.000          42.000
 -19197311.26643 -14907873.96842  21849449.582    21849454.255    21849448.542
     -1135.010        -884.423          52.000          46.000
 -10716420.44043  -8294037.72242  22876456.359    22876461.583    22876455.386
     -2304.295       -1795.554          51.000          44.000
 -15269129.45443 -11847761.48742  22204838.798    22204840.836    22204837.201
      2792.093        2175.657          54.000          46.000
 -14485893.97743 -11276520.71642  21843358.194    21843361.048    21843357.449
     -2636.325       -2054.279          55.000          47.000
 -18903791.56243 -14719320.20342  21528918.139    21528921.807    21528917.136
      2002.191        1560.149          55.000          49.000
 -14823690.71543 -11489048.91642  22476332.148    22476336.932    22476330.721
     -1697.802       -1322.962          50.000          44.000
 04  2  1  0 12  0.0000000  0 10G 1G 3G20G22G31G15G11G14G25G23
  -3170062.31743  -2053162.22542  24448961.536    24448970.080    24448960.728
      3199.219        2492.898          45.000          38.000
 -14159649.92143 -10783542.32342  22801992.783    22801998.887    22801991.084
     -2852.011       -2222.346          50.000          43.000
  -5061798.64243  -3756853.20542  24362309.300    24362316.470    24362307.880
      1727.801        1346.338          46.000          39.000
   3432594.86343   2687726.66242  23871456.423    23871458.312    23871455.774
     -1851.760       -1442.930          49.000          42.000
 -19163042.44143 -14881171.02442  21855970.888    21855975.876    21855969.887
     -1149.646        -895.828          52.000          46.000
 -10647132.99743  -8240047.58442  22889641.547    22889647.347    22889639.447
     -2314.978       -1803.879          50.000          44.000
 -15352782.48343 -11912945.65042  22188919.587    22188921.936    22188918.024
      2784.588        2169.809          53.000          46.000
 -14406692.14643 -11214805.02442  21858429.592    21858432.815    21858428.807
     -2643.784       -2060.091          54.000          47.000
 -18963649.99343 -14765963.12842  21517527.716    21517531.551    21517526.881
      1988.289        1549.316          56.000          49.000
 -14772734.28843 -11449342.64842  22486029.172    22486033.692    22486028.432
     -1699.126       -1323.994          50.000          44.000
 04  2  1  0 12 30.0000000  0 10G 1G 3G20G22G31G15G11G14G25G23
  -3265944.64043  -2127875.64842  24430715.275    24430722.532    24430714.583
      3192.711        2487.827          43.000          38.000
 -14074040.68843 -10716833.91542  22818285.508    22818289.299    22818284.544
     -2855.417       -2225.000          50.000          43.000
  -5113639.90143  -3797249.02342  24352444.784    24352449.984    24352443.419
      1727.913        1346.426          45.000          39.000
   3488142.45443   2731010.47742  23882027.955    23882032.340    23882026.483
     -1851.655       -1442.848          49.000          42.000
 -19128341.57043 -14854131.41542  21862574.855    21862578.913    21862573.489
     -1163.983        -907.000          53.000          46.000
 -10577531.63643  -8185812.83842  22902887.041    22902891.624    22902884.593
     -2325.198       -1811.842          51.000          44.000
 -15436215.33943 -11977958.25042  22173042.432    22173044.668    22173041.282
      2777.300        2164.130          53.000          46.000
 -14327275.58943 -11152922.03042  21873542.547    21873545.082    21873540.721
     -2650.799       -2065.558          54.000          47.000
 -19023096.43443 -14812285.02542  21506215.458    21506218.906    21506214.273
      1974.576        1538.631          56.000          49.000
 -14721738.64343 -11409605.81342  22495733.272    22495737.817    22495731.990
     -1700.617       -1325.156          50.000          43.000
 04  2  1  0 13  0.0000000  0 10G 1G 3G20G22G31G15G11G14G25G23
  -3361633.66643  -2202438.40542  24412507.629    24412515.123    24412506.971
      3187.502        2483.768          44.000          38.000
 -13988334.49443 -10650049.94342  22834593.445    22834598.296    22834592.950
     -2857.751       -2226.819          50.000          43.000
  -5165487.51143  -3837649.74342  24342579.124    24342583.913    24342577.126
      1729.358        1347.552          45.000          39.000
   3543688.89543   2774293.37042  23892598.372    23892601.715    23892596.352
     -1850.380       -1441.854          50.000          42.000
 -19093215.40843 -14826760.41742  21869259.100    21869263.761    21869257.809
     -1177.160        -917.267          52.000          46.000
 -10507621.59943  -8131337.56342  22916189.449    22916194.455    22916188.236
     -2334.641       -1819.201          50.000          44.000
 -15519430.20443 -12042800.99342  22157207.600    22157209.577    22157205.839
      2771.028        2159.243          54.000          46.000
 -14247651.15443 -11090877.05742  21888693.816    21888697.451    21888692.578
     -2656.720       -2070.171          53.000          47.000
 -19082132.42243 -14858287.07742  21494981.171    21494984.580    21494979.938
      1961.843        1528.709          56.000          49.000
 -14670708.29843 -11369841.94842  22505443.181    22505448.453    22505441.899
     -1700.675       -1325.201          49.000          44.000
 04  2  1  0 13 30.0000000  0 10G 1G 3G20G22G31G15G11G14G25G23
  -3457124.72343  -2276846.92442  24394336.051    24394342.526    24394334.561
      3180.288        2478.146          44.000          39.000
 -13902531.34343 -10583190.43142  22850920.384    22850926.558    22850919.468
     -2861.208       -2229.513          50.000          43.000
  -5217338.95443  -3878053.44942  24332709.807    24332716.920    24332709.891
      1729.023        1347.291          44.000          39.000
   3599237.93643   2817578.25842  23903169.754    23903171.262    23903168.144
     -1851.189       -1442.485          50.000          42.000
 -19057663.00943 -14799057.28442  21876023.494    21876028.819    21876022.929
     -1191.691        -928.590          52.000          46.000
 -10437400.39643  -8076619.80342  22929552.686    22929557.855    22929551.566
     -2345.405       -1827.588          51.000          44.000
 -15602421.57543 -12107469.57842  22141414.470    22141417.801    22141414.479
      2763.145        2153.100          54.000          46.000
 -14167818.41343 -11028669.76042  21903885.670    21903889.281    21903884.401
     -2663.949       -2075.804          54.000          47.000
 -19140752.10643 -14903964.74442  21483825.575    21483829.946    21483824.965
      1947.559        1517.578          55.000          49.000
 -14619639.97743 -11330048.47242  22515161.633    22515166.437    22515160.949
     -1702.311       -1326.476          50.000          44.000
 04  2  1  0 14  0.0000000  0 10G 1G 3G20G22G31G15G11G14G25G23
  -3552418.46643  -2351101.68142  24376202.554    24376209.149    24376201.086
      3173.018        2472.482          45.000          39.000
 -13816636.13643 -10516259.17742  22867266.170    22867272.765    22867265.045
     -2864.895       -2232.386          49.000          43.000
  -5269196.88743  -3918462.21442  24322844.193    24322848.680    24322842.671
      1728.387        1346.795          45.000          39.000
   3654787.67243   2860863.71742  23913738.061    23913741.117    23913737.375
     -1851.918       -1443.053          48.000          41.000
 -19021688.55443 -14771025.28742  21882869.840    21882874.236    21882869.130
     -1206.365        -940.025          53.000          46.000
 -10366870.67043  -8021661.63242  22942973.585    22942979.583    22942972.629
     -2356.377       -1836.138          51.000          44.000
 -15685189.16943 -12171963.80442  22125664.431    22125667.119    22125663.456
      2754.958        2146.721          54.000          46.000
 -14087782.08743 -10966303.83442  21919116.349    21919119.348    21919115.539
     -2671.542       -2081.721          54.000          47.000
 -19198955.01343 -14949317.64742  21472750.357    21472754.052    21472749.428
      1932.970        1506.210          56.000          49.000
 -14568535.34543 -11290226.73942  22524886.113    22524890.993    22524885.361
     -1704.171       -1327.925          50.000          44.000
 04  2  1  0 14 30.0000000  0 10G 1G 3G20G22G31G15G11G14G25G23
  -3647512.91443  -2425201.19442  24358106.272    24358113.899    24358105.065
      3166.510        2467.410          45.000          40.000
 -13730651.43643 -10449258.20242  22883628.055    22883635.488    22883627.657
     -2867.466       -2234.389          49.000          43.000
  -5321061.62743  -3958876.28542  24312972.722    24312979.773    24312971.495
      1728.976        1347.254          44.000          39.000
   3710339.10943   2904150.49742  23924310.831    23924313.752    23924310.041
     -1851.595       -1442.801          48.000          42.000
 -18985293.92343 -14742665.87142  21889795.676    21889800.480    21889794.426
     -1220.098        -950.726          52.000          46.000
 -10296032.99243  -7966463.51742  22956454.569    22956458.512    22956452.448
     -2366.321       -1843.886          50.000          44.000
 -15767729.78843 -12236281.15742  22109957.622    22109960.822    22109956.443
      2747.566        2140.961          54.000          46.000
 -14007544.31243 -10903780.92342  21934385.379    21934388.237    21934384.220
     -2677.830       -2086.621          54.000          47.000
 -19256738.00243 -14994343.33542  21461754.536    21461758.386    21461753.322
      1919.149        1495.441          55.000          49.000
 -14517394.11743 -11250376.45642  22534618.489    22534622.878    22534617.203
     -1705.338       -1328.835          50.000          44.000
 04  2  1  0 15  0.0000000  0 10G 1G 3G20G22G31G15G11G14G25G23
  -3742402.87943  -2499141.34242  24340049.112    24340056.261    24340047.821
      3159.830        2462.205          45.000          40.000
 -13644576.68443 -10382187.05542  22900008.724    22900015.276    22900006.920
     -2870.483       -2236.740          50.000          43.000
  -5372930.05243  -3999293.22342  24303103.735    24303110.062    24303102.101
      1729.353        1347.548          44.000          39.000
   3765896.44143   2947441.85242  23934882.449    23934887.380    23934881.976
     -1851.814       -1442.972          49.000          42.000
 -18948477.69643 -14713977.94742  21896802.225    21896806.309    21896800.436
     -1234.044        -961.593          53.000          46.000
 -10224884.69343  -7911023.35642  22969992.715    22969998.354    22969991.920
     -2376.638       -1851.926          51.000          44.000
 -15850037.58543 -12300417.08742  22094294.838    22094297.977    22094293.737
      2739.846        2134.945          53.000          46.000
 -13927103.97243 -10841100.17542  21949692.440    21949695.980    21949691.435
     -2684.552       -2091.859          54.000          47.000
 -19314094.59043 -15039036.76242  21450839.832    21450843.920    21450838.926
      1904.982        1484.402          55.000          49.000
 -14466212.45443 -11210494.68042  22544357.686    22544363.816    22544356.549
     -1706.615       -1329.830          50.000          44.000
 04  2  1  0 15 30.0000000  0 10G 1G 3G20G22G31G15G11G14G25G23
  -3837092.46643  -2572925.35842  24322031.126    24322037.412    24322028.720
      3153.824        2457.525          46.000          40.000
 -13558420.13343 -10315052.15742  22916403.408    22916409.515    22916402.535
     -2872.285       -2238.144          50.000          43.000
  -5424808.40943  -4039717.92842  24293233.746    24293235.811    24293231.544
      1730.074        1348.110          47.000          39.000
   3821454.61443   2990733.86042  23945454.312    23945458.099    23945453.184
     -1850.985       -1442.326          48.000          41.000
 -18911247.66443 -14684967.57942  21903886.597    21903890.334    21903885.403
     -1246.980        -971.673          52.000          46.000
 -10153432.11843  -7855346.08942  22983590.010    22983595.133    22983588.901
     -2385.845       -1859.100          50.000          44.000
 -15932115.67143 -12364374.03042  22078676.257    22078679.121    22078674.761
      2732.914        2129.543          54.000          46.000
 -13846469.17543 -10778267.89842  21965037.202    21965039.551    21965035.737
     -2690.105       -2096.186          54.000          47.000
 -19371027.64143 -15083400.15542  21440005.906    21440009.887    21440004.965
      1891.663        1474.023          55.000          49.000
 -14414995.71143 -11170585.56342  22554103.741    22554109.588    22554102.265
     -1706.948       -1330.089          49.000          44.000
 04  2  1  0 16  0.0000000  0 10G 1G 3G20G22G31G15G11G14G25G23
  -3931575.97743  -2646548.78042  24304052.399    24304057.879    24304050.073
      3145.842        2451.305          46.000          40.000
 -13472180.80843 -10247852.75842  22932816.017    22932820.431    22932813.332
     -2876.266       -2241.246          50.000          43.000
  -5476693.26743  -4080147.66942  24283359.295    24283363.110    24283358.389
      1729.132        1347.376          47.000          39.000
   3877018.08243   3034030.00142  23956026.463    23956030.475    23956027.393
     -1852.609       -1443.591          47.000          41.000
 -18873602.00343 -14655633.34042  21911050.562    21911054.546    21911049.826
     -1262.050        -983.415          53.000          46.000
 -10081671.72143  -7799428.98242  22997245.326    22997250.856    22997243.559
     -2397.563       -1868.231          49.000          43.000
 -16013957.18243 -12428146.61642  22063101.542    22063104.609    22063101.113
      2723.792        2122.435          53.000          46.000
 -13765638.33343 -10715282.86342  21980417.846    21980421.360    21980417.182
     -2697.894       -2102.255          53.000          47.000
 -19427530.55543 -15127428.38342  21429254.019    21429257.191    21429252.815
      1875.956        1461.784          56.000          49.000
 -14363739.49843 -11130645.70142  22563857.561    22563863.172    22563856.497
     -1709.501       -1332.079          49.000          44.000
 04  2  1  0 16 30.0000000  0 10G 1G 3G20G22G31G15G11G14G25G23
  -4025854.95443  -2720012.83642  24286112.062    24286114.939    24286109.751
      3139.369        2446.262          46.000          39.000
 -13385864.53643 -10180593.41142  22949239.876    22949246.649    22949239.111
     -2878.245       -2242.788          49.000          43.000
  -5528588.16843  -4120585.26142  24273483.875    24273486.982    24273481.984
      1730.125        1348.149          46.000          39.000
   3932584.29043   3077328.30842  23966602.436    23966605.452    23966601.484
     -1852.049       -1443.155          49.000          42.000
 -18835545.94343 -14625979.31242  21918293.414    21918296.232    21918291.952
     -1275.193        -993.657          53.000          46.000
 -10009607.35843  -7743275.01842  23010958.303    23010965.842    23010955.582
     -2407.069       -1875.638          49.000          43.000
 -16095562.62543 -12491735.26642  22047573.287    22047575.683    22047571.724
      2716.254        2116.561          53.000          46.000
 -13684617.03443 -10652149.42742  21995835.808    21995838.947    21995834.924
     -2703.633       -2106.727          54.000          47.000
 -19483603.47543 -15171121.56242  21418583.748    21418587.679    21418582.501
      1862.008        1450.915          56.000          49.000
 -14312446.78343 -11090677.40542  22573618.953    22573624.435    22573617.197
     -1710.451       -1332.819          50.000          44.000
 04  2  1  0 17  0.0000000  0 10G 1G 3G20G22G31G15G11G14G25G23
  -4119927.63443  -2793316.13642  24268207.472    24268215.168    24268207.767
      3132.056        2440.563          46.000          39.000
 -13299474.25643 -10113276.38642  22965679.887    22965685.178    22965677.339
     -2881.275       -2245.149          50.000          43.000
  -5580493.81843  -4161031.20242  24263607.310    24263611.973    24263605.490
      1729.788        1347.887          47.000          40.000
   3988153.94343   3120629.29342  23977177.647    23977180.468    23977176.618
     -1853.043       -1443.930          48.000          42.000
 -18797081.76343 -14596007.26542  21925611.943    21925616.056    21925611.053
     -1289.637       -1004.912          53.000          46.000
  -9937239.80143  -7686884.78642  23024729.622    23024735.920    23024727.978
     -2417.856       -1884.044          49.000          43.000
 -16176929.74043 -12555138.20342  22032089.726    22032091.749    22032088.248
      2707.668        2109.871          54.000          46.000
 -13603407.65443 -10588869.42142  22011290.420    22011292.802    22011289.222
     -2710.680       -2112.218          54.000          47.000
 -19539243.12443 -15214477.11842  21407995.626    21407999.390    21407994.577
      1846.872        1439.121          56.000          49.000
 -14261117.25143 -11050680.40542  22583385.616    22583391.344    22583384.195
     -1712.372       -1334.316          49.000          44.000
 04  2  1  0 17 30.0000000  0 10G 1G 3G20G22G31G15G11G14G25G23
  -4213786.62143  -2866452.96042  24250347.915    24250353.914    24250347.544
      3125.313        2435.309          46.000          39.000
 -13213007.00743 -10045899.39642  22982134.223    22982139.261    22982133.527
     -2883.051       -2246.533          49.000          43.000
  -5632404.94243  -4201481.40742  24253726.740    24253733.543    24253725.755
      1730.760        1348.644          45.000          39.000
   4043733.14843   3163937.69242  23987753.498    23987755.734    23987753.757
     -1852.667       -1443.637          48.000          42.000
 -18758205.85543 -14565714.38642  21933009.177    21933014.307    21933008.195
     -1302.573       -1014.992          51.000          46.000
  -9864563.96743  -7630254.34142  23038560.401    23038565.350    23038558.702
     -2427.348       -1891.440          50.000          43.000
 -16258050.07643 -12618348.83742  22016652.408    22016655.350    22016651.220
      2700.361        2104.177          53.000          46.000
 -13522006.98743 -10525440.36242  22026780.942    22026783.117    22026779.183
     -2716.147       -2116.478          54.000          47.000
 -19594441.60043 -15257488.90242  21397491.829    21397495.373    21397490.957
      1832.993        1428.306          56.000          49.000
 -14209744.71743 -11010649.91342  22593162.277    22593166.214    22593161.270
     -1712.610       -1334.501          49.000          43.000
 04  2  1  0 18  0.0000000  0 10G 1G 3G20G22G31G15G11G14G25G23
  -4307436.61043  -2939426.91242  24232526.344    24232533.485    24232525.741
      3118.824        2430.252          44.000          38.000
 -13126471.86143  -9978469.49842  22998601.196    22998607.710    22998600.202
     -2885.239       -2248.238          49.000          43.000
  -5684327.98943  -4241940.92642  24243847.944    24243851.004    24243846.193
      1731.564        1349.271          46.000          39.000
   4099316.57743   3207249.39642  23998330.728    23998334.815    23998329.575
     -1852.342       -1443.383          48.000          42.000
 -18718926.62343 -14535107.23742  21940483.719    21940488.584    21940483.067
     -1315.405       -1024.991          52.000          46.000
  -9791586.92943  -7573389.18742  23052446.291    23052452.879    23052444.965
     -2436.957       -1898.927          50.000          43.000
 -16338926.95343 -12681369.76842  22001262.188    22001265.252    22001261.519
      2692.387        2097.964          54.000          47.000
 -13440423.58643 -10461868.91542  22042304.849    22042307.723    22042304.002
     -2721.793       -2120.878          54.000          47.000
 -19649202.30343 -15300159.57842  21387071.595    21387074.911    21387070.268
      1818.568        1417.066          56.000          49.000
 -14158335.21943 -10970590.60842  22602945.768    22602950.560    22602944.179
     -1713.840       -1335.460          50.000          44.000
 04  2  1  0 18 30.0000000  0 10G 1G 3G20G22G31G15G11G14G25G23
  -4400876.93343  -3012237.49142  24214745.441    24214751.478    24214743.002
      3110.458        2423.734          44.000          38.000
 -13039872.53843  -9910989.58842  23015079.830    23015085.417    23015078.647
     -2888.264       -2250.595          49.000          43.000
  -5736264.37943  -4282410.86542  24233964.616    24233967.157    24233963.487
      1730.764        1348.647          47.000          39.000
   4154903.81543   3250564.09142  24008908.365    24008911.978    24008907.995
     -1853.548       -1444.323          47.000          41.000
 -18679247.19643 -14504188.23642  21948034.854    21948038.897    21948033.023
     -1329.813       -1036.218          52.000          46.000
  -9718310.22643  -7516290.52742  23066391.082    23066396.933    23066389.501
     -2448.143       -1907.644          50.000          43.000
 -16419558.78043 -12744199.76342  21985918.588    21985921.137    21985917.547
      2683.125        2090.747          54.000          47.000
 -13358660.75043 -10398157.64442  22057864.434    22057866.938    22057862.892
     -2728.853       -2126.379          54.000          47.000
 -19703523.20743 -15342487.53542  21376733.915    21376738.001    21376733.128
      1802.840        1404.810          56.000          49.000
 -14106889.24643 -10930502.86742  22612735.478    22612740.798    22612734.111
     -1716.042       -1337.175          50.000          44.000
 04  2  1  0 19  0.0000000  0 10G 1G 3G20G22G31G15G11G14G25G23
  -4494103.08843  -3084881.16342  24197004.584    24197011.880    24197003.081
      3103.260        2418.125          44.000          39.000
 -12953208.93243  -9843459.59242  23031572.741    23031576.685    23031570.047
     -2890.156       -2252.070          48.000          42.000
  -5788211.77943  -4322889.34542  24224079.977    24224082.600    24224077.983
      1731.063        1348.880          46.000          39.000
   4210498.54043   3293884.59242  24019486.657    24019490.132    24019485.965
     -1853.732       -1444.466          46.000          41.000
 -18639166.92943 -14472956.90942  21955661.977    21955665.226    21955660.163
     -1343.114       -1046.582          52.000          46.000
  -9644731.71943  -7458956.71542  23080392.584    23080398.225    23080391.492
     -2458.146       -1915.438          50.000          43.000
 -16499940.22443 -12806834.63142  21970622.690    21970625.268    21970621.402
      2674.685        2084.170          54.000          47.000
 -13276717.80843 -10334306.03742  22073457.727    22073459.910    22073456.079
     -2734.885       -2131.079          54.000          47.000
 -19757398.70243 -15384468.42742  21366481.525    21366485.549    21366481.017
      1787.996        1393.244          56.000          49.000
 -14055403.59743 -10890384.22242  22622533.065    22622536.936    22622531.756
     -1717.312       -1338.165          50.000          44.000
 04  2  1  0 19 30.0000000  0 10G 1G 3G20G22G31G15G11G14G25G23
  -4587111.87143  -3157355.44042  24179304.880    24179312.196    24179304.466
      3096.697        2413.011          43.000          39.000
 -12866482.20343  -9775880.41942  23048076.170    23048081.952    23048074.877
     -2891.782       -2253.337          48.000          42.000
  -5840168.98543  -4363375.45342  24214191.223    24214194.872    24214190.705
      1732.203        1349.768          45.000          39.000
   4266102.87343   3337212.55942  24030067.819    24030070.996    24030067.321
     -1853.544       -1444.320          46.000          40.000
 -18598686.41943 -14441413.70042  21963365.999    21963369.178    21963363.796
     -1355.981       -1056.608          53.000          46.000
  -9570850.64443  -7401387.12042  23094452.290    23094458.003    23094451.074
     -2467.642       -1922.838          50.000          43.000
 -16580067.25843 -12869271.26942  21955374.944    21955377.884    21955373.673
      2666.688        2077.939          54.000          47.000
 -13194595.88343 -10270314.95442  22089084.782    22089087.636    22089083.441
     -2740.218       -2135.235          54.000          47.000
 -19810824.78043 -15426099.12542  21356315.204    21356318.783    21356314.206
      1773.413        1381.880          56.000          49.000
 -14003876.36043 -10850233.16842  22632336.717    22632343.292    22632335.642
     -1718.129       -1338.802          49.000          43.000
 04  2  1  0 20  0.0000000  0 10G 1G 3G20G22G31G15G11G14G25G23
  -4679906.35043  -3229662.74742  24161646.223    24161653.865    24161647.707
      3088.841        2406.889          45.000          39.000
 -12779699.84243  -9708257.88242  23064590.890    23064594.233    23064589.093
     -2894.276       -2255.280          49.000          42.000
  -5892141.12243  -4403873.20642  24204302.409    24204306.075    24204301.218
      1731.862        1349.503          46.000          39.000
   4321712.89743   3380544.99942  24040650.487    24040656.091    24040649.543
     -1854.510       -1445.073          47.000          41.000
 -18557812.61543 -14409564.02042  21971143.607    21971147.110    21971142.153
     -1369.824       -1067.395          52.000          46.000
  -9496672.48843  -7343586.00942  23108566.956    23108572.868    23108565.548
     -2478.298       -1931.141          50.000          43.000
 -16659941.36843 -12931510.81742  21940175.836    21940178.203    21940173.848
      2657.488        2070.770          54.000          47.000
 -13112301.79943 -10206189.72842  22104744.737    22104747.221    22104743.450
     -2746.770       -2140.340          54.000          47.000
 -19863803.09043 -15467380.91842  21346233.259    21346237.804    21346232.822
      1757.723        1369.654          56.000          49.000
 -13952311.74843 -10810053.00042  22642150.443    22642155.057    22642149.591
     -1720.269       -1340.469          49.000          43.000
 04  2  1  0 20 30.0000000  0 10G 1G 3G20G22G31G15G11G14G25G23
  -4772480.11543  -3301798.08142  24144030.718    24144037.776    24144030.416
      3081.804        2401.406          44.000          39.000
 -12692859.99343  -9640590.55842  23081115.046    23081122.214    23081113.755
     -2895.578       -2256.294          48.000          42.000
  -5944123.77543  -4444379.19942  24194408.757    24194414.164    24194407.828
      1732.926        1350.332          44.000          39.000
   4377333.95643   3423886.04142  24051235.747    24051238.650    24051235.395
     -1854.390       -1444.979          48.000          41.000
 -18516542.86643 -14377405.81342  21978997.101    21979000.655    21978996.369
     -1382.301       -1077.118          53.000          46.000
  -9422193.36043  -7285550.41142  23122740.752    23122747.292    23122738.341
     -2487.723       -1938.485          50.000          43.000
 -16739555.69943 -12993547.95642  21925025.588    21925027.819    21925024.244
      2649.415        2064.479          54.000          47.000
 -13029833.09043 -10141928.43242  22120437.988    22120440.854    22120436.814
     -2751.838       -2144.289          53.000          47.000
 -19916326.06043 -15508307.89342  21336239.276    21336242.779    21336238.204
      1743.115        1358.271          56.000          49.000
 -13900704.60943 -10769839.67742  22651971.706    22651975.710    22651969.857
     -1720.982       -1341.025          50.000          43.000
 04  2  1  0 21  0.0000000  0 10G 1G 3G20G22G31G15G11G14G25G23
  -4864837.67143  -3373764.94642  24126455.347    24126463.116    24126455.225
      3074.370        2395.613          45.000          39.000
 -12605971.19143  -9572885.07242  23097649.479    23097655.631    23097648.918
     -2897.875       -2258.084          48.000          42.000
  -5996123.65643  -4484898.57542  24184514.711    24184518.051    24184513.897
      1733.120        1350.483          45.000          39.000
   4432960.50743   3467231.35742  24061818.899    24061825.172    24061818.883
     -1855.130       -1445.556          47.000          40.000
 -18474885.62843 -14344945.68142  21986923.778    21986928.195    21986922.736
     -1395.784       -1087.624          52.000          46.000
  -9347419.97943  -7227285.52342  23136969.318    23136975.787    23136968.499
     -2498.076       -1946.553          50.000          43.000
 -16818913.45243 -13055385.15242  21909923.505    21909926.931    21909922.679
      2640.285        2057.365          54.000          47.000
 -12947198.43843 -10077537.82342  22136162.509    22136165.392    22136161.185
     -2757.970       -2149.067          53.000          46.000
 -19968397.16443 -15548882.76942  21326329.755    21326333.284    21326329.410
      1727.381        1346.011          56.000          49.000
 -13849060.59543 -10729597.63242  22661797.093    22661803.295    22661795.849
     -1722.858       -1342.487          49.000          43.000
 04  2  1  0 21 30.0000000  0 10G 1G 3G20G22G31G15G11G14G25G23
  -4956971.79143  -3445557.69542  24108925.235    24108930.688    24108922.086
      3067.902        2390.573          46.000          39.000
 -12519030.38643  -9505139.09242  23114193.400    23114198.811    23114193.996
     -2898.211       -2258.346          48.000          42.000
  -6048135.51143  -4525427.26642  24174617.237    24174620.633    24174615.257
      1734.384        1351.468          47.000          39.000
   4488599.11643   3510586.04042  24072409.310    24072412.760    24072409.186
     -1854.076       -1444.734          47.000          40.000
 -18432837.56743 -14312181.00942  21994925.614    21994930.305    21994924.340
     -1407.613       -1096.841          52.000          46.000
  -9272347.53843  -7168787.59842  23151254.819    23151260.199    23151253.369
     -2506.880       -1953.413          50.000          43.000
 -16898006.26143 -13117015.90042  21894872.892    21894875.664    21894872.179
      2632.584        2051.364          54.000          47.000
 -12864394.33243 -10013015.17442  22151919.777    22151922.929    22151918.529
     -2762.409       -2152.526          53.000          46.000
 -20020008.19443 -15589099.15842  21316508.860    21316512.417    21316508.104
      1713.197        1334.959          56.000          49.000
 -13797373.70743 -10689322.16042  22671634.619    22671639.427    22671633.462
     -1723.120       -1342.691          49.000          43.000
 04  2  1  0 22  0.0000000  0 10G 1G 3G20G22G31G15G11G14G25G23
  -5048886.84743  -3517179.76542  24091432.096    24091439.792    24091431.794
      3060.564        2384.855          46.000          40.000
 -12432046.56043  -9437359.57842  23130746.759    23130751.497    23130746.307
     -2899.682       -2259.492          49.000          42.000
  -6100165.68143  -4565970.27742  24164715.138    24164718.670    24164714.154
      1735.222        1352.121          47.000          40.000
   4544244.42843   3553945.93242  24082996.798    24082999.945    24082997.117
     -1854.379       -1444.971          47.000          40.000
 -18390406.81043 -14279118.12742  22002999.742    22003004.035    22002998.254
     -1420.387       -1106.795          52.000          46.000
  -9196982.71543  -7110061.84442  23165597.658    23165602.478    23165597.095
     -2516.724       -1961.084          50.000          43.000
 -16976837.54443 -13178442.86342  21879872.356    21879874.530    21879870.943
      2623.852        2044.560          55.000          47.000
 -12781429.15243  -9948367.01442  22167707.306    22167711.249    22167705.924
     -2767.736       -2156.677          53.000          47.000
 -20071162.30843 -15628959.49542  21306773.960    21306778.430    21306773.178
      1697.908        1323.045          55.000          49.000
 -13745649.57543 -10649017.67242  22681476.306    22681482.676    22681474.708
     -1724.167       -1343.507          48.000          43.000
 04  2  1  0 22 30.0000000  0 10G 1G 3G20G22G31G15G11G14G25G23
  -5140576.68943  -3588626.33742  24073984.651    24073990.520    24073984.395
      3052.423        2378.511          46.000          39.000
 -12345017.75143  -9369545.01842  23147307.529    23147314.302    23147305.776
     -2901.751       -2261.105          49.000          42.000
  -6152209.84643  -4606524.17342  24154812.750    24154816.988    24154810.989
      1734.993        1351.943          47.000          40.000
   4599901.62443   3597315.12142  24093588.076    24093594.469    24093585.999
     -1855.504       -1445.847          46.000          40.000
 -18347591.16843 -14245755.33842  22011146.999    22011151.856    22011145.528
     -1433.820       -1117.262          52.000          46.000
  -9121321.72543  -7051105.31142  23179995.095    23180002.182    23179994.276
     -2527.178       -1969.230          49.000          43.000
 -17055400.06443 -13239660.39942  21864922.361    21864924.853    21864921.462
      2614.045        2036.918          55.000          47.000
 -12698300.64443  -9883591.59142  22183526.023    22183530.312    22183524.781
     -2773.721       -2161.341          53.000          46.000
 -20121852.43243 -15668458.27742  21297128.307    21297132.440    21297127.542
      1681.750        1310.455          56.000          49.000
 -13693883.09343 -10608680.19842  22691327.854    22691333.131    22691326.183
     -1726.556       -1345.368          49.000          43.000
 04  2  1  0 23  0.0000000  0 10G 1G 3G20G22G31G15G11G14G25G23
  -5232042.08043  -3659898.06242  24056578.603    24056585.952    24056577.913
      3044.731        2372.518          45.000          39.000
 -12257949.12243  -9301699.41242  23163875.980    23163881.270    23163874.702
     -2903.399       -2262.389          48.000          42.000
  -6204270.80643  -4647091.14342  24144904.821    24144909.937    24144903.840
      1735.480        1352.322          46.000          40.000
   4655568.96143   3640692.25242  24104183.020    24104186.561    24104182.244
     -1856.324       -1446.486          48.000          41.000
 -18304395.25543 -14212096.23542  22019367.673    22019371.409    22019366.284
     -1446.731       -1127.323          52.000          46.000
  -9045367.89043  -6991920.57242  23194447.767    23194454.746    23194446.629
     -2536.954       -1976.847          49.000          42.000
 -17133693.39743 -13300668.18842  21850023.291    21850025.935    21850022.230
      2604.719        2029.651          55.000          47.000
 -12615013.44643  -9818692.50442  22199375.375    22199378.746    22199374.209
     -2779.229       -2165.633          53.000          46.000
 -20172078.00643 -15707595.07242  21287570.240    21287575.092    21287569.540
      1665.989        1298.173          56.000          49.000
 -13642076.22243 -10568311.25142  22701187.409    22701190.905    22701185.816
     -1728.029       -1346.516          50.000          43.000
 04  2  1  0 23 30.0000000  0 10G 1G 3G20G22G31G15G11G14G25G23
  -5323282.72543  -3730994.61542  24039217.844    24039223.095    24039215.174
      3037.236        2366.677          46.000          39.000
 -12170844.74543  -9233825.96242  23180451.296    23180457.955    23180450.656
     -2904.722       -2263.420          48.000          42.000
  -6256350.18043  -4687672.46342  24134994.658    24134999.202    24134992.917
      1735.666        1352.467          47.000          40.000
   4711246.12743   3684076.98742  24114777.660    24114782.677    24114774.896
     -1856.790       -1446.849          47.000          41.000
 -18260822.62843 -14178143.59042  22027659.078    22027663.412    22027657.157
     -1459.217       -1137.052          52.000          46.000
  -8969123.37843  -6932509.34842  23208958.175    23208962.545    23208956.337
     -2546.682       -1984.427          49.000          42.000
 -17211716.12843 -13361465.11442  21835176.150    21835178.566    21835174.712
      2595.619        2022.560          55.000          47.000
 -12531571.16943  -9753672.58542  22215254.080    22215258.041    22215252.953
     -2784.538       -2169.770          53.000          46.000
 -20221837.67343 -15746368.82742  21278101.922    21278105.687    21278101.132
      1650.355        1285.991          56.000          49.000
 -13590229.83143 -10527911.50142  22711052.556    22711057.280    22711050.868
     -1729.421       -1347.601          50.000          43.000
 04  2  1  0 24  0.0000000  0 10G 1G 3G20G22G31G15G11G14G25G23
  -5414293.36243  -3801911.96142  24021898.081    24021902.787    24021897.620
      3030.349        2361.311          46.000          39.000
 -12083703.39443  -9165923.71242  23197034.243    23197041.575    23197033.498
     -2904.875       -2263.539          49.000          42.000
  -6308444.76543  -4728265.63642  24125082.186    24125086.768    24125080.356
      1737.047        1353.543          48.000          40.000
   4766937.30143   3727472.63542  24125374.993    24125379.313    24125372.659
     -1856.474       -1446.603          46.000          40.000
 -18216871.90243 -14143896.31542  22036022.376    22036026.468    22036020.538
     -1471.157       -1146.356          52.000          46.000
  -8892585.22643  -6872869.29842  23223521.410    23223528.496    23223520.060
     -2555.649       -1991.415          49.000          43.000
 -17289461.95843 -13422046.26342  21820381.655    21820384.155    21820380.600
      2587.169        2015.976          55.000          47.000
 -12447972.11343  -9688530.49642  22231162.036    22231165.873    22231161.877
     -2788.884       -2173.156          53.000          46.000
 -20271125.39443 -15784774.83842  21268722.676    21268726.416    21268721.898
      1635.332        1274.285          56.000          49.000
 -13538339.52843 -10487477.54442  22720927.209    22720932.404    22720926.130
     -1730.105       -1348.134          49.000          42.000
 04  2  1  0 24 30.0000000  0 10G 1G 3G20G22G31G15G11G14G25G23
  -5505074.07943  -3872650.15742  24004623.780    24004628.885    24004622.137
      3022.555        2355.238          46.000          40.000
 -11996529.17443  -9097995.83042  23213623.814    23213627.714    23213622.179
     -2905.756       -2264.225          49.000          42.000
  -6360556.40743  -4768872.13942  24115164.031    24115169.196    24115162.875
      1737.713        1354.062          46.000          40.000
   4822641.78743   3770878.69242  24135976.071    24135977.943    24135974.889
     -1856.429       -1446.568          48.000          41.000
 -18172547.04243 -14109357.51442  22044457.443    22044461.917    22044455.939
     -1483.176       -1155.721          52.000          46.000
  -8815755.84443  -6813002.34542  23238142.438    23238148.637    23238141.016
     -2565.180       -1998.841          49.000          42.000
 -17366929.82743 -13482410.82642  21805639.698    21805642.460    21805638.683
      2578.069        2008.885          55.000          47.000
 -12364220.22943  -9623269.32342  22247099.960    22247103.273    22247098.738
     -2793.703       -2176.911          52.000          46.000
 -20319939.81943 -15822812.04242  21259433.533    21259437.817    21259432.768
      1619.655        1262.069          56.000          49.000
 -13486406.70843 -10447010.43742  22730810.042    22730814.269    22730808.101
     -1731.085       -1348.897          49.000          42.000
 04  2  1  0 25  0.0000000  0 10G 1G 3G20G22G31G15G11G14G25G23
  -5595625.03243  -3943209.33542  23987392.729    23987398.115    23987391.171
      3014.412        2348.892          48.000          40.000
 -11909326.68143  -9030045.94242  23230215.904    23230222.388    23230215.723
     -2907.298       -2265.427          48.000          42.000
  -6412687.36943  -4809493.63742  24105243.872    24105247.747    24105242.890
      1738.094        1354.359          46.000          40.000
   4878358.58743   3814294.32242  24146578.774    24146582.342    24146577.101
     -1857.488       -1447.393          48.000          41.000
 -18127852.01643 -14074530.27742  22052963.056    22052967.270    22052961.159
     -1495.878       -1165.619          52.000          46.000
  -8738637.87343  -6752910.52242  23252818.285    23252822.080    23252816.550
     -2575.387       -2006.795          49.000          42.000
 -17444118.83443 -13542558.10042  21790951.449    21790953.850    21790950.254
      2568.249        2001.233          55.000          47.000
 -12280319.69843  -9557892.32642  22263065.018    22263069.351    22263064.183
     -2799.085       -2181.105          53.000          46.000
 -20368280.06543 -15860479.74642  21250234.937    21250238.874    21250233.881
      1603.338        1249.354          56.000          49.000
 -13434432.51943 -10406511.11142  22740699.519    22740704.306    22740699.323
     -1733.255       -1350.588          49.000          42.000
 04  2  1  0 25 30.0000000  0 10G 1G 3G20G22G31G15G11G14G25G23
  -5685943.25843  -4013587.17742  23970203.664    23970211.551    23970202.561
      3006.731        2342.907          45.000          40.000
 -11822097.51243  -8962075.23642  23246817.115    23246824.173    23246814.562
     -2908.111       -2266.060          49.000          42.000
  -6464836.44143  -4850129.27542  24095321.616    24095325.574    24095320.405
      1738.782        1354.895          47.000          40.000
   4934089.75143   3857721.16242  24157182.300    24157187.197    24157181.663
     -1857.968       -1447.767          48.000          41.000
 -18082787.78043 -14039415.34142  22061536.999    22061542.427    22061536.781
     -1508.386       -1175.366          52.000          46.000
  -8661230.58743  -6692593.24142  23267547.621    23267554.340    23267546.520
     -2585.041       -2014.318          49.000          43.000
 -17521024.84743 -13602484.85442  21776316.694    21776318.854    21776315.406
      2558.853        1993.911          55.000          48.000
 -12196271.36443  -9492400.15742  22279059.057    22279062.791    22279058.364
     -2804.073       -2184.992          52.000          46.000
 -20416142.20143 -15897774.90842  21241127.126    21241130.756    21241126.020
      1587.284        1236.845          56.000          49.000
 -13382415.05543 -10365978.06542  22750598.502    22750602.982    22750597.505
     -1734.749       -1351.752          48.000          42.000
 04  2  1  0 26  0.0000000  0 10G 1G 3G20G22G31G15G11G14G25G23
  -5776027.47543  -4083782.64442  23953061.853    23953068.080    23953059.746
      2999.199        2337.038          45.000          39.000
 -11734844.28843  -8894085.82642  23263420.330    23263425.635    23263419.554
     -2908.901       -2266.676          48.000          42.000
  -6517004.13043  -4890779.41042  24085394.133    24085397.988    24085392.249
      1739.354        1355.341          47.000          40.000
   4989835.95043   3901159.72042  24167790.534    24167795.178    24167788.033
     -1858.163       -1447.919          47.000          40.000
 -18037356.95043 -14004014.75342  22070182.791    22070186.809    22070182.082
     -1520.454       -1184.769          52.000          46.000
  -8583535.03043  -6632051.32542  23282332.510    23282337.136    23282331.606
     -2594.619       -2021.781          49.000          42.000
 -17597645.39043 -13662189.15442  21761735.736    21761738.836    21761735.460
      2549.422        1986.563          55.000          48.000
 -12112077.63943  -9426794.69242  22295081.246    22295084.247    22295080.048
     -2808.703       -2188.600          52.000          46.000
 -20463524.11543 -15934695.87242  21232110.637    21232114.377    21232109.751
      1571.443        1224.501          56.000          50.000
 -13330353.98143 -10325411.06542  22760504.702    22760510.330    22760503.148
     -1736.067       -1352.779          48.000          42.000
 04  2  1  0 26 30.0000000  0 10G 1G 3G20G22G31G15G11G14G25G23
  -5865878.63343  -4153796.48942  23935964.347    23935969.905    23935962.047
      2991.542        2331.072          45.000          39.000
 -11647572.10743  -8826081.60942  23280027.973    23280033.591    23280027.533
     -2908.930       -2266.699          49.000          41.000
  -6569193.21143  -4931446.21542  24075462.673    24075465.112    24075461.376
      1740.524        1356.252          46.000          40.000
   5045595.24543   3944608.45042  24178400.933    24178405.458    24178398.979
     -1858.312       -1448.035          47.000          41.000
 -17991564.31443 -13968332.21842  22078897.490    22078901.508    22078895.858
     -1531.917       -1193.701          52.000          46.000
  -8505554.65543  -6571287.48742  23297172.603    23297177.324    23297170.989
     -2603.484       -2028.689          49.000          42.000
 -17673980.48943 -13721671.03442  21747210.093    21747212.352    21747209.040
      2540.213        1979.387          55.000          48.000
 -12027743.20943  -9361079.60142  22311130.605    22311133.096    22311128.559
     -2812.933       -2191.896          53.000          46.000
 -20510425.72643 -15971242.57342  21223185.171    21223189.389    21223184.271
      1555.831        1212.336          56.000          50.000
 -13278251.41243 -10284811.69642  22770418.991    22770425.475    22770416.640
     -1736.969       -1353.482          48.000          42.000
 04  2  1  0 27  0.0000000  0 10G 1G 3G20G22G31G15G11G14G25G23
  -5955495.55143  -4223627.81742  23918910.752    23918916.518    23918908.235
      2983.698        2324.959          45.000          39.000
 -11560283.64643  -8758064.72342  23296638.242    23296645.207    23296637.182
     -2909.496       -2267.140          49.000          42.000
  -6621404.59443  -4972130.41342  24065527.421    24065531.300    24065526.256
      1741.098        1356.700          47.000          40.000
   5101368.11643   3988067.77442  24189014.150    24189018.228    24189012.808
     -1859.302       -1448.807          47.000          41.000
 -17945412.67443 -13932369.94942  22087680.653    22087683.407    22087678.831
     -1544.154       -1203.237          53.000          46.000
  -8427290.68243  -6510302.66142  23312065.501    23312070.171    23312063.877
     -2613.286       -2036.327          49.000          42.000
 -17750027.53543 -13780928.45542  21732738.768    21732741.172    21732737.548
      2530.410        1971.748          55.000          48.000
 -11943270.64843  -9295256.85342  22327204.174    22327207.472    22327202.799
     -2817.601       -2195.533          53.000          46.000
 -20556844.74543 -16007413.22342  21214352.407    21214356.098    21214351.255
      1539.501        1199.611          56.000          50.000
 -13226107.21843 -10244179.89042  22780343.364    22780348.345    22780341.995
     -1738.625       -1354.773          48.000          42.000
 04  2  1  0 27 30.0000000  0 10G 1G 3G20G22G31G15G11G14G25G23
  -6044872.91943  -4293272.49742  23901902.966    23901908.368    23901902.177
      2975.415        2318.505          47.000          40.000
 -11472977.82743  -8690034.31342  23313252.468    23313258.343    23313250.568
     -2909.927       -2267.475          49.000          42.000
  -6673634.49643  -5012829.05742  24055587.153    24055592.570    24055585.226
      1741.568        1357.066          47.000          40.000
   5157159.15443   4031541.23842  24199633.225    24199636.334    24199631.685
     -1859.643       -1449.072          48.000          41.000
 -17898900.50343 -13896126.74542  22096530.889    22096535.411    22096529.673
     -1556.095       -1212.541          52.000          46.000
  -8348740.22243  -6449094.61742  23327013.587    23327018.690    23327012.262
     -2622.822       -2043.757          49.000          42.000
 -17825779.96943 -13839956.31942  21718323.353    21718325.541    21718322.067
      2520.379        1963.932          55.000          48.000
 -11858658.38943  -9229325.25842  22343304.619    22343308.608    22343304.394
     -2822.406       -2199.277          52.000          45.000
 -20602774.66443 -16043202.76342  21205612.166    21205616.081    21205611.456
      1523.072        1186.809          56.000          50.000
 -13173916.90343 -10203512.17742  22790274.263    22790279.938    22790273.421
     -1740.132       -1355.947          48.000          42.000
 04  2  1  0 28  0.0000000  0 10G 1G 3G20G22G31G15G11G14G25G23
  -6134011.96843  -4362731.46942  23884939.863    23884946.857    23884938.474
      2966.588        2311.627          46.000          40.000
 -11385660.01843  -8621994.55642  23329868.506    23329874.106    23329867.691
     -2911.496       -2268.698          49.000          42.000
  -6725885.96843  -5053544.44242  24045644.889    24045647.920    24045643.658
      1741.168        1356.754          46.000          40.000
   5212966.35943   4075027.32542  24210251.769    24210253.550    24210250.958
     -1861.312       -1450.373          46.000          40.000
 -17852032.84643 -13859606.54642  22105449.350    22105453.879    22105447.575
     -1569.054       -1222.639          52.000          46.000
  -8269906.89843  -6387666.15842  23342015.534    23342020.759    23342013.185
     -2633.178       -2051.827          50.000          43.000
 -17901238.09443 -13898754.83942  21703964.078    21703966.765    21703963.103
      2509.630        1955.556          55.000          48.000
 -11773911.29143  -9163288.59842  22359431.313    22359435.162    22359430.420
     -2827.945       -2203.593          52.000          45.000
 -20648215.68743 -16078611.35042  21196965.255    21196968.453    21196964.069
      1505.725        1173.292          56.000          50.000
 -13121682.65543 -10162810.20142  22800214.333    22800218.882    22800213.228
     -1742.851       -1358.066          49.000          42.000
 04  2  1  0 28 30.0000000  0 10G 1G 3G20G22G31G15G11G14G25G23
  -6222913.61943  -4432005.42842  23868023.040    23868030.848    23868021.884
      2959.344        2305.982          47.000          40.000
 -11298335.48543  -8553949.55442  23346486.012    23346493.084    23346485.169
     -2910.891       -2268.227          49.000          41.000
  -6778161.76643  -5094278.82642  24035697.565    24035702.540    24035695.955
      1742.865        1358.077          47.000          40.000
   5268788.17743   4118524.76842  24220874.041    24220877.754    24220872.483
     -1861.032       -1450.155          46.000          39.000
 -17804814.68543 -13822813.22042  22114434.071    22114438.366    22114433.661
     -1579.896       -1231.088          51.000          45.000
  -8190794.02943  -6326019.86742  23357069.891    23357076.615    23357068.182
     -2641.820       -2058.561          50.000          43.000
 -17976401.38743 -13957323.62842  21689661.324    21689663.693    21689660.522
      2500.391        1948.357          55.000          48.000
 -11689034.00443  -9097150.49342  22375583.453    22375587.490    22375582.331
     -2831.418       -2206.300          52.000          46.000
 -20693167.71543 -16113638.89442  21188410.557    21188414.717    21188409.711
      1490.139        1161.147          56.000          50.000
 -13069406.50843 -10122075.56942  22810162.061    22810167.594    22810159.393
     -1743.185       -1358.326          49.000          42.000
 04  2  1  0 29  0.0000000  0 10G 1G 3G20G22G31G15G11G14G25G23
  -6311571.93843  -4501089.81442  23851151.164    23851157.318    23851150.187
      2950.746        2299.282          46.000          40.000
 -11211002.48443  -8485897.95142  23363104.155    23363109.468    23363102.336
     -2911.744       -2268.891          48.000          41.000
  -6830457.94943  -5135029.08942  24025746.350    24025749.215    24025744.948
      1742.994        1358.177          48.000          40.000
   5324629.52243   4162037.48642  24231499.828    24231502.815    24231499.501
     -1862.436       -1451.249          44.000          38.000
 -17757244.05843 -13785745.25342  22123486.533    22123491.555    22123485.160
     -1592.128       -1240.619          51.000          45.000
  -8111398.42243  -6264153.25342  23372177.364    23372184.881    23372176.431
     -2651.893       -2066.410          50.000          43.000
 -18051262.99443 -14015657.33542  21675415.537    21675418.130    21675414.382
      2489.836        1940.132          56.000          48.000
 -11604024.51943  -9030909.37042  22391760.746    22391763.846    22391760.347
     -2836.298       -2210.102          52.000          45.000
 -20737623.95843 -16148280.11642  21179951.197    21179955.065    21179950.141
      1473.199        1147.947          56.000          50.000
 -13017083.57843 -10081304.50042  22820118.322    22820124.297    22820118.240
     -1745.532       -1360.155          49.000          42.000
 04  2  1  0 29 30.0000000  0 10G 1G 3G20G22G31G15G11G14G25G23
  -6399986.28243  -4569984.07142  23834326.525    23834332.537    23834324.350
      2942.841        2293.123          46.000          40.000
 -11123664.30943  -8417842.32242  23379725.209    23379729.846    23379723.331
     -2911.594       -2268.774          48.000          41.000
  -6882775.47143  -5175795.97842  24015788.791    24015795.045    24015788.131
      1743.989        1358.952          46.000          39.000
   5380490.62743   4205565.57942  24242130.805    24242134.325    24242129.239
     -1862.440       -1451.252          44.000          38.000
 -17709324.18243 -13748405.14642  22132606.172    22132610.863    22132604.847
     -1603.531       -1249.505          52.000          46.000
  -8031721.62843  -6202067.54842  23387340.578    23387346.231    23387338.368
     -2660.745       -2073.308          50.000          43.000
 -18125820.88343 -14073754.37942  21661227.900    21661230.052    21661226.508
      2479.804        1932.315          55.000          48.000
 -11518885.63743  -8964567.43442  22407961.747    22407965.703    22407960.127
     -2840.321       -2213.237          52.000          45.000
 -20781582.92243 -16182533.85442  21171585.828    21171589.771    21171584.887
      1456.675        1135.071          56.000          50.000
 -12964714.00443 -10040497.06642  22830084.454    22830089.800    22830083.654
     -1746.621       -1361.003          49.000          42.000
 04  2  1  0 30  0.0000000  0 10G 1G 3G20G22G31G15G11G14G25G23
  -6488157.63243  -4638688.98342  23817548.001    23817553.644    23817546.872
      2934.906        2286.940          46.000          39.000
 -11036326.11643  -8349786.69042  23396344.552    23396350.150    23396343.664
     -2911.293       -2268.540          48.000          41.000
  -6935117.24743  -5216581.77842  24005831.079    24005833.815    24005829.101
      1745.094        1359.814          48.000          40.000
   5436369.75143   4249107.73842  24252763.784    24252766.387    24252762.590
     -1863.010       -1451.696          44.000          39.000
 -17661059.84643 -13710796.61642  22141790.050    22141794.986    22141789.868
     -1614.582       -1258.116          52.000          46.000
  -7951767.12743  -6139765.44242  23402554.913    23402559.597    23402553.278
     -2669.806       -2080.368          49.000          43.000
 -18200075.04943 -14131614.74642  21647097.451    21647099.859    21647096.521
      2469.883        1924.584          55.000          48.000
 -11433621.93543  -8898128.22042  22424187.100    22424192.028    22424184.972
     -2844.269       -2216.313          52.000          45.000
 -20825044.45843 -16216399.97442  21163315.096    21163319.218    21163314.506
      1440.307        1122.317          56.000          50.000
 -12912299.74243  -9999654.84642  22840059.290    22840064.182    22840057.412
     -1748.049       -1362.116          49.000          42.000
 04  2  1  0 30 30.0000000  0 10G 1G 3G20G22G31G15G11G14G25G23
  -6576086.36343  -4707204.83942  23800815.336    23800822.317    23800814.469
      2926.396        2280.309          45.000          40.000
 -10948992.20243  -8281734.40542  23412964.087    23412968.713    23412962.050
     -2911.306       -2268.550          48.000          41.000
  -6987485.49343  -5257388.18942  23995863.322    23995867.981    23995862.877
      1745.656        1360.251          46.000          40.000
   5492265.79743   4292663.00542  24263401.048    24263405.018    24263399.751
     -1863.749       -1452.272          45.000          39.000
 -17612455.44143 -13672923.11042  22151039.733    22151043.839    22151039.342
     -1626.230       -1267.192          52.000          45.000
  -7871537.71143  -6077249.12442  23417822.483    23417828.789    23417820.873
     -2679.158       -2087.655          49.000          43.000
 -18274024.75243 -14189237.88142  21633025.309    21633028.388    21633024.496
      2459.656        1916.615          55.000          48.000
 -11348237.50143  -8831594.93342  22440435.454    22440439.208    22440434.670
     -2848.367       -2219.507          53.000          45.000
 -20868008.34543 -16249878.32142  21155139.577    21155143.367    21155138.712
      1423.459        1109.189          56.000          50.000
 -12859842.09743  -9958778.81342  22850041.105    22850047.274    22850040.075
     -1749.472       -1363.225          49.000          43.000
 04  2  1  0 31  0.0000000  0 10G 1G 3G20G22G31G15G11G14G25G23
  -6663765.50743  -4775526.20042  23784129.199    23784137.483    23784128.468
      2918.301        2274.001          46.000          40.000
 -10861659.35643  -8213682.92842  23429582.257    23429590.062    23429582.210
     -2911.143       -2268.423          47.000          41.000
  -7039874.49643  -5298210.75342  23985895.494    23985899.227    23985893.985
      1746.639        1361.017          47.000          40.000
   5548185.22343   4336236.56942  24274042.358    24274045.309    24274041.711
     -1864.454       -1452.821          46.000          39.000
 -17563507.66543 -13634782.04642  22160354.281    22160358.597    22160353.109
     -1637.310       -1275.826          52.000          45.000
  -7791028.63543  -6014514.88642  23433141.998    23433149.375    23433141.576
     -2688.321       -2094.796          48.000          42.000
 -18347661.15643 -14246616.89142  21619012.938    21619014.887    21619011.761
      2449.260        1908.514          55.000          48.000
 -11262728.88443  -8764964.86642  22456707.625    22456711.222    22456705.891
     -2852.306       -2222.576          52.000          45.000
 -20910466.05743 -16282962.25242  21147060.064    21147063.822    21147059.317
      1406.806        1096.212          56.000          50.000
 -12807334.83043  -9917864.08842  22860032.933    22860039.837    22860031.227
     -1750.966       -1364.389          49.000          43.000
 04  2  1  0 31 30.0000000  0 10G 1G 3G20G22G31G15G11G14G25G23
  -6751199.59043  -4843656.58442  23767492.580    23767500.154    23767489.645
      2909.549        2267.181          46.000          40.000
 -10774336.20343  -8145639.03642  23446199.737    23446205.472    23446198.552
     -2911.478       -2268.684          47.000          41.000
  -7092290.62443  -5339054.47442  23975921.827    23975925.456    23975919.455
      1746.750        1361.104          48.000          40.000
   5604122.65643   4379824.10842  24284686.310    24284690.414    24284686.181
     -1865.847       -1453.907          48.000          40.000
 -17514225.04943 -13596380.06442  22169732.702    22169736.620    22169731.129
     -1649.165       -1285.064          52.000          45.000
  -7710247.01843  -5951568.28142  23448514.652    23448521.882    23448512.942
     -2697.957       -2102.304          48.000          42.000
 -18420988.13243 -14303754.78642  21605059.506    21605061.093    21605058.164
      2438.127        1899.839          56.000          48.000
 -11177104.09143  -8698244.29042  22473001.306    22473004.591    22472999.807
     -2856.999       -2226.233          52.000          45.000
 -20952421.32243 -16315654.65842  21139076.438    21139080.025    21139075.263
      1389.221        1082.510          56.000          50.000
 -12754783.36743  -9876914.95842  22870033.203    22870037.970    22870032.954
     -1753.410       -1366.293          49.000          42.000
 04  2  1  0 32  0.0000000  0 10G 1G 3G20G22G31G15G11G14G25G23
  -6838383.38543  -4911591.95742  23750903.033    23750908.753    23750899.750
      2901.669        2261.041          47.000          40.000
 -10687021.64143  -8077601.80742  23462814.313    23462820.425    23462815.054
     -2910.529       -2267.945          48.000          41.000
  -7144730.32443  -5379916.57642  23965939.422    23965947.225    23965938.175
      1748.244        1362.268          46.000          40.000
   5660082.74043   4423429.32642  24295335.883    24295339.754    24295334.310
     -1865.634       -1453.741          48.000          40.000
 -17464606.27043 -13557716.12442  22179174.619    22179179.165    22179173.038
     -1659.714       -1293.284          52.000          45.000
  -7629189.97743  -5888407.04842  23463939.473    23463945.314    23463937.817
     -2706.693       -2109.111          48.000          42.000
 -18493998.74143 -14360646.16042  21591166.049    21591168.020    21591165.301
      2428.279        1892.165          56.000          48.000
 -11091361.72743  -8631432.09842  22489317.150    22489320.462    22489315.705
     -2860.115       -2228.661          51.000          45.000
 -20993868.05044 -16347950.81142  21131189.230    21131193.345    21131188.565
      1372.987        1069.860          57.000          50.000
 -12702183.39243  -9835928.02942  22880042.760    22880049.158    22880041.597
     -1754.156       -1366.875          49.000          42.000
 04  2  1  0 32 30.0000000  0 10G 1G 3G20G22G31G15G11G14G25G23
  -6925317.55743  -4979332.82342  23734358.766    23734364.997    23734358.660
      2893.109        2254.371          47.000          40.000
 -10599720.23543  -8009574.85142  23479428.370    23479434.483    23479425.855
     -2910.044       -2267.567          47.000          41.000
  -7197196.07943  -5420798.94842  23955958.724    23955963.308    23955956.814
      1748.669        1362.599          48.000          40.000
   5716064.35143   4467051.27842  24305988.698    24305991.037    24305986.316
     -1866.607       -1454.499          46.000          40.000
 -17414655.79743 -13518793.73242  22188680.340    22188684.496    22188678.677
     -1670.925       -1302.019          52.000          45.000
  -7547860.45743  -5825033.49342  23479416.056    23479422.432    23479413.379
     -2715.914       -2116.297          48.000          41.000
 -18566692.53043 -14417290.66242  21577332.660    21577334.700    21577331.649
      2417.340        1883.642          55.000          48.000
 -11005505.76643  -8564531.38842  22505655.031    22505659.111    22505654.386
     -2864.282       -2231.908          51.000          45.000
 -21034805.94343 -16379850.45742  21123398.996    21123403.131    21123397.984
      1355.738        1056.419          56.000          50.000
 -12649536.37643  -9794904.40942  22890060.797    22890066.241    22890060.166
     -1756.133       -1368.415          49.000          42.000
 04  2  1  0 33  0.0000000  0 10G 1G 3G20G22G31G15G11G14G25G23
  -7012000.60643  -5046878.01242  23717863.528    23717871.148    23717862.302
      2884.835        2247.923          47.000          40.000
 -10512434.46643  -7941560.07442  23496038.558    23496043.943    23496037.239
     -2909.591       -2267.214          48.000          41.000
  -7249688.03443  -5461701.78142  23945967.561    23945973.964    23945966.733
      1749.801        1363.481          47.000          41.000
   5772067.99443   4510690.41442  24316645.525    24316651.075    24316644.652
     -1867.562       -1455.243          46.000          40.000
 -17364376.41443 -13479615.05042  22198247.126    22198251.982    22198245.607
     -1681.919       -1310.586          51.000          45.000
  -7466259.88543  -5761448.73542  23494942.846    23494950.270    23494940.217
     -2724.790       -2123.213          47.000          41.000
 -18639066.92043 -14473686.28842  21563559.289    21563562.615    21563558.743
      2406.727        1875.372          55.000          48.000
 -10919538.65843  -8497544.07942  22522014.140    22522017.953    22522013.107
     -2867.681       -2234.557          51.000          45.000
 -21075232.84044 -16411351.93342  21115706.330    21115710.318    21115705.383
      1338.681        1043.128          57.000          50.000
 -12596841.87643  -9753843.82342  22900089.426    22900093.336    22900087.636
     -1757.818       -1369.728          49.000          42.000
 04  2  1  0 33 30.0000000  0 10G 1G 3G20G22G31G15G11G14G25G23
  -7098432.76843  -5114227.67542  23701415.446    23701423.150    23701414.882
      2877.206        2241.979          47.000          41.000
 -10425168.72043  -7873560.89742  23512644.200    23512651.439    23512643.703
     -2908.268       -2266.183          47.000          41.000
  -7302208.22743  -5502626.58342  23935974.053    23935976.897    23935971.343
      1751.414        1364.738          47.000          40.000
   5828092.96743   4554346.16842  24327307.304    24327314.201    24327304.976
     -1867.899       -1455.506          46.000          39.000
 -17313772.01843 -13440183.11242  22207876.892    22207881.419    22207875.341
     -1692.076       -1318.501          51.000          45.000
  -7384390.81943  -5697654.76642  23510524.184    23510528.428    23510522.550
     -2733.325       -2129.864          48.000          41.000
 -18711121.03043 -14529832.34142  21549848.412    21549850.950    21549847.730
      2396.593        1867.475          56.000          48.000
 -10833463.89643  -8430472.88342  22538393.800    22538397.031    22538393.505
     -2870.843       -2237.020          52.000          45.000
 -21115148.18943 -16442454.79542  21108110.182    21108114.651    21108109.623
      1322.172        1030.264          56.000          50.000
 -12544100.86443  -9712746.97942  22910125.466    22910128.871    22910124.049
     -1758.746       -1370.451          49.000          42.000
 04  2  1  0 34  0.0000000  0 10G 1G 3G20G22G31G15G11G14G25G23
  -7184608.30443  -5181377.37642  23685017.090    23685023.607    23685017.113
      2868.251        2235.001          48.000          41.000
 -10337920.97543  -7805575.74842  23529246.806    23529252.543    23529246.162
     -2907.823       -2265.836          47.000          41.000
  -7354752.28643  -5543569.98242  23925975.381    23925978.909    23925973.208
      1752.144        1365.307          47.000          40.000
   5884144.44943   4598022.56842  24337972.381    24337975.527    24337972.968
     -1868.606       -1456.057          47.000          39.000
 -17262840.93143 -13400496.59742  22217569.526    22217574.373    22217568.919
     -1703.040       -1327.044          51.000          45.000
  -7302249.84543  -5633648.90342  23526154.099    23526159.856    23526152.629
     -2742.336       -2136.885          47.000          41.000
 -18782847.44343 -14585723.04942  21536199.172    21536202.219    21536198.263
      2385.503        1858.834          55.000          48.000
 -10747279.31043  -8363316.09742  22554794.848    22554797.645    22554793.534
     -2874.558       -2239.915          52.000          45.000
 -21154545.30843 -16473153.84342  21100613.101    21100617.629    21100612.518
      1304.766        1016.701          56.000          50.000
 -12491308.38843  -9671610.04642  22920170.383    22920176.009    22920168.491
     -1760.580       -1371.880          48.000          42.000
 04  2  1  0 34 30.0000000  0 10G 1G 3G20G22G31G15G11G14G25G23
  -7270531.39643  -5248330.38042  23668666.813    23668672.878    23668665.937
      2859.831        2228.440          46.000          40.000
 -10250699.37943  -7737610.96042  23545844.663    23545851.200    23545842.793
     -2907.132       -2265.298          46.000          40.000
  -7407326.25643  -5584536.68842  23915972.040    23915976.330    23915970.559
      1752.882        1365.882          48.000          41.000
   5940217.48743   4641715.81642  24348644.204    24348646.586    24348643.332
     -1869.485       -1456.741          48.000          39.000
 -17211591.16943 -13360561.75642  22227322.791    22227326.095    22227321.643
     -1713.892       -1335.500          51.000          45.000
  -7219843.60343  -5569436.36042  23541836.205    23541842.884    23541834.550
     -2751.471       -2144.003          48.000          42.000
 -18854249.51243 -14641361.01642  21522611.528    21522614.519    21522610.787
      2374.403        1850.184          55.000          48.000
 -10660992.61643  -8296079.76342  22571214.619    22571217.413    22571212.734
     -2878.138       -2242.705          52.000          45.000
 -21193427.32443 -16503451.51642  21093214.529    21093218.362    21093213.653
      1287.226        1003.033          56.000          50.000
 -12438469.47743  -9630436.89442  22930226.377    22930230.822    22930224.075
     -1762.316       -1373.233          48.000          42.000
 04  2  1  0 35  0.0000000  0 10G 1G 3G20G22G31G15G11G14G25G23
  -7356197.68143  -5315083.27442  23652365.774    23652370.896    23652364.657
      2851.454        2221.912          47.000          40.000
 -10163503.31743  -7669666.10042  23562436.580    23562442.835    23562436.157
     -2905.404       -2263.951          47.000          40.000
  -7459927.16343  -5625524.41442  23905960.594    23905964.853    23905959.877
      1754.341        1367.019          46.000          40.000
   5996316.00143   4685428.88642  24359318.639    24359323.527    24359317.181
     -1870.089       -1457.212          46.000          40.000
 -17160022.10243 -13320378.14042  22237135.148    22237140.133    22237133.330
     -1723.845       -1343.256          51.000          45.000
  -7137170.11443  -5505015.56842  23557568.018    23557573.507    23557567.436
     -2759.712       -2150.425          48.000          42.000
 -18925321.51943 -14696741.79742  21509087.224    21509090.199    21509086.287
      2364.073        1842.135          55.000          48.000
 -10574602.71043  -8228762.99942  22587653.613    22587657.710    22587651.650
     -2880.865       -2244.830          51.000          44.000
 -21231788.64643 -16533343.45142  21085914.630    21085918.682    21085913.579
      1270.482         989.986          56.000          50.000
 -12385580.41143  -9589224.69642  22940290.155    22940295.346    22940288.250
     -1763.168       -1373.897          48.000          42.000
 04  2  1  0 35 30.0000000  0 10G 1G 3G20G22G31G15G11G14G25G23
  -7441606.39143  -5381635.46842  23636111.972    23636119.110    23636111.340
      2842.922        2215.264          48.000          41.000
 -10076335.98643  -7601743.58442  23579024.227    23579031.409    23579022.398
     -2904.740       -2263.434          47.000          40.000
  -7512555.65843  -5666533.61042  23895945.941    23895950.681    23895944.291
      1755.012        1367.542          47.000          40.000
   6052440.41643   4729162.14242  24369998.912    24370002.959    24369997.492
     -1870.710       -1457.696          46.000          40.000
 -17108136.97743 -13279948.21842  22247008.502    22247012.629    22247006.931
     -1734.473       -1351.537          51.000          45.000
  -7054231.03143  -5440387.82642  23573351.969    23573357.776    23573350.509
     -2768.705       -2157.432          49.000          42.000
 -18996061.08643 -14751863.53142  21495625.931    21495628.274    21495624.928
      2352.875        1833.409          55.000          48.000
 -10488112.33343  -8161367.95042  22604112.596    22604115.404    22604111.662
     -2884.282       -2247.492          52.000          45.000
 -21269628.09243 -16562828.73042  21078713.662    21078717.541    21078712.747
      1253.025         976.383          56.000          50.000
 -12332641.21243  -9547973.42342  22950363.034    22950370.598    22950362.273
     -1765.018       -1375.339          48.000          42.000
 04  2  1  0 36  0.0000000  0 10G 1G 3G20G22G31G15G11G14G25G23
  -7526756.09243  -5447985.83942  23619909.182    23619915.637    23619907.736
      2834.137        2208.418          48.000          41.000
  -9989199.90643  -7533845.42342  23595606.097    23595613.500    23595605.062
     -2904.043       -2262.891          48.000          40.000
  -7565212.03843  -5707564.55742  23885925.440    23885929.864    23885925.705
      1755.867        1368.208          47.000          41.000
   6108591.50443   4772916.14242  24380683.429    24380688.826    24380683.361
     -1871.857       -1458.590          46.000          39.000
 -17055938.19143 -13239273.90342  22256941.872    22256946.205    22256940.525
     -1744.963       -1359.711          51.000          45.000
  -6971027.48643  -5375554.00942  23589184.151    23589191.134    23589183.092
     -2777.786       -2164.508          50.000          42.000
 -19066465.70843 -14806724.26942  21482227.846    21482231.242    21482227.258
      2341.408        1824.474          55.000          48.000
 -10401523.53343  -8093896.20542  22620589.952    22620592.779    22620587.703
     -2887.691       -2250.149          51.000          45.000
 -21306943.31843 -16591905.52442  21071613.317    21071616.836    21071612.070
      1235.267         962.546          56.000          50.000
 -12279651.20843  -9506682.57042  22960449.117    22960452.851    22960447.626
     -1766.780       -1376.712          49.000          42.000
 04  2  1  0 36 30.0000000  0 10G 1G 3G20G22G31G15G11G14G25G23
  -7611649.20143  -5514136.24842  23603754.461    23603760.929    23603753.380
      2825.508        2201.695          48.000          41.000
  -9902101.21543  -7465976.38842  23612181.135    23612186.270    23612180.004
     -2902.650       -2261.805          48.000          40.000
  -7617900.19443  -5748620.24642  23875900.596    23875904.786    23875898.148
      1756.837        1368.964          47.000          41.000
   6164766.43243   4816688.74342  24391374.369    24391377.005    24391372.599
     -1873.000       -1459.480          46.000          38.000
 -17003432.09743 -13198360.12742  22266933.989    22266938.014    22266932.466
     -1755.153       -1367.652          51.000          45.000
  -6887564.39443  -5310517.93842  23605067.139    23605073.065    23605065.603
     -2786.238       -2171.094          49.000          42.000
 -19136536.75743 -14861325.08142  21468894.241    21468897.427    21468893.558
      2330.200        1815.740          55.000          48.000
 -10314841.90943  -8026352.12842  22637084.744    22637088.179    22637083.518
     -2890.912       -2252.659          52.000          45.000
 -21343735.63944 -16620574.86242  21064611.822    21064615.292    21064610.860
      1217.645         948.814          57.000          50.000
 -12226613.51843  -9465354.55042  22970539.956    22970546.512    22970539.282
     -1768.850       -1378.325          47.000          42.000
 04  2  1  0 37  0.0000000  0 10G 1G 3G20G22G31G15G11G14G25G23
  -7696280.69243  -5580082.82042  23587649.640    23587654.668    23587649.390
      2816.658        2194.798          48.000          41.000
  -9815038.61443  -7398135.49042  23628747.622    23628754.510    23628746.913
     -2901.541       -2260.941          47.000          40.000
  -7670616.53443  -5789697.90942  23865869.218    23865873.202    23865867.477
      1757.843        1369.748          48.000          41.000
   6220969.40543   4860483.20542  24402069.046    24402072.979    24402067.628
     -1874.110       -1460.345          47.000          39.000
 -16950617.41743 -13157205.89542  22276984.924    22276988.809    22276983.227
     -1765.533       -1375.740          52.000          45.000
  -6803839.12243  -5245277.58242  23620999.403    23621006.439    23620997.683
     -2795.289       -2178.147          49.000          42.000
 -19206267.31443 -14915660.57442  21455625.032    21455627.812    21455624.275
      2318.607        1806.707          55.000          48.000
 -10228066.00043  -7958734.59042  22653597.396    22653601.170    22653596.058
     -2894.158       -2255.188          52.000          45.000
 -21379999.52243 -16648832.43242  21057710.804    21057714.955    21057710.188
      1199.933         935.013          56.000          50.000
 -12173523.73843  -9423985.93142  22980644.878    22980648.628    22980642.535
     -1770.750       -1379.805          49.000          43.000
 04  2  1  0 37 30.0000000  0 10G 1G 3G20G22G31G15G11G14G25G23
  -7780649.27743  -5645824.50642  23571594.869    23571599.845    23571594.453
      2807.535        2187.690          48.000          41.000
  -9728014.81343  -7330324.86942  23645308.565    23645315.784    23645306.507
     -2900.400       -2260.052          47.000          40.000
  -7723361.24343  -5830797.67442  23855832.115    23855835.573    23855830.515
      1758.356        1370.148          47.000          41.000
   6277201.46943   4904300.35042  24412770.104    24412772.542    24412769.801
     -1875.513       -1461.439          46.000          38.000
 -16897496.81643 -13115813.26842  22287093.284    22287096.478    22287091.731
     -1776.123       -1383.992          52.000          45.000
  -6719852.62543  -5179833.67442  23636981.633    23636987.144    23636979.361
     -2804.309       -2185.176          49.000          42.000
 -19275654.67143 -14969728.63242  21442421.138    21442424.419    21442420.264
      2306.811        1797.515          55.000          48.000
 -10141197.69043  -7891045.05642  22670127.215    22670131.313    22670126.223
     -2897.348       -2257.674          51.000          44.000
 -21415732.88843 -16676676.60542  21050911.050    21050915.214    21050910.187
      1182.093         921.111          56.000          50.000
 -12120381.27443  -9382576.26842  22990755.736    22990762.333    22990753.716
     -1772.860       -1381.449          48.000          42.000
 04  2  1  0 38  0.0000000  0 10G 1G 3G20G22G31G15G11G14G25G23
  -7864756.44543  -5711362.47942  23555589.227    23555596.104    23555588.699
      2799.279        2181.256          48.000          41.000
  -9641034.91843  -7262548.40842  23661859.713    23661868.486    23661859.564
     -2898.520       -2258.587          46.000          40.000
  -7776137.64643  -5871922.11742  23845789.776    23845792.850    23845786.679
      1759.860        1371.319          48.000          41.000
   6333460.64043   4948138.63242  24423475.745    24423478.203    24423475.335
     -1875.646       -1461.542          46.000          38.000
 -16844075.72743 -13074186.50442  22297258.143    22297263.193    22297256.337
     -1785.610       -1391.384          51.000          45.000
  -6635608.90743  -5114189.34242  23653011.697    23653017.562    23653011.705
     -2812.221       -2191.341          48.000          42.000
 -19344699.50043 -15023529.79042  21429282.196    21429285.088    21429281.763
      2295.860        1788.982          55.000          48.000
 -10054241.77543  -7823287.26242  22686674.491    22686677.796    22686673.500
     -2899.907       -2259.668          51.000          44.000
 -21450936.26743 -16704107.80842  21044212.039    21044215.833    21044211.054
      1164.701         907.559          56.000          50.000
 -12067188.32443  -9341127.26242  23000878.128    23000883.990    23000877.008
     -1773.674       -1382.084          48.000          42.000
 04  2  1  0 38 30.0000000  0 10G 1G 3G20G22G31G15G11G14G25G23
  -7948599.15043  -5776694.38242  23539634.936    23539640.700    23539634.705
      2790.113        2174.114          47.000          41.000
  -9554099.51143  -7194806.65342  23678402.971    23678410.725    23678402.014
     -2897.004       -2257.406          45.000          40.000
  -7828944.05143  -5913069.94342  23835739.183    23835744.017    23835738.866
      1760.743        1372.008          48.000          41.000
   6389749.46043   4991999.96142  24434186.192    24434191.915    24434186.824
     -1876.983       -1462.584          46.000          38.000
 -16790354.93743 -13032326.21442  22307481.083    22307485.949    22307479.448
     -1795.861       -1399.372          51.000          45.000
  -6551107.47143  -5048344.17942  23669093.024    23669099.347    23669091.229
     -2821.260       -2198.384          49.000          41.000
 -19413397.13043 -15077060.40242  21416210.146    21416212.470    21416208.869
      2284.038        1779.770          56.000          48.000
  -9967198.89443  -7755461.67842  22703237.504    22703242.880    22703237.369
     -2902.806       -2261.927          51.000          44.000
 -21485605.59044 -16731122.85842  21037614.962    21037618.459    21037613.958
      1146.681         893.518          57.000          50.000
 -12013942.54443  -9299637.09642  23011011.256    23011015.731    23011009.885
     -1775.613       -1383.594          48.000          43.000
 04  2  1  0 39  0.0000000  0 10G 1G 3G20G22G31G15G11G14G25G23
  -8032176.90343  -5841819.79742  23523729.471    23523736.283    23523729.242
      2781.629        2167.503          47.000          41.000
  -9467211.91643  -7127102.13142  23694937.964    23694945.031    23694937.442
     -2895.420       -2256.171          45.000          40.000
  -7881781.07243  -5954241.66042  23825684.833    23825689.352    23825684.178
      1761.820        1372.847          48.000          41.000
   6446067.90443   5035884.41342  24444903.017    24444907.262    24444901.167
     -1877.787       -1463.211          46.000          39.000
 -16736337.69843 -12990234.93142  22317760.105    22317764.595    22317758.633
     -1805.302       -1406.729          51.000          45.000
  -6466350.00943  -4982299.50642  23685221.805    23685228.243    23685219.264
     -2829.292       -2204.643          47.000          41.000
 -19481745.60743 -15130318.94142  21403203.311    21403206.035    21403202.403
      2272.541        1770.811          56.000          48.000
  -9880071.55043  -7687570.29142  22719818.381    22719822.184    22719817.360
     -2905.656       -2264.147          51.000          44.000
 -21519739.75244 -16757720.90242  21031119.475    21031123.218    21031118.371
      1128.936         879.690          57.000          50.000
 -11960643.98743  -9258105.79342  23021153.889    23021158.567    23021151.997
     -1777.567       -1385.117          48.000          42.000
 04  2  1  0 39 30.0000000  0 10G 1G 3G20G22G31G15G11G14G25G23
  -8115489.25543  -5906738.44142  23507877.149    23507883.960    23507876.081
      2772.359        2160.280          48.000          41.000
  -9380375.29743  -7059437.34442  23711462.061    23711470.387    23711461.877
     -2894.600       -2255.532          44.000          40.000
  -7934649.90743  -5995438.12342  23815624.717    23815628.306    23815622.143
      1762.751        1373.572          47.000          41.000
   6502415.99743   5079791.96342  24455627.369    24455631.840    24455627.195
     -1878.834       -1464.026          48.000          39.000
 -16682027.54343 -12947915.39242  22328094.859    22328100.259    22328093.248
     -1815.294       -1414.515          51.000          45.000
  -6381338.44643  -4916056.82742  23701398.530    23701404.571    23701397.379
     -2837.790       -2211.265          46.000          40.000
 -19549743.37143 -15183304.21542  21390263.838    21390266.409    21390262.766
      2260.568        1761.482          56.000          48.000
  -9792862.55643  -7619615.27742  22736414.690    22736416.755    22736413.482
     -2908.487       -2266.353          51.000          44.000
 -21553337.61344 -16783901.04442  21024726.046    21024729.624    21024724.873
      1110.816         865.571          57.000          50.000
 -11907292.85343  -9216533.51042  23031306.584    23031311.951    23031304.989
     -1779.621       -1386.718          48.000          42.000
 04  2  1  0 40  0.0000000  0 10G 1G 3G20G22G31G15G11G14G25G23
  -8198535.44543  -5971449.68742  23492073.666    23492078.714    23492070.974
      2763.303        2153.223          47.000          41.000
  -9293592.75443  -6991814.71042  23727977.514    23727984.283    23727974.839
     -2892.794       -2254.125          44.000          39.000
  -7987551.24743  -6036659.93842  23805556.971    23805562.418    23805556.827
      1763.395        1374.074          47.000          41.000
   6558794.08643   5123722.88742  24466355.106    24466359.906    24466354.218
     -1880.266       -1465.142          47.000          40.000
 -16627427.58743 -12905370.03242  22338485.350    22338489.784    22338483.964
     -1825.173       -1422.213          51.000          44.000
  -6296074.46843  -4849617.50142  23717623.828    23717630.242    23717621.817
     -2846.712       -2218.217          47.000          40.000
 -19617388.44343 -15236014.65042  21377391.108    21377394.158    21377390.214
      2248.594        1752.151          56.000          48.000
  -9705574.56243  -7551598.70742  22753025.037    22753027.649    22753024.071
     -2911.527       -2268.722          51.000          44.000
 -21586397.45743 -16809661.96042  21018434.901    21018438.756    21018433.623
      1092.777         851.515          56.000          50.000
 -11853889.06143  -9174920.22342  23041467.692    23041474.082    23041466.625
     -1781.340       -1388.057          47.000          42.000
 04  2  1  0 40 30.0000000  0 10G 1G 3G20G22G31G15G11G14G25G23
  -8281312.11343  -6035950.87742  23476321.019    23476327.780    23476319.037
      2754.659        2146.488          47.000          41.000
  -9206864.42743  -6924234.31642  23744480.487    23744487.368    23744479.766
     -2890.550       -2252.377          45.000          39.000
  -8040483.00743  -6077905.44242  23795485.963    23795489.943    23795482.545
      1764.887        1375.237          47.000          41.000
   6615205.16043   5167679.51242  24477090.877    24477095.298    24477088.349
     -1880.764       -1465.530          46.000          39.000
 -16572538.33843 -12862599.25642  22348930.024    22348934.664    22348928.783
     -1834.695       -1429.632          51.000          44.000
  -6210557.34143  -4782980.90942  23733897.576    23733903.095    23733896.385
     -2854.730       -2224.465          45.000          40.000
 -19684675.76743 -15288446.33242  21364587.107    21364590.065    21364586.118
      2236.845        1742.996          56.000          49.000
  -9618207.39943  -7483520.46442  22769650.385    22769653.321    22769650.210
     -2913.512       -2270.269          51.000          44.000
 -21618915.34343 -16835000.56342  21012246.454    21012250.641    21012245.756
      1074.681         837.414          56.000          50.000
 -11800429.80743  -9133263.72442  23051641.076    23051646.320    23051639.799
     -1783.030       -1389.374          47.000          42.000
 04  2  1  0 41  0.0000000  0 10G 1G 3G20G22G31G15G11G14G25G23
  -8363818.94043  -6100241.83242  23460620.578    23460627.685    23460619.601
      2745.971        2139.718          48.000          41.000
  -9120193.52043  -6856698.67942  23760973.381    23760979.677    23760973.907
     -2887.613       -2250.088          45.000          39.000
  -8093446.10843  -6119175.35742  23785407.736    23785410.844    23785405.093
      1766.224        1376.278          48.000          41.000
   6671649.25743   5211661.83742  24487830.209    24487835.200    24487828.265
     -1882.238       -1466.679          43.000          38.000
 -16517363.17743 -12819605.70042  22359430.294    22359434.596    22359428.833
     -1843.812       -1436.737          51.000          44.000
  -6124789.05043  -4716148.59342  23750218.954    23750225.398    23750217.201
     -2863.162       -2231.035          46.000          40.000
 -19751603.82043 -15340598.06042  21351851.547    21351853.828    21351850.052
      2225.141        1733.876          56.000          49.000
  -9530763.79743  -7415382.63642  22786289.909    22786292.727    22786288.922
     -2915.821       -2272.068          51.000          44.000
 -21650889.98543 -16859915.86742  21006162.054    21006166.095    21006160.937
      1056.948         823.596          56.000          50.000
 -11746915.35843  -9091564.21142  23061825.599    23061829.540    23061823.548
     -1784.412       -1390.451          49.000          42.000
 04  2  1  0 41 30.0000000  0 10G 1G 3G20G22G31G15G11G14G25G23
  -8446059.18943  -6164325.02042  23444970.662    23444976.175    23444970.380
      2736.739        2132.524          48.000          41.000
  -9033587.19243  -6789213.32842  23777454.816    23777461.476    23777453.455
     -2886.005       -2248.835          44.000          39.000
  -8146445.42043  -6160473.51042  23775322.244    23775325.362    23775318.971
      1767.259        1377.085          48.000          41.000
   6728122.36543   5255666.77842  24498576.877    24498580.856    24498576.344
     -1883.043       -1467.306          46.000          39.000
 -16461909.46043 -12776395.07742  22369981.792    22369986.893    22369981.055
     -1853.124       -1443.993          51.000          44.000
  -6038775.44943  -4649125.14242  23766587.669    23766593.213    23766584.599
     -2871.312       -2237.386          45.000          40.000
 -19818174.43143 -15392471.25942  21339183.770    21339185.920    21339182.381
      2212.960        1724.384          56.000          49.000
  -9443250.49043  -7347190.51842  22802943.120    22802945.793    22802941.886
     -2918.382       -2274.064          51.000          44.000
 -21682324.04744 -16884409.93742  21000180.306    21000184.289    21000179.481
      1038.689         809.368          57.000          50.000
 -11693349.66843  -9049824.76242  23072018.790    23072021.915    23072017.266
     -1786.460       -1392.047          48.000          42.000
 04  2  1  0 42  0.0000000  0 10G 1G 3G20G22G31G15G11G14G25G23
  -8528024.99543  -6228194.38142  23429372.901    23429379.137    23429371.983
      2728.053        2125.756          48.000          41.000
  -8947041.41643  -6721775.17042  23793924.767    23793930.959    23793923.595
     -2882.979       -2246.477          46.000          39.000
  -8199474.56843  -6201794.90342  23765229.543    23765234.936    23765229.257
      1768.451        1378.014          48.000          41.000
   6784631.85943   5299700.03742  24509332.285    24509334.190    24509331.260
     -1883.847       -1467.933          47.000          39.000
 -16406173.26243 -12732964.32342  22380588.070    22380593.324    22380586.557
     -1862.278       -1451.126          50.000          44.000
  -5952511.22743  -4581906.40742  23783002.851    23783009.157    23783001.186
     -2879.877       -2244.060          46.000          40.000
 -19884378.54143 -15444058.87442  21326585.466    21326587.666    21326583.955
      2201.047        1715.102          56.000          49.000
  -9355662.76243  -7278940.38342  22819609.736    22819613.936    22819608.964
     -2920.560       -2275.761          50.000          44.000
 -21713209.23744 -16908476.31542  20994303.318    20994307.107    20994302.283
      1020.705         795.355          57.000          50.000
 -11639725.44943  -9008039.67442  23082221.252    23082228.860    23082220.031
     -1787.888       -1393.159          47.000          41.000
 04  2  1  0 42 30.0000000  0 10G 1G 3G20G22G31G15G11G14G25G23
  -8609717.05843  -6291850.40742  23413827.529    23413833.562    23413824.902
      2718.222        2118.095          47.000          41.000
  -8860560.28943  -6654387.39342  23810379.977    23810386.631    23810379.152
     -2881.210       -2245.099          45.000          39.000
  -8252535.49243  -6243141.05742  23755134.117    23755137.823    23755132.048
      1769.131        1378.544          49.000          42.000
   6841176.68843   5343760.89442  24520090.837    24520094.286    24520089.979
     -1885.454       -1469.185          44.000          38.000
 -16350159.02843 -12689316.93842  22391247.475    22391252.928    22391246.555
     -1872.068       -1458.754          50.000          44.000
  -5865999.74043  -4514494.97142  23799464.937    23799472.090    23799463.242
     -2888.163       -2250.517          47.000          41.000
 -19950215.35943 -15495360.29242  21314057.095    21314058.960    21314055.620
      2188.282        1705.155          56.000          49.000
  -9268004.39843  -7210635.21242  22836290.507    22836294.705    22836289.443
     -2923.346       -2277.932          50.000          44.000
 -21743545.23344 -16932114.75042  20988530.457    20988534.208    20988529.539
      1001.901         780.702          57.000          50.000
 -11586043.94043  -8966209.97842  23092437.365    23092443.360    23092436.520
     -1790.355       -1395.082          48.000          42.000
 04  2  1  0 43  0.0000000  0 10G 1G 3G20G22G31G15G11G14G25G23
  -8691138.61843  -6355295.68142  23398333.674    23398340.244    23398331.602
      2709.952        2111.651          47.000          41.000
  -8774150.57743  -6587055.24742  23826824.759    23826830.049    23826822.891
     -2879.255       -2243.575          45.000          39.000
  -8305632.80243  -6284515.58242  23745028.169    23745033.531    23745028.076
      1771.008        1380.006          47.000          41.000
   6897753.47743   5387846.64242  24530857.149    24530860.441    24530854.616
     -1886.408       -1469.928          43.000          37.000
 -16293873.85543 -12645458.43742  22401958.668    22401964.553    22401957.877
     -1880.382       -1465.233          51.000          44.000
  -5779246.35243  -4446895.04942  23815972.929    23815981.006    23815971.782
     -2895.439       -2256.186          47.000          41.000
 -20015686.91043 -15546377.07542  21301597.834    21301600.255    21301596.734
      2176.674        1696.110          56.000          49.000
  -9180281.89243  -7142280.06242  22852985.547    22852987.298    22852983.136
     -2924.694       -2278.982          51.000          44.000
 -21773334.66144 -16955327.28342  20982861.656    20982865.635    20982860.653
       984.224         766.928          57.000          50.000
 -11532308.89143  -8924338.56842  23102663.526    23102668.687    23102661.078
     -1791.768       -1396.183          49.000          42.000
 04  2  1  0 43 30.0000000  0 10G 1G 3G20G22G31G15G11G14G25G23
  -8772284.80143  -6418526.35942  23382891.759    23382897.946    23382890.472
      2700.563        2104.335          47.000          42.000
  -8687810.92843  -6519777.71042  23843254.066    23843261.284    23843253.317
     -2876.505       -2241.432          46.000          39.000
  -8358762.60743  -6325915.43242  23734919.368    23734922.317    23734917.256
      1771.892        1380.695          48.000          41.000
   6954366.88043   5431960.92042  24541630.991    24541635.620    24541630.032
     -1887.357       -1470.668          44.000          37.000
 -16237316.58543 -12601387.89442  22412721.095    22412725.206    22412718.963
     -1889.594       -1472.411          51.000          44.000
  -5692248.39943  -4379104.56542  23832529.682    23832535.701    23832526.973
     -2903.766       -2262.675          48.000          41.000
 -20080786.58443 -15597104.09242  21289209.563    21289211.982    21289208.586
      2163.978        1686.217          56.000          49.000
  -9092493.43043  -7073873.51442  22869691.602    22869693.376    22869688.820
     -2927.205       -2280.939          51.000          44.000
 -21802571.90144 -16978109.54242  20977297.993    20977301.688    20977297.021
       965.618         752.430          57.000          50.000
 -11478515.82443  -8882421.93542  23112899.652    23112905.879    23112898.097
     -1793.886       -1397.833          48.000          42.000
 04  2  1  0 44  0.0000000  0 10G 1G 3G20G22G31G15G11G14G25G23
  -8853156.65643  -6481543.30242  23367502.219    23367508.336    23367501.889
      2691.363        2097.166          48.000          41.000
  -8601546.16843  -6452558.51742  23859669.618    23859676.921    23859669.025
     -2873.912       -2239.412          45.000          40.000
  -8411927.50643  -6367342.59342  23724802.489    23724806.815    23724801.636
      1772.855        1381.445          48.000          42.000
   7011015.25343   5476102.41142  24552412.195    24552416.080    24552409.574
     -1888.768       -1471.767          45.000          38.000
 -16180492.20343 -12557109.22442  22423534.117    22423538.964    22423533.500
     -1898.246       -1479.153          51.000          44.000
  -5605009.69443  -4311126.47342  23849130.431    23849137.404    23849128.748
     -2911.734       -2268.884          48.000          41.000
 -20145514.28743 -15647541.26442  21276892.694    21276894.778    21276891.699
      2151.530        1676.517          56.000          49.000
  -9004643.23843  -7005418.88442  22886408.222    22886410.957    22886406.429
     -2929.252       -2282.534          51.000          44.000
 -21831257.50644 -17000461.95542  20971839.649    20971843.114    20971838.596
       947.222         738.095          57.000          50.000
 -11424666.38243  -8840461.38642  23123146.367    23123151.240    23123144.871
     -1795.834       -1399.351          48.000          42.000
 04  2  1  0 44 30.0000000  0 10G 1G 3G20G22G31G15G11G14G25G23
  -8933752.50543  -6544345.17742  23352165.547    23352171.811    23352164.473
      2682.213        2090.036          48.000          42.000
  -8515357.91043  -6385398.95942  23876071.218    23876079.328    23876069.894
     -2871.441       -2237.486          45.000          40.000
  -8465126.96143  -6408796.70842  23714678.203    23714682.820    23714676.460
      1774.086        1382.405          48.000          41.000
   7067699.74543   5520272.06242  24563197.441    24563203.232    24563196.850
     -1889.800       -1472.571          43.000          38.000
 -16123402.85943 -12512624.08542  22434398.564    22434403.215    22434396.826
     -1907.204       -1486.133          51.000          44.000
  -5517530.89843  -4242961.31042  23865777.211    23865783.681    23865774.423
     -2919.692       -2275.085          48.000          41.000
 -20209866.82443 -15697686.09642  21264646.316    21264649.235    21264645.246
      2139.028        1666.775          56.000          49.000
  -8916732.47043  -6936917.04042  22903136.424    22903140.593    22903135.332
     -2931.139       -2284.004          50.000          44.000
 -21859389.13244 -17022382.70242  20966486.298    20966489.837    20966485.111
       928.753         723.704          57.000          50.000
 -11370759.46843  -8798456.03642  23133404.604    23133409.987    23133405.105
     -1797.538       -1400.679          48.000          41.000
 04  2  1  0 45  0.0000000  0 10G 1G 3G20G22G31G15G11G14G25G23
  -9014070.00743  -6606930.15242  23336881.194    23336886.536    23336880.575
      2672.831        2082.725          48.000          41.000
  -8429247.19843  -6318299.81442  23892455.486    23892464.080    23892453.950
     -2868.352       -2235.079          44.000          39.000
  -8518359.90443  -6450276.90742  23704548.882    23704550.999    23704547.864
      1775.262        1383.321          48.000          41.000
   7124422.83743   5564471.77242  24573991.466    24573996.845    24573990.746
     -1891.439       -1473.848          44.000          39.000
 -16066049.90843 -12467933.53742  22445312.601    22445316.984    22445310.794
     -1916.001       -1492.988          50.000          44.000
  -5429812.03543  -4174609.07842  23882468.898    23882477.416    23882468.549
     -2927.740       -2281.356          47.000          41.000
 -20273840.53843 -15747535.73842  21252472.540    21252475.329    21252471.847
      2126.340        1656.888          56.000          49.000
  -8828761.95643  -6868368.63542  22919877.104    22919879.189    22919875.454
     -2933.006       -2285.459          50.000          43.000
 -21886963.90744 -17043869.53442  20961238.846    20961242.907    20961237.942
       910.119         709.184          57.000          50.000
 -11316792.99143  -8756404.27842  23143675.003    23143680.905    23143673.263
     -1799.701       -1402.364          49.000          42.000
 04  2  1  0 45 30.0000000  0 10G 1G 3G20G22G31G15G11G14G25G23
  -9094110.58343  -6669299.34942  23321648.897    23321655.567    23321649.457
      2663.127        2075.164          48.000          42.000
  -8343218.98443  -6251264.97542  23908827.079    23908835.623    23908826.256
     -2866.589       -2233.706          45.000          39.000
  -8571628.79143  -6491785.17242  23694411.705    23694415.539    23694410.247
      1775.937        1383.847          48.000          41.000
   7181182.50743   5608700.06442  24584793.791    24584797.862    24584791.701
     -1892.883       -1474.974          43.000          38.000
 -16008438.66443 -12423041.73842  22456275.329    22456279.995    22456274.737
     -1924.795       -1499.840          51.000          44.000
  -5341856.66243  -4106072.58042  23899207.442    23899213.622    23899205.905
     -2936.086       -2287.859          47.000          41.000
 -20337435.45143 -15797090.20842  21240371.042    21240373.702    21240370.214
      2113.216        1646.662          56.000          49.000
  -8740736.05043  -6799777.07342  22936628.398    22936632.029    22936626.696
     -2935.470       -2287.379          51.000          44.000
 -21913982.01444 -17064922.60042  20956097.288    20956101.291    20956096.573
       891.090         694.356          57.000          50.000
 -11262768.94943  -8714307.67542  23153954.599    23153959.882    23153954.383
     -1802.058       -1404.201          49.000          42.000
 04  2  1  0 46  0.0000000  0 10G 1G 3G20G22G31G15G11G14G25G23
  -9173869.46243  -6731449.07542  23306473.162    23306477.617    23306470.852
      2652.690        2067.031          48.000          42.000
  -8257272.03643  -6184293.44742  23925182.742    23925189.924    23925182.510
     -2864.550       -2232.117          46.000          40.000
  -8624930.16543  -6533318.69242  23684269.027    23684273.091    23684267.277
      1776.079        1383.958          48.000          42.000
   7237983.33543   5652960.31642  24595600.247    24595605.509    24595599.074
     -1894.006       -1475.849          42.000          37.000
 -15950568.24643 -12377947.96942  22467287.795    22467291.498    22467286.625
     -1934.513       -1507.413          50.000          44.000
  -5253662.92243  -4037350.31442  23915989.072    23915996.249    23915988.496
     -2944.819       -2294.664          47.000          41.000
 -20400645.46443 -15846344.76442  21228342.663    21228344.943    21228341.483
      2099.389        1635.888          56.000          49.000
  -8652653.27643  -6731141.20942  22953388.570    22953392.553    22953387.843
     -2938.393       -2289.657          50.000          44.000
 -21940438.62444 -17085538.14542  20951062.693    20951066.395    20951061.935
       871.397         679.011          57.000          50.000
 -11208683.08143  -8672162.86842  23164247.532    23164252.638    23164246.504
     -1805.026       -1406.514          48.000          42.000
 04  2  1  0 46 30.0000000  0 10G 1G 3G20G22G31G15G11G14G25G23
  -9253348.49243  -6793380.71642  23291346.727    23291354.512    23291345.908
      2644.441        2060.603          47.000          42.000
  -8171411.69443  -6117389.40342  23941522.201    23941528.528    23941521.424
     -2860.599       -2229.038          46.000          40.000
  -8678267.05543  -6574879.88642  23674120.488    23674122.082    23674118.250
      1778.538        1385.874          49.000          41.000
   7294823.18143   5697251.00342  24606419.369    24606420.398    24606416.841
     -1895.482       -1476.999          44.000          38.000
 -15892444.19043 -12332656.56842  22478348.753    22478353.091    22478347.041
     -1941.825       -1513.110          51.000          44.000
  -5165234.70843  -3968445.37642  23932816.757    23932823.950    23932815.337
     -2951.522       -2299.887          47.000          41.000
 -20463470.91643 -15895299.65442  21216387.444    21216389.347    21216386.370
      2087.786        1626.846          56.000          49.000
  -8564518.34143  -6662464.69542  22970159.465    22970164.383    22970159.520
     -2938.657       -2289.862          50.000          43.000
 -21966334.88444 -17105717.04642  20946134.911    20946138.741    20946133.953
       853.735         665.248          57.000          50.000
 -11154537.54243  -8629971.58642  23174551.955    23174555.472    23174550.817
     -1806.021       -1407.289          49.000          41.000
 04  2  1  0 47  0.0000000  0 10G 1G 3G20G22G31G15G11G14G25G23
  -9332551.27243  -6855097.11242  23276276.451    23276282.344    23276274.438
      2635.539        2053.667          48.000          42.000
  -8085644.87743  -6050558.23242  23957842.474    23957849.501    23957841.878
     -2857.265       -2226.440          46.000          40.000
  -8731644.19643  -6616472.45642  23663961.284    23663965.045    23663960.401
      1779.799        1386.856          48.000          41.000
   7351698.20243   5741569.13242  24617240.372    24617242.759    24617239.865
     -1896.132       -1477.505          44.000          37.000
 -15834073.88443 -12287173.28342  22489456.169    22489460.495    22489454.706
     -1949.701       -1519.247          51.000          44.000
  -5076578.31843  -3899362.63242  23949688.308    23949694.637    23949686.747
     -2958.764       -2305.530          46.000          40.000
 -20525913.88343 -15943956.50842  21204504.779    21204507.368    21204503.739
      2075.060        1616.930          56.000          49.000
  -8476337.53443  -6593752.41342  22986940.512    22986944.229    22986940.305
     -2940.063       -2290.958          50.000          44.000
 -21991673.59744 -17125461.48642  20941312.942    20941317.003    20941312.146
       835.392         650.955          57.000          50.000
 -11100336.31743  -8587736.89342  23184864.903    23184871.176    23184863.897
     -1807.543       -1408.475          48.000          41.000
 04  2  1  0 47 30.0000000  0 10G 1G 3G20G22G31G15G11G14G25G23
  -9411469.78343  -6916592.00942  23261257.670    23261265.673    23261256.091
      2625.642        2045.955          47.000          42.000
  -7999966.75043  -5983796.18842  23974147.475    23974154.979    23974146.231
     -2854.794       -2224.515          47.000          40.000
  -8785054.49243  -6658090.87042  23653798.076    23653803.656    23653796.963
      1780.705        1387.562          48.000          41.000
   7408616.25243   5785920.83542  24628072.239    24628076.175    24628069.867
     -1897.911       -1478.892          45.000          38.000
 -15775452.95543 -12241494.70942  22500611.161    22500615.793    22500610.397
     -1958.479       -1526.087          50.000          44.000
  -4987687.97443  -3830097.57242  23966604.092    23966610.544    23966601.930
     -2966.993       -2311.942          46.000          41.000
 -20587964.84143 -15992307.89942  21192696.814    21192699.668    21192695.669
      2061.543        1606.397          56.000          49.000
  -8388105.91643  -6525000.57142  23003730.765    23003734.183    23003729.719
     -2941.993       -2292.462          50.000          43.000
 -22016446.11644 -17144764.73342  20936598.999    20936602.902    20936598.032
       816.086         635.911          57.000          50.000
 -11046071.76143  -8545452.88042  23195192.231    23195196.698    23195190.628
     -1810.118       -1410.481          49.000          42.000
 04  2  1  0 48  0.0000000  0 10G 1G 3G20G22G31G15G11G14G25G23
  -9490105.16743  -6977866.30342  23246293.828    23246300.295    23246292.864
      2616.219        2038.612          48.000          43.000
  -7914381.85643  -5917106.77142  23990434.726    23990440.810    23990432.862
     -2851.447       -2221.907          48.000          41.000
  -8838500.22643  -6699736.84942  23643626.854    23643631.984    23643626.297
      1781.938        1388.523          47.000          41.000
   7465575.90643   5830304.90042  24638909.647    24638916.167    24638911.139
     -1899.791       -1480.357          44.000          38.000
 -15716586.39443 -12195624.72842  22511813.156    22511818.068    22511812.460
     -1966.674       -1532.473          50.000          44.000
  -4898567.28143  -3760653.01842  23983562.122    23983569.883    23983561.115
     -2974.842       -2318.059          45.000          40.000
 -20649623.29443 -16040353.44642  21180963.502    21180966.152    21180962.769
      2048.535        1596.261          56.000          49.000
  -8299827.54143  -6456212.28042  23020529.457    23020533.964    23020528.578
     -2943.556       -2293.680          50.000          44.000
 -22040653.36344 -17163627.51942  20931992.972    20931996.450    20931991.789
       797.260         621.242          57.000          50.000
 -10991745.30843  -8503120.62442  23205529.829    23205534.303    23205528.242
     -1812.127       -1412.047          49.000          41.000
 04  2  1  0 48 30.0000000  0 10G 1G 3G20G22G31G15G11G14G25G23
  -9568449.43443  -7038913.75342  23231385.979    23231392.894    23231383.593
      2607.409        2031.747          48.000          43.000
  -7828885.64943  -5850486.47942  24006703.349    24006710.004    24006701.095
     -2847.643       -2218.942          47.000          41.000
  -8891974.64543  -6741405.25042  23633451.316    23633455.885    23633449.249
      1783.273        1389.563          48.000          41.000
   7522584.94143   5874727.50042  24649759.421    24649763.557    24649757.383
     -1900.281       -1480.738          45.000          38.000
 -15657470.03043 -12149560.10542  22523062.674    22523067.796    22523061.679
     -1973.827       -1538.047          50.000          43.000
  -4809210.61743  -3691024.60042  24000566.740    24000574.784    24000566.039
     -2981.635       -2323.352          46.000          40.000
 -20710879.84143 -16088085.81942  21169306.861    21169309.907    21169305.752
      2035.934        1586.442          56.000          49.000
  -8211497.41643  -6387383.66342  23037338.622    23037340.245    23037338.150
     -2944.446       -2294.373          50.000          44.000
 -22064286.61644 -17182043.04442  20927495.318    20927499.133    20927494.273
       779.079         607.074          57.000          50.000
 -10937349.52243  -8460734.34142  23215880.017    23215886.261    23215879.064
     -1813.568       -1413.170          48.000          41.000
 04  2  1  0 49  0.0000000  0 10G 1G 3G20G22G31G15G11G14G25G23
  -9646519.91143  -7099747.85242  23216529.949    23216536.796    23216529.053
      2597.255        2023.835          49.000          43.000
  -7743498.79343  -5783951.39242  24022952.917    24022959.256    24022951.586
     -2844.878       -2216.788          48.000          41.000
  -8945496.04243  -6783110.21942  23623266.579    23623271.144    23623265.720
      1784.785        1390.742          47.000          41.000
   7579625.89143   5919174.93842  24660614.017    24660619.051    24660614.831
     -1902.265       -1482.284          43.000          38.000
 -15598124.84643 -12103317.18242  22534354.625    22534360.310    22534354.248
     -1982.462       -1544.775          49.000          43.000
  -4719637.55643  -3621227.57642  24017612.824    24017618.963    24017610.730
     -2989.913       -2329.802          46.000          40.000
 -20771750.94443 -16135517.84342  21157723.537    21157726.315    21157722.786
      2022.125        1575.682          56.000          49.000
  -8123135.48943  -6318530.26842  23054153.075    23054156.941    23054152.909
     -2946.451       -2295.936          50.000          44.000
 -22087362.63644 -17200024.34842  20923104.475    20923107.981    20923103.376
       759.394         591.736          57.000          50.000
 -10882901.93643  -8418307.70442  23226242.428    23226246.877    23226241.004
     -1816.192       -1415.214          48.000          42.000
 04  2  1  0 49 30.0000000  0 10G 1G 3G20G22G31G15G11G14G25G23
  -9724303.87743  -7160358.70342  23201727.996    23201733.549    23201726.592
      2587.585        2016.300          48.000          42.000
  -7658211.85943  -5717494.15942  24039182.827    24039189.190    24039181.290
     -2841.498       -2214.154          48.000          40.000
  -8999052.83543  -6824842.78042  23613075.123    23613079.513    23613074.107
      1785.453        1391.262          47.000          41.000
   7636711.08243   5963656.77942  24671475.702    24671480.960    24671475.221
     -1903.544       -1483.281          42.000          37.000
 -15538542.05343 -12056889.11842  22545694.401    22545699.725    22545692.067
     -1990.739       -1551.225          50.000          43.000
  -4629837.83643  -3551253.90542  24034700.697    24034706.817    24034698.159
     -2997.271       -2335.536          46.000          40.000
 -20832222.11244 -16182638.23442  21146216.379    21146218.684    21146215.435
      2008.617        1565.156          57.000          49.000
  -8034732.05143  -6249644.53342  23070976.885    23070979.605    23070974.923
     -2947.898       -2297.063          51.000          44.000
 -22109868.19944 -17217561.14942  20918821.907    20918825.453    20918820.877
       740.260         576.826          57.000          50.000
 -10828390.25243  -8375831.11342  23236615.538    23236620.062    23236613.289
     -1818.578       -1417.074          48.000          42.000
 04  2  1  0 50  0.0000000  0 10G 1G 3G20G22G31G15G11G14G25G23
  -9801798.47443  -7220744.09142  23186980.249    23186986.017    23186979.851
      2578.308        2009.071          48.000          42.000
  -7573025.27643  -5651115.11142  24055391.768    24055399.538    24055389.935
     -2837.938       -2211.380          47.000          40.000
  -9052643.34343  -6866601.59642  23602877.062    23602880.591    23602876.235
      1786.852        1392.352          47.000          41.000
   7693843.05743   6008175.10842  24682349.891    24682352.186    24682348.703
     -1905.577       -1484.865          42.000          37.000
 -15478722.52643 -12010276.55142  22557076.758    22557082.818    22557075.547
     -1997.989       -1556.874          50.000          44.000
  -4539811.49843  -3481103.67442  24051831.198    24051838.959    24051830.366
     -3004.443       -2341.124          47.000          40.000
 -20892288.92844 -16229443.54742  21134786.444    21134788.413    21134784.908
      1995.378        1554.840          57.000          49.000
  -7946287.34643  -6180726.61942  23087806.246    23087810.396    23087806.439
     -2948.744       -2297.722          51.000          44.000
 -22131800.05244 -17234650.89542  20914647.588    20914651.356    20914646.796
       721.509         562.215          57.000          50.000
 -10773812.09843  -8333302.75242  23247000.543    23247007.241    23246999.429
     -1820.532       -1418.596          47.000          41.000
 04  2  1  0 50 30.0000000  0 10G 1G 3G20G22G31G15G11G14G25G23
  -9879009.50443  -7280908.48942  23172288.706    23172294.803    23172287.235
      2569.480        2002.192          48.000          43.000
  -7487947.89243  -5584821.19542  24071581.915    24071589.535    24071582.706
     -2833.438       -2207.874          48.000          39.000
  -9106274.27043  -6908391.90342  23592671.564    23592676.862    23592670.951
      1788.914        1393.959          48.000          42.000
   7751015.90843   6052725.36842  24693228.993    24693235.150    24693229.625
     -1905.660       -1484.930          43.000          37.000
 -15418675.81543 -11963486.98542  22568505.014    22568508.480    22568502.642
     -2004.639       -1562.056          50.000          44.000
  -4449566.65343  -3410783.16942  24069006.090    24069012.724    24069004.362
     -3011.389       -2346.537          47.000          40.000
 -20951955.91744 -16275937.30642  21123432.106    21123433.989    21123430.995
      1982.712        1544.970          57.000          49.000
  -7857809.70743  -6111783.08842  23104643.665    23104647.772    23104642.540
     -2949.271       -2298.133          51.000          44.000
 -22153163.51144 -17251297.74442  20910582.734    20910586.564    20910581.567
       703.144         547.904          57.000          50.000
 -10719173.38943  -8290727.18042  23257397.922    23257403.848    23257396.926
     -1821.784       -1419.572          47.000          41.000
 04  2  1  0 51  0.0000000  0 10G 1G 3G20G22G31G15G11G14G25G23
  -9955931.31743  -7340847.52642  23157650.341    23157655.321    23157649.826
      2558.299        1993.480          48.000          43.000
  -7402977.65943  -5518610.73042  24087750.882    24087758.286    24087751.097
     -2831.400       -2206.286          46.000          39.000
  -9159941.12543  -6950210.22142  23582460.699    23582463.986    23582458.019
      1788.511        1393.645          49.000          42.000
   7808235.17843   6097311.70542  24704119.023    24704123.063    24704117.378
     -1909.101       -1487.611          44.000          37.000
 -15358400.10243 -11916518.97042  22579974.072    22579979.436    22579972.866
     -2014.154       -1569.471          50.000          44.000
  -4359099.83043  -3340289.67942  24086220.516    24086225.988    24086218.616
     -3020.068       -2353.300          46.000          39.000
 -21011216.07944 -16322114.05442  21112155.016    21112157.454    21112153.900
      1967.459        1533.085          57.000          49.000
  -7769296.34443  -6042811.68242  23121488.472    23121490.704    23121486.648
     -2952.118       -2300.352          51.000          43.000
 -22173952.21244 -17267496.72242  20906626.646    20906630.496    20906625.472
       682.338         531.692          57.000          50.000
 -10664468.82343  -8248100.30142  23267807.469    23267812.516    23267807.310
     -1825.549       -1422.506          47.000          41.000
 04  2  1  0 51 30.0000000  0 10G 1G 3G20G22G31G15G11G14G25G23
 -10032567.70643  -7400564.14142  23143066.919    23143073.433    23143066.074
      2549.814        1986.868          48.000          43.000
  -7318121.77243  -5452489.36842  24103899.467    24103906.301    24103899.815
     -2826.645       -2202.580          46.000          39.000
  -9213648.49343  -6992060.08842  23572239.514    23572244.076    23572238.303
      1790.936        1395.535          48.000          42.000
   7865496.82643   6141931.07442  24715015.821    24715016.856    24715014.361
     -1909.342       -1487.799          43.000          36.000
 -15297902.76743 -11869378.26242  22591487.232    22591492.482    22591485.497
     -2020.323       -1574.278          50.000          44.000
  -4268417.15743  -3269627.99542  24103477.792    24103483.787    24103476.087
     -3026.639       -2358.420          46.000          39.000
 -21070071.64344 -16367975.53342  21100955.065    21100957.439    21100954.062
      1954.981        1523.362          57.000          49.000
  -7680753.89743  -5973817.63842  23138336.711    23138340.291    23138334.193
     -2951.883       -2300.168          50.000          43.000
 -22194169.68544 -17283250.59242  20902779.635    20902783.078    20902778.450
       664.343         517.670          57.000          50.000
 -10609702.64743  -8205425.39442  23278229.527    23278235.043    23278228.142
     -1826.465       -1423.219          48.000          41.000
 04  2  1  0 52  0.0000000  0 10G 1G 3G20G22G31G15G11G14G25G23
 -10108911.54043  -7460052.80142  23128539.596    23128545.910    23128538.083
      2539.288        1978.666          48.000          43.000
  -7233376.19943  -5386453.97842  24120026.273    24120031.295    24120024.699
     -2823.210       -2199.904          46.000          39.000
  -9267390.21943  -7033936.77742  23562012.883    23562016.735    23562011.578
      1791.377        1395.878          49.000          42.000
   7922807.99543   6186589.04842  24725919.414    24725920.792    24725917.415
     -1911.878       -1489.775          40.000          35.000
 -15237180.32643 -11822062.15742  22603041.291    22603046.663    22603040.644
     -2028.472       -1580.627          50.000          44.000
  -4177513.93043  -3198794.47842  24120776.054    24120782.458    24120774.782
     -3034.330       -2364.413          46.000          39.000
 -21128514.14643 -16413515.15042  21089833.672    21089836.196    21089832.692
      1940.720        1512.249          56.000          49.000
  -7592177.98843  -5904797.50842  23155191.313    23155195.998    23155189.469
     -2953.620       -2301.522          50.000          43.000
 -22213808.14244 -17298553.28042  20899042.092    20899046.014    20899041.232
       644.497         502.205          57.000          50.000
 -10554867.73443  -8162696.95142  23288665.179    23288670.293    23288664.130
     -1829.651       -1425.702          48.000          41.000
 04  2  1  0 52 30.0000000  0 10G 1G 3G20G22G31G15G11G14G25G23
 -10184966.36043  -7519316.25742  23114067.196    23114072.332    23114065.417
      2530.354        1971.704          49.000          43.000
  -7148747.44843  -5320509.61142  24136129.749    24136139.643    24136129.150
     -2819.005       -2196.627          46.000          39.000
  -9321170.78243  -7075843.71642  23551778.200    23551781.897    23551776.166
      1793.413        1397.465          48.000          42.000
   7980164.81243   6231282.62142  24736832.331    24736838.830    24736830.770
     -1913.180       -1490.790          39.000          35.000
 -15176240.25843 -11774576.46742  22614638.682    22614642.769    22614636.175
     -2034.800       -1585.558          50.000          43.000
  -4086395.94043  -3127793.63842  24138115.462    24138121.487    24138115.828
     -3041.101       -2369.689          47.000          39.000
 -21186545.48943 -16458734.38242  21078790.825    21078793.454    21078789.613
      1927.539        1501.978          56.000          49.000
  -7503574.87443  -5835756.19742  23172052.658    23172056.961    23172051.696
     -2953.875       -2301.721          50.000          43.000
 -22232870.99844 -17313407.45542  20895414.845    20895418.632    20895414.151
       625.790         487.628          57.000          50.000
 -10499968.12843  -8119918.11242  23299110.593    23299117.711    23299109.618
     -1831.014       -1426.764          46.000          40.000
 04  2  1  0 53  0.0000000  0 10G 1G 3G20G22G31G15G11G14G25G23
 -10260728.13043  -7578351.36142  23099649.238    23099653.914    23099649.004
      2520.376        1963.929          49.000          43.000
  -7064234.36343  -5254655.40342  24152213.629    24152219.739    24152212.794
     -2815.360       -2193.787          46.000          39.000
  -9374987.22643  -7117778.57642  23541536.338    23541540.670    23541534.821
      1794.091        1397.993          48.000          42.000
   8037571.30643   6276014.94442  24747757.592    24747762.732    24747759.396
     -1914.397       -1491.738          40.000          34.000
 -15115081.95443 -11726920.71542  22626276.588    22626282.128    22626275.224
     -2042.454       -1591.522          50.000          43.000
  -3995061.73543  -3056624.31342  24155495.662    24155503.133    24155495.157
     -3048.597       -2375.530          47.000          39.000
 -21244160.19644 -16503628.95842  21067826.795    21067829.586    21067826.000
      1913.317        1490.896          57.000          49.000
  -7414943.11143  -5766692.55342  23188917.960    23188920.913    23188916.420
     -2955.173       -2302.732          49.000          42.000
 -22251353.41744 -17327809.33142  20891897.959    20891901.710    20891897.162
       606.218         472.378          57.000          50.000
 -10444999.80343  -8077085.69542  23309571.926    23309577.983    23309571.455
     -1833.517       -1428.714          47.000          41.000
 04  2  1  0 53 30.0000000  0 10G 1G 3G20G22G31G15G11G14G25G23
 -10336201.46743  -7637161.72142  23085288.187    23085292.883    23085287.168
      2510.458        1956.201          49.000          43.000
  -6979844.91443  -5188897.53342  24168270.637    24168279.712    24168269.221
     -2811.180       -2190.530          45.000          39.000
  -9428844.99443  -7159745.66042  23531289.388    23531291.998    23531287.857
      1795.602        1399.170          49.000          42.000
   8095022.76543   6320782.17842  24758692.805    24758694.314    24758690.532
     -1916.062       -1493.035          40.000          35.000
 -15053713.82143 -11679101.48042  22637953.944    22637958.680    22637952.559
     -2049.580       -1597.075          49.000          43.000
  -3903518.46543  -2985292.05242  24172914.985    24172923.281    24172913.020
     -3055.071       -2380.575          45.000          39.000
 -21301361.55944 -16548201.45542  21056942.040    21056944.895    21056941.069
      1899.411        1480.061          57.000          49.000
  -7326290.04143  -5697612.29242  23205788.378    23205791.074    23205787.508
     -2955.636       -2303.093          49.000          42.000
 -22269259.97444 -17341762.48842  20888490.804    20888493.932    20888489.307
       586.900         457.325          57.000          50.000
 -10389967.75743  -8034203.62242  23320043.569    23320051.138    23320042.709
     -1835.865       -1430.544          48.000          41.000
 04  2  1  0 54  0.0000000  0 10G 1G 3G20G22G31G15G11G14G25G23
 -10411380.78743  -7695742.93442  23070982.539    23070986.800    23070981.209
      2501.361        1949.112          49.000          43.000
  -6895576.83443  -5123234.24942  24184306.973    24184313.009    24184307.377
     -2806.404       -2186.808          45.000          38.000
  -9482739.14443  -7201741.10042  23521033.039    23521036.876    23521032.472
      1797.321        1400.510          48.000          42.000
   8152524.65943   6365588.72742  24769636.510    24769637.242    24769636.153
     -1917.371       -1494.055          41.000          35.000
 -14992134.00443 -11631117.29142  22649671.977    22649677.756    22649671.811
     -2055.912       -1602.009          49.000          43.000
  -3811762.43143  -2913794.04842  24190376.462    24190383.424    24190374.314
     -3061.769       -2385.794          46.000          39.000
 -21358142.26144 -16592446.15842  21046136.873    21046139.717    21046135.856
      1885.966        1469.584          57.000          49.000
  -7237612.85443  -5628513.24342  23222664.098    23222666.140    23222661.842
     -2955.939       -2303.329          49.000          42.000
 -22286584.57944 -17355262.17742  20885193.444    20885197.354    20885192.519
       568.070         442.652          57.000          50.000
 -10334866.47743  -7991267.60742  23330530.364    23330535.621    23330529.075
     -1837.724       -1431.993          47.000          41.000
 04  2  1  0 54 30.0000000  0 10G 1G 3G20G22G31G15G11G14G25G23
 -10486267.42743  -7754096.11442  23056729.772    23056736.698    23056730.213
      2491.973        1941.797          49.000          43.000
  -6811434.52443  -5057668.96042  24200320.225    24200325.454    24200317.379
     -2801.902       -2183.300          46.000          39.000
  -9536672.18043  -7243766.84342  23510769.048    23510773.512    23510769.584
      1798.945        1401.775          48.000          42.000
   5059235.40153   3955233.41052  24780583.806    24780588.932    24780581.615
     -1918.574       -1494.993          37.000          34.000
 -14930347.58943 -11582972.11842  22661429.440    22661434.971    22661428.923
     -2062.283       -1606.974          50.000          43.000
  -3719797.65843  -2842133.35542  24207876.423    24207884.017    24207876.128
     -3068.496       -2391.036          46.000          40.000
 -21414502.45643 -16636363.19942  21035411.809    21035414.498    21035410.696
      1872.167        1458.831          56.000          50.000
  -7148915.44043  -5559398.45542  23239542.071    23239545.299    23239540.453
     -2956.443       -2303.722          49.000          42.000
 -22303328.19844 -17368309.15142  20882007.413    20882011.078    20882006.392
       548.998         427.791          57.000          50.000
 -10279697.79643  -7948279.10242  23341027.775    23341034.118    23341027.385
     -1839.362       -1433.269          47.000          41.000
 04  2  1  0 55  0.0000000  0 10G 1G 3G20G22G31G15G11G14G25G23
 -10560861.69943  -7812221.48142  23042535.906    23042541.181    23042535.432
      2481.092        1933.318          49.000          43.000
  -6727421.25843  -4992204.20742  24216306.012    24216313.466    24216305.571
     -2798.543       -2180.683          45.000          38.000
  -9590645.13343  -7285823.67742  23500499.040    23500502.572    23500496.988
      1799.425        1402.149          49.000          42.000
   5116834.64543   4000115.79742  24791546.612    24791550.815    24791547.095
     -1921.459       -1497.241          41.000          34.000
 -14868358.53743 -11534669.03642  22673225.389    22673232.665    22673224.936
     -2070.208       -1613.149          49.000          43.000
  -3627627.02843  -2770312.26042  24225416.636    24225424.269    24225414.186
     -3075.925       -2396.825          46.000          39.000
 -21470441.03444 -16679951.70242  21024767.426    21024769.843    21024766.039
      1857.128        1447.113          57.000          50.000
  -7060200.73343  -5490270.16842  23256423.004    23256428.112    23256422.868
     -2957.789       -2304.771          49.000          42.000
 -22319490.76744 -17380903.35542  20878931.357    20878935.547    20878930.690
       528.696         411.971          57.000          50.000
 -10224462.00643  -7905238.27742  23351539.094    23351545.030    23351537.917
     -1842.828       -1435.970          48.000          41.000
 04  2  1  0 55 30.0000000  0 10G 1G 3G20G22G31G15G11G14G25G23
 -10635159.09643  -7870115.51042  23028397.382    23028403.278    23028395.669
      2471.475        1925.825          49.000          43.000
  -6643535.61243  -4926838.92642  24232268.567    24232276.543    24232267.803
     -2793.898       -2177.063          44.000          39.000
  -9644654.27743  -7327908.71742  23490222.579    23490225.507    23490219.220
      1800.822        1403.238          49.000          42.000
   5174486.83043   4045039.52142  24802516.577    24802519.263    24802515.088
     -1923.128       -1498.541          41.000          34.000
 -14806165.81143 -11486207.25142  22685061.459    22685066.235    22685058.854
     -2076.608       -1618.136          49.000          43.000
  -3535248.25843  -2698328.97842  24242995.523    24243002.629    24242992.750
     -3083.132       -2402.440          46.000          40.000
 -21525951.72244 -16723206.78542  21014203.837    21014206.435    21014202.893
      1843.048        1436.141          57.000          50.000
  -6971466.73343  -5421126.87742  23273309.162    23273311.820    23273307.774
     -2958.232       -2305.116          48.000          41.000
 -22335067.17244 -17393040.81842  20875967.459    20875971.054    20875966.720
       509.254         396.821          57.000          50.000
 -10169154.69343  -7862141.75342  23362064.317    23362069.839    23362062.417
     -1845.103       -1437.742          47.000          41.000
 04  2  1  0 56  0.0000000  0 10G 1G 3G20G22G31G15G11G14G25G23
 -10709163.83143  -7927781.48042  23014314.743    23014320.472    23014311.911
      2461.781        1918.271          49.000          43.000
  -6559784.79443  -4861578.67742  24248205.456    24248215.092    24248204.157
     -2789.697       -2173.790          45.000          39.000
  -9698704.51443  -7370025.77042  23479936.250    23479940.016    23479934.818
      1802.026        1404.176          48.000          42.000
   5232187.89043   4090001.29642  24813498.738    24813501.869    24813496.958
     -1924.800       -1499.844          41.000          35.000
 -14743777.31343 -11437592.92942  22696932.540    22696938.104    22696931.464
     -2083.287       -1623.340          48.000          43.000
  -3442667.63743  -2626188.42442  24260613.703    24260620.464    24260612.858
     -3089.517       -2407.416          47.000          40.000
 -21581037.33144 -16766130.63442  21003721.339    21003724.027    21003720.519
      1828.775        1425.019          57.000          50.000
  -6882720.18743  -5351973.77242  23290196.900    23290201.393    23290194.501
     -2958.621       -2305.419          48.000          41.000
 -22350061.40944 -17404724.64142  20873113.755    20873118.081    20873113.026
       489.751         381.624          57.000          50.000
 -10113780.22743  -7818992.87142  23372600.286    23372605.747    23372598.683
     -1847.352       -1439.495          46.000          40.000
 04  2  1  0 56 30.0000000  0 10G 1G 3G20G22G31G15G11G14G25G23
 -10782870.94143  -7985215.55642  23000288.832    23000295.273    23000287.957
      2452.587        1911.107          49.000          43.000
  -6476166.75943  -4796421.91942  24264118.862    24264126.306    24264118.150
     -2784.425       -2169.682          45.000          39.000
  -9752791.80543  -7412171.70642  23469643.252    23469647.158    23469640.483
      1803.859        1405.604          49.000          42.000
   5289942.65443   4135004.93542  24824488.540    24824494.184    24824486.892
     -1925.596       -1500.464          42.000          35.000
 -14681191.66543 -11388824.97742  22708841.804    22708848.375    22708840.805
     -2088.801       -1627.637          48.000          43.000
  -3349882.90543  -2553888.78842  24278270.403    24278277.667    24278267.588
     -3095.750       -2412.273          46.000          39.000
 -21635691.30243 -16808718.14242  20993321.007    20993323.486    20993320.278
      1815.075        1414.344          56.000          50.000
  -6793958.70243  -5282809.06042  23307088.146    23307090.672    23307087.621
     -2958.417       -2305.260          48.000          41.000
 -22364468.11244 -17415950.64042  20870372.772    20870376.498    20870371.779
       470.913         366.945          57.000          50.000
 -10058333.75843  -7775787.88042  23383153.398    23383157.434    23383150.760
     -1849.016       -1440.792          47.000          41.000
 04  2  1  0 57  0.0000000  0 10G 1G 3G20G22G31G15G11G14G25G23
 -10856282.46643  -8042419.28842  22986318.181    22986324.921    22986317.346
      2441.315        1902.323          49.000          42.000
  -6392686.39443  -4731372.43942  24280004.898    24280011.795    24280003.763
     -2781.011       -2167.021          45.000          39.000
  -9806918.85643  -7454348.60942  23459345.011    23459348.193    23459342.186
      1803.619        1405.417          50.000          43.000
   5347749.23053   4180048.92052  24835485.408    24835496.213    24835485.375
     -1928.523       -1502.745          40.000          34.000
 -14618414.54043 -11339907.82542  22720788.071    22720793.782    22720787.256
     -2096.485       -1633.625          48.000          42.000
  -3256898.21943  -2481433.34942  24295964.236    24295970.218    24295962.071
     -3103.819       -2418.560          46.000          39.000
 -21689914.45644 -16850969.94842  20983002.994    20983005.691    20983001.663
      1799.566        1402.259          57.000          50.000
  -6705186.86443  -5213636.25042  23323981.101    23323982.619    23323979.992
     -2959.921       -2306.432          48.000          41.000
 -22378289.17144 -17426720.30242  20867742.485    20867746.646    20867741.119
       450.175         350.786          57.000          50.000
 -10002817.44743  -7732528.47742  23393716.568    23393722.969    23393714.860
     -1852.483       -1443.493          47.000          41.000
 04  2  1  0 57 30.0000000  0 10G 1G 3G20G22G31G15G11G14G25G23
 -10929397.06043  -8099391.65742  22972406.590    22972410.546    22972405.174
      2432.714        1895.621          50.000          43.000
  -6309345.41443  -4666431.58842  24295864.190    24295870.962    24295862.829
     -2774.985       -2162.326          46.000          40.000
  -9861084.94843  -7496555.91342  23449036.264    23449040.835    23449035.573
      1806.539        1407.693          49.000          42.000
   5405608.80343   4225134.25942  24846499.564    24846504.577    24846498.300
     -1929.220       -1503.288          43.000          36.000
 -14555448.02543 -11290843.09842  22732771.252    22732776.256    22732770.023
     -2101.706       -1637.693          49.000          42.000
  -3163714.41543  -2408822.77042  24313696.827    24313703.970    24313694.899
     -3109.275       -2422.812          46.000          39.000
 -21743703.79243 -16892883.72342  20972766.913    20972769.737    20972765.812
      1786.126        1391.786          56.000          50.000
  -6616405.80743  -5144456.29842  23340875.104    23340879.038    23340874.544
     -2958.938       -2305.666          49.000          42.000
 -22391522.74644 -17437032.17442  20865224.381    20865228.059    20865223.507
       431.781         336.453          57.000          50.000
  -9947230.10543  -7689213.71042  23404295.254    23404300.772    23404292.589
     -1853.573       -1444.342          46.000          41.000
 04  2  1  0 58  0.0000000  0 10G 1G 3G20G22G31G15G11G14G25G23
 -11002215.53343  -8156133.28942  22958548.877    22958554.528    22958548.175
      2422.393        1887.579          49.000          42.000
  -6226147.53943  -4601602.22942  24311695.844    24311703.730    24311694.983
     -2770.715       -2158.999          46.000          40.000
  -9915291.63343  -7538794.88542  23438721.886    23438724.070    23438720.247
      1807.538        1408.471          49.000          42.000
   5463520.52243   4270260.16042  24857518.433    24857522.800    24857519.298
     -1931.370       -1504.964          38.000          36.000
 -14492296.60543 -11241634.26942  22744788.991    22744794.098    22744787.179
     -2108.150       -1642.714          49.000          42.000
  -3070334.68343  -2336059.52242  24331465.484    24331475.731    24331464.893
     -3115.744       -2427.852          45.000          39.000
 -21797058.35743 -16934458.71142  20962613.892    20962616.335    20962613.000
      1771.249        1380.194          56.000          50.000
  -6527618.60343  -5075271.51542  23357770.164    23357775.219    23357770.365
     -2959.541       -2306.136          48.000          41.000
 -22404169.34844 -17446886.66542  20862817.622    20862821.742    20862816.696
       411.843         320.917          57.000          50.000
  -9891572.40843  -7645844.16542  23414886.527    23414892.630    23414885.515
     -1856.495       -1446.619          47.000          41.000
 04  2  1  0 58 30.0000000  0 10G 1G 3G20G22G31G15G11G14G25G23
 -11074731.65843  -8212639.32742  22944749.790    22944754.931    22944748.733
      2412.260        1879.683          49.000          43.000
  -6143089.68043  -4536881.98442  24327501.207    24327509.219    24327498.862
     -2766.331       -2155.582          45.000          40.000
  -9969533.39043  -7581061.16042  23428398.604    23428403.779    23428397.297
      1808.738        1409.406          48.000          42.000
   5521490.58443   4315431.57442  24868551.199    24868553.327    24868549.835
     -1933.033       -1506.259          40.000          35.000
 -14428957.81443 -11192279.45742  22756842.102    22756847.615    22756841.059
     -2114.165       -1647.401          49.000          43.000
  -2976755.24843  -2263140.64542  24349272.780    24349282.475    24349271.624
     -3122.721       -2433.289          45.000          38.000
 -21849970.76544 -16975689.16142  20952545.057    20952547.727    20952543.934
      1756.487        1368.691          57.000          50.000
  -6438821.48843  -5006079.03142  23374668.210    23374671.144    23374666.443
     -2959.670       -2306.236          49.000          42.000
 -22416222.60044 -17456278.81342  20860524.175    20860527.728    20860523.023
       391.958         305.422          57.000          50.000
  -9835838.48843  -7602415.20942  23425491.588    23425498.713    23425490.884
     -1858.792       -1448.409          47.000          41.000
 04  2  1  0 59  0.0000000  0 10G 1G 3G20G22G31G15G11G14G25G23
 -11146949.55543  -8268912.97642  22931006.645    22931012.605    22931005.866
      2402.731        1872.258          49.000          43.000
  -6060178.61643  -4472276.12542  24343278.926    24343287.410    24343278.066
     -2760.790       -2151.265          47.000          40.000
 -10023815.05543  -7623358.57042  23418069.368    23418072.011    23418066.224
      1810.368        1410.676          48.000          42.000
   5579514.98643   4360645.22942  24879592.569    24879593.751    24879590.480
     -1934.318       -1507.261          40.000          36.000
 -14365439.24643 -11142784.56042  22768929.784    22768934.345    22768928.261
     -2119.927       -1651.891          48.000          42.000
  -2882982.80243  -2190071.38442  24367118.660    24367125.984    24367117.130
     -3128.351       -2437.676          44.000          38.000
 -21902443.82043 -17016577.25742  20942559.634    20942562.486    20942558.920
      1742.212        1357.568          56.000          50.000
  -6350021.44243  -4936884.27242  23391566.377    23391569.709    23391565.539
     -2959.465       -2306.077          48.000          41.000
 -22427686.48144 -17465211.70342  20858342.420    20858346.389    20858341.488
       372.727         290.437          57.000          50.000
  -9780032.55243  -7558930.13542  23436110.740    23436118.125    23436110.422
     -1861.116       -1450.220          46.000          41.000
 04  2  1  0 59 30.0000000  0 10G 1G 3G20G22G31G15G11G14G25G23
 -11218870.57643  -8324955.27642  22917321.789    22917325.898    22917320.074
      2392.404        1864.211          50.000          43.000
  -5977418.74743  -4407788.08442  24359028.751    24359036.912    24359027.814
     -2756.277       -2147.748          46.000          40.000
 -10078138.68043  -7665688.62542  23407732.656    23407735.288    23407730.050
      1811.488        1411.549          48.000          42.000
   5637592.31843   4405900.21342  24890644.282    24890646.424    24890642.483
     -1937.193       -1509.501          40.000          35.000
 -14301745.86243 -11093153.44842  22781048.578    22781055.272    22781048.786
     -2126.006       -1656.628          49.000          43.000
  -2789020.91843  -2116854.49642  24384999.730    24385006.664    24384997.847
     -3135.531       -2443.271          44.000          37.000
 -21954477.42244 -17057122.92242  20932658.263    20932661.007    20932657.028
      1727.027        1345.735          57.000          50.000
  -6261221.90343  -4867689.89742  23408465.109    23408467.565    23408463.873
     -2960.104       -2306.574          49.000          42.000
 -22438562.07444 -17473686.18642  20856273.199    20856277.128    20856272.182
       352.644         274.788          57.000          50.000
  -9724156.04443  -7515390.04642  23446744.787    23446752.075    23446744.369
     -1863.956       -1452.433          47.000          41.000
 04  2  1  1  0  0.0000000  0 10G 1G 3G20G22G31G15G11G14G25G23
 -11290489.93443  -8380762.52742  22903691.295    22903697.971    22903689.966
      2382.497        1856.491          50.000          43.000
  -5894807.93643  -4343416.19442  24374747.292    24374756.068    24374746.672
     -2750.859       -2143.526          46.000          40.000
 -10132500.13243  -7708048.19742  23397385.334    23397391.574    23397384.573
      1812.920        1412.665          48.000          42.000
   5695727.44543   4451200.22842  24901705.333    24901710.437    24901703.389
     -1939.166       -1511.038          41.000          36.000
 -14237876.34343 -11043385.08642  22793204.601    22793210.123    22793202.765
     -2131.794       -1661.138          50.000          43.000
  -2694867.08743  -2043488.07042  24402914.929    24402924.134    24402913.719
     -3141.657       -2448.044          42.000          37.000
 -22006064.93744 -17097320.98742  20922841.462    20922844.110    20922840.387
      1712.288        1334.250          57.000          50.000
  -6172420.55043  -4798494.12242  23425362.617    23425367.891    23425360.961
     -2959.756       -2306.303          49.000          42.000
 -22448844.37944 -17481698.37242  20854316.244    20854320.061    20854315.382
       333.057         259.525          57.000          50.000
  -9668204.02543  -7471791.11142  23457392.555    23457396.431    23457390.573
     -1866.250       -1454.221          47.000          40.000
 04  2  1  1  0 30.0000000  0 10G 1G 3G20G22G31G15G11G14G25G23
 -11361807.39543  -8436334.53542  22890120.383    22890125.102    22890119.718
      2372.064        1848.362          50.000          43.000
  -5812348.47043  -4279162.23842  24390439.980    24390448.732    24390439.182
     -2746.315       -2139.986          47.000          40.000
 -10186899.65743  -7750437.39942  23387035.695    23387040.159    23387034.467
      1813.901        1413.429          48.000          42.000
   5753920.65743   4496545.36242  24912780.437    24912785.532    24912779.078
     -1940.851       -1512.351          43.000          37.000
 -14173834.00343 -10993482.04842  22805391.358    22805396.051    22805390.325
     -2137.812       -1665.827          50.000          43.000
  -2600523.45943  -1969973.75842  24420868.040    24420876.406    24420867.253
     -3147.911       -2452.918          42.000          36.000
 -22057204.78344 -17137170.21942  20913110.018    20913112.485    20913109.144
      1697.083        1322.402          57.000          50.000
  -6083619.36543  -4729298.48342  23442260.427    23442265.692    23442259.564
     -2960.153       -2306.613          49.000          42.000
 -22458532.70144 -17489247.71842  20852472.883    20852476.405    20852471.736
       313.022         243.913          57.000          50.000
  -9612176.35443  -7428133.22942  23468053.668    23468059.454    23468052.061
     -1868.906       -1456.290          46.000          41.000
 04  2  1  1  1  0.0000000  0 10G 1G 3G20G22G31G15G11G14G25G23
 -11432823.17843  -8491671.47342  22876606.682    22876611.780    22876605.604
      2362.079        1840.581          50.000          43.000
  -5730043.82443  -4215028.93742  24406102.560    24406108.489    24406101.638
     -2741.266       -2136.051          46.000          39.000
 -10241338.01543  -7792856.88742  23376675.697    23376681.245    23376674.833
      1815.267        1414.494          48.000          42.000
   5812171.68743   4541935.73042  24923866.481    24923869.849    24923865.616
     -1942.789       -1513.861          43.000          36.000
 -14109622.54543 -10943447.22742  22817608.370    22817614.581    22817607.653
     -2143.280       -1670.088          49.000          43.000
  -2505992.22643  -1896313.24242  24438858.917    24438865.167    24438856.374
     -3154.518       -2458.066          44.000          36.000
 -22107895.69344 -17176669.62842  20903463.475    20903465.965    20903462.643
      1682.055        1310.692          57.000          50.000
  -5994820.99343  -4660104.96642  23459159.561    23459162.598    23459158.188
     -2960.004       -2306.497          49.000          42.000
 -22467627.20844 -17496334.33842  20850742.049    20850746.062    20850741.120
       293.132         228.415          57.000          50.000
  -9556073.16943  -7384416.54342  23478729.961    23478736.388    23478728.808
     -1871.679       -1458.451          47.000          41.000
 04  2  1  1  1 30.0000000  0 10G 1G 3G20G22G31G15G11G14G25G23
 -11503537.19443  -8546773.24142  22863149.789    22863155.749    22863149.438
      2352.368        1833.014          50.000          43.000
  -5647896.67943  -4151018.35642  24421735.890    24421742.003    24421734.201
     -2735.289       -2131.394          47.000          40.000
 -10295815.67243  -7835306.98042  23366309.004    23366313.839    23366307.150
      1817.089        1415.914          48.000          42.000
   5870480.89343   4587371.35642  24934962.721    24934964.166    24934962.845
     -1944.181       -1514.946          44.000          36.000
 -14045245.44443 -10893283.34742  22829860.383    22829867.068    22829859.653
     -2148.280       -1673.984          50.000          43.000
  -2411275.77143  -1822508.41242  24456880.556    24456888.867    24456879.058
     -3159.475       -2461.928          39.000          35.000
 -22158136.06444 -17215817.97142  20893903.218    20893905.683    20893902.305
      1667.507        1299.356          57.000          50.000
  -5906027.56743  -4590915.37842  23476056.307    23476059.663    23476055.285
     -2959.348       -2305.985          49.000          42.000
 -22476127.62744 -17502958.04242  20849124.288    20849128.209    20849123.504
       273.867         213.403          57.000          50.000
  -9499894.46443  -7340640.96742  23489419.845    23489425.614    23489418.476
     -1873.729       -1460.048          47.000          40.000
 04  2  1  1  2  0.0000000  0 10G 1G 3G20G22G31G15G11G14G25G23
 -11573951.37543  -8601641.39142  22849750.600    22849756.786    22849750.202
      2341.312        1824.399          50.000          43.000
  -5565911.43143  -4087133.93642  24437337.231    24437343.305    24437334.193
     -2730.809       -2127.903          47.000          40.000
 -10350335.15843  -7877789.66342  23355934.090    23355938.858    23355932.519
      1817.118        1415.936          48.000          42.000
   5928846.41043   4632850.85342  24946069.054    24946072.793    24946066.827
     -1947.497       -1517.530          44.000          36.000
 -13980708.06843 -10842994.56142  22842142.064    22842147.315    22842141.399
     -2154.831       -1679.089          50.000          43.000
  -2316378.35243  -1748562.53642  24474941.336    24474949.022    24474939.157
     -3167.567       -2468.234          41.000          36.000
 -22207926.29244 -17254615.55542  20884428.735    20884431.112    20884427.524
      1651.308        1286.734          57.000          50.000
  -5817243.50943  -4521733.07142  23492951.424    23492955.294    23492952.230
     -2960.230       -2306.673          49.000          42.000
 -22484035.74044 -17509120.20942  20847619.918    20847623.580    20847618.679
       252.926         197.085          57.000          50.000
  -9443642.23443  -7296808.12842  23500125.795    23500130.328    23500124.647
     -1877.066       -1462.649          47.000          41.000
 04  2  1  1  2 30.0000000  0 10G 1G 3G20G22G31G15G11G14G25G23
 -11644059.73343  -8656271.23542  22836409.750    22836414.995    22836407.484
      2332.024        1817.162          49.000          43.000
  -5484085.23343  -4023373.46942  24452907.252    24452915.419    24452906.781
     -2724.800       -2123.221          47.000          40.000
 -10404891.25343  -7920300.92742  23345551.885    23345557.761    23345550.332
      1819.331        1417.661          48.000          42.000
   5987274.05343   4678378.77042  24957185.210    24957191.885    24957183.772
     -1948.205       -1518.082          42.000          36.000
 -13916008.11743 -10792579.09442  22854454.640    22854460.210    22854453.174
     -2159.422       -1682.666          50.000          43.000
  -2221296.55743  -1674472.98742  24493035.381    24493041.619    24493033.504
     -3172.493       -2472.072          43.000          37.000
 -22257259.31643 -17293056.86842  20875040.841    20875043.217    20875039.312
      1636.931        1275.531          56.000          50.000
  -5728464.91943  -4452555.03942  23509845.072    23509848.059    23509843.726
     -2959.056       -2305.758          49.000          42.000
 -22491345.68444 -17514816.27842  20846228.982    20846232.630    20846227.981
       233.858         182.227          57.000          50.000
  -9387310.50143  -7252913.32942  23510843.785    23510850.606    23510843.619
     -1878.997       -1464.153          46.000          40.000
 04  2  1  1  3  0.0000000  0 10G 1G 3G20G22G31G15G11G14G25G23
 -11713867.13243  -8710666.55142  22823125.959    22823130.849    22823124.030
      2321.731        1809.141          50.000          43.000
  -5402425.39543  -3959742.62542  24468446.842    24468455.093    24468445.365
     -2719.407       -2119.018          46.000          39.000
 -10459489.19443  -7962844.75342  23335163.017    23335168.374    23335160.655
      1820.287        1418.405          49.000          42.000
   6045759.22043   4723951.53142  24968315.564    24968321.615    24968316.517
     -1950.750       -1520.065          43.000          36.000
 -13851153.81843 -10742043.35742  22866794.651    22866800.979    22866793.938
     -2164.701       -1686.780          49.000          43.000
  -2126037.46243  -1600245.28842  24511162.274    24511169.588    24511161.342
     -3178.440       -2476.706          44.000          38.000
 -22306138.19144 -17331144.30642  20865739.297    20865741.704    20865738.172
      1621.388        1263.419          57.000          50.000
  -5639699.09743  -4383386.92942  23526736.519    23526740.006    23526734.497
     -2958.807       -2305.564          48.000          42.000
 -22498062.00144 -17520049.77542  20844950.467    20844954.476    20844949.750
       213.695         166.516          57.000          50.000
  -9330904.00743  -7208960.27042  23521578.457    23521584.684    23521577.191
     -1881.818       -1466.352          46.000          40.000
 04  2  1  1  3 30.0000000  0 10G 1G 3G20G22G31G15G11G14G25G23
 -11783369.23843  -8764823.99642  22809899.913    22809905.077    22809897.993
      2311.664        1801.297          50.000          43.000
  -5320930.20043  -3896240.07342  24483953.285    24483964.324    24483952.609
     -2713.677       -2114.553          46.000          39.000
 -10514125.01643  -8005418.12642  23324766.860    23324768.998    23324765.036
      1821.844        1419.619          49.000          42.000
   6104306.33243   4769572.52642  24979456.163    24979463.150    24979455.758
     -1952.466       -1521.402          40.000          37.000
 -13786144.32443 -10691386.70142  22879166.105    22879172.026    22879164.049
     -2169.716       -1690.688          48.000          42.000
  -2030598.97543  -1525877.80842  24529324.376    24529331.944    24529321.226
     -3184.850       -2481.701          44.000          38.000
 -22354557.28343 -17368873.46742  20856525.045    20856528.035    20856524.377
      1606.257        1251.629          56.000          50.000
  -5550943.72343  -4314226.95742  23543627.534    23543630.851    23543626.355
     -2958.260       -2305.138          49.000          42.000
 -22504180.25044 -17524817.25342  20843786.302    20843790.335    20843785.671
       193.950         151.130          57.000          50.000
  -9274418.42543  -7164945.59442  23532325.739    23532333.801    23532324.880
     -1884.142       -1468.162          46.000          40.000
 04  2  1  1  4  0.0000000  0 10G 1G 3G20G22G31G15G11G14G25G23
 -11852566.58743  -8818743.96042  22796733.042    22796737.823    22796731.214
      2301.159        1793.111          50.000          43.000
  -5239603.04543  -3832868.47142  24499431.652    24499439.050    24499429.326
     -2708.429       -2110.464          46.000          40.000
 -10568799.87543  -8048021.89842  23314361.521    23314365.496    23314362.608
      1822.968        1420.495          49.000          42.000
   6162914.99743   4815241.49142  24990611.310    24990613.299    24990609.726
     -1955.211       -1523.541          43.000          37.000
 -13720983.59043 -10640612.22642  22891564.916    22891572.063    22891564.558
     -2175.498       -1695.193          48.000          42.000
  -1934984.05243  -1451372.86842  24547519.404    24547526.323    24547517.057
     -3190.431       -2486.050          46.000          38.000
 -22402515.63144 -17406243.60942  20847399.086    20847401.815    20847398.234
      1590.537        1239.379          57.000          50.000
  -5462201.69843  -4245077.42042  23560513.989    23560516.959    23560511.751
     -2958.104       -2305.016          48.000          42.000
 -22509700.57543 -17529118.81342  20842735.416    20842739.855    20842734.885
       173.617         135.286          56.000          50.000
  -9217854.21043  -7120869.61142  23543091.640    23543096.367    23543090.177
     -1887.304       -1470.626          48.000          41.000
 04  2  1  1  4 30.0000000  0 10G 1G 3G20G22G31G15G11G14G25G23
 -11921458.59843  -8872425.99542  22783622.430    22783627.379    22783620.535
      2291.474        1785.564          50.000          43.000
  -5158445.93943  -3769629.36842  24514874.636    24514883.667    24514874.205
     -2702.103       -2105.535          46.000          39.000
 -10623513.32143  -8090655.73842  23303951.203    23303954.637    23303949.588
      1824.300        1421.532          49.000          42.000
   6221585.85543   4860958.87642  25001776.185    25001778.791    25001773.653
     -1956.645       -1524.658          43.000          35.000
 -13655674.49343 -10589722.11242  22903993.274    22903999.406    22903992.043
     -2179.186       -1698.067          49.000          42.000
  -1839194.10043  -1376731.52842  24565747.642    24565755.777    24565745.213
     -3196.000       -2490.390          46.000          39.000
 -22450010.90644 -17443252.91642  20838361.193    20838363.738    20838360.482
      1575.497        1227.660          57.000          50.000
  -5373474.33443  -4175939.28642  23577398.266    23577403.556    23577397.303
     -2957.214       -2304.322          49.000          42.000
 -22514622.52444 -17532954.09842  20841799.262    20841803.341    20841798.476
       154.197         120.153          57.000          50.000
  -9161210.70743  -7076731.88242  23553870.072    23553875.343    23553868.079
     -1889.449       -1472.298          47.000          41.000
 04  2  1  1  5  0.0000000  0 10G 1G 3G20G22G31G15G11G14G25G23
 -11990046.18643  -8925870.81642  22770570.910    22770575.912    22770569.075
      2281.830        1778.049          50.000          43.000
  -5077462.33543  -3706525.44142  24530285.546    24530292.700    24530285.575
     -2696.148       -2100.894          46.000          39.000
 -10678266.68143  -8133320.70242  23293531.714    23293535.322    23293529.744
      1826.504        1423.250          50.000          43.000
   6280318.23943   4906724.36242  25012950.620    25012955.571    25012951.172
     -1958.751       -1526.299          43.000          36.000
 -13590221.23643 -10538719.68342  22916449.468    22916455.923    22916447.343
     -2183.675       -1701.565          49.000          42.000
  -1743232.36843  -1301956.35842  24584007.493    24584015.777    24584004.951
     -3200.989       -2494.277          46.000          38.000
 -22497042.79544 -17479901.13842  20829411.798    20829413.978    20829410.713
      1560.458        1215.941          57.000          50.000
  -5284765.05443  -4106815.25042  23594279.203    23594282.855    23594278.585
     -2955.934       -2303.325          48.000          42.000
 -22518946.70243 -17536323.59742  20840975.880    20840980.176    20840975.306
       134.693         104.956          56.000          50.000
  -9104488.69643  -7032532.98342  23564663.456    23564668.586    23564662.660
     -1891.393       -1473.813          47.000          41.000
 04  2  1  1  5 30.0000000  0 10G 1G 3G20G22G31G15G11G14G25G23
 -12058325.47543  -8979075.39642  22757576.781    22757582.106    22757575.659
      2270.907        1769.538          49.000          43.000
  -4996650.49543  -3643555.39342  24545662.779    24545671.738    24545664.006
     -2690.794       -2096.722          45.000          39.000
 -10733056.65243  -8176014.16042  23283104.388    23283110.058    23283104.016
      1826.876        1423.540          49.000          42.000
   6339116.23243   4952540.86442  25024140.405    25024146.753    25024140.069
     -1960.736       -1527.846          42.000          36.000
 -13524623.24443 -10487604.45142  22928932.227    22928938.395    22928930.926
     -2188.767       -1705.533          49.000          43.000
  -1647097.17443  -1227046.01442  24602302.237    24602310.077    24602299.215
     -3207.476       -2499.332          47.000          38.000
 -22543605.69043 -17516183.90742  20820550.840    20820553.353    20820549.483
      1544.335        1203.378          56.000          50.000
  -5196071.56743  -4037703.52242  23611157.712    23611161.864    23611155.792
     -2956.052       -2303.417          48.000          42.000
 -22522669.45644 -17539224.44642  20840268.477    20840271.980    20840267.536
       114.183          88.974          57.000          50.000
  -9047684.00643  -6988269.68642  23575472.886    23575480.009    23575472.629
     -1894.859       -1476.513          47.000          40.000
 04  2  1  1  6  0.0000000  0 10G 1G 3G20G22G31G15G11G14G25G23
 -12126299.70443  -9032042.25642  22744641.754    22744647.904    22744640.001
      2260.376        1761.332          49.000          43.000
  -4916016.79743  -3580724.16742  24561008.892    24561014.827    24561006.698
     -2684.843       -2092.085          46.000          39.000
 -10787886.95543  -8218739.06142  23272670.465    23272675.043    23272669.018
      1828.158        1424.539          49.000          43.000
   6397976.68643   4998406.03442  25035343.204    25035346.259    25035341.807
     -1963.522       -1530.017          44.000          37.000
 -13458887.55443 -10436381.91142  22941441.144    22941446.520    22941440.197
     -2193.821       -1709.471          50.000          43.000
  -1550794.18843  -1152004.97842  24620626.623    24620635.336    24620626.467
     -3213.164       -2503.764          45.000          38.000
 -22589701.65944 -17552102.85042  20811778.966    20811781.783    20811778.171
      1528.388        1190.952          57.000          50.000
  -5107399.65943  -3968608.60942  23628030.274    23628034.690    23628028.187
     -2955.466       -2302.960          47.000          41.000
 -22525793.83044 -17541659.03042  20839673.742    20839677.309    20839672.464
        93.835          73.118          57.000          50.000
  -8990800.19543  -6943944.69942  23586298.478    23586304.416    23586296.766
     -1897.877       -1478.865          47.000          41.000
 04  2  1  1  6 30.0000000  0 10G 1G 3G20G22G31G15G11G14G25G23
 -12193961.34043  -9084765.55942  22731766.181    22731771.350    22731766.191
      2251.364        1754.310          50.000          43.000
  -4835555.84343  -3518027.54642  24576319.651    24576326.566    24576317.739
     -2677.903       -2086.678          45.000          39.000
 -10842750.15143  -8261489.59842  23262231.078    23262235.644    23262229.001
      1830.510        1426.371          49.000          43.000
   6456907.20043   5044325.84542  25046555.049    25046560.500    25046552.274
     -1964.550       -1530.818          41.000          36.000
 -13393009.77343 -10385048.66542  22953978.466    22953982.675    22953976.984
     -2197.212       -1712.113          49.000          43.000
  -1454318.02843  -1076828.93542  24638985.872    24638995.679    24638983.866
     -3217.789       -2507.368          44.000          38.000
 -22635321.35844 -17587650.66342  20803097.492    20803100.570    20803096.849
      1513.765        1179.557          57.000          50.000
  -5018743.66443  -3899526.09542  23644900.442    23644906.112    23644899.277
     -2954.085       -2301.884          47.000          41.000
 -22528312.43243 -17543621.58042  20839194.169    20839198.029    20839193.023
        74.896          58.361          56.000          50.000
  -8933829.21243  -6899551.75942  23597138.470    23597145.469    23597136.209
     -1899.531       -1480.154          47.000          40.000
 04  2  1  1  7  0.0000000  0 10G 1G 3G20G22G31G15G11G14G25G23
 -12261321.92543  -9137254.25942  22718948.745    22718952.770    22718946.172
      2240.056        1745.498          50.000          43.000
  -4755282.03443  -3455476.73842  24591595.059    24591602.610    24591595.090
     -2672.568       -2082.520          45.000          38.000
 -10897658.01843  -8304274.92542  23251782.537    23251787.945    23251781.326
      1830.825        1426.617          49.000          43.000
   6515896.91643   5090291.70442  25057780.714    25057787.063    25057780.619
     -1967.626       -1533.215          41.000          36.000
 -13327004.79043 -10333616.30742  22966538.194    22966543.279    22966536.920
     -2202.478       -1716.217          49.000          43.000
  -1357682.26343  -1001528.55242  24657375.723    24657383.719    24657374.632
     -3224.167       -2512.338          44.000          38.000
 -22680475.20944 -17622835.48442  20794505.385    20794508.018    20794504.400
      1497.032        1166.518          57.000          50.000
  -4930117.17543  -3830466.56242  23661765.637    23661770.282    23661763.747
     -2954.032       -2301.843          46.000          41.000
 -22530236.55143 -17545120.88742  20838828.009    20838831.788    20838826.833
        53.955          42.043          56.000          50.000
  -8876782.57543  -6855099.91342  23607994.891    23607999.482    23607993.668
     -1903.124       -1482.954          47.000          40.000
 04  2  1  1  7 30.0000000  0 10G 1G 3G20G22G31G15G11G14G25G23
 -12328374.83743  -9189503.23242  22706188.682    22706193.649    22706187.019
      2229.804        1737.510          50.000          43.000
  -4675190.94043  -3393068.34042  24606836.414    24606843.479    24606834.872
     -2666.912       -2078.113          44.000          38.000
 -10952604.43943  -8347090.30442  23241325.936    23241328.795    23241324.650
      1831.947        1427.491          49.000          42.000
   6574952.25443   5136308.74742  25069019.010    25069025.394    25069016.148
     -1969.983       -1535.052          40.000          35.000
 -13260869.28943 -10282082.25642  22979122.759    22979129.597    22979121.669
     -2207.087       -1719.808          48.000          43.000
  -1260882.67543   -926100.54942  24675796.040    24675804.932    24675794.808
     -3229.572       -2516.550          44.000          37.000
 -22725155.03744 -17657650.93342  20786003.006    20786005.748    20786002.014
      1481.086        1154.093          57.000          50.000
  -4841515.61243  -3761426.45842  23678626.203    23678631.177    23678625.311
     -2953.351       -2301.312          46.000          41.000
 -22531559.80943 -17546151.99742  20838575.704    20838579.878    20838575.367
        33.770          26.314          56.000          50.000
  -8819653.55243  -6810583.85242  23618866.547    23618872.587    23618864.270
     -1906.012       -1485.204          46.000          40.000
 04  2  1  1  8  0.0000000  0 10G 1G 3G20G22G31G15G11G14G25G23
 -12395120.13843  -9241512.51642  22693487.842    22693493.126    22693486.368
      2219.641        1729.590          50.000          44.000
  -4595285.30243  -3330804.42942  24622041.648    24622050.049    24622039.609
     -2660.382       -2073.025          45.000          38.000
 -11007589.75243  -8389935.98442  23230863.960    23230866.368    23230861.452
      1833.447        1428.660          50.000          42.000
   6634073.37443   5182377.04142  25080272.278    25080274.381    25080269.881
     -1972.117       -1536.714          43.000          36.000
 -13194606.78243 -10230449.23442  22991732.164    22991739.094    22991731.249
     -2210.872       -1722.757          49.000          43.000
  -1163921.46943   -850546.56842  24694246.623    24694254.248    24694244.828
     -3234.792       -2520.617          43.000          37.000
 -22769359.51144 -17692095.98042  20777591.109    20777593.496    20777590.277
      1465.441        1141.902          57.000          50.000
  -4752941.18343  -3692407.50242  23695482.209    23695487.041    23695480.675
     -2952.257       -2300.460          46.000          40.000
 -22532282.08644 -17546714.80742  20838439.087    20838442.476    20838437.756
        13.968          10.884          57.000          50.000
  -8762442.03543  -6766003.51242  23629753.732    23629759.981    23629751.786
     -1908.549       -1487.181          47.000          41.000
 04  2  1  1  8 30.0000000  0 10G 1G 3G20G22G31G15G11G14G25G23
 -12461556.22343  -9293280.83442  22680844.952    22680849.617    22680843.550
      2210.029        1722.101          50.000          43.000
  -4515565.77843  -3268685.56542  24637211.479    24637219.227    24637210.366
     -2653.546       -2067.698          44.000          38.000
 -11062612.47743  -8432810.81842  23220392.438    23220398.075    23220392.210
      1835.385        1430.170          49.000          43.000
   6693262.14543   5228498.06742  25091532.977    25091541.737    25091534.847
     -1973.515       -1537.804          42.000          36.000
 -13128218.84243 -10178718.47442  23004365.763    23004371.598    23004363.812
     -2214.401       -1725.507          48.000          42.000
  -1066799.14343   -774867.08842  24712729.087    24712737.455    24712727.688
     -3239.463       -2524.257          44.000          37.000
 -22813085.20143 -17726167.94842  20769270.377    20769273.192    20769269.207
      1450.101        1129.949          56.000          50.000
  -4664393.94243  -3623409.72042  23712332.310    23712337.262    23712329.302
     -2950.526       -2299.111          46.000          40.000
 -22532401.79344 -17546808.08542  20838416.026    20838419.588    20838415.284
        -5.444          -4.242          57.000          50.000
  -8705146.01643  -6721357.33042  23640657.339    23640663.760    23640655.275
     -1910.629       -1488.802          48.000          41.000
 04  2  1  1  9  0.0000000  0 10G 1G 3G20G22G31G15G11G14G25G23
 -12527684.80743  -9344809.59042  22668260.704    22668265.673    22668258.968
      2199.364        1713.790          50.000          44.000
  -4436036.79543  -3206715.14642  24652346.731    24652355.886    24652344.897
     -2647.774       -2063.200          44.000          37.000
 -11117674.73843  -8475716.46642  23209914.150    23209918.635    23209913.116
      1836.242        1430.838          49.000          43.000
   6752517.29143   5274670.82642  25102808.426    25102813.037    25102807.331
     -1976.024       -1539.759          43.000          36.000
 -13061710.66843 -10126894.01842  23017021.516    23017027.617    23017018.573
     -2218.792       -1728.929          47.000          42.000
   -969519.97943   -699065.41442  24731242.602    24731249.856    24731240.124
     -3244.892       -2528.487          44.000          36.000
 -22856332.79044 -17759867.37042  20761040.784    20761043.232    20761039.755
      1433.766        1117.220          57.000          50.000
  -4575877.71843  -3554436.14842  23729176.465    23729180.831    23729174.476
     -2949.907       -2298.629          45.000          40.000
 -22531920.98944 -17546433.43042  20838508.215    20838510.928    20838506.659
       -25.856         -20.147          57.000          50.000
  -8647767.17443  -6676646.63542  23651576.021    23651581.736    23651574.208
     -1913.963       -1491.400          48.000          41.000
 04  2  1  1  9 30.0000000  0 10G 1G 3G20G22G31G15G11G14G25G23
 -12593501.64143  -9396095.39842  22655735.836    22655741.340    22655733.593
      2189.523        1706.122          50.000          43.000
  -4356696.15143  -3144891.51642  24667443.114    24667453.140    24667440.117
     -2640.784       -2057.754          43.000          37.000
 -11172772.41143  -8518649.68242  23199429.670    23199433.753    23199426.880
      1838.060        1432.255          49.000          42.000
   6811843.25543   5320898.73442  25114098.553    25114101.885    25114096.900
     -1977.756       -1541.108          43.000          36.000
 -12995081.16043 -10074975.02042  23029701.352    23029706.085    23029699.637
     -2222.182       -1731.570          48.000          42.000
   -872081.70343   -623139.78242  24749784.300    24749791.631    24749781.717
     -3249.787       -2532.301          42.000          36.000
 -22899096.23144 -17793189.53742  20752903.260    20752905.711    20752902.099
      1418.056        1104.979          57.000          50.000
  -4487390.29343  -3485484.98442  23746015.243    23746019.306    23746013.469
     -2948.368       -2297.430          45.000          40.000
 -22530835.16144 -17545587.33042  20838713.870    20838717.830    20838712.881
       -45.494         -35.450          57.000          50.000
  -8590300.98043  -6631867.80742  23662511.112    23662517.208    23662509.478
     -1916.420       -1493.314          47.000          41.000
 04  2  1  1 10  0.0000000  0 10G 1G 3G20G22G31G15G11G14G25G23
 -12659011.94843  -9447142.34542  22643270.220    22643275.752    22643268.896
      2179.112        1698.009          50.000          44.000
  -4277551.65943  -3083220.75242  24682504.447    24682512.756    24682503.486
     -2634.124       -2052.564          42.000          36.000
 -11227910.94343  -8561614.78442  23188937.967    23188941.896    23188936.760
      1839.334        1433.247          50.000          43.000
   6871234.90643   5367177.83542  25125399.345    25125406.665    25125399.043
     -1980.418       -1543.183          43.000          37.000
 -12928338.84743 -10022968.10242  23042401.836    23042406.838    23042399.859
     -2226.154       -1734.665          48.000          42.000
   -774491.67743   -547095.88642  24768356.029    24768362.309    24768352.736
     -3255.236       -2536.547          44.000          36.000
 -22941379.46544 -17826137.51942  20744856.591    20744859.413    20744855.845
      1401.861        1092.359          57.000          50.000
  -4398938.47943  -3416561.59042  23762846.012    23762850.833    23762844.896
     -2947.494       -2296.748          44.000          40.000
 -22529149.58243 -17544273.89142  20839034.963    20839038.755    20839033.863
       -65.683         -51.181          56.000          50.000
  -8532752.68943  -6587025.06242  23673462.213    23673468.306    23673461.780
     -1919.105       -1495.406          48.000          41.000
 04  2  1  1 10 30.0000000  0 10G 1G 3G20G22G31G15G11G14G25G23
 -12724209.87243  -9497945.88342  22630863.116    22630868.475    22630862.873
      2167.997        1689.348          50.000          44.000
  -4198599.82043  -3021700.06742  24697529.603    24697537.768    24697530.033
     -2627.840       -2047.667          44.000          36.000
 -11283084.60543  -8604607.22342  23178438.856    23178441.121    23178438.267
      1839.627        1433.476          50.000          43.000
   6930698.30543   5413512.82342  25136716.238    25136720.222    25136713.038
     -1983.158       -1545.318          43.000          37.000
 -12861481.19843  -9970871.32842  23055124.871    23055131.106    23055122.668
     -2230.596       -1738.127          49.000          42.000
   -676746.54843   -470931.11042  24786953.099    24786965.722    24786953.825
     -3260.440       -2540.602          40.000          35.000
 -22983175.06044 -17858705.51642  20736903.508    20736906.332    20736902.419
      1385.064        1079.271          57.000          50.000
  -4310518.58543  -3347663.06142  23779672.497    23779677.636    23779671.478
     -2946.956       -2296.329          45.000          40.000
 -22526858.82543 -17542488.88742  20839470.254    20839474.821    20839469.263
       -86.403         -67.327          56.000          50.000
  -8475115.76943  -6542113.29642  23684429.625    23684436.822    23684428.860
     -1922.773       -1498.265          47.000          40.000
 04  2  1  1 11  0.0000000  0 10G 1G 3G20G22G31G15G11G14G25G23
 -12789099.44743  -9548509.16742  22618515.560    22618519.958    22618514.318
      2158.140        1681.668          51.000          44.000
  -4119846.76043  -2960334.29142  24712519.039    24712525.211    24712515.773
     -2621.627       -2042.826          44.000          36.000
 -11338297.50543  -8647630.23942  23167930.394    23167935.562    23167930.491
      1841.124        1434.642          49.000          42.000
   6990229.99443   5459901.03342  25148042.864    25148049.472    25148040.146
     -1985.218       -1546.923          43.000          36.000
 -12794515.31543  -9918690.21042  23067867.891    23067873.282    23067866.300
     -2233.682       -1740.531          49.000          42.000
   -578852.23143   -394650.14342  24805584.809    24805592.296    24805582.321
     -3265.078       -2544.217          40.000          35.000
 -23024485.70644 -17890895.63042  20729042.254    20729045.067    20729041.312
      1369.137        1066.860          57.000          50.000
  -4222136.33443  -3278793.87942  23796489.382    23796495.230    23796490.212
     -2945.111       -2294.892          43.000          39.000
 -22523966.80644 -17540235.37642  20840021.054    20840024.641    20840019.977
      -106.214         -82.764          57.000          50.000
  -8417394.33143  -6497135.61842  23695414.259    23695420.746    23695412.641
     -1925.350       -1500.273          46.000          40.000
 04  2  1  1 11 30.0000000  0 10G 1G 3G20G22G31G15G11G14G25G23
 -12853675.95343  -9598828.49342  22606227.060    22606231.580    22606225.917
      2147.394        1673.294          51.000          44.000
  -4041290.42143  -2899121.85042  24727462.875    24727472.296    24727463.346
     -2615.128       -2037.762          41.000          35.000
 -11393545.01043  -8690680.22542  23157418.670    23157421.880    23157416.964
      1842.259        1435.526          50.000          43.000
   7049834.60443   5506346.16042  25159388.362    25159391.800    25159384.907
     -1988.149       -1549.207          44.000          36.000
 -12727439.73243  -9866423.63842  23080632.319    23080637.091    23080631.607
     -2237.576       -1743.566          49.000          42.000
   -480806.28443   -318250.98742  24824239.404    24824251.573    24824239.879
     -3270.350       -2548.325          41.000          35.000
 -23065305.11744 -17922702.96942  20721274.796    20721277.235    20721273.560
      1352.541        1053.928          57.000          50.000
  -4133788.89243  -3209951.80642  23813303.614    23813307.315    23813302.348
     -2944.390       -2294.330          45.000          39.000
 -22520468.69344 -17537509.57642  20840687.056    20840690.400    20840685.921
      -126.628         -98.671          57.000          50.000
  -8359583.35543  -6452088.15542  23706415.046    23706419.786    23706413.695
     -1928.576       -1502.786          47.000          40.000
 04  2  1  1 12  0.0000000  0 10G 1G 3G20G22G31G15G11G14G25G23
 -12917944.63043  -9648907.96542  22593996.852    22594001.846    22593995.641
      2137.483        1665.571          51.000          44.000
  -3962937.92543  -2838068.27142  24742374.632    24742384.076    24742372.658
     -2608.738       -2032.783          42.000          36.000
 -11448832.57443  -8733761.42642  23146897.120    23146901.269    23146895.568
      1843.892        1436.799          49.000          43.000
   7109507.58243   5552844.50342  25170741.183    25170745.968    25170741.904
     -1989.932       -1550.596          44.000          36.000
 -12660263.11643  -9814078.33042  23093414.514    23093420.611    23093414.196
     -2240.672       -1745.978          49.000          42.000
   -382616.32443   -241739.64942  24842927.332    24842934.261    24842924.568
     -3274.405       -2551.484          39.000          35.000
 -23105637.09444 -17954130.49542  20713599.826    20713602.261    20713598.900
      1336.644        1041.541          57.000          50.000
  -4045483.29243  -3141142.32942  23830106.538    23830111.329    23830106.054
     -2942.489       -2292.848          45.000          39.000
 -22516370.06944 -17534315.85642  20841466.768    20841470.617    20841465.828
      -146.277        -113.982          57.000          50.000
  -8301687.64943  -6406974.71742  23717431.606    23717440.110    23717430.131
     -1930.883       -1504.584          45.000          40.000
 04  2  1  1 12 30.0000000  0 10G 1G 3G20G22G31G15G11G14G25G23
 -12981901.71043  -9698744.61642  22581826.515    22581832.297    22581824.525
      2126.688        1657.159          51.000          44.000
  -3884788.07443  -2777172.54142  24757246.263    24757252.409    24757246.032
     -2601.125       -2026.851          43.000          35.000
 -11504156.64343  -8776871.07042  23136370.043    23136372.588    23136368.243
      1844.642        1437.383          51.000          43.000
   7169252.63243   5599398.98642  25182111.777    25182117.537    25182113.700
     -1992.444       -1552.554          42.000          36.000
 -12592984.81243  -9761653.77942  23106217.370    23106224.239    23106217.313
     -2244.387       -1748.873          48.000          42.000
   -284280.70043   -165114.80542  24861638.644    24861648.314    24861639.522
     -3280.446       -2556.192          39.000          34.000
 -23145476.73844 -17985174.37942  20706018.879    20706020.915    20706017.581
      1319.837        1028.444          57.000          50.000
  -3957217.68143  -3072364.01342  23846903.640    23846908.500    23846901.189
     -2941.667       -2292.208          44.000          39.000
 -22511667.50944 -17530651.53242  20842361.105    20842365.070    20842360.452
      -166.751        -129.936          57.000          50.000
  -8243703.49443  -6361792.31642  23728466.007    23728472.712    23728465.154
     -1934.116       -1507.103          46.000          40.000
 04  2  1  1 13  0.0000000  0 10G 1G 3G20G22G31G15G11G14G25G23
 -13045546.61043  -9748338.00442  22569714.748    22569720.248    22569713.031
      2116.179        1648.971          51.000          44.000
  -3806842.21843  -2716435.76142  24772079.421    24772086.570    24772079.091
     -2595.156       -2022.199          41.000          35.000
 -11559516.53343  -8820008.62342  23125835.316    23125838.730    23125833.538
      1845.588        1438.121          50.000          43.000
   7229070.82743   5646010.53742  25193494.434    25193498.354    25193491.911
     -1995.128       -1554.645          41.000          35.000
 -12525607.40843  -9709152.01442  23119038.549    23119044.650    23119037.691
     -2247.678       -1751.437          47.000          41.000
   -185800.93443    -88377.69842  24880378.479    24880388.127    24880377.464
     -3284.793       -2559.579          37.000          33.000
 -23184821.87244 -18015832.93242  20698531.706    20698534.130    20698530.622
      1303.181        1015.466          57.000          50.000
  -3868992.98743  -3003617.59542  23863692.185    23863699.096    23863692.238
     -2940.512       -2291.308          46.000          39.000
 -22506360.28744 -17526516.04842  20843371.921    20843375.373    20843370.654
      -186.986        -145.703          57.000          50.000
  -8185629.68743  -6316540.06242  23739517.316    23739523.631    23739516.772
     -1937.397       -1509.660          47.000          40.000
 04  2  1  1 13 30.0000000  0 10G 1G 3G20G22G31G15G11G14G25G23
 -13108880.69343  -9797689.20142  22557662.922    22557668.883    22557661.101
      2106.040        1641.070          51.000          44.000
  -3729104.23943  -2655860.96242  24786872.219    24786881.278    24786871.251
     -2587.852       -2016.508          41.000          35.000
 -11614913.58643  -8863175.14542  23115292.045    23115296.242    23115291.900
      1847.002        1439.222          48.000          42.000
   7288961.30743   5692678.32442  25204888.524    25204897.003    25204886.707
     -1997.693       -1556.644          36.000          34.000
 -12458135.37843  -9656576.49942  23131879.908    23131885.030    23131878.822
     -2250.256       -1753.446          48.000          42.000
                  -3694330.74652  24899145.979    24899156.521
     -3289.196       -2563.010          36.000          32.000
 -23223672.13744 -18046105.87642  20691138.787    20691141.240    20691137.561
      1286.726        1002.644          57.000          50.000
  -3780812.51243  -2934905.58542  23880474.165    23880477.460    23880471.954
     -2938.461       -2289.710          46.000          39.000
 -22500450.17343 -17521910.77442  20844496.144    20844500.230    20844495.183
      -206.978        -161.281          56.000          50.000
  -8127467.29543  -6271218.81342  23750585.874    23750591.272    23750584.527
     -1939.955       -1511.653          47.000          40.000
 04  2  1  1 14  0.0000000  0  8G 1G 3G20G31G11G14G25G23
 -13171904.52543  -9846798.62942  22545669.574    22545674.802    22545668.541
      2095.232        1632.648          50.000          44.000
  -3651576.83343  -2595450.27042  24801628.117    24801635.045    24801626.918
     -2580.757       -2010.979          43.000          36.000
 -11670348.48143  -8906371.14742  23104744.575    23104747.853    23104742.207
      1848.229        1440.178          50.000          43.000
 -12390572.56443  -9603930.25042  23144736.410    23144741.049    23144735.393
     -2253.751       -1756.170          49.000          42.000
 -23262026.95944 -18075992.75842  20683839.852    20683842.672    20683838.786
      1269.985         989.599          57.000          51.000
  -3692678.33443  -2866229.69742  23897244.286    23897248.417    23897242.199
     -2937.057       -2288.616          45.000          39.000
 -22493938.32043 -17516836.61842  20845735.386    20845739.117    20845734.595
      -227.377        -177.177          56.000          50.000
  -8069216.73143  -6225828.86142  23761669.653    23761676.411    23761669.114
     -1943.604       -1514.497          47.000          40.000
 04  2  1  1 14 30.0000000  0  8G 1G 3G20G31G11G14G25G23
 -13234614.16343  -9895663.24442  22533736.146    22533742.043    22533734.881
      2085.285        1624.897          50.000          44.000
  -3574257.96943  -2535202.08542  24816339.053    24816349.063    24816339.790
     -2573.458       -2005.292          43.000          36.000
 -11725817.15943  -8949593.50342  23094188.424    23094191.954    23094186.862
      1849.619        1441.262          49.000          43.000
 -12322918.07543  -9551212.55142  23157609.506    23157616.726    23157608.175
     -2256.578       -1758.372          48.000          42.000
 -23299880.96744 -18105489.39642  20676636.144    20676639.179    20676635.265
      1253.478         976.736          57.000          50.000
  -3604588.24943  -2797588.16742  23914008.350    23914011.790    23914006.309
     -2935.406       -2287.329          45.000          39.000
 -22486820.29743 -17511290.12242  20847089.835    20847093.819    20847088.850
      -247.332        -192.726          56.000          50.000
  -8010873.66843  -6180366.77642  23772772.621    23772778.645    23772770.520
     -1946.243       -1516.553          46.000          40.000
 04  2  1  1 15  0.0000000  0  8G 1G 3G20G31G11G14G25G23
 -13297012.40543  -9944285.21342  22521862.438    22521868.090    22521860.428
      2074.069        1616.158          51.000          44.000
  -3497152.69843  -2475120.32742  24831011.995    24831022.062    24831009.909
     -2567.084       -2000.325          42.000          35.000
 -11781322.47743  -8992844.37442  23083625.647    23083630.065    23083625.269
      1850.146        1441.672          49.000          43.000
 -12255177.82543  -9498428.04942  23170499.713    23170506.670    23170498.272
     -2260.111       -1761.125          47.000          42.000
 -23337235.60644 -18134596.91742  20669527.843    20669530.655    20669527.033
      1236.230         963.296          57.000          50.000
  -3516546.78043  -2728984.53942  23930760.229    23930765.655    23930758.519
     -2934.652       -2286.742          46.000          39.000
 -22479099.40544 -17505273.85342  20848559.525    20848562.874    20848558.272
      -267.988        -208.822          57.000          50.000
  -7952440.57743  -6134834.54742  23783892.133    23783898.485    23783890.005
     -1950.090       -1519.551          46.000          39.000
 04  2  1  1 15 30.0000000  0  8G 1G 3G20G31G11G14G25G23
 -13359099.32743  -9992664.59442  22510047.703    22510052.854    22510046.928
      2064.510        1608.709          51.000          44.000
  -3420263.22443  -2415206.71742  24845645.147    24845654.185    24845643.533
     -2559.058       -1994.071          42.000          35.000
 -11836864.51543  -9036123.87442  23073057.543    23073061.166    23073054.726
      1852.052        1443.157          50.000          43.000
 -12187355.11843  -9445579.28842  23183405.991    23183413.456    23183405.517
     -2262.024       -1762.616          47.000          41.000
 -23374089.23744 -18163314.03942  20662515.367    20662517.748    20662514.279
      1220.172         950.783          57.000          50.000
  -3428555.58143  -2660420.05042  23947503.558    23947508.167    23947502.425
     -2932.240       -2284.862          44.000          39.000
 -22470776.20044 -17498788.25042  20850143.256    20850146.932    20850142.336
      -287.375        -223.928          57.000          50.000
  -7893917.08843  -6089231.91442  23795029.134    23795036.566    23795028.129
     -1952.275       -1521.253          46.000          39.000
 04  2  1  1 16  0.0000000  0  8G 1G 3G20G31G11G14G25G23
 -13420872.05843 -10040799.14642  22498292.736    22498298.264    22498292.274
      2053.935        1600.469          51.000          44.000
  -3343588.75243  -2355460.65442  24860235.979    24860243.512    24860237.077
     -2552.097       -1988.647          41.000          34.000
 -11892440.25143  -9079429.62242  23062481.148    23062484.356    23062480.054
      1853.158        1444.019          50.000          43.000
 -12119450.07043  -9392666.39242  23196329.718    23196335.369    23196327.859
     -2264.625       -1764.643          47.000          41.000
 -23410437.97344 -18191637.73542  20655597.634    20655600.433    20655596.965
      1203.382         937.700          57.000          50.000
  -3340613.52943  -2591893.86442  23964239.531    23964244.930    23964238.867
     -2930.313       -2283.361          45.000          39.000
 -22461847.84444 -17491831.10142  20851842.065    20851845.969    20851841.035
      -307.503        -239.613          57.000          50.000
  -7835300.10043  -6043556.43942  23806184.611    23806190.619    23806183.334
     -1955.271       -1523.588          48.000          40.000
 04  2  1  1 16 30.0000000  0  8G 1G 3G20G31G11G14G25G23
 -13482333.42843 -10088691.06342  22486596.841    22486601.699    22486595.518
      2043.783        1592.558          51.000          44.000
  -3267134.15743  -2295885.93342  24874785.911    24874791.792    24874783.561
     -2544.447       -1982.686          41.000          33.000
 -11948052.37943  -9122763.74142  23051899.151    23051902.041    23051898.126
      1854.587        1445.133          50.000          43.000
 -12051468.73543  -9339694.02742  23209265.596    23209271.125    23209263.016
     -2267.119       -1766.586          47.000          41.000
 -23446283.35044 -18219569.20342  20648777.278    20648779.545    20648776.183
      1186.774         924.759          57.000          51.000
  -3252725.08943  -2523409.45642  23980965.036    23980968.809    23980962.896
     -2928.389       -2281.861          47.000          39.000
 -22452317.49143 -17484404.86542  20853655.645    20853659.725    20853654.759
      -327.338        -255.068          56.000          50.000
  -7776592.07743  -5997810.00342  23817356.249    23817361.480    23817353.536
     -1958.005       -1525.718          47.000          39.000
 04  2  1  1 17  0.0000000  0  8G 1G 3G20G31G11G14G25G23
 -13543482.20143 -10136339.41242  22474960.917    22474965.952    22474958.850
      2032.817        1584.013          51.000          45.000
  -3190900.38443  -2236483.25742  24889293.668    24889298.845    24889288.967
     -2537.313       -1977.127          38.000          33.000
 -12003699.51643  -9166125.13242  23041309.743    23041313.268    23041307.811
      1854.931        1445.401          50.000          43.000
 -11983412.76943  -9286663.51042  23222215.822    23222222.281    23222214.054
     -2270.207       -1768.992          47.000          41.000
 -23481622.50744 -18247106.21042  20642052.328    20642054.870    20642051.271
      1169.008         910.915          57.000          51.000
  -3164890.57743  -2454967.04042  23997679.254    23997682.788    23997677.086
     -2927.325       -2281.032          46.000          39.000
 -22442184.21544 -17476508.81542  20855584.180    20855587.741    20855583.166
      -348.210        -271.332          57.000          50.000
  -7717791.33743  -5951991.33742  23828545.014    23828551.727    23828543.854
     -1962.498       -1529.219          46.000          40.000
 04  2  1  1 17 30.0000000  0  8G 1G 3G20G31G11G14G25G23
 -13604317.27743 -10183743.31842  22463384.012    22463388.808    22463382.564
      2022.476        1575.955          51.000          45.000
  -7841148.28153  -5860053.31552  24903755.679    24903766.599    24903758.778
     -2530.313       -1971.672          38.000          32.000
 -12059380.55543  -9209512.93142  23030713.747    23030716.701    23030712.031
      1856.660        1446.748          50.000          43.000
 -11915284.15043  -9233576.37342  23235181.348    23235186.465    23235179.889
     -2272.246       -1770.581          48.000          41.000
 -23516452.70044 -18274246.62342  20635424.376    20635426.844    20635423.371
      1152.369         897.950          57.000          51.000
  -3077110.17243  -2386566.83142  24014382.867    24014386.478    24014380.868
     -2925.397       -2279.530          47.000          39.000
 -22431447.23243 -17468142.34442  20857627.375    20857631.086    20857626.298
      -368.029        -286.776          56.000          50.000
  -7658896.26943  -5906099.18242  23839751.762    23839759.998    23839750.894
     -1964.681       -1530.920          46.000          40.000
 04  2  1  1 18  0.0000000  0  8G 1G 3G20G31G11G14G25G23
 -13664838.76843 -10230902.88342  22451867.171    22451871.988    22451866.448
      2013.151        1568.689          51.000          45.000
  -7765360.04353  -5800997.84052  24918180.283    24918190.521    24918176.139
     -2521.352       -1964.690          38.000          33.000
 -12115095.24843  -9252926.95942  23020111.190    23020115.259    23020110.723
      1858.605        1448.264          50.000          44.000
 -11847085.96443  -9180435.03142  23248159.423    23248163.694    23248157.208
     -2273.515       -1771.570          48.000          41.000
 -23550773.17744 -18300989.85542  20628893.222    20628895.944    20628892.255
      1136.367         885.481          57.000          51.000
  -2989385.69243  -2318210.21342  24031076.945    24031081.691    24031076.912
     -2922.456       -2277.238          47.000          39.000
 -22420107.00343 -17459305.81442  20859785.212    20859788.887    20859784.237
      -387.269        -301.768          56.000          50.000
  -7599906.75543  -5860133.38042  23850978.921    23850985.238    23850976.690
     -1966.945       -1532.684          47.000          40.000
 04  2  1  1 18 30.0000000  0  9G 1G 3G20G22G31G11G14G25G23
 -13725045.13943 -10277816.87842  22440410.475    22440415.148    22440409.571
      2001.726        1559.786          51.000          45.000
                  -5742116.96442  24932559.587    24932568.592
     -2514.795       -1959.580          38.000          33.000
 -12170841.89043  -9296365.89342  23009503.189    23009508.306    23009502.664
      1858.862        1448.464          50.000          44.000
                                  25319648.196
     -2023.018       -1576.378          43.000
 -11778819.60143  -9127240.57042  23261149.171    23261155.710    23261147.938
     -2276.622       -1773.991          47.000          41.000
 -23584580.63044 -18327333.33142  20622459.729    20622462.721    20622458.863
      1118.493         871.553          57.000          51.000
  -2901716.97643  -2249896.96942  24047759.454    24047762.347    24047756.095
     -2921.512       -2276.503          47.000          39.000
 -22408162.16043 -17449998.14742  20862057.865    20862062.363    20862056.929
      -408.095        -317.996          56.000          50.000
  -7540820.59443  -5814092.33042  23862222.684    23862228.717    23862219.793
     -1970.667       -1535.585          48.000          39.000
 04  2  1  1 19  0.0000000  0  7G 1G20G31G11G14G25G23
 -13784943.11443 -10324490.58042  22429011.980    22429017.475    22429010.631
      1990.941        1551.383          52.000          45.000
 -12226627.16843  -9339834.92042  22998887.459    22998891.630    22998886.128
      1859.598        1449.037          50.000          44.000
 -11710494.95643  -9074000.69942  23274150.172    23274157.005    23274149.564
     -2279.243       -1776.033          46.000          41.000
 -23617880.67344 -18353281.41842  20616123.295    20616125.882    20616122.047
      1100.898         857.843          57.000          51.000
  -2814112.28443  -2181633.67042  24064430.322    24064435.854    24064429.998
     -2920.055       -2275.367          47.000          39.000
 -22395619.95743 -17440225.00942  20864444.662    20864448.458    20864443.818
      -428.693        -334.046          56.000          50.000
  -7481644.30443  -5767980.98042  23873482.072    23873488.827    23873481.176
     -1974.792       -1538.799          48.000          39.000
 04  2  1  1 19 30.0000000  0  7G 1G20G31G11G14G25G23
 -13844522.99243 -10370916.42542  22417674.247    22417679.700    22417672.739
      1981.085        1543.703          51.000          45.000
 -12282441.15443  -9383326.30242  22988267.147    22988270.655    22988265.425
      1861.309        1450.371          51.000          44.000
 -11642105.26943  -9020710.15142  23287165.984    23287172.360    23287163.510
     -2280.135       -1776.728          46.000          41.000
 -23650662.06544 -18378825.36342  20609885.167    20609887.982    20609884.146
      1084.531         845.089          57.000          51.000
  -2726563.32043  -2113413.78642  24081091.427    24081095.602    24081090.607
     -2916.731       -2272.777          48.000          40.000
 -22382470.99543 -17429979.07042  20866946.799    20866951.015    20866945.968
      -447.954        -349.055          56.000          50.000
  -7422367.61943  -5721791.42542  23884762.564    23884769.399    23884760.673
     -1977.071       -1540.575          47.000          40.000
 04  2  1  1 20  0.0000000  0  8G 1G20G22G31G11G14G25G23
 -13903790.59543 -10417098.93042  22406395.572    22406402.195    22406393.604
      1970.227        1535.242          51.000          45.000
 -12338289.27143  -9426844.30842  22977638.757    22977641.642    22977638.633
      1862.038        1450.939          51.000          44.000
  -1356596.58553  -1083965.08452  25354358.947    25354364.720    25354358.690
     -2031.024       -1582.616          41.000          34.000
 -11573659.43643  -8967375.85342  23300190.462    23300197.282    23300188.912
     -2282.396       -1778.490          46.000          41.000
 -23682929.35144 -18403968.71342  20603744.806    20603747.600    20603743.642
      1066.857         831.317          57.000          51.000
  -2639077.37343  -2045243.00042  24097736.787    24097742.608    24097737.278
     -2914.811       -2271.281          46.000          40.000
 -22368721.55343 -17419265.22742  20869563.175    20869567.816    20869562.389
      -468.456        -365.031          56.000          50.000
  -7362996.01243  -5675527.92942  23896061.704    23896066.993    23896059.757
     -1980.895       -1543.554          48.000          39.000
 04  2  1  1 20 30.0000000  0  8G 1G20G22G31G11G14G25G23
 -13962744.94443 -10463037.33442  22395177.885    22395182.644    22395176.202
      1960.133        1527.376          51.000          45.000
 -12394170.32543  -9470387.96642  22967005.569    22967009.165    22967005.026
      1863.434        1452.026          51.000          44.000
  -1295628.83643  -1036457.85242  25365961.523    25365966.040    25365958.174
     -2032.945       -1584.113          41.000          36.000
 -11505159.36543  -8913999.30042  23313224.733    23313233.081    23313224.661
     -2283.796       -1779.581          46.000          41.000
 -23714680.29944 -18428709.71342  20597702.815    20597705.559    20597701.715
      1049.908         818.110          57.000          51.000
  -2551654.98043  -1977121.74142  24114374.470    24114380.482    24114373.899
     -2912.874       -2269.772          47.000          39.000
 -22354370.94943 -17408082.93642  20872294.352    20872298.474    20872293.447
      -488.100        -380.338          56.000          50.000
  -7303528.12343  -5629189.42442  23907377.612    23907383.471    23907375.444
     -1983.524       -1545.603          49.000          40.000
 04  2  1  1 21  0.0000000  0  8G 1G20G22G31G11G14G25G23
 -14021386.38043 -10508731.92242  22384017.937    22384023.070    22384017.405
      1949.564        1519.141          51.000          45.000
 -12450084.23743  -9513957.23342  22956365.840    22956368.963    22956364.923
      1864.321        1452.718          51.000          44.000
  -1234581.02553   -988888.29452  25377575.181    25377579.371    25377577.583
     -2036.329       -1586.750          38.000          34.000
 -11436608.19743  -8860582.92942  23326270.408    23326276.317    23326269.421
     -2285.829       -1781.165          47.000          40.000
 -23745913.61244 -18453047.35942  20591759.564    20591761.514    20591758.534
      1032.520         804.561          57.000          51.000
  -2464297.71043  -1909051.24242  24130997.975    24131001.510    24130996.693
     -2910.385       -2267.832          46.000          39.000
 -22339419.73743 -17396432.65342  20875139.027    20875143.576    20875138.406
      -508.272        -396.056          56.000          50.000
  -7243963.55543  -5582775.57642  23918711.056    23918718.679    23918710.682
     -1986.935       -1548.261          46.000          40.000
 04  2  1  1 21 30.0000000  0  8G 1G20G22G31G11G14G25G23
 -14079710.50343 -10554179.24242  22372920.344    22372924.426    22372918.557
      1939.745        1511.490          52.000          45.000
 -12506026.30743  -9557548.44942  22945720.441    22945723.100    22945719.786
      1866.007        1454.031          51.000          43.000
  -1173447.83343   -941252.05242  25389209.676    25389214.539    25389209.904
     -2038.797       -1588.673          40.000          34.000
 -11368004.28843  -8807125.45842  23339326.278    23339330.360    23339324.399
     -2287.061       -1782.125          47.000          40.000
 -23776623.55544 -18476977.18842  20585915.298    20585917.774    20585914.591
      1015.761         791.502          57.000          50.000
  -2377002.29143  -1841028.92742  24147609.260    24147614.587    24147609.640
     -2907.949       -2265.934          47.000          39.000
 -22323864.05843 -17384311.35542  20878099.415    20878103.585    20878098.315
      -527.719        -411.210          56.000          50.000
  -7184297.44943  -5536282.55242  23930066.283    23930072.512    23930065.129
     -1989.340       -1550.135          47.000          40.000
 04  2  1  1 22  0.0000000  0  8G 1G20G22G31G11G14G25G23
 -14137722.85243 -10599383.63242  22361880.673    22361886.852    22361878.504
      1929.030        1503.140          52.000          45.000
 -12562001.82643  -9601165.71342  22935067.845    22935072.224    22935066.370
      1866.870        1454.704          51.000          44.000
                   -893553.48042  25400860.395    25400861.272
     -2041.113       -1590.478          38.000          33.000
 -11299356.29543  -8753633.63542  23352388.345    23352394.026    23352388.640
     -2288.639       -1783.355          47.000          40.000
 -23806814.57844 -18500502.66342  20580170.065    20580173.010    20580169.020
       998.217         777.831          57.000          51.000
  -2289775.80543  -1773060.31342  24164208.943    24164212.571    24164206.926
     -2905.999       -2264.415          46.000          39.000
 -22307710.23143 -17371723.96642  20881173.527    20881177.290    20881172.674
      -548.007        -427.018          56.000          50.000
  -7124534.79343  -5489714.33842  23941438.952    23941444.420    23941435.004
     -1993.763       -1553.581          47.000          40.000
 04  2  1  1 22 30.0000000  0  7G 1G20G31G11G14G25G23
 -14195420.55243 -10644342.86642  22350899.966    22350906.344    22350899.518
      1918.262        1494.750          52.000          45.000
 -12618007.44643  -9644806.43742  22924410.623    22924413.876    22924408.225
      1867.675        1455.331          51.000          44.000
 -11230664.03843  -8700107.32442  23365458.939    23365466.718    23365458.167
     -2290.209       -1784.578          45.000          40.000
 -23836482.63544 -18523620.62942  20574524.425    20574527.077    20574523.493
       980.396         763.945          57.000          51.000
  -2202616.54043  -1705144.07842  24180794.638    24180797.792    24180794.633
     -2903.906       -2262.784          47.000          39.000
 -22290955.58843 -17358668.41542  20884361.841    20884365.876    20884360.986
      -568.235        -442.780          56.000          50.000
  -7064672.27443  -5443068.34642  23952829.628    23952836.219    23952826.592
     -1996.560       -1555.761          45.000          39.000
 04  2  1  1 23  0.0000000  0  7G 1G20G31G11G14G25G23
 -14252804.90943 -10689057.90842  22339980.336    22339985.582    22339979.628
      1907.903        1486.678          51.000          45.000
 -12674044.10643  -9688471.33942  22913748.003    22913750.311    22913745.403
      1868.539        1456.004          51.000          44.000
 -11161931.81943  -8646549.86242  23378538.490    23378546.416    23378537.516
     -2291.814       -1785.829          46.000          40.000
 -23865627.33844 -18546330.79342  20568978.559    20568981.476    20568977.456
       962.939         750.342          57.000          51.000
  -2115527.28043  -1637282.39842  24197367.221    24197372.275    24197365.117
     -2901.708       -2261.071          47.000          39.000
 -22273602.13043 -17345146.24842  20887663.701    20887668.293    20887663.260
      -588.297        -458.413          56.000          50.000
  -7004710.78443  -5396345.18742  23964239.274    23964246.745    23964238.808
     -1999.743       -1558.241          45.000          38.000
 04  2  1  1 23 30.0000000  0  7G 1G20G31G11G14G25G23
 -14309874.65743 -10733527.80642  22329119.723    22329125.604    22329119.209
      1897.127        1478.281          51.000          45.000
 -12730110.14943  -9732159.14542  22903078.089    22903081.856    22903077.223
      1869.293        1456.592          51.000          44.000
 -11093161.26743  -8592962.54742  23391627.718    23391633.579    23391625.710
     -2293.137       -1786.860          47.000          40.000
 -23894246.40344 -18568631.36742  20563532.285    20563535.239    20563531.329
       945.177         736.502          57.000          51.000
  -2028507.95443  -1569475.21942  24213925.772    24213931.994    24213926.364
     -2899.481       -2259.336          46.000          38.000
 -22255649.04243 -17331156.83942  20891080.576    20891084.363    20891079.396
      -608.464        -474.128          56.000          50.000
  -6944648.43943  -5349543.45342  23975670.348    23975678.154    23975669.095
     -2003.995       -1561.554          46.000          39.000
 04  2  1  1 24  0.0000000  0  7G 1G20G31G11G14G25G23
 -14366632.15443 -10777754.39542  22318319.835    22318324.401    22318318.686
      1886.986        1470.379          52.000          45.000
 -12786207.41243  -9775871.29242  22892402.854    22892407.056    22892401.433
      1870.543        1457.566          51.000          44.000
 -11024357.54143  -8539349.36142  23404719.515    23404726.703    23404718.062
     -2293.879       -1787.438          47.000          40.000
 -23922340.73744 -18590523.06142  20558186.529    20558189.168    20558185.379
       927.904         723.042          57.000          51.000
  -1941561.90843  -1501725.13242  24230471.573    24230477.079    24230469.565
     -2896.381       -2256.920          46.000          39.000
 -22237098.93843 -17316702.22542  20894610.328    20894614.272    20894609.609
      -627.987        -489.340          56.000          50.000
  -6884487.19743  -5302664.64142  23987119.214    23987124.884    23987117.070
     -2006.576       -1563.566          46.000          39.000
 04  2  1  1 24 30.0000000  0  7G 1G20G31G11G14G25G23
 -14423076.65543 -10821737.09642  22307579.436    22307583.829    22307578.306
      1876.387        1462.120          52.000          45.000
 -12842334.71343  -9819606.82042  22881722.901    22881726.844    22881720.619
      1871.547        1458.348          50.000          44.000
 -10955522.50643  -8485711.79542  23417819.387    23417823.345    23417816.845
     -2294.872       -1788.212          47.000          40.000
 -23949908.06944 -18612004.10542  20552940.256    20552943.162    20552939.575
       910.275         709.305          57.000          51.000
  -1854689.80743  -1434032.66942  24247002.774    24247007.144    24247000.721
     -2894.548       -2255.492          45.000          39.000
 -22217951.40443 -17301782.07742  20898254.144    20898257.863    20898253.153
      -648.115        -505.025          56.000          50.000
  -6824225.51043  -5255707.56442  23998585.628    23998592.084    23998584.838
     -2010.396       -1566.542          44.000          39.000
 04  2  1  1 25  0.0000000  0  7G 1G20G31G11G14G25G23
 -14479206.89143 -10865474.90442  22296897.712    22296902.468    22296896.854
      1865.011        1453.255          52.000          45.000
 -12898490.29543  -9863364.39642  22871036.243    22871041.553    22871035.072
      1871.654        1458.432          50.000          44.000
 -10886657.65943  -8432051.00442  23430923.430    23430930.012    23430921.583
     -2296.840       -1789.745          47.000          40.000
 -23976946.11544 -18633072.71942  20547795.257    20547797.792    20547794.295
       891.711         694.840          57.000          51.000
  -1767891.64343  -1366397.83442  24263522.145    24263525.073    24263520.127
     -2892.756       -2254.095          46.000          39.000
 -22198206.22143 -17286396.23942  20902011.688    20902015.006    20902010.601
      -668.886        -521.210          56.000          50.000
  -6763861.59143  -5208670.88042  24010073.741    24010078.845    24010071.320
     -2014.909       -1570.059          45.000          38.000
 04  2  1  1 25 30.0000000  0  7G 1G20G31G11G14G25G23
 -14535021.69943 -10908966.92942  22286276.535    22286281.922    22286275.132
      1855.233        1445.636          52.000          45.000
 -12954672.71143  -9907142.89042  22860345.135    22860348.933    22860343.842
      1873.143        1459.592          50.000          44.000
 -10817764.97543  -8378368.51842  23444034.022    23444041.127    23444031.483
     -2296.765       -1789.687          47.000          40.000
 -24003452.57244 -18653727.11042  20542751.337    20542753.863    20542750.162
       874.717         681.598          57.000          51.000
  -1681167.53543  -1298820.70642  24280024.475    24280027.135    24280022.411
     -2889.480       -2251.543          45.000          39.000
 -22177862.58043 -17270544.06342  20905883.124    20905886.364    20905882.033
      -688.095        -536.178          56.000          50.000
  -6703393.91543  -5161553.30842  24021578.910    24021584.877    24021577.217
     -2017.370       -1571.977          44.000          38.000
 04  2  1  1 26  0.0000000  0  7G 1G20G31G11G14G25G23
 -14590523.59643 -10952215.12542  22275714.687    22275720.254    22275713.104
      1844.975        1437.643          51.000          45.000
 -13010883.93243  -9950943.83542  22849648.485    22849652.137    22849646.865
      1874.149        1460.376          50.000          44.000
 -10748849.69243  -8324668.42442  23457145.924    23457155.540    23457145.259
     -2297.625       -1790.357          46.000          40.000
 -24029428.86244 -18673968.37842  20537808.434    20537810.812    20537807.341
       857.093         667.865          57.000          51.000
  -1594521.06743  -1231304.04042  24296511.470    24296514.150    24296509.368
     -2886.751       -2249.416          45.000          38.000
 -22156923.83143 -17254228.16342  20909867.038    20909871.255    20909866.020
      -707.722        -551.472          56.000          50.000
  -6642824.38543  -5114356.38442  24033104.118    24033112.657    24033102.944
     -2020.528       -1574.437          44.000          38.000
 04  2  1  1 26 30.0000000  0  7G 1G20G31G11G14G25G23
 -14645710.07343 -10995217.52742  22265212.686    22265218.256    22265211.452
      1835.064        1429.920          52.000          45.000
 -13067120.59543  -9994764.59142  22838947.632    22838951.221    22838946.073
      1875.747        1461.621          51.000          44.000
 -10679911.61743  -8270950.56642  23470265.904    23470272.610    23470265.088
     -2297.863       -1790.542          46.000          40.000
 -24054870.75844 -18693793.24242  20532966.754    20532969.505    20532965.574
       839.899         654.467          57.000          51.000
  -1507950.58643  -1163846.61442  24312986.728    24312989.902    24312984.496
     -2883.376       -2246.786          45.000          38.000
 -22135387.77043 -17237446.82642  20913965.242    20913969.249    20913964.496
      -727.063        -566.542          56.000          50.000
  -6582149.80943  -5067077.57042  24044651.816    24044658.043    24044649.291
     -2023.479       -1576.737          45.000          39.000
 04  2  1  1 27  0.0000000  0  7G 1G20G31G11G14G25G23
 -14700585.80643 -11037977.80542  22254770.766    22254775.521    22254769.341
      1823.442        1420.864          52.000          46.000
 -13123387.04243 -10038608.57342  22828239.660    22828243.439    22828239.001
      1875.696        1461.581          51.000          44.000
 -10610958.36243  -8217220.89742  23483387.989    23483394.822    23483386.088
     -2299.106       -1791.511          46.000          40.000
 -24079781.86944 -18713204.51142  20528226.467    20528228.702    20528225.294
       820.977         639.722          57.000          51.000
  -1421461.77743  -1096452.85242  24329443.962    24329449.632    24329442.298
     -2882.057       -2245.759          44.000          39.000
 -22113259.50543 -17220204.03142  20918176.421    20918180.605    20918175.523
      -747.954        -582.821          56.000          50.000
  -6521374.20943  -5019720.04442  24056216.619    24056223.794    24056215.815
     -2028.067       -1580.312          45.000          38.000
 04  2  1  1 27 30.0000000  0  7G 1G20G31G11G14G25G23
 -14755145.29843 -11080491.66242  22244387.294    22244393.083    22244386.289
      1813.584        1413.182          51.000          45.000
 -13179677.08443 -10082470.91842  22817527.688    22817531.769    22817526.066
      1877.039        1462.628          51.000          44.000
 -10541987.09543  -8163477.17942  23496511.978    23496519.628    23496510.068
     -2298.976       -1791.410          47.000          40.000
 -24104155.53744 -18732196.99742  20523588.093    20523590.817    20523587.127
       803.766         626.311          57.000          51.000
  -1335050.36143  -1029119.36942  24345887.355    24345892.570    24345884.883
     -2879.171       -2243.510          43.000          38.000
 -22090534.32543 -17202496.10742  20922500.518    20922504.767    20922499.759
      -767.171        -597.795          56.000          50.000
  -6460491.54543  -4972279.11542  24067802.266    24067809.874    24067799.485
     -2031.109       -1582.682          45.000          38.000
 04  2  1  1 28  0.0000000  0  8G 1G20G 2G31G11G14G25G23
 -14809393.42443 -11122762.89842  22234065.797    22234069.814    22234063.639
      1803.462        1405.295          52.000          46.000
 -13235994.96743 -10126354.97142  22806811.246    22806814.721    22806809.440
      1878.118        1463.469          51.000          44.000
  -1640676.09753  -1249048.69752  25664261.164    25664271.637    25664259.844
      2066.398        1610.180          42.000          35.000
 -10473005.33343  -8109725.31842  23509638.720    23509644.402    23509637.505
     -2299.039       -1791.459          47.000          40.000
 -24127995.29544 -18750773.44742  20519051.565    20519054.144    20519050.569
       786.100         612.545          57.000          51.000
  -1248722.43743   -961850.95442  24362316.124    24362320.707    24362314.409
     -2875.747       -2240.842          46.000          39.000
 -22067217.58743 -17184327.23342  20926937.788    20926941.644    20926936.600
      -786.736        -613.041          56.000          50.000
  -6399506.05043  -4924758.07442  24079407.363    24079414.942    24079405.893
     -2034.069       -1584.989          44.000          38.000
 04  2  1  1 28 30.0000000  0  8G 1G20G 2G31G11G14G25G23
 -14863327.49943 -11164789.41942  22223801.798    22223806.697    22223800.710
      1792.785        1396.975          52.000          46.000
 -13292337.53043 -10170258.24842  22796089.459    22796092.777    22796088.041
      1878.708        1463.928          51.000          44.000
  -1702799.32843  -1297456.42142  25652438.173    25652448.525    25652437.426
      2075.976        1617.644          42.000          36.000
 -10404013.14043  -8055965.30042  23522768.831    23522775.445    23522767.870
     -2299.850       -1792.091          47.000          40.000
 -24151297.32044 -18768930.88142  20514617.421    20514620.314    20514616.407
       768.006         598.446          57.000          51.000
  -1162476.20043   -894646.18342  24378726.124    24378731.472    24378725.460
     -2873.226       -2238.877          43.000          38.000
 -22043307.64843 -17165696.12442  20931488.304    20931491.880    20931486.954
      -806.621        -628.536          56.000          50.000
  -6338414.51743  -4877154.38042  24091032.133    24091040.930    24091032.024
     -2037.888       -1587.965          45.000          39.000
 04  2  1  1 29  0.0000000  0  8G 1G20G 2G31G11G14G25G23
 -14916949.52143 -11206572.78942  22213597.935    22213602.718    22213596.797
      1782.442        1388.916          52.000          46.000
 -13348705.97243 -10214181.69742  22785363.844    22785367.880    22785362.128
      1879.813        1464.789          52.000          44.000
  -1765222.51843  -1346097.87742  25640558.122    25640571.282    25640556.245
      2086.084        1625.520          41.000          35.000
 -10335015.11243  -8002200.74342  23535898.667    23535904.877    23535897.911
     -2299.746       -1792.010          47.000          39.000
 -24174062.19644 -18786669.76242  20510285.626    20510288.175    20510284.441
       750.120         584.509          57.000          51.000
  -1076314.70443   -827507.45142  24395122.183    24395128.799    24395121.331
     -2870.617       -2236.844          43.000          38.000
 -22018807.01443 -17146604.72942  20936150.189    20936153.917    20936149.017
      -826.279        -643.854          56.000          50.000
  -6277218.14343  -4829468.98442  24102678.737    24102686.348    24102677.213
     -2041.359       -1590.669          45.000          39.000
 04  2  1  1 29 30.0000000  0  8G 1G20G 2G31G11G14G25G23
 -14970257.45643 -11248111.41142  22203453.543    22203459.302    22203452.773
      1771.793        1380.618          52.000          46.000
 -13405097.70143 -10258123.28642  22774632.565    22774635.215    22774630.530
      1880.202        1465.092          52.000          44.000
  -1827941.90643  -1394970.16742  25628625.930    25628634.938    25628622.757
      2095.614        1632.946          41.000          36.000
 -10266011.92943  -7948432.15042  23549029.361    23549036.266    23549028.753
     -2300.121       -1792.302          47.000          40.000
 -24196286.94044 -18803987.76242  20506056.372    20506058.925    20506055.379
       731.874         570.291          57.000          51.000
   -990236.92643   -760433.91442  24411502.576    24411509.590    24411501.827
     -2867.504       -2234.419          42.000          37.000
 -21993714.27843 -17127051.95442  20940924.823    20940928.763    20940924.079
      -846.213        -659.387          56.000          50.000
  -6215914.38843  -4781699.89642  24114344.418    24114352.792    24114340.791
     -2045.316       -1593.753          43.000          38.000
 04  2  1  1 30  0.0000000  0  8G 1G20G 2G31G11G14G25G23
 -15023252.55643 -11289406.26542  22193368.611    22193373.854    22193367.815
      1761.283        1372.428          51.000          46.000
 -13461513.13643 -10302083.34642  22763895.986    22763900.452    22763895.212
      1880.777        1465.541          51.000          44.000
  -1890957.07443  -1444072.92642  25616632.154    25616645.268    25616632.100
      2105.421        1640.588          43.000          36.000
 -10197007.43843  -7894662.56942  23562159.734    23562167.911    23562158.881
     -2300.075       -1792.266          47.000          40.000
 -24217971.74744 -18820885.02942  20501929.933    20501932.458    20501928.783
       713.700         556.130          57.000          51.000
   -904244.95843   -693427.28042  24427868.557    24427871.373    24427867.733
     -2864.926       -2232.410          43.000          38.000
 -21968031.50143 -17107039.41042  20945812.238    20945816.338    20945811.435
      -865.989        -674.797          56.000          50.000
  -6154503.75043  -4733847.58142  24126030.064    24126036.981    24126028.291
     -2049.084       -1596.689          43.000          38.000
 04  2  1  1 30 30.0000000  0  8G 1G20G 2G31G11G14G25G23
 -15075935.93243 -11330458.21742  22183343.038    22183348.570    22183342.302
      1751.386        1364.716          52.000          46.000
 -13517952.69943 -10346062.22442  22753156.429    22753159.929    22753155.204
      1882.073        1466.550          51.000          44.000
  -1954267.33443  -1493405.67042  25604585.086    25604598.322    25604583.790
      2115.289        1648.277          39.000          36.000
 -10128005.22043  -7840894.73342  23575291.128    23575298.325    23575288.626
     -2299.713       -1791.984          46.000          40.000
 -24239116.44644 -18837361.43242  20497905.898    20497908.693    20497904.975
       696.165         542.466          57.000          51.000
   -818340.75143   -626489.03542  24444214.731    24444219.089    24444213.701
     -2861.852       -2230.014          43.000          38.000
 -21941760.41443 -17086568.44342  20950811.546    20950815.589    20950810.799
      -885.145        -689.723          56.000          50.000
  -6092986.89743  -4685912.48642  24137734.517    24137744.200    24137734.360
     -2052.179       -1599.100          43.000          38.000
 04  2  1  1 31  0.0000000  0  8G 1G20G 2G31G11G14G25G23
 -15128302.61143 -11371263.39942  22173378.687    22173384.335    22173377.396
      1740.628        1356.334          52.000          46.000
 -13574410.33543 -10390055.16642  22742412.405    22742416.608    22742411.143
      1882.512        1466.892          51.000          45.000
  -2017865.69443  -1542962.87642  25592481.846    25592495.811    25592481.320
      2124.076        1655.124          40.000          35.000
 -10059002.83743  -7787126.76942  23588422.275    23588428.781    23588421.900
     -2299.900       -1792.130          48.000          41.000
 -24259714.83144 -18853412.13542  20493986.357    20493988.925    20493985.014
       677.728         528.100          57.000          51.000
   -732520.34743   -559616.08942  24460544.320    24460551.251    24460543.761
     -2859.517       -2228.195          42.000          37.000
 -21914896.49843 -17065635.53042  20955923.525    20955927.491    20955922.510
      -905.055        -705.238          56.000          50.000
  -6031357.87843  -4637889.97342  24149465.723    24149470.960    24149463.861
     -2055.705       -1601.848          44.000          37.000
 04  2  1  1 31 30.0000000  0  8G 1G20G 2G31G11G14G25G23
 -15180365.20343 -11411831.63142  22163471.586    22163476.307    22163470.215
      1729.745        1347.853          52.000          46.000
 -13630898.28443 -10434071.73442  22731664.235    22731667.799    22731661.871
      1882.758        1467.084          52.000          45.000
  -2081762.88143  -1592752.96042  25580326.463    25580337.020    25580325.288
      2134.372        1663.147          43.000          35.000
  -9990015.43043  -7733370.50642  23601550.767    23601557.502    23601549.282
     -2299.890       -1792.122          48.000          41.000
 -24279778.21043 -18869045.94542  20490168.128    20490171.106    20490167.442
       659.171         513.640          56.000          51.000
   -646797.02043   -492818.80442  24476859.793    24476862.180    24476857.537
     -2856.350       -2225.727          44.000          38.000
 -21887452.96643 -17044250.96642  20961146.150    20961149.654    20961145.194
      -925.035        -720.806          56.000          50.000
  -5969628.63043  -4589789.39142  24161211.613    24161218.511    24161212.038
     -2059.790       -1605.031          44.000          38.000
 04  2  1  1 32  0.0000000  0  8G 1G20G 2G31G11G14G25G23
 -15232111.54043 -11452153.43942  22153623.819    22153628.933    22153623.024
      1719.402        1339.794          52.000          46.000
 -13687403.42743 -10478101.70842  22720911.374    22720913.934    22720908.881
      1883.477        1467.644          52.000          45.000
  -2145944.79143  -1642764.86142  25568112.094    25568121.432    25568109.659
      2144.409        1670.968          41.000          35.000
  -9921033.36343  -7679618.39842  23614677.773    23614684.891    23614676.354
     -2299.336       -1791.690          48.000          41.000
 -24299293.32643 -18884252.53942  20486454.689    20486457.377    20486453.401
       641.126         499.579          56.000          51.000
   -561159.50543   -426088.34442  24493154.327    24493158.542    24493153.686
     -2853.536       -2223.534          43.000          38.000
 -21859418.68243 -17022406.08442  20966480.771    20966484.841    20966479.505
      -944.527        -735.995          56.000          49.000
  -5907786.28543  -4541600.67542  24172979.943    24172986.469    24172978.051
     -2063.501       -1607.923          44.000          39.000
 04  2  1  1 32 30.0000000  0  8G 1G20G 2G31G11G14G25G23
 -15283544.76843 -11492231.25142  22143836.643    22143842.876    22143835.429
      1709.123        1331.784          52.000          46.000
 -13743928.04043 -10522146.84842  22710155.019    22710158.087    22710154.095
      1884.418        1468.378          52.000          45.000
  -2210412.60643  -1692999.60842  25555845.560    25555851.860    25555844.710
      2153.982        1678.428          41.000          34.000
  -9852062.22943  -7625874.82342  23627801.361    23627808.169    23627800.631
     -2298.984       -1791.416          47.000          40.000
 -24318262.13443 -18899033.44242  20482844.869    20482848.071    20482844.086
       623.095         485.529          56.000          51.000
   -475611.88643   -359427.95542  24509433.367    24509439.221    24509432.652
     -2850.240       -2220.966          43.000          38.000
 -21830797.57543 -17000103.93742  20971927.368    20971930.607    20971926.234
      -963.845        -751.048          56.000          49.000
  -5845833.33743  -4493325.77142  24184768.723    24184776.474    24184767.736
     -2067.016       -1610.662          45.000          39.000
 04  2  1  1 33  0.0000000  0  8G 1G20G 2G31G11G14G25G23
 -15334666.21443 -11532066.13242  22134108.762    22134113.680    22134108.213
      1698.978        1323.879          52.000          46.000
 -13800472.56743 -10566207.50242  22699394.683    22699397.766    22699392.291
      1885.335        1469.092          52.000          45.000
  -2275165.74043  -1743456.61842  25543519.381    25543533.685    25543520.120
      2163.532        1685.869          41.000          35.000
  -9783105.86143  -7572142.76142  23640923.734    23640930.459    23640922.256
     -2298.140       -1790.758          46.000          40.000
 -24336684.74944 -18913388.73942  20479339.283    20479342.340    20479338.383
       605.205         471.588          57.000          51.000
   -390156.13943   -292839.16842  24525694.788    24525699.422    24525693.900
     -2846.868       -2218.339          42.000          38.000
 -21801591.42743 -16977345.91942  20977485.258    20977488.878    20977483.969
      -983.117        -766.065          56.000          50.000
  -5783770.33443  -4444965.08542  24196579.238    24196586.542    24196579.390
     -2070.361       -1613.268          47.000          39.000
 04  2  1  1 33 30.0000000  0  8G 1G20G 2G31G11G14G25G23
 -15385477.06443 -11571658.98242  22124439.115    22124444.097    22124438.425
      1688.259        1315.526          52.000          46.000
 -13857037.48043 -10610284.04942  22688630.468    22688634.527    22688629.023
      1885.602        1469.300          51.000          45.000
  -2340203.82443  -1794135.70442  25531144.209    25531154.763    25531142.189
      2172.158        1692.591          42.000          36.000
  -9714168.14343  -7518425.21642  23654043.007    23654049.062    23654040.618
     -2298.011       -1790.658          46.000          40.000
 -24354561.56444 -18927318.73742  20475937.569    20475940.566    20475936.695
       586.574         457.071          57.000          51.000
   -304794.38543   -226323.58242  24541936.547    24541944.088    24541936.732
     -2844.479       -2216.477          43.000          37.000
 -21771802.83843 -16954134.05542  20983153.660    20983157.323    20983152.507
     -1002.958        -781.526          56.000          49.000
  -5721598.01143  -4396519.22942  24208411.675    24208417.572    24208410.201
     -2074.163       -1616.231          46.000          39.000
 04  2  1  1 34  0.0000000  0  8G 1G20G 2G31G11G14G25G23
 -15435977.15043 -11611009.68042  22114830.528    22114835.288    22114829.664
      1677.756        1307.342          53.000          46.000
 -13913621.88043 -10654375.76842  22677863.150    22677867.001    22677862.296
      1886.084        1469.676          52.000          45.000
  -2405524.66443  -1845035.09842  25518715.060    25518725.028    25518713.570
      2181.637        1699.977          42.000          36.000
  -9645251.21843  -7464723.90942  23667158.217    23667163.969    23667156.451
     -2297.375       -1790.162          45.000          40.000
 -24371891.10244 -18940822.28742  20472640.171    20472642.663    20472638.949
       568.118         442.689          57.000          51.000
   -219527.42143   -159881.88742  24558164.536    24558170.565    24558163.740
     -2840.823       -2213.628          43.000          38.000
 -21741432.02943 -16930468.50942  20988932.571    20988936.675    20988931.726
     -1022.460        -796.722          56.000          49.000
  -5659315.32543  -4347987.39142  24220262.491    24220268.820    24220260.212
     -2078.311       -1619.463          45.000          39.000
 04  2  1  1 34 30.0000000  0  8G 1G20G 2G31G11G14G25G23
 -15486166.86643 -11650118.51942  22105278.978    22105284.135    22105277.396
      1668.103        1299.821          52.000          46.000
 -13970225.01143 -10698482.09642  22667092.490    22667095.252    22667090.699
      1887.467        1470.754          52.000          45.000
  -2471126.54343  -1896153.45042  25506231.060    25506241.418    25506230.108
      2191.654        1707.782          41.000          35.000
  -9576357.95243  -7411041.03642  23680267.361    23680274.602    23680265.758
     -2295.865       -1788.986          45.000          39.000
 -24388673.07444 -18953899.15842  20469446.075    20469449.011    20469445.219
       550.603         429.041          57.000          51.000
   -134356.51443    -93515.06442  24574372.860    24574377.703    24574370.599
     -2837.083       -2210.714          43.000          38.000
 -21710480.04143 -16906350.09142  20994823.083    20994826.624    20994822.006
     -1041.028        -811.191          56.000          50.000
  -5596922.02843  -4299369.31142  24232134.221    24232142.887    24232133.604
     -2081.372       -1621.848          45.000          39.000
 04  2  1  1 35  0.0000000  0  8G 1G20G 2G31G11G14G25G23
 -15536045.62443 -11688985.05742  22095787.883    22095792.514    22095786.219
      1657.264        1291.374          52.000          46.000
 -14026845.16943 -10742601.68242  22656317.302    22656320.816    22656316.579
      1887.451        1470.741          52.000          45.000
  -2537006.69543  -1947488.65942  25493693.094    25493704.627    25493693.916
      2200.833        1714.935          41.000          35.000
  -9507489.92743  -7357377.84542  23693371.977    23693379.816    23693370.778
     -2295.276       -1788.527          45.000          39.000
 -24404905.36144 -18966547.70842  20466358.030    20466360.207    20466356.731
       531.817         414.403          57.000          51.000
    -49281.07343    -27222.58642  24590563.136    24590566.781    24590561.510
     -2834.405       -2208.627          44.000          38.000
 -21678947.16543 -16881779.04142  21000823.335    21000827.169    21000822.269
     -1060.854        -826.639          56.000          49.000
  -5534416.44643  -4250663.78142  24244029.639    24244037.350    24244028.956
     -2085.183       -1624.818          46.000          38.000
 04  2  1  1 35 30.0000000  0  8G 1G20G 2G31G11G14G25G23
 -15585614.83443 -11727610.39842  22086355.152    22086359.671    22086354.265
      1647.361        1283.658          53.000          46.000
 -14083482.88643 -10786734.96142  22645540.026    22645543.781    22645538.356
      1888.589        1471.628          52.000          45.000
  -2603164.96543  -1999040.57442  25481105.681    25481116.140    25481105.329
      2210.175        1722.214          42.000          35.000
  -9438651.05943  -7303737.35942  23706472.040    23706480.784    23706471.635
     -2293.928       -1787.476          46.000          39.000
 -24420588.08643 -18978768.02342  20463372.985    20463375.801    20463371.982
       513.839         400.394          56.000          51.000
     35696.70943     38993.80742  24606732.462    24606740.191    24606731.563
     -2830.737       -2205.769          43.000          38.000
 -21646835.54143 -16856757.02342  21006934.235    21006937.798    21006933.430
     -1079.764        -841.374          56.000          49.000
  -5471799.44943  -4201871.39942  24255946.278    24255952.767    24255944.672
     -2088.700       -1627.558          44.000          38.000
 04  2  1  1 36  0.0000000  0  8G 1G20G 2G31G11G14G25G23
 -15634872.19843 -11765992.72342  22076981.904    22076986.967    22076980.646
      1636.948        1275.544          53.000          46.000
 -14140135.08443 -10830879.53342  22634758.538    22634762.580    22634757.449
      1888.636        1471.664          52.000          45.000
  -2669596.84743  -2050805.67542  25468463.034    25468475.469    25468460.956
      2219.184        1729.234          41.000          35.000
  -9369841.45843  -7250119.66242  23719565.677    23719572.713    23719564.805
     -2293.140       -1786.862          46.000          39.000
 -24435718.33643 -18990557.84442  20460494.074    20460496.568    20460492.857
       495.182         385.856          56.000          51.000
    120578.14643    105135.10042  24622885.439    24622891.730    24622884.680
     -2827.669       -2203.378          46.000          38.000
 -21614143.91943 -16831283.04942  21013154.839    21013158.587    21013154.124
     -1099.232        -856.544          56.000          49.000
  -5409067.86243  -4152989.77742  24267881.901    24267890.317    24267882.095
     -2092.891       -1630.824          44.000          38.000
 04  2  1  1 36 30.0000000  0  9G 1G20G 2G31G11G14G25G16G23
 -15683821.78243 -11804135.23342  22067666.721    22067671.745    22067665.235
      1626.883        1267.701          53.000          46.000
 -14196804.92743 -10875037.83542  22623974.934    22623979.085    22623973.617
      1889.681        1472.479          52.000          45.000
  -2736304.13543  -2102785.36842  25455768.411    25455777.731    25455767.678
      2228.933        1736.831          41.000          35.000
  -9301067.72643  -7196529.93542  23732653.560    23732661.394    23732653.053
     -2291.761       -1785.788          47.000          39.000
 -24450299.01043 -19001919.42542  20457719.250    20457722.137    20457718.166
       477.208         371.850          56.000          51.000
    205358.53643    171197.63742  24639019.596    24639025.488    24639018.260
     -2823.881       -2200.427          44.000          38.000
 -21580877.12343 -16805360.89242  21019485.425    21019489.548    21019484.459
     -1118.108        -871.253          56.000          49.000
  -1515585.49853  -1149522.07252  24956175.263    24956183.990    24956171.136
      1894.163        1475.971          41.000          34.000
  -5346225.21043  -4104021.59442  24279841.627    24279850.061    24279840.258
     -2096.597       -1633.712          43.000          37.000
 04  2  1  1 37  0.0000000  0  9G 1G20G 2G31G11G14G25G16G23
 -15732460.66543 -11842035.63642  22058410.934    22058416.352    22058409.470
      1615.794        1259.060          52.000          46.000
 -14253488.28143 -10919206.67642  22613188.807    22613191.958    22613187.681
      1889.334        1472.208          52.000          45.000
  -2803281.76143  -2154975.69742  25443023.929    25443035.844    25443021.860
      2236.882        1743.025          42.000          36.000
  -9232328.97143  -7142967.44642  23745734.880    23745740.257    23745732.991
     -2291.282       -1785.414          48.000          39.000
 -24464326.11343 -19012849.64742  20455050.026    20455053.095    20455048.764
       458.070         356.938          56.000          51.000
    290040.28243    237183.29742  24655132.821    24655139.334    24655132.590
     -2821.299       -2198.415          44.000          37.000
 -21547033.37743 -16778989.16342  21025925.332    21025929.372    21025924.329
     -1137.993        -886.748          56.000          49.000
  -1572472.72843  -1193849.74442  24945349.737    24945355.395    24945347.035
      1897.841        1478.837          39.000          33.000
  -5283267.66943  -4054963.93042  24291822.754    24291829.142    24291821.027
     -2100.639       -1636.861          45.000          38.000
 04  2  1  1 37 30.0000000  0  9G 1G20G 2G31G11G14G25G16G23
 -15780784.57343 -11879690.60342  22049214.903    22049220.566    22049214.460
      1606.419        1251.755          53.000          46.000
 -14310179.72343 -10963381.80942  22602400.656    22602403.995    22602398.704
      1890.538        1473.146          52.000          45.000
  -2870523.28343  -2207371.65042  25430229.475    25430242.166    25430228.951
      2246.315        1750.375          44.000          37.000
  -9163623.36743  -7089430.77442  23758808.523    23758814.976    23758808.690
     -2288.952       -1783.599          47.000          39.000
 -24477794.34044 -19023344.38442  20452487.232    20452490.072    20452486.044
       440.333         343.117          57.000          51.000
    374627.08643    303095.00542  24671230.250    24671235.240    24671228.259
     -2817.101       -2195.144          44.000          37.000
 -21512609.16143 -16752165.12142  21032476.430    21032480.427    21032475.283
     -1156.403        -901.093          56.000          49.000
  -1629485.72543  -1238275.46542  24934498.572    24934505.768    24934498.820
      1902.789        1482.693          41.000          33.000
  -5220190.17843  -4005812.74442  24303825.051    24303833.729    24303824.658
     -2103.844       -1639.359          45.000          38.000
 04  2  1  1 38  0.0000000  0 10G 1G20G 2G31G13G11G14G25G16G23
 -15828805.58843 -11917109.55442  22040077.774    22040081.626    22040076.277
      1595.640        1243.356          53.000          46.000
 -14366890.48643 -11007572.00542  22591609.429    22591612.489    22591608.106
      1890.717        1473.286          52.000          45.000
  -2938038.91443  -2259981.20842  25417380.406    25417393.155    25417379.194
      2255.243        1757.332          43.000          37.000
  -9094965.26643  -7035931.14642  23771873.730    23771882.345    23771873.063
     -2287.751       -1782.663          46.000          39.000
  -1581802.88853  -1191689.02952  25037522.450    25037533.483    25037525.692
      2380.705        1855.095          39.000          33.000
 -24490714.83544 -19033412.31542  20450028.907    20450031.562    20450027.726
       421.561         328.489          57.000          51.000
    459106.11143    368922.72842  24687304.879    24687312.251    24687305.247
     -2814.279       -2192.945          44.000          38.000
 -21477617.67343 -16724899.04742  21039134.762    21039138.765    21039134.088
     -1175.839        -916.238          55.000          49.000
  -1686634.06243  -1282806.54942  24923624.742    24923634.723    24923622.836
      1907.101        1486.053          43.000          34.000
  -5157003.95943  -3956576.84142  24315849.322    24315857.282    24315848.223
     -2108.109       -1642.682          45.000          38.000
 04  2  1  1 38 30.0000000  0 10G 1G20G 2G31G13G11G14G25G16G23
 -15876518.41043 -11954288.35642  22030997.038    22031002.358    22030995.523
      1585.291        1235.292          52.000          46.000
 -14423613.93043 -11051772.07242  22580814.872    22580818.690    22580813.729
      1890.949        1473.467          52.000          45.000
  -3005821.17243  -2312798.53042  25404481.406    25404492.851    25404480.248
      2263.988        1764.146          43.000          37.000
  -9026351.55443  -6982466.09042  23784932.432    23784939.026    23784929.627
     -2286.398       -1781.609          47.000          39.000
  -1653126.55953  -1247265.88252  25023948.409    25023959.324    25023947.485
      2374.356        1850.148          38.000          32.000
 -24503081.08844 -19043048.36942  20447675.491    20447678.227    20447674.421
       403.028         314.048          57.000          51.000
    543482.36743    434670.35342  24703362.373    24703367.460    24703362.075
     -2810.916       -2190.324          45.000          38.000
 -21442054.13443 -16697187.22042  21045902.408    21045906.226    21045901.456
     -1194.951        -931.131          55.000          49.000
  -1743909.83843  -1327436.93742  24912725.990    24912735.699    24912724.416
      1911.175        1489.227          43.000          36.000
  -5093702.89843  -3907251.42142  24327895.284    24327903.062    24327893.604
     -2111.847       -1645.595          45.000          39.000
 04  2  1  1 39  0.0000000  0 10G 1G20G 2G31G13G11G14G25G16G23
 -15923922.23243 -11991226.37642  22021976.454    22021981.724    22021975.724
      1575.062        1227.321          52.000          46.000
 -14480348.29543 -11095980.65842  22570018.134    22570022.334    22570017.028
      1891.508        1473.902          52.000          45.000
  -3073866.82443  -2365821.07942  25391532.093    25391544.307    25391528.722
      2272.671        1770.912          43.000          37.000
  -8957783.81443  -6929036.86442  23797979.574    23797985.627    23797978.629
     -2284.606       -1780.212          47.000          39.000
  -1724250.98053  -1302687.43752  25010417.554    25010422.825    25010414.678
      2367.649        1844.921          40.000          33.000
 -24514891.45344 -19052251.26242  20445427.831    20445430.510    20445426.762
       384.536         299.638          57.000          51.000
    627756.17443    500338.16242  24719397.971    24719402.524    24719397.768
     -2807.350       -2187.545          45.000          37.000
 -21405918.87343 -16669029.88842  21052778.805    21052783.083    21052778.100
     -1213.803        -945.820          56.000          49.000
  -1801308.98543  -1372163.45442  24901802.931    24901811.938    24901801.802
      1915.660        1492.722          44.000          37.000
  -5030285.50043  -3857835.41142  24339962.786    24339971.140    24339961.961
     -2115.675       -1648.578          43.000          39.000
 04  2  1  1 39 30.0000000  0 10G 1G20G 2G31G13G11G14G25G16G23
 -15971020.34943 -12027926.18842  22013014.630    22013018.906    22013013.076
      1564.893        1219.397          53.000          46.000
 -14537095.81343 -11140199.49042  22559218.807    22559223.378    22559217.517
      1891.848        1474.167          51.000          45.000
  -3142177.21843  -2419049.91442  25378533.929    25378544.211    25378532.075
      2281.246        1777.594          43.000          37.000
  -8889267.60543  -6875647.80542  23811016.615    23811025.315    23811015.739
     -2282.802       -1778.807          45.000          39.000
  -1795178.86443  -1357955.76542  24996918.672    24996926.808    24996920.563
      2360.866        1839.636          41.000          34.000
 -24526148.35444 -19061022.88542  20443285.963    20443288.538    20443284.668
       365.984         285.182          57.000          51.000
    711923.47243    565922.99542  24735414.701    24735420.991    24735412.469
     -2803.785       -2184.767          43.000          37.000
 -21369215.99443 -16640430.25542  21059763.554    21059767.617    21059762.361
     -1232.813        -960.633          55.000          49.000
  -1858832.37643  -1416986.80442  24890858.585    24890865.211    24890855.206
      1919.580        1495.777          44.000          37.000
  -4966754.23943  -3808330.64042  24352053.810    24352059.116    24352051.469
     -2119.975       -1651.928          43.000          38.000
 04  2  1  1 40  0.0000000  0 10G 1G20G 2G31G13G11G14G25G16G23
 -16017811.22843 -12064386.59642  22004110.548    22004116.157    22004109.526
      1554.672        1211.433          53.000          46.000
 -14593853.59543 -11184426.32242  22548418.996    22548423.843    22548417.727
      1892.270        1474.496          52.000          45.000
  -3210748.55343  -2472482.05642  25365485.310    25365495.751    25365483.310
      2290.277        1784.631          45.000          37.000
  -8820803.46943  -6822299.32642  23824046.733    23824054.646    23824044.726
     -2281.055       -1777.445          46.000          39.000
  -1865907.90743  -1413069.27942  24983460.470    24983468.530    24983459.573
      2354.479        1834.659          39.000          34.000
 -24536849.04244 -19069361.09542  20441249.418    20441252.384    20441248.464
       347.470         270.756          57.000          51.000
    795985.52843    631425.77242  24751410.313    24751415.681    24751409.363
     -2799.976       -2181.799          42.000          36.000
 -21331944.91343 -16611387.87442  21066855.952    21066859.779    21066855.039
     -1251.704        -975.354          56.000          49.000
  -1916475.51943  -1461903.42642  24879888.383    24879897.636    24879885.169
      1923.490        1498.823          44.000          37.000
  -4903106.62443  -3758735.18742  24364165.982    24364172.535    24364163.638
     -2123.279       -1654.503          45.000          39.000
 04  2  1  1 40 30.0000000  0 10G 1G20G 2G31G13G11G14G25G16G23
 -16064293.46343 -12100606.50742  21995265.280    21995270.262    21995264.446
      1543.940        1203.070          53.000          46.000
 -14650619.02843 -11228659.11842  22537616.800    22537620.919    22537615.722
      1891.952        1474.248          52.000          45.000
  -3279576.99843  -2526114.52242  25352387.562    25352398.449    25352385.232
      2297.941        1790.603          44.000          37.000
  -8752392.24743  -6768992.09242  23837062.953    23837071.337    23837061.770
     -2279.813       -1776.478          44.000          38.000
  -1936435.98353  -1468026.11552  24970038.601    24970048.333    24970038.253
      2346.769        1828.651          40.000          34.000
 -24546991.26744 -19077264.13942  20439319.636    20439322.047    20439318.467
       328.391         255.889          57.000          51.000
    879943.20843    696847.27842  24767388.193    24767394.515    24767388.468
     -2797.299       -2179.713          43.000          36.000
 -21294104.86743 -16581902.14742  21074056.430    21074060.859    21074055.514
     -1271.142        -990.500          56.000          49.000
  -1974233.88643  -1506909.83942  24868896.262    24868905.647    24868895.002
      1927.121        1501.653          42.000          36.000
  -4839340.31943  -3709047.30142  24376298.740    24376306.433    24376298.429
     -2127.939       -1658.134          45.000          39.000
 04  2  1  1 41  0.0000000  0 10G 1G20G 2G31G13G11G14G25G16G23
 -16110469.30043 -12136587.66142  21986478.161    21986483.018    21986477.391
      1533.236        1194.729          53.000          46.000
 -14707393.53843 -11272898.97842  22526811.994    22526816.566    22526810.832
      1891.681        1474.037          51.000          45.000
  -3348662.67843  -2579947.46142  25339240.170    25339252.866    25339238.465
      2306.680        1797.413          43.000          37.000
  -8684038.41243  -6715729.57342  23850071.622    23850079.187    23850070.887
     -2278.355       -1775.341          43.000          38.000
  -2006765.18843  -1522828.10342  24956656.268    24956661.931    24956654.731
      2340.042        1823.409          42.000          35.000
 -24556576.45744 -19084733.12742  20437495.592    20437498.474    20437494.822
       309.263         240.984          57.000          51.000
    963793.76443    762185.26642  24783346.165    24783351.369    24783344.733
     -2794.134       -2177.247          44.000          36.000
 -21255699.60643 -16551975.98542  21081364.805    21081369.213    21081363.685
     -1290.495       -1005.580          56.000          49.000
  -2032107.01643  -1552005.72742  24857883.590    24857890.841    24857882.110
      1930.153        1504.015          43.000          36.000
  -4775457.19143  -3659268.36542  24388455.981    24388463.095    24388454.729
     -2132.319       -1661.547          46.000          39.000
 04  2  1  1 41 30.0000000  0 10G 1G20G 2G31G13G11G14G25G16G23
 -16156343.33443 -12172333.65142  21977748.297    21977753.612    21977747.554
      1524.999        1188.311          53.000          46.000
 -14764180.37643 -11317148.45742  22516007.205    22516010.409    22516005.714
      1894.010        1475.852          52.000          45.000
  -3418007.94943  -2633982.68142  25326045.827    25326057.185    25326043.381
      2316.478        1805.048          44.000          38.000
  -8615748.80143  -6662517.14542  23863066.486    23863077.108    23863066.022
     -2274.470       -1772.314          43.000          38.000
  -2076899.16143  -1577477.90542  24943310.822    24943317.720    24943308.767
      2335.116        1819.571          41.000          35.000
 -24565608.33644 -19091770.96642  20435776.829    20435779.531    20435775.770
       292.631         228.024          57.000          51.000
   1047531.96443    827435.72342  24799280.525    24799285.677    24799279.080
     -2788.660       -2172.982          45.000          37.000
 -21216734.64643 -16521613.69942  21088779.514    21088783.658    21088778.815
     -1307.371       -1018.731          55.000          49.000
  -2090096.95543  -1597192.57942  24846848.627    24846857.968    24846848.007
      1935.893        1508.488          42.000          35.000
  -4711460.83943  -3609401.17642  24400635.564    24400641.361    24400633.292
     -2134.390       -1663.161          46.000          39.000
 04  2  1  1 42  0.0000000  0 10G 1G20G 2G31G13G11G14G25G16G23
 -16201907.66743 -12207838.30242  21969077.847    21969083.642    21969076.839
      1513.589        1179.420          53.000          46.000
 -14820970.48343 -11361400.46942  22505199.771    22505203.327    22505199.020
      1892.816        1474.922          52.000          45.000
  -3487602.64543  -2688212.24542  25312804.052    25312810.753    25312801.065
      2324.067        1810.961          46.000          38.000
  -8547517.69443  -6609350.25442  23876051.645    23876059.552    23876049.036
     -2273.008       -1771.175          42.000          38.000
  -2146829.30443  -1631968.82042  24930003.326    24930010.814    24930002.425
      2327.270        1813.457          42.000          35.000
 -24574078.21844 -19098370.88942  20434164.922    20434167.894    20434163.832
       272.770         212.548          57.000          51.000
   1131165.29143    892604.48042  24815195.436    24815199.228    24815193.888
     -2786.330       -2171.166          44.000          36.000
 -21177203.10643 -16490809.92242  21096302.096    21096305.999    21096301.199
     -1327.227       -1034.203          56.000          49.000
  -2148192.79843  -1642461.98842  24835791.708    24835801.084    24835791.106
      1938.112        1510.217          43.000          35.000
  -4647342.52843  -3559438.99142  24412836.587    24412843.369    24412834.785
     -2139.373       -1667.044          46.000          39.000
 04  2  1  1 42 30.0000000  0 10G 1G20G 2G31G13G11G14G25G16G23
 -16247169.00143 -12243106.86042  21960464.912    21960469.959    21960464.003
      1503.817        1171.805          53.000          46.000
 -14877769.31543 -11405659.29642  22494391.607    22494395.083    22494390.152
      1893.642        1475.565          52.000          45.000
  -3557451.04343  -2742639.46142  25299510.283    25299521.531    25299509.487
      2332.782        1817.752          45.000          38.000
  -8479353.82143  -6556235.80042  23889021.815    23889030.797    23889020.892
     -2270.712       -1769.386          43.000          38.000
  -2216561.75943  -1686305.77242  24916736.020    24916742.394    24916734.526
      2321.305        1808.809          45.000          36.000
 -24581991.77244 -19104537.30942  20432659.462    20432661.986    20432658.231
       254.757         198.512          57.000          51.000
   1214687.00743    957686.18542  24831089.076    24831092.981    24831088.151
     -2781.869       -2167.690          44.000          36.000
 -21137112.75743 -16459570.71442  21103931.141    21103935.385    21103930.536
     -1345.402       -1048.365          56.000          49.000
  -2206398.26443  -1687816.71942  24824716.216    24824724.559    24824715.489
      1942.403        1513.561          44.000          36.000
  -4583107.97943  -3509386.19942  24425058.991    24425067.720    24425057.263
     -2143.111       -1669.957          46.000          39.000
 04  2  1  1 43  0.0000000  0 10G 1G20G 2G31G13G11G14G25G16G23
 -16292122.10843 -12278135.23642  21951909.917    21951915.950    21951909.625
      1493.527        1163.787          53.000          46.000
 -14934570.03443 -11449919.58142  22483583.148    22483586.612    22483581.283
      1893.594        1475.528          52.000          45.000
  -3627545.22743  -2797258.23042  25286170.701    25286183.103    25286169.139
      2340.696        1823.919          44.000          38.000
  -8411253.90043  -6503171.13142  23901980.521    23901991.389    23901980.833
     -2268.277       -1767.488          42.000          38.000
  -2286090.88243  -1740484.23842  24903502.306    24903506.112    24903498.721
      2314.626        1803.605          43.000          34.000
 -24589342.41944 -19110265.10042  20431260.335    20431263.145    20431259.593
       235.887         183.808          57.000          51.000
   1298101.91543   1022684.73642  24846963.341    24846969.353    24846962.313
     -2778.095       -2164.749          44.000          37.000
 -21096459.20343 -16427892.63642  21111667.415    21111670.876    21111666.312
     -1364.249       -1063.051          56.000          49.000
  -2264705.06243  -1733250.43442  24813620.317    24813630.091    24813620.206
      1945.267        1515.792          45.000          37.000
  -4518751.11943  -3459238.08542  24437305.231    24437313.625    24437305.003
     -2146.861       -1672.879          45.000          39.000
 04  2  1  1 43 30.0000000  0 10G 1G20G 2G31G13G11G14G25G16G23
 -16336772.91243 -12312928.06142  21943413.688    21943419.440    21943412.369
      1483.270        1155.795          53.000          46.000
 -14991377.31943 -11494184.97842  22472773.071    22472777.220    22472771.672
      1893.707        1475.616          52.000          45.000
  -3697889.07843  -2852071.55642  25272786.460    25272796.460    25272785.200
      2348.791        1830.227          46.000          39.000
  -8343226.09543  -6450162.66642  23914926.648    23914935.930    23914924.847
     -2266.654       -1766.224          43.000          38.000
  -2355421.19143  -1794507.75442  24890309.642    24890317.407    24890308.033
      2307.624        1798.149          42.000          34.000
 -24596135.75644 -19115558.62642  20429968.111    20429970.562    20429966.895
       217.132         169.194          57.000          51.000
   1381403.93743   1087595.32242  24862814.631    24862820.145    24862813.106
     -2775.038       -2162.367          44.000          37.000
 -21055249.40443 -16395781.12942  21119509.447    21119513.360    21119508.349
     -1383.005       -1077.666          56.000          49.000
  -2323116.04743  -1778765.34942  24802505.033    24802515.108    24802504.531
      1948.674        1518.447          44.000          38.000
  -4454276.88243  -3408998.54242  24449576.117    24449582.930    24449574.751
     -2151.357       -1676.382          45.000          39.000
 04  2  1  1 44  0.0000000  0 10G 1G20G 2G31G13G11G14G25G16G23
 -16381122.63043 -12347486.26342  21934974.954    21934979.178    21934972.886
      1473.173        1147.927          53.000          46.000
 -15048191.15643 -11538455.49242  22461961.721    22461964.670    22461959.866
      1893.838        1475.718          53.000          45.000
  -3768481.40443  -2907078.43642  25259351.755    25259362.125    25259350.506
      2356.923        1836.563          45.000          38.000
  -8275273.65043  -6397212.92642  23927856.699    23927867.272    23927856.153
     -2263.771       -1763.977          44.000          39.000
  -2424553.84043  -1848377.29742  24877150.455    24877163.630    24877149.379
      2300.885        1792.897          40.000          34.000
 -24602372.18744 -19120418.18842  20428780.615    20428783.936    20428780.122
       198.422         154.615          57.000          51.000
   1464591.19243   1152416.48942  24878643.086    24878650.109    24878642.477
     -2771.259       -2159.422          43.000          36.000
 -21013485.74243 -16363238.04042  21127457.143    21127460.597    21127455.822
     -1401.526       -1092.098          56.000          49.000
  -2381629.88643  -1824360.41242  24791371.369    24791378.813    24791369.970
      1952.349        1521.311          44.000          38.000
  -4389685.84443  -3358667.97242  24461865.753    24461873.384    24461864.585
     -2155.337       -1679.483          44.000          39.000
 04  2  1  1 44 30.0000000  0 10G 1G20G 2G31G13G11G14G25G16G23
 -16425167.96143 -12381807.28142  21926592.691    21926598.097    21926591.987
      1463.769        1140.599          53.000          46.000
 -15105006.92843 -11582727.51942  22451150.235    22451153.827    22451147.862
      1894.513        1476.244          53.000          45.000
  -3839316.24943  -2962274.34642  25245872.282    25245882.334    25245870.462
      2365.888        1843.549          44.000          37.000
  -8207395.34543  -6344320.96342  23940774.713    23940783.788    23940774.310
     -2260.778       -1761.645          45.000          39.000
  -2493484.84243  -1902089.64542  24864037.248    24864043.818    24864036.733
      2295.074        1788.369          43.000          35.000
 -24608047.23244 -19124840.31842  20427700.880    20427703.661    20427700.107
       180.470         140.626          57.000          51.000
   1547666.88743   1217150.70442  24894451.665    24894460.116    24894451.549
     -2766.954       -2156.068          43.000          36.000
 -20971165.88443 -16330261.54742  21135509.426    21135514.113    21135508.736
     -1419.199       -1105.869          55.000          49.000
  -2440239.98743  -1870030.49942  24780216.885    24780227.302    24780215.419
      1955.748        1523.959          42.000          38.000
  -4324973.67743  -3308243.04142  24474181.344    24474189.249    24474179.549
     -2158.916       -1682.272          42.000          38.000
 04  2  1  1 45  0.0000000  0 10G 1G20G 2G31G13G11G14G25G16G23
 -16468910.30543 -12415892.20642  21918268.837    21918273.855    21918266.993
      1453.472        1132.576          53.000          46.000
 -15161824.55543 -11627000.99242  22440337.771    22440341.046    22440336.394
      1894.333        1476.104          53.000          45.000
  -3910392.69743  -3017658.46342  25232346.786    25232357.720    25232346.257
      2373.736        1849.664          45.000          38.000
  -8139594.54143  -6291489.39342  23953677.328    23953686.392    23953676.014
     -2258.424       -1759.811          45.000          39.000
  -2562214.67243  -1955645.24142  24850957.326    24850966.139    24850955.393
      2288.035        1782.884          44.000          36.000
 -24613161.52044 -19128825.48642  20426727.639    20426730.911    20426726.749
       161.504         125.847          57.000          51.000
   1630629.08243   1281796.46742  24910240.243    24910245.157    24910239.787
     -2763.025       -2153.006          44.000          36.000
 -20928292.23343 -16296853.53342  21143668.500    21143672.614    21143667.596
     -1437.949       -1120.480          56.000          49.000
  -2498944.68943  -1915774.35142  24769045.161    24769055.076    24769044.493
      1959.173        1526.628          40.000          37.000
  -4260140.85543  -3257724.03942  24486518.234    24486526.480    24486517.360
     -2162.580       -1685.127          43.000          38.000
