     2.10           OBSERVATION DATA    G (GPS)             RINEX VERSION / TYPE
teqc  2005Sep1                          20060102 01:17:09UTCPGM / RUN BY / DATE
Linux 2.4.20-8|Pentium IV|gcc|Linux|486/DX+                 COMMENT
ALGO CACS-ACP   883160   ALGONQUIN PARK  ONT  CANADA        MARKER NAME
40104M002                                                   MARKER NUMBER
-Unknown-           GEOD. SURVEY, NATURAL RESOURCES CANADA  OBSERVER / AGENCY
1103                AOA BENCHMARK ACT   3.3.32.2N           REC # / TYPE / VERS
386                 AOAD/M_T        NONE                    ANT # / TYPE
   918129.4000 -4346071.2000  4561977.8000                  APPROX POSITION XYZ
        0.1000        0.0000        0.0000                  ANTENNA: DELTA H/E/N
     1     1                                                WAVELENGTH FACT L1/2
     7    L1    L2    C1    P2    P1    S1    S2            # / TYPES OF OBSERV
    30.0000                                                 INTERVAL
L1 PHASE CENTRE  .110m ABOVE ARP                            COMMENT
L2 PHASE CENTRE  .128m ABOVE ARP                            COMMENT
where ARP is the Antenna Reference Point for HI measurement COMMENT
    P1 =    P1  TurboRogue; =    Y1  Benchmark              COMMENT
    L1 = L1(CA)                                             COMMENT
    P2 =    P2  TurboRogue; =    Y2  Benchmark              COMMENT
    L2 = L2(P2) TurboRogue; = L2(Y2) Benchmark              COMMENT
 SNR is mapped to RINEX snr flag value [0-9]                COMMENT
  L1 & L2: min(max(int(snr_dBHz/6), 0), 9)                  COMMENT
  2006     1     2     0     0    0.0000000     GPS         TIME OF FIRST OBS
                                                            END OF HEADER
 06  1  2  0  0  0.0000000  0  6G29G 6G10G 2G26G21
 -14401966.278 6 -11222303.412 6  21576507.476    21576505.887    21576506.782
        39.800          36.400
 -18141248.465 7 -14136026.526 6  21356549.412    21356548.478    21356548.655
        44.800          40.700
 -22603792.668 7 -17613328.758 7  20200275.771    20200274.402    20200274.572
        45.500          46.200
 -14057059.327 6 -10953538.160 6  22148477.678    22148474.326    22148476.848
        40.900          36.100
 -10724372.090 5  -8356648.452 5  22441493.796    22441493.207    22441493.391
        33.600          30.800
  -3922915.233 4  -3056813.649 3  24158475.904    24158474.477    24158475.393
        26.200          23.000
 06  1  2  0  0 30.0000000  0  6G29G 6G10G 2G26G21
 -14481285.336 6 -11284110.438 6  21561413.408    21561411.871    21561412.634
        39.500          36.300
 -18169976.048 7 -14158411.645 6  21351082.891    21351081.704    21351082.037
        44.800          40.700
 -22575594.158 7 -17591355.887 7  20205641.815    20205640.320    20205640.611
        45.800          46.100
 -13974626.777 6 -10889305.011 5  22164163.781    22164160.395    22164163.305
        41.000          35.500
 -10838065.873 5  -8445240.963 5  22419858.497    22419857.826    22419857.973
        34.600          30.800
  -4018153.626 3  -3131025.321 3  24140353.626    24140350.975    24140352.297
        23.800          23.800
 06  1  2  0  1  0.0000000  0  6G29G 6G10G 2G26G21
 -14560171.155 6 -11345579.865 6  21546401.626    21546400.543    21546401.120
        39.600          36.700
 -18198161.312 7 -14180374.175 6  21345719.482    21345718.156    21345718.727
        44.900          40.700
 -22546978.168 7 -17569057.704 7  20211087.376    20211085.772    20211086.173
        45.800          46.200
 -13891939.041 6 -10824873.018 6  22179899.766    22179895.649    22179898.460
        40.600          36.100
 -10951466.777 5  -8533605.211 5  22398278.907    22398278.415    22398278.595
        34.100          31.500
  -4113372.453 4  -3205221.708 4  24122234.084    24122231.463    24122232.973
        28.400          24.200
 06  1  2  0  1 30.0000000  0  6G29G 6G10G 2G26G21
 -14638621.233 6 -11406709.758 6  21531473.098    21531471.916    21531472.441
        39.100          36.400
 -18225803.489 7 -14201913.525 6  21340459.385    21340457.813    21340458.597
        45.000          40.400
 -22517946.238 7 -17546435.413 7  20216611.835    20216610.427    20216610.685
        46.000          46.100
 -13808996.902 6 -10760242.799 5  22195682.405    22195678.740    22195681.807
        41.200          34.900
 -11064571.507 5  -8621738.733 5  22376756.226    22376755.411    22376755.519
        35.300          31.100
  -4208570.886 4  -3279402.254 3  24104117.409    24104114.963    24104116.949
        28.800          22.100
 06  1  2  0  2  0.0000000  0  6G29G 6G10G 2G26G21
 -14716633.246 6 -11467498.302 6  21516628.657    21516626.705    21516627.570
        39.700          36.500
 -18252901.160 7 -14223028.581 6  21335302.659    21335301.297    21335301.950
        45.000          40.500
 -22488499.834 7 -17523490.154 7  20222215.465    20222213.917    20222214.271
        46.100          46.200
 -13725801.313 6 -10695415.084 6  22211514.111    22211510.720    22211513.403
        41.000          36.000
 -11177376.618 5  -8709638.757 5  22355290.564    22355289.064    22355289.509
        34.500          31.300
  -4303748.251 4  -3353566.388 3  24086005.904    24086003.441    24086004.913
        28.400          21.100
 06  1  2  0  2 30.0000000  0  6G29G 6G10G 2G26G21
 -14794204.716 6 -11527943.580 6  21501866.582    21501865.136    21501866.073
        40.100          36.500
 -18279453.145 7 -14243718.425 6  21330250.065    21330248.738    21330249.330
        45.000          40.700
 -22458640.351 7 -17500223.019 7  20227897.565    20227895.960    20227896.397
        46.100          46.100
 -13642353.267 6 -10630390.664 6  22227394.019    22227390.447    22227393.206
        40.800          36.100
 -11289878.846 5  -8797302.776 5  22333881.822    22333880.677    22333880.833
        34.000          31.100
  -4398903.286 5  -3427713.114 3  24067898.221    24067896.083    24067897.404
        30.100          19.900
 06  1  2  0  3  0.0000000  0  6G29G 6G10G 2G26G21
 -14871333.236 6 -11588043.696 6  21487189.856    21487188.136    21487188.887
        39.800          36.600
 -18305457.976 7 -14263981.914 6  21325301.609    21325300.084    21325300.758
        44.700          40.600
 -22428369.513 7 -17476635.346 7  20233657.724    20233656.298    20233656.587
        46.000          46.000
 -13558653.372 6 -10565169.969 5  22243320.970    22243317.624    22243320.511
        40.600          35.100
 -11402074.933 5  -8884728.216 5  22312531.556    22312530.347    22312530.615
        35.500          31.600
  -4494035.054 5  -3501841.718 3  24049796.484    24049793.493    24049795.190
        30.600          19.900
 06  1  2  0  3 30.0000000  0  6G29G 6G10G 2G26G21
 -14948016.322 6 -11647796.723 6  21472597.162    21472595.796    21472596.345
        39.600          36.900
 -18330914.986 7 -14283818.529 6  21320457.154    21320455.803    21320456.365
        44.800          40.600
 -22397688.619 7 -17452728.148 7  20239496.256    20239494.689    20239494.989
        45.900          46.000
 -13474702.424 6 -10499753.667 5  22259297.027    22259293.101    22259295.917
        40.200          35.300
 -11513961.176 5  -8971912.254 5  22291240.769    22291238.853    22291239.467
        35.200          31.800
  -4589142.544 4  -3575951.410 3  24031698.061    24031695.461    24031697.084
        29.700          19.300
 06  1  2  0  4  0.0000000  0  6G29G 6G10G 2G26G21
 -15024251.648 6 -11707200.833 6  21458090.013    21458088.669    21458089.400
        40.000          37.000
 -18355822.903 7 -14303227.285 6  21315717.058    21315716.004    21315716.395
        44.600          40.700
 -22366599.135 7 -17428502.572 7  20245412.222    20245410.823    20245411.101
        46.000          46.100
 -13390501.602 6 -10434142.649 5  22275319.488    22275316.010    22275318.824
        40.300          34.900
 -11625534.599 5  -9058852.542 5  22270008.620    22270007.193    22270007.453
        35.100          31.800
  -4684224.848 4  -3650041.464 2  24013604.547    24013601.152    24013603.173
        28.600          17.800
 06  1  2  0  4 30.0000000  0  6G29G 6G10G 2G26G21
 -15100037.033 6 -11766254.363 6  21443668.463    21443667.072    21443667.822
        40.000          36.800
 -18380180.755 7 -14322207.423 6  21311081.884    21311080.951    21311081.114
        44.200          40.700
 -22335102.681 7 -17403959.873 7  20251405.738    20251404.313    20251404.628
        46.000          45.900
 -13306051.898 6 -10368337.688 5  22291390.163    22291386.200    22291389.203
        40.000          34.800
 -11736791.766 5  -9145546.372 5  22248837.018    22248835.711    22248835.938
        34.900          32.300
  -4779280.934 4  -3724111.066 3  23995514.640    23995512.420    23995513.755
        26.800          20.500
 06  1  2  0  5  0.0000000  0  6G29G 6G10G 2G26G21
 -15175370.005 6 -11824955.345 6  21429332.639    21429331.731    21429332.424
        40.500          36.900
 -18403987.454 7 -14340758.080 6  21306551.571    21306550.634    21306550.879
        44.300          40.800
 -22303200.985 7 -17379101.405 7  20257476.506    20257475.023    20257475.344
        45.900          46.000
 -13221353.834 6 -10302339.211 5  22307507.342    22307503.786    22307506.560
        40.100          34.600
 -11847729.153 5  -9231991.040 5  22227726.922    22227724.954    22227725.523
        34.700          32.000
  -4874309.495 4  -3798159.239 3  23977431.602    23977429.297    23977430.453
        27.100          21.600
 06  1  2  0  5 30.0000000  0  7G29G 6G27G10G 2G26G21
 -15250248.239 6 -11883301.994 6  21415084.682    21415082.793    21415083.619
        39.700          36.800
 -18427241.829 7 -14358878.355 6  21302126.491    21302125.452    21302125.774
        44.500          40.600
    -27690.532 3    -21576.432 3  25214084.418    25214083.945    25214083.293
        21.600          19.300
 -22270895.250 7 -17353928.101 7  20263624.141    20263622.639    20263622.967
        45.900          46.000
 -13136408.313 6 -10236147.912 5  22323672.088    22323668.476    22323671.337
        40.200          34.800
 -11958343.431 5  -9318183.929 5  22206677.530    22206675.564    22206676.336
        35.900          31.500
  -4969309.683 4  -3872185.282 3  23959353.918    23959350.550    23959352.754
        28.100          20.500
 06  1  2  0  6  0.0000000  0  7G29G 6G27G10G 2G26G21
 -15324669.292 6 -11941292.396 6  21400922.407    21400921.037    21400921.769
        40.100          37.400
 -18449943.034 7 -14376567.593 6  21297806.890    21297805.450    21297805.971
        44.500          40.700
    -47962.985 3    -37373.123 3  25210227.008    25210225.992    25210226.417
        23.800          20.500
 -22238187.151 7 -17328441.266 7  20269848.358    20269846.801    20269847.142
        46.100          46.000
 -13051216.554 6 -10169764.752 5  22339883.941    22339879.578    22339882.878
        39.800          33.800
 -12068631.299 6  -9404122.491 5  22185690.327    22185688.347    22185689.146
        36.500          31.800
  -5064280.381 4  -3946188.365 3  23941281.695    23941278.682    23941280.597
        28.600          23.400
 06  1  2  0  6 30.0000000  0  7G29G 6G27G10G 2G26G21
 -15398631.093 6 -11998924.933 6  21386848.294    21386846.340    21386847.373
        40.500          37.000
 -18472089.907 7 -14393824.891 6  21293592.091    21293591.040    21293591.402
        44.400          40.800
    -67809.842 4    -52838.177 3  25206450.486    25206449.939    25206449.534
        24.900          22.600
 -22205078.519 7 -17302642.325 7  20276148.656    20276147.106    20276147.487
        46.100          45.700
 -12965779.267 6 -10103190.254 5  22356141.561    22356138.007    22356140.878
        39.500          34.600
 -12178589.480 5  -9489804.135 5  22164765.621    22164764.341    22164764.505
        35.600          32.800
  -5159220.703 4  -4020167.771 3  23923214.453    23923212.411    23923213.520
        28.400          23.400
 06  1  2  0  7  0.0000000  0  7G29G 6G27G10G 2G26G21
 -15472131.440 6 -12056197.911 6  21372861.355    21372859.742    21372860.667
        40.500          37.600
 -18493681.626 7 -14410649.591 6  21289483.216    21289482.344    21289482.462
        44.300          40.700
    -87230.027 3    -67970.758 3  25202754.622    25202753.887    25202753.806
        23.000          19.900
 -22171570.641 7 -17276532.287 7  20282525.091    20282523.475    20282523.902
        46.400          45.800
 -12880097.305 6 -10036425.098 5  22372446.019    22372442.895    22372445.533
        39.100          34.700
 -12288214.520 6  -9575226.186 5  22143904.952    22143903.059    22143903.825
        36.000          32.600
  -5254129.372 4  -4094122.515 3  23905154.381    23905151.548    23905153.029
        28.600          23.000
 06  1  2  0  7 30.0000000  0  7G29G 6G27G10G 2G26G21
 -15545167.751 6 -12113109.286 6  21358962.675    21358961.519    21358962.004
        40.300          38.100
 -18514717.109 7 -14427040.860 6  21285480.465    21285479.384    21285479.688
        44.500          40.800
   -106222.202 3    -82769.845 3  25199141.378    25199139.852    25199140.417
        22.100          19.300
 -22137664.819 7 -17250112.163 7  20288977.036    20288975.539    20288975.907
        46.600          45.700
 -12794171.681 6  -9969470.098 5  22388797.734    22388793.924    22388796.701
        39.100          34.500
 -12397503.154 6  -9660386.120 5  22123107.647    22123106.204    22123106.580
        36.000          33.100
  -5349005.482 4  -4168051.870 4  23887099.278    23887097.757    23887098.502
        29.900          26.500
 06  1  2  0  8  0.0000000  0  7G29G 6G27G10G 2G26G21
 -15617737.867 6 -12169657.391 6  21345152.938    21345151.836    21345152.394
        40.900          37.800
 -18535195.635 7 -14442998.142 6  21281583.679    21281582.327    21281582.930
        44.600          40.800
   -124785.746 3    -97234.910 2  25195608.190    25195607.097    25195607.381
        23.000          17.800
 -22103362.838 7 -17223383.341 7  20295504.446    20295502.940    20295503.306
        46.500          45.700
 -12708003.030 6  -9902325.734 5  22405194.974    22405191.720    22405194.102
        38.900          35.400
 -12506452.074 6  -9745281.327 5  22102375.263    22102373.929    22102374.305
        36.600          33.200
  -5443847.801 5  -4241954.907 4  23869052.024    23869050.167    23869051.054
        30.100          25.600
 06  1  2  0  8 30.0000000  0  7G29G 6G27G10G 2G26G21
 -15689839.676 6 -12225840.589 6  21331432.700    21331431.050    21331431.955
        40.800          37.500
 -18555115.803 7 -14458520.339 6  21277792.983    21277791.703    21277792.243
        44.700          40.800
   -142919.337 4   -111364.933 3  25192157.924    25192156.485    25192157.004
        25.900          21.100
 -22068666.261 7 -17196347.044 7  20302106.963    20302105.445    20302105.846
        46.400          45.600
 -12621592.506 6  -9834992.883 5  22421638.401    22421634.816    22421637.625
        39.200          34.700
 -12615057.961 6  -9829909.231 5  22081707.855    22081706.667    22081707.184
        37.200          32.800
  -5538655.440 4  -4315830.901 4  23851010.444    23851008.885    23851009.389
        29.200          24.200
 06  1  2  0  9  0.0000000  0  7G29G 6G27G10G 2G26G21
 -15761470.942 6 -12281657.140 6  21317801.905    21317800.076    21317801.052
        41.000          37.500
 -18574476.656 7 -14473606.702 6  21274108.599    21274107.547    21274107.884
        44.800          40.900
   -160621.718 3   -125159.004 3  25188788.691    25188788.068    25188787.634
        23.400          19.900
 -22033576.648 7 -17169004.481 7  20308784.338    20308782.793    20308783.192
        46.600          45.600
 -12534940.911 6  -9767472.196 5  22438127.822    22438123.997    22438126.779
        38.900          34.300
 -12723317.509 6  -9914267.263 5  22061105.830    22061105.505    22061105.701
        36.700          32.800
  -5633427.179 4  -4389678.965 3  23832976.177    23832973.934    23832974.897
        28.800          22.600
 06  1  2  0  9 30.0000000  0  7G29G 6G27G10G 2G26G21
 -15832629.471 6 -12337105.311 6  21304260.595    21304259.002    21304259.833
        40.900          37.800
 -18593278.027 7 -14488257.110 6  21270530.984    21270529.646    21270530.257
        45.000          40.700
   -177891.811 3   -138616.209 2  25185502.235    25185500.902    25185500.989
        22.100          17.000
 -21998095.550 7 -17141356.873 7  20315536.324    20315534.606    20315535.098
        46.400          45.500
 -12448049.140 6  -9699764.338 5  22454662.186    22454659.176    22454661.820
        39.400          34.600
 -12831227.365 6  -9998352.803 5  22040571.099    22040571.040    22040571.262
        37.400          33.200
  -5728162.006 4  -4463498.274 3  23814948.530    23814946.219    23814947.300
        28.800          23.800
 06  1  2  0 10  0.0000000  0  7G29G 6G27G10G 2G26G21
 -15903312.799 6 -12392183.206 6  21290809.861    21290808.537    21290809.328
        41.400          37.900
 -18611518.566 7 -14502470.506 6  21267060.122    21267058.541    21267059.387
        45.000          40.700
   -194728.656 4   -151735.797 2  25182298.458    25182297.017    25182297.760
        24.900          17.000
 -21962224.485 7 -17113405.393 7  20322362.254    20322360.614    20322361.049
        46.500          45.400
 -12360918.040 6  -9631869.996 5  22471243.217    22471239.522    22471242.312
        39.100          34.500
 -12938784.117 6 -10082163.216 5  22020103.915    22020103.357    22020103.926
        37.100          33.000
  -5822858.996 5  -4537288.087 3  23796929.057    23796926.027    23796927.942
        31.100          23.000
 06  1  2  0 10 30.0000000  0  7G29G 6G27G10G 2G26G21
 -15973519.091 6 -12446889.374 6  21277450.344    21277448.546    21277449.649
        41.100          37.700
 -18629197.456 7 -14516246.253 6  21263695.654    21263694.443    21263694.902
        44.700          40.700
   -211131.092 3   -164516.876 2  25179177.189    25179175.883    25179175.967
        22.100          17.000
 -21925964.910 7 -17085151.176 7  20329262.234    20329260.573    20329260.994
        46.400          45.300
 -12273548.764 6  -9563790.052 5  22487868.607    22487865.205    22487867.946
        38.200          33.900
 -13045984.725 6 -10165696.117 5  21999704.343    21999703.722    21999704.269
        37.200          32.800
  -5917516.695 5  -4611047.294 4  23778915.974    23778913.503    23778914.720
        31.100          24.200
 06  1  2  0 11  0.0000000  0  7G29G 6G27G10G 2G26G21
 -16043245.944 6 -12501221.967 6  21264181.400    21264180.071    21264180.815
        41.100          38.100
 -18646313.944 7 -14529583.764 6  21260438.303    21260437.269    21260437.619
        44.500          40.900
   -227098.147 4   -176958.722 3  25176138.188    25176137.457    25176137.985
        24.200          18.600
 -21889318.541 7 -17056595.563 7  20336235.879    20336234.172    20336234.629
        46.400          45.300
 -12185942.175 6  -9495525.195 5  22504539.769    22504536.257    22504539.127
        38.100          33.900
 -13152825.708 6 -10248948.795 5  21979373.850    21979372.862    21979373.269
        37.900          34.000
  -6012133.994 5  -4684775.028 3  23760910.668    23760908.048    23760909.492
        31.600          23.000
 06  1  2  0 11 30.0000000  0  7G29G 6G27G10G 2G26G21
 -16112491.364 6 -12555179.403 6  21251004.730    21251003.093    21251003.787
        40.700          38.100
 -18662867.553 7 -14542482.667 6  21257288.421    21257287.035    21257287.621
        44.600          40.600
   -242628.740 3   -189060.473 3  25173183.761    25173182.272    25173182.159
        23.000          19.300
 -21852287.066 7 -17027739.865 7  20343282.463    20343281.097    20343281.398
        46.600          45.300
 -12098099.368 6  -9427076.275 5  22521256.104    22521252.399    22521255.218
        38.100          34.100
 -13259303.672 6 -10331918.578 5  21959111.807    21959110.727    21959111.026
        37.600          34.500
  -6106709.871 5  -4758470.477 4  23742912.990    23742910.445    23742911.984
        30.200          24.600
 06  1  2  0 12  0.0000000  0  7G29G 6G27G10G 2G26G21
 -16181253.159 6 -12608760.002 6  21237919.243    21237918.044    21237918.990
        41.600          37.900
 -18678856.948 7 -14554941.925 6  21254245.693    21254244.271    21254244.952
        44.500          40.600
   -257721.898 3   -200821.366 3  25170310.356    25170310.274    25170309.931
        22.600          19.300
 -21814871.987 7 -16998585.255 7  20350402.428    20350400.916    20350401.227
        46.700          45.300
 -12010020.987 6  -9358443.805 5  22538016.426    22538013.072    22538015.718
        38.100          33.600
 -13365415.535 6 -10414603.087 5  21938919.456    21938918.081    21938918.577
        37.200          34.400
  -6201243.405 5  -4832132.928 3  23724924.533    23724921.290    23724923.425
        30.600          23.800
 06  1  2  0 12 30.0000000  0  7G29G 6G27G10G 2G26G21
 -16249529.465 6 -12661962.293 6  21224927.515    21224925.329    21224926.535
        41.300          37.700
 -18694281.668 7 -14566961.177 6  21251310.475    21251309.139    21251309.790
        44.500          40.900
   -272376.610 4   -212240.587 2  25167522.829    25167520.475    25167521.677
        25.300          13.900
 -21777074.744 7 -16969132.853 7  20357594.941    20357593.472    20357593.792
        46.800          45.300
 -11921708.098 6  -9289628.581 5  22554821.536    22554818.473    22554821.007
        37.700          33.200
 -13471157.823 6 -10496999.628 5  21918797.375    21918795.851    21918796.403
        37.300          33.900
  -6295733.116 4  -4905761.219 3  23706942.890    23706940.423    23706941.909
        28.100          22.100
 06  1  2  0 13  0.0000000  0  7G29G 6G27G10G 2G26G21
 -16317317.911 6 -12714784.438 6  21212027.015    21212025.723    21212026.581
        41.400          38.100
 -18709141.026 7 -14578539.883 6  21248482.736    21248481.691    21248481.972
        44.500          40.800
   -286591.847 3   -223317.333 2  25164817.211    25164816.012    25164816.459
        23.000          16.100
 -21738897.183 7 -16939384.100 7  20364860.009    20364858.418    20364858.845
        46.700          45.300
 -11833161.437 6  -9220631.198 5  22571671.767    22571668.161    22571671.028
        37.600          32.800
 -13576527.364 6 -10579105.719 5  21898746.218    21898744.653    21898745.420
        38.100          34.000
  -6390177.900 4  -4979354.512 3  23688971.229    23688968.448    23688969.970
        29.200          23.400
 06  1  2  0 13 30.0000000  0  7G29G 6G27G10G 2G26G21
 -16384616.538 6 -12767224.895 6  21199221.363    21199219.396    21199220.362
        41.800          38.700
 -18723434.280 7 -14589677.474 6  21245763.087    21245761.803    21245762.306
        44.700          41.200
   -300366.723 3   -234051.006 2  25162196.020    25162194.649    25162194.836
        21.100          17.000
 -21700340.637 7 -16909340.036 7  20372197.047    20372195.436    20372195.899
        46.600          45.100
 -11744382.129 6  -9151452.536 5  22588566.340    22588562.673    22588565.374
        37.600          33.600
 -13681520.995 6 -10660918.913 5  21878766.089    21878764.990    21878765.574
        38.400          33.900
  -6484576.707 5  -5052911.992 3  23671007.492    23671004.461    23671006.627
        30.200          21.600
 06  1  2  0 14  0.0000000  0  7G29G 6G27G10G 2G26G21
 -16451423.117 6 -12819281.942 6  21186507.916    21186506.418    21186507.374
        41.900          38.600
 -18737160.484 7 -14600373.207 6  21243151.132    21243149.739    21243150.358
        44.700          41.200
   -313699.904 3   -244440.512 3  25159658.001    25159657.753    25159657.995
        23.800          18.600
 -21661406.863 7 -16879002.028 7  20379605.800    20379604.282    20379604.639
        46.600          45.000
 -11655371.192 6  -9082093.393 5  22605504.473    22605500.597    22605503.618
        37.700          32.600
 -13786135.182 6 -10742436.438 5  21858858.160    21858857.591    21858858.115
        38.400          34.400
  -6578928.199 5  -5126432.593 3  23653053.317    23653050.060    23653052.144
        31.100          22.600
 06  1  2  0 14 30.0000000  0  7G29G 6G27G10G 2G26G21
 -16517735.816 7 -12870954.154 6  21173889.336    21173887.443    21173888.519
        42.100          38.300
 -18750318.903 7 -14610626.512 6  21240647.085    21240645.680    21240646.288
        44.700          41.200
   -326590.957 3   -254485.470 2  25157205.983    25157204.454    25157205.048
        23.800          17.000
 -21622097.310 7 -16848371.203 7  20387086.140    20387084.591    20387085.023
        46.700          45.100
 -11566129.589 6  -9012554.483 5  22622486.323    22622482.603    22622485.719
        37.500          32.600
 -13890366.827 6 -10823655.846 5  21839022.376    21839023.132    21839023.339
        38.600          35.200
  -6673231.545 5  -5199915.710 3  23635107.335    23635104.454    23635106.574
        31.800          22.100
 06  1  2  0 15  0.0000000  0  7G29G 6G27G10G 2G26G21
 -16583552.618 7 -12922239.948 6  21161364.738    21161362.895    21161363.917
        42.200          38.600
 -18762909.372 7 -14620437.262 6  21238251.131    21238249.770    21238250.381
        44.700          40.900
   -339038.802 4   -264185.086 3  25154837.157    25154835.919    25154836.110
        26.200          18.600
 -21582413.831 7 -16817449.008 7  20394637.895    20394636.172    20394636.686
        46.700          44.900
 -11476658.256 6  -8942836.565 5  22639512.131    22639508.342    22639511.353
        36.800          32.100
 -13994212.468 6 -10904574.475 5  21819262.452    21819261.646    21819262.218
        38.600          34.600
  -6767485.301 5  -5273360.158 4  23617171.821    23617169.157    23617170.693
        31.000          24.200
 06  1  2  0 15 30.0000000  0  7G29G 6G27G10G 2G26G21
 -16648871.490 7 -12973137.743 6  21148934.643    21148933.190    21148933.929
        42.100          38.800
 -18774930.850 7 -14629804.643 6  21235963.676    21235962.192    21235962.852
        44.800          41.100
   -351042.311 3   -273538.471 3  25152552.692    25152551.403    25152551.378
        22.600          18.600
 -21542357.939 7 -16786236.624 7  20402260.257    20402258.521    20402259.053
        46.900          44.900
 -11386958.007 6  -8872940.284 5  22656581.557    22656578.032    22656580.711
        36.700          32.700
 -14097669.055 6 -10985189.974 5  21799576.048    21799574.404    21799575.077
        38.400          34.100
  -6861688.297 4  -5346765.055 4  23599245.384    23599242.771    23599244.293
        29.200          25.600
 06  1  2  0 16  0.0000000  0  7G29G 6G27G10G 2G26G21
 -16713690.270 7 -13023645.856 6  21136600.215    21136598.570    21136599.402
        42.000          39.100
 -18786383.015 7 -14638728.399 6  21233784.287    21233782.944    21233783.396
        44.400          41.200
   -362601.056 3   -282545.238 2  25150353.171    25150352.248    25150352.158
        22.600          17.800
 -21501931.121 7 -16754735.205 7  20409953.235    20409951.564    20409952.034
        46.900          44.800
 -11297029.774 6  -8802866.354 5  22673694.137    22673691.019    22673693.556
        36.500          33.200
 -14200733.429 6 -11065499.835 5  21779963.955    21779962.078    21779962.683
        38.600          35.100
  -6955839.315 5  -5420129.449 4  23581328.889    23581326.622    23581327.939
        31.600          27.100
 06  1  2  0 16 30.0000000  0  7G29G 6G27G10G 2G26G21
 -16778007.162 7 -13073762.894 6  21124360.986    21124359.536    21124360.277
        42.100          39.100
 -18797265.167 7 -14647207.989 6  21231713.276    21231712.173    21231712.584
        44.400          41.200
   -373713.856 3   -291204.566 2  25148238.383    25148237.107    25148237.419
        23.400          15.100
 -21461135.173 7 -16722946.152 7  20417716.281    20417714.722    20417715.190
        47.000          44.800
 -11206874.481 6  -8732615.506 5  22690849.750    22690846.728    22690849.343
        36.500          32.600
 -14303402.157 6 -11145501.411 5  21760426.002    21760424.706    21760425.250
        38.800          34.700
  -7049937.268 5  -5493452.475 4  23563422.994    23563420.522    23563421.935
        33.200          28.400
 06  1  2  0 17  0.0000000  0  7G29G 6G27G10G 2G26G21
 -16841820.136 7 -13123487.265 6  21112217.547    21112216.112    21112217.044
        42.200          39.000
 -18807576.523 7 -14655242.805 6  21229751.093    21229749.973    21229750.314
        44.300          41.100
   -384379.848 4   -299515.686 3  25146208.535    25146208.024    25146207.908
        24.900          19.300
 -21419971.342 7 -16690870.436 7  20425549.620    20425547.941    20425548.373
        46.800          44.700
 -11116493.377 6  -8662188.705 5  22708049.827    22708045.973    22708048.582
        36.400          33.200
 -14405672.126 6 -11225192.251 5  21740963.929    21740963.386    21740963.845
        38.900          34.600
  -7143980.758 5  -5566733.076 4  23545526.868    23545524.689    23545525.739
        33.100          28.600
 06  1  2  0 17 30.0000000  0  7G29G 6G27G10G 2G26G21
 -16905127.357 7 -13172817.537 6  21100171.021    21100169.130    21100170.139
        42.200          38.800
 -18817316.950 7 -14662832.743 6  21227897.586    21227896.404    21227896.831
        44.300          41.100
   -394598.445 4   -307478.203 3  25144264.764    25144262.951    25144263.494
        26.200          19.900
 -21378441.307 7 -16658509.365 7  20433452.579    20433450.821    20433451.309
        46.800          44.800
 -11025887.096 6  -8591586.447 5  22725291.850    22725287.653    22725290.643
        36.300          33.000
 -14507540.178 6 -11304569.905 5  21721578.718    21721578.474    21721578.792
        38.900          34.600
  -7237968.724 5  -5639970.428 4  23527641.391    23527638.695    23527640.484
        32.600          26.500
 06  1  2  0 18  0.0000000  0  7G29G 6G27G10G 2G26G21
 -16967926.924 7 -13221752.242 6  21088220.285    21088218.517    21088219.687
        42.500          38.900
 -18826485.603 7 -14669977.139 6  21226152.921    21226151.651    21226152.122
        44.600          41.100
   -404368.582 4   -315091.296 1  25142404.975    25142403.242    25142404.199
        25.300          11.000
 -21336546.799 7 -16625864.290 7  20441424.478    20441423.095    20441423.407
        46.700          44.600
 -10935056.821 6  -8520809.644 5  22742575.248    22742572.245    22742574.695
        36.000          32.600
 -14609003.059 6 -11383631.847 5  21702271.902    21702270.496    21702271.193
        39.000          34.700
  -7331899.819 5  -5713163.465 4  23509766.678    23509764.676    23509765.688
        31.800          27.100
 06  1  2  0 18 30.0000000  0  7G29G 6G27G10G 2G26G21
 -17030216.701 7 -13270289.711 6  21076366.985    21076365.283    21076366.326
        42.300          38.900
 -18835082.186 7 -14676675.770 6  21224516.922    21224515.712    21224516.209
        44.500          41.200
   -413689.738 3   -322354.527 3  25140631.514    25140630.123    25140630.648
        21.100          18.600
 -21294289.454 7 -16592936.484 7  20449465.787    20449464.430    20449464.664
        46.800          44.600
 -10844003.572 5  -8449859.081 5  22759901.420    22759898.907    22759901.389
        35.800          31.800
 -14710057.320 6 -11462375.386 5  21683042.295    21683040.664    21683041.257
        38.900          35.400
  -7425772.842 5  -5786311.250 4  23491902.920    23491900.638    23491901.914
        31.500          25.300
 06  1  2  0 19  0.0000000  0  7G29G 6G27G10G 2G26G21
 -17091994.934 7 -13318428.569 6  21064611.132    21064609.453    21064610.295
        42.400          39.500
 -18843105.967 7 -14682928.061 6  21222990.040    21222988.758    21222989.301
        44.500          41.000
   -422560.786 3   -329267.018 3  25138943.052    25138942.059    25138942.115
        23.000          18.600
 -21251670.913 7 -16559727.228 7  20457575.912    20457574.426    20457574.783
        46.800          44.600
 -10752728.294 6  -8378735.508 5  22777272.465    22777267.960    22777271.226
        36.500          31.100
 -14810699.975 6 -11540798.196 5  21663889.973    21663888.952    21663889.489
        39.300          35.600
  -7519586.761 5  -5859412.965 4  23474050.986    23474048.812    23474050.100
        32.000          25.600
 06  1  2  0 19 30.0000000  0  7G29G 6G27G10G 2G26G21
 -17153260.007 7 -13366167.562 6  21052952.396    21052951.168    21052951.864
        42.700          39.700
 -18850556.941 7 -14688734.011 6  21221572.323    21221570.843    21221571.565
        44.400          40.900
   -430981.322 3   -335828.459 3  25137340.912    25137339.746    25137339.634
        23.000          20.500
 -21208692.899 7 -16526237.865 7  20465754.171    20465752.915    20465753.100
        46.800          44.300
 -10661231.846 5  -8307439.598 5  22794683.161    22794679.496    22794682.123
        35.600          31.600
 -14910927.889 6 -11618897.825 5  21644816.960    21644816.125    21644816.622
        39.200          35.700
  -7613340.206 5  -5932467.581 4  23456210.977    23456207.938    23456209.839
        31.600          25.300
 06  1  2  0 20  0.0000000  0  7G29G 6G27G10G 2G26G21
 -17214009.689 7 -13413504.950 6  21041392.414    21041390.762    21041391.653
        42.700          39.500
 -18857434.360 7 -14694093.036 6  21220263.687    21220262.202    21220262.857
        44.400          40.800
   -438950.700 3   -342038.364 2  25135823.778    25135823.147    25135822.866
        22.100          17.800
 -21165356.769 7 -16492469.446 7  20474000.970    20473999.448    20473999.859
        46.800          44.300
 -10569515.436 5  -8235972.304 5  22812135.073    22812132.609    22812134.809
        35.100          31.500
 -15010737.875 6 -11696671.798 5  21625823.615    21625822.885    21625823.284
        39.400          35.400
  -7707031.938 5  -6005474.102 4  23438381.794    23438378.889    23438380.675
        33.000          25.300
 06  1  2  0 20 30.0000000  0  7G29G 6G27G10G 2G26G21
 -17274242.377 7 -13460439.481 6  21029930.491    21029928.698    21029929.695
        42.600          39.600
 -18863737.813 7 -14699004.810 6  21219063.894    21219062.820    21219063.242
        44.200          41.100
   -446468.155 4   -347896.082 2  25134393.896    25134392.286    25134392.947
        24.600          17.000
 -21121664.101 7 -16458423.211 7  20482315.551    20482313.904    20482314.403
        46.800          44.300
 -10477579.851 5  -8164334.225 5  22829629.973    22829627.042    22829629.822
        35.200          30.600
 -15110126.622 6 -11774117.541 6  21606911.314    21606910.033    21606910.443
        39.800          36.100
  -7800660.471 5  -6078431.394 4  23420564.991    23420561.896    23420563.858
        33.800          24.900
 06  1  2  0 21  0.0000000  0  7G29G 6G27G10G 2G26G21
 -17333956.348 7 -13506969.824 6  21018567.225    21018565.657    21018566.528
        42.900          39.700
 -18869466.836 7 -14703468.978 6  21217973.684    21217972.481    21217972.990
        44.300          40.800
   -453532.524 3   -353400.771 3  25133048.945    25133048.572    25133048.085
        23.400          19.900
 -21077616.744 7 -16424100.594 7  20490697.523    20490695.761    20490696.319
        46.800          44.100
 -10385426.212 5  -8092526.219 5  22847167.358    22847163.621    22847166.549
        35.600          31.100
 -15209090.989 6 -11851232.594 6  21588078.656    21588077.605    21588078.083
        40.000          36.000
  -7894224.595 5  -6151338.478 4  23402760.520    23402757.401    23402759.335
        33.100          25.600
 06  1  2  0 21 30.0000000  0  7G29G 6G27G10G 2G26G21
 -17393149.506 7 -13553094.340 6  21007303.144    21007301.571    21007302.453
        42.800          40.000
 -18874621.271 7 -14707485.414 6  21216993.024    21216991.491    21216992.235
        44.400          40.800
   -460143.445 4   -358552.108 3  25131791.634    25131789.951    25131790.763
        27.100          19.300
 -21033216.262 7 -16389502.810 7  20499146.505    20499144.929    20499145.343
        46.800          44.200
 -10293055.395 5  -8020548.965 5  22864745.083    22864741.053    22864744.068
        35.600          31.600
 -15307627.887 6 -11928014.556 5  21569327.262    21569326.553    21569327.076
        40.100          35.900
  -7987723.251 5  -6224194.535 4  23384967.638    23384965.063    23384966.695
        32.800          25.900
 06  1  2  0 22  0.0000000  0  8G29G 6G27G 8G10G 2G26G21
 -17451820.414 7 -13598811.897 6  20996138.761    20996136.803    20996137.832
        42.700          39.800
 -18879200.626 7 -14711053.741 6  21216121.467    21216120.159    21216120.818
        44.300          40.900
   -466299.977 4   -363349.382 3  25130620.201    25130618.194    25130619.470
        26.800          18.600
    -83869.123 4    -65352.671 2  24836575.451    24836574.153    24836574.863
        27.600          13.900
 -20988464.351 7 -16354631.192 7  20507662.641    20507660.957    20507661.475
        46.700          44.100
 -10200468.543 5  -7948403.394 5  22882363.789    22882359.835    22882362.734
        35.200          31.800
 -15405734.070 6 -12004460.910 5  21550658.868    21550657.442    21550658.210
        40.500          35.600
  -8081155.119 5  -6296998.564 4  23367188.397    23367185.666    23367187.380
        33.600          26.800
 06  1  2  0 22 30.0000000  0  8G29G 6G27G 8G10G 2G26G21
 -17509967.046 7 -13644120.929 6  20985073.455    20985071.789    20985072.772
        43.000          40.100
 -18883204.676 7 -14714173.778 6  21215359.719    21215358.213    21215358.885
        44.200          40.800
   -472001.870 3   -367792.399 3  25129534.500    25129533.686    25129533.706
        22.600          19.900
   -146363.965 4   -114049.935 1  24824682.593    24824681.928    24824681.926
        25.600          11.000
 -20943362.433 7 -16319486.835 7  20516245.272    20516243.622    20516244.131
        47.000          44.100
 -10107666.799 5  -7876090.370 5  22900022.399    22900019.550    22900022.128
        34.700          31.500
 -15503406.483 6 -12080569.259 6  21532072.357    21532071.194    21532071.801
        40.600          36.300
  -8174518.670 5  -6369749.359 4  23349422.207    23349419.051    23349420.786
        33.500          27.100
 06  1  2  0 23  0.0000000  0  8G29G 6G27G 8G10G 2G26G21
 -17567587.818 7 -13689020.207 6  20974108.003    20974106.857    20974107.583
        42.600          40.100
 -18886633.196 7 -14716845.347 6  21214707.250    21214705.694    21214706.386
        44.100          40.800
   -477248.458 4   -371880.594 3  25128536.206    25128535.177    25128535.219
        24.600          18.600
   -208506.477 4   -162472.647 2  24812858.038    24812857.027    24812856.745
        25.900          13.900
 -20897912.090 7 -16284070.979 7  20524894.131    20524892.404    20524892.993
        47.100          44.100
 -10014650.916 5  -7803610.481 5  22917723.636    22917719.830    22917722.612
        34.300          31.100
 -15600642.088 6 -12156337.229 6  21513568.574    21513567.986    21513568.316
        40.600          36.800
  -8267812.909 5  -6442446.141 4  23331668.840    23331665.848    23331667.701
        32.800          27.100
 06  1  2  0 23 30.0000000  0  8G29G 6G27G 8G10G 2G26G21
 -17624681.149 7 -13733508.485 6  20963244.135    20963242.285    20963243.208
        42.700          39.900
 -18889485.721 7 -14719068.090 6  21214164.163    21214162.991    21214163.440
        44.000          40.800
   -482038.873 3   -375613.405 3  25127624.688    25127623.549    25127623.479
        23.400          18.600
   -270294.050 3   -210618.767 2  24801100.615    24801098.779    24801099.174
        21.600          13.900
 -20852115.158 7 -16248385.055 7  20533608.996    20533607.277    20533607.812
        46.900          44.100
  -9921421.890 5  -7730964.512 5  22935464.732    22935460.615    22935463.510
        34.000          30.800
 -15697437.750 6 -12231762.386 6  21495149.497    21495148.219    21495148.742
        40.400          36.600
  -8361036.256 5  -6515087.660 4  23313928.811    23313925.898    23313927.809
        32.800          27.100
 06  1  2  0 24  0.0000000  0  8G29G 6G27G 8G10G 2G26G21
 -17681245.254 7 -13777584.385 6  20952480.278    20952478.342    20952479.432
        42.700          39.700
 -18891761.773 7 -14720841.631 6  21213731.292    21213729.975    21213730.430
        44.100          41.000
   -486372.837 4   -378990.502 3  25126800.352    25126798.297    25126799.340
        24.600          18.600
   -331723.898 3   -258486.129 3  24789409.392    24789409.466    24789408.157
        21.600          18.600
 -20805973.239 7 -16212430.311 7  20542389.633    20542387.770    20542388.420
        47.000          44.100
  -9827980.750 5  -7658153.237 5  22953245.610    22953242.052    22953244.620
        34.000          31.500
 -15793790.237 6 -12306842.220 6  21476814.382    21476812.880    21476813.675
        40.800          37.000
  -8454187.318 5  -6587672.868 4  23296202.314    23296200.061    23296201.403
        33.100          27.900
 06  1  2  0 24 30.0000000  0  8G29G 6G27G 8G10G 2G26G21
 -17737278.250 7 -13821246.433 6  20941817.169    20941815.737    20941816.592
        42.800          40.100
 -18893461.752 7 -14722166.289 6  21213407.672    21213406.298    21213406.908
        44.000          40.800
   -490249.353 3   -382011.157 2  25126062.516    25126060.861    25126061.455
        19.900          17.000
   -392793.324 3   -306072.672 3  24777787.859    24777788.210    24777787.333
        19.900          19.900
 -20759487.771 7 -16176207.868 7  20551235.419    20551233.670    20551234.203
        46.800          43.900
  -9734328.658 5  -7585177.616 5  22971067.875    22971063.544    22971066.399
        33.800          31.300
 -15889696.443 6 -12381574.304 6  21458563.417    21458562.320    21458563.146
        41.100          36.100
  -8547265.041 5  -6660200.921 4  23278489.575    23278487.711    23278488.805
        32.300          27.400
 06  1  2  0 25  0.0000000  0  8G29G 6G27G 8G10G 2G26G21
 -17792778.861 7 -13864493.641 6  20931255.909    20931254.289    20931255.234
        42.900          40.300
 -18894585.428 7 -14723041.870 6  21213193.963    21213192.386    21213193.117
        44.000          40.500
   -493668.052 3   -384675.064 2  25125411.538    25125410.025    25125410.730
        22.100          17.800
   -453499.416 3   -353376.055 3  24766235.892    24766236.335    24766234.989
        18.600          19.300
 -20712660.385 7 -16139718.994 7  20560146.336    20560144.746    20560145.115
        46.800          44.000
  -9640466.549 5  -7512038.337 5  22988928.155    22988925.058    22988927.411
        34.300          31.500
 -15985153.440 6 -12455956.349 6  21440398.735    21440397.638    21440398.270
        41.200          37.100
  -8640267.996 5  -6732670.715 4  23260792.687    23260789.737    23260791.713
        34.100          27.100
 06  1  2  0 25 30.0000000  0  8G29G 6G27G 8G10G 2G26G21
 -17847745.265 7 -13907324.579 6  20920796.352    20920794.544    20920795.510
        42.900          40.500
 -18895132.294 7 -14723468.001 6  21213089.936    21213088.355    21213089.137
        44.200          40.700
   -496628.382 3   -386981.760 2  25124848.395    25124847.106    25124847.436
        22.600          17.800
   -513839.554 3   -400394.264 2  24754754.164    24754753.931    24754753.302
        22.600          17.800
 -20665492.861 7 -16102965.075 7  20569121.782    20569120.471    20569120.699
        46.700          44.000
  -9546395.544 5  -7438736.278 5  23006828.685    23006825.888    23006828.383
        33.500          30.600
 -16080157.989 6 -12529985.834 6  21422320.177    21422318.755    21422319.448
        41.000          37.200
  -8733194.460 5  -6805080.914 4  23243108.724    23243106.465    23243108.013
        34.300          28.800
 06  1  2  0 26  0.0000000  0  8G29G 6G27G 8G10G 2G26G21
 -17902175.959 7 -13949738.078 6  20910438.607    20910436.662    20910437.777
        43.200          40.400
 -18895101.984 7 -14723444.386 6  21213095.657    21213094.202    21213094.916
        44.300          40.500
   -499129.849 3   -388930.980 2  25124372.497    25124371.158    25124371.821
        21.600          15.100
   -573810.974 3   -447125.237 2  24743341.968    24743341.097    24743341.096
        21.600          13.900
 -20617986.721 7 -16065947.302 7  20578161.815    20578160.668    20578160.721
        46.600          44.100
  -9452116.518 5  -7365272.119 5  23024768.590    23024766.521    23024769.186
        33.600          30.100
 -16174707.156 6 -12603660.475 6  21404327.412    21404326.635    21404327.270
        41.400          37.200
  -8826043.477 5  -6877430.759 4  23225440.649    23225438.010    23225439.769
        34.100          28.100
 06  1  2  0 26 30.0000000  0  8G29G 6G27G 8G10G 2G26G21
 -17956069.098 7 -13991732.705 6  20900183.248    20900181.145    20900182.297
        43.300          40.500
 -18894494.520 7 -14722971.033 6  21213211.246    21213209.824    21213210.480
        44.200          40.800
   -501172.189 3   -390522.366 2  25123982.976    25123981.999    25123982.435
        20.500          15.100
   -633411.278 3   -493567.019 2  24731999.844    24731999.331    24731998.703
        22.100          17.800
 -20570143.539 7 -16028666.899 7  20587266.205    20587264.830    20587265.074
        46.400          43.900
  -9357630.440 5  -7291646.624 4  23042749.585    23042746.645    23042749.482
        34.400          28.600
 -16268797.705 6 -12676977.750 6  21386422.845    21386421.793    21386422.249
        41.200          37.000
  -8918813.905 5  -6949719.366 4  23207786.937    23207783.787    23207785.762
        32.800          28.100
 06  1  2  0 27  0.0000000  0  8G29G 6G27G 8G10G 2G26G21
 -18009423.413 7 -14033307.475 6  20890030.048    20890028.112    20890029.336
        43.400          40.500
 -18893310.064 7 -14722048.080 6  21213436.484    21213435.333    21213435.718
        43.800          41.000
   -502754.740 3   -391755.514 3  25123682.062    25123681.339    25123681.461
        23.800          19.300
   -692637.364 3   -539717.153 3  24720730.162    24720729.407    24720729.155
        23.400          20.500
 -20521965.067 7 -15991125.234 7  20596434.384    20596432.900    20596433.179
        46.300          43.900
  -9262938.692 5  -7217860.874 4  23060770.700    23060766.238    23060769.401
        34.900          29.700
 -16362426.879 6 -12749935.521 6  21368606.278    21368604.809    21368605.422
        41.300          37.600
  -9011504.194 5  -7021945.505 4  23190148.597    23190145.917    23190147.366
        34.100          28.100
 06  1  2  0 27 30.0000000  0  8G29G 6G27G 8G10G 2G26G21
 -18062237.277 7 -14074461.119 6  20879979.826    20879978.018    20879979.157
        43.600          40.400
 -18891548.360 7 -14720675.318 6  21213771.698    21213770.693    21213770.877
        43.800          41.000
   -503877.210 3   -392630.115 3  25123469.033    25123467.981    25123468.042
        22.100          20.500
   -751486.800 4   -585573.822 3  24709531.208    24709530.581    24709530.648
        25.900          19.900
 -20473452.974 7 -15953323.602 7  20605665.961    20605664.476    20605664.721
        46.500          43.900
  -9168042.196 5  -7143915.568 4  23078828.703    23078824.075    23078827.345
        33.800          28.800
 -16455591.438 6 -12822531.260 6  21350877.056    21350876.147    21350876.629
        41.400          37.500
  -9104112.695 5  -7094107.956 4  23172525.453    23172522.553    23172524.492
        34.400          28.100
 06  1  2  0 28  0.0000000  0  8G29G 6G27G 8G10G 2G26G21
 -18114509.007 7 -14115192.313 6  20870032.894    20870031.013    20870032.070
        43.200          40.800
 -18889209.328 7 -14718852.696 6  21214216.646    21214215.635    21214215.885
        43.600          40.900
   -504539.026 4   -393145.818 3  25123343.243    25123341.570    25123342.216
        24.200          18.600
   -809956.809 3   -631134.782 3  24698404.719    24698404.432    24698403.913
        23.400          23.000
 -20424608.708 7 -15915263.132 7  20614960.651    20614959.158    20614959.482
        46.600          43.800
  -9072941.845 5  -7069811.415 5  23096924.853    23096921.259    23096924.063
        33.600          30.100
 -16548288.496 6 -12894762.704 6  21333237.597    21333236.380    21333237.130
        41.500          37.800
  -9196638.167 5  -7166205.683 4  23154918.955    23154915.384    23154917.749
        33.200          26.200
 06  1  2  0 28 30.0000000  0  8G29G 6G27G 8G10G 2G26G21
 -18166237.323 7 -14155500.069 6  20860189.179    20860187.432    20860188.433
        43.100          40.800
 -18886293.004 7 -14716580.234 6  21214771.782    21214770.553    21214771.005
        43.700          41.000
   -504739.858 4   -393302.273 3  25123304.395    25123303.618    25123303.709
        24.900          20.500
   -868044.722 4   -676398.046 3  24687351.544    24687350.662    24687350.387
        25.300          23.800
 -20375434.189 7 -15876945.324 7  20624318.080    20624316.726    20624317.040
        46.800          43.600
  -8977638.752 5  -6995549.298 4  23115059.094    23115056.744    23115059.517
        34.000          29.900
 -16640514.865 6 -12966627.383 6  21315687.408    21315686.267    21315686.912
        41.900          37.900
  -9289079.289 5  -7238237.713 4  23137327.489    23137324.742    23137326.300
        34.400          27.400
 06  1  2  0 29  0.0000000  0  8G29G 6G27G 8G10G 2G26G21
 -18217420.604 7 -14195383.118 6  20850449.298    20850447.419    20850448.611
        43.200          40.600
 -18882799.167 7 -14713857.765 6  21215436.556    21215435.401    21215435.836
        43.600          40.600
   -504478.839 4   -393098.877 3  25123354.174    25123353.524    25123353.378
        24.900          22.100
   -925748.227 4   -721361.771 3  24676370.954    24676369.307    24676369.773
        25.600          18.600
 -20325930.899 7 -15838371.329 7  20633738.374    20633736.829    20633737.224
        46.800          43.600
  -8882133.744 5  -6921129.839 4  23133234.022    23133230.726    23133233.488
        32.000          28.800
 -16732267.684 6 -13038123.046 6  21298226.981    21298226.225    21298226.814
        41.800          37.600
  -9381434.557 5  -7310202.816 4  23119753.681    23119750.368    23119752.447
        35.300          29.000
 06  1  2  0 29 30.0000000  0  8G29G 6G27G 8G10G 2G26G21
 -18268057.347 7 -14234840.306 6  20840813.384    20840811.493    20840812.634
        43.300          40.700
 -18878728.046 7 -14710685.460 6  21216211.376    21216210.176    21216210.605
        43.600          41.000
   -503756.022 3   -392535.635 3  25123491.317    25123490.902    25123490.700
        23.000          20.500
   -983063.867 4   -766023.275 3  24665463.512    24665462.830    24665462.081
        24.200          21.100
 -20276100.370 7 -15799542.343 7  20643220.761    20643219.324    20643219.607
        46.800          43.500
  -8786428.304 5  -6846554.202 4  23151446.698    23151443.277    23151445.683
        32.300          28.600
 -16823543.993 6 -13109247.407 6  21280858.236    21280856.936    21280857.524
        41.900          37.600
  -9473702.628 5  -7382099.982 4  23102195.202    23102192.286    23102194.051
        34.800          28.400
 06  1  2  0 30  0.0000000  0  8G29G 6G27G 8G10G 2G26G21
 -18318146.253 7 -14273870.600 6  20831281.671    20831279.959    20831281.037
        43.200          41.100
 -18874079.465 7 -14707063.195 6  21217095.915    21217094.892    21217095.117
        43.400          41.000
   -502571.004 3   -391612.227 3  25123717.553    25123716.110    25123716.522
        22.100          18.600
  -1039989.179 4   -810380.641 3  24654631.010    24654630.655    24654630.045
        24.900          21.100
 -20225944.191 7 -15760459.603 7  20652765.364    20652763.729    20652764.197
        47.000          43.300
  -8690523.536 5  -6771823.245 5  23169696.918    23169693.530    23169695.597
        32.300          30.200
 -16914340.670 7 -13179998.033 6  21263579.936    21263578.743    21263579.539
        42.300          37.700
  -9565882.210 5  -7453928.193 4  23084653.699    23084650.956    23084652.618
        34.700          27.900
 06  1  2  0 30 30.0000000  0  8G29G 6G27G 8G10G 2G26G21
 -18367685.867 7 -14312472.875 6  20821854.662    20821852.951    20821853.984
        43.400          41.000
 -18868853.676 7 -14702991.150 6  21218090.186    21218089.192    21218089.371
        43.500          40.800
   -500923.428 4   -390328.416 3  25124031.245    25124029.997    25124030.361
        24.900          21.600
  -1096522.171 4   -854432.252 3  24643873.644    24643873.053    24643872.292
        25.900          23.400
 -20175464.155 7 -15721124.510 7  20662371.200    20662369.813    20662370.157
        47.100          43.400
  -8594420.157 5  -6696937.511 4  23187984.671    23187981.155    23187983.576
        32.100          29.000
 -17004654.938 6 -13250372.759 6  21246393.765    21246392.404    21246393.122
        41.800          37.700
  -9657971.811 5  -7525686.298 4  23067130.048    23067126.776    23067128.744
        35.400          27.600
 06  1  2  0 31  0.0000000  0  8G29G 6G27G 8G10G 2G26G21
 -18416674.762 7 -14350646.017 6  20812532.490    20812530.655    20812531.720
        43.400          41.300
 -18863050.861 7 -14698469.470 6  21219194.616    21219193.392    21219193.867
        43.600          40.700
   -498812.736 3   -388683.698 3  25124432.866    25124431.258    25124431.906
        23.400          22.600
  -1152659.955 4   -898175.936 2  24633191.295    24633189.071    24633190.180
        28.400          17.000
 -20124661.788 7 -15681538.242 7  20672038.550    20672037.153    20672037.511
        47.100          43.200
  -8498119.187 5  -6621897.833 4  23206310.072    23206306.514    23206309.121
        32.100          29.000
 -17094483.834 7 -13320369.280 6  21229299.780    21229298.636    21229299.237
        42.000          38.200
  -9749970.026 5  -7597373.174 4  23049622.551    23049619.753    23049621.611
        34.800          27.400
 06  1  2  0 31 30.0000000  0  8G29G 6G27G 8G10G 2G26G21
 -18465111.422 7 -14388388.851 6  20803315.235    20803313.432    20803314.514
        43.400          41.300
 -18856670.682 7 -14693497.900 6  21220408.810    21220407.504    21220408.018
        43.600          40.700
   -496238.648 4   -386677.907 3  25124922.604    25124921.396    25124921.589
        24.200          22.100
  -1208399.879 4   -941609.649 2  24622584.476    24622582.353    24622582.945
        26.200          15.100
 -20073538.567 7 -15641701.961 7  20681767.054    20681765.493    20681765.930
        46.800          43.000
  -8401621.950 5  -6546705.205 4  23224672.564    23224669.302    23224672.073
        31.800          28.100
 -17183824.218 7 -13389985.129 6  21212298.491    21212297.749    21212298.175
        42.000          38.300
  -9841875.250 5  -7668987.609 4  23032134.114    23032130.676    23032132.973
        35.700          27.100
 06  1  2  0 32  0.0000000  0  8G29G 6G27G 8G10G 2G26G21
 -18512994.707 7 -14425700.483 6  20794203.375    20794201.481    20794202.623
        43.300          41.100
 -18849713.572 7 -14688076.781 6  21221732.753    21221731.471    21221731.981
        43.800          40.900
   -493200.932 4   -384310.871 3  25125500.300    25125499.526    25125499.319
        24.600          22.100
  -1263739.241 4   -984731.177 2  24612052.964    24612051.530    24612051.910
        25.300          15.100
 -20022096.261 7 -15601617.049 7  20691556.298    20691554.557    20691555.095
        46.800          42.800
  -8304929.301 5  -6471360.289 4  23243071.914    23243069.597    23243071.711
        31.600          28.600
 -17272673.527 7 -13459218.331 6  21195391.651    21195390.175    21195390.834
        42.000          38.300
  -9933686.048 6  -7740528.468 4  23014663.133    23014659.744    23014662.130
        36.300          28.800
 06  1  2  0 32 30.0000000  0  8G29G 6G27G 8G10G 2G26G21
 -18560323.314 7 -14462579.898 6  20785196.872    20785195.119    20785196.158
        43.400          41.200
 -18842179.327 7 -14682205.938 6  21223166.478    21223164.988    21223165.781
        44.000          40.300
   -489699.392 3   -381582.374 3  25126167.005    25126165.410    25126165.886
        23.400          19.900
  -1318675.414 4  -1027538.550 2  24601598.935    24601598.024    24601597.855
        27.900          17.000
 -19970336.465 7 -15561284.735 7  20701405.852    20701404.138    20701404.654
        46.800          42.700
  -8208042.406 5  -6395864.054 4  23261509.060    23261506.294    23261508.737
        32.100          27.900
 -17361028.615 7 -13528066.418 6  21178577.457    21178576.590    21178577.281
        42.200          38.000
 -10025400.893 6  -7811994.557 4  22997209.778    22997207.122    22997208.927
        36.300          29.200
 06  1  2  0 33  0.0000000  0  8G29G 6G27G 8G10G 2G26G21
 -18607095.833 7 -14499025.996 6  20776296.003    20776294.663    20776295.430
        43.600          41.300
 -18834068.677 7 -14675885.948 6  21224709.912    21224708.525    21224709.138
        44.100          40.500
   -485733.619 4   -378492.142 3  25126921.493    25126920.308    25126920.768
        24.600          21.100
  -1373206.195 4  -1070030.032 2  24591222.152    24591220.860    24591221.138
        27.100          17.000
 -19918260.852 7 -15520706.333 7  20711315.469    20711313.890    20711314.264
        46.700          42.800
  -8110962.407 5  -6320217.315 4  23279983.366    23279980.053    23279982.522
        31.100          27.600
 -17448886.490 7 -13596527.074 6  21161859.427    21161857.656    21161858.667
        42.500          37.700
 -10117018.496 6  -7883384.869 5  22979775.996    22979773.082    22979774.968
        36.500          30.200
 06  1  2  0 33 30.0000000  0  8G29G 6G27G 8G10G 2G26G21
 -18653310.796 7 -14535037.637 6  20767501.932    20767500.186    20767501.209
        43.400          41.400
 -18825381.487 7 -14669116.707 6  21226363.313    21226361.589    21226362.529
        44.100          40.600
   -481303.543 3   -375040.119 3  25127764.594    25127762.785    25127763.322
        22.100          20.500
  -1427328.754 4  -1112203.422 2  24580922.467    24580921.706    24580921.733
        24.200          17.000
 -19865870.851 7 -15479882.955 7  20721284.890    20721283.390    20721283.754
        46.500          42.800
  -8013690.394 5  -6244420.958 4  23298494.748    23298490.090    23298493.398
        31.600          27.600
 -17536244.507 7 -13664598.236 6  21145235.512    21145234.076    21145234.984
        42.700          38.000
 -10208537.191 5  -7954698.109 4  22962360.649    22962357.673    22962359.460
        35.600          29.700
 06  1  2  0 34  0.0000000  0  8G29G 6G27G 8G10G 2G26G21
 -18698967.356 7 -14570614.157 6  20758813.712    20758811.961    20758813.120
        43.700          41.200
 -18816117.989 7 -14661898.396 6  21228125.754    21228124.469    21228124.978
        43.700          40.500
   -476409.132 3   -371226.262 3  25128695.855    25128694.908    25128694.991
        23.000          21.600
  -1481040.798 4  -1154056.909 2  24570700.532    24570700.703    24570699.894
        24.200          17.000
 -19813168.197 7 -15438815.953 7  20731313.950    20731312.322    20731312.743
        46.600          42.700
  -7916227.420 5  -6168475.793 4  23317040.539    23317037.259    23317039.844
        32.000          29.200
 -17623099.739 7 -13732277.608 6  21128707.502    21128706.295    21128706.922
        42.600          38.900
 -10299955.855 6  -8025933.399 4  22944963.940    22944961.260    22944963.004
        36.300          29.900
 06  1  2  0 34 30.0000000  0  8G29G 6G27G 8G10G 2G26G21
 -18744063.873 7 -14605754.285 6  20750232.062    20750230.350    20750231.423
        43.600          41.400
 -18806278.214 7 -14654231.038 6  21229998.212    21229996.919    21229997.426
        43.800          40.600
   -471049.767 3   -367050.123 2  25129715.711    25129714.571    25129714.916
        21.600          17.000
  -1534339.657 4  -1195588.470 3  24560558.914    24560557.798    24560557.870
        24.900          19.300
 -19760154.556 7 -15397506.626 7  20741402.268    20741400.567    20741400.996
        46.500          42.800
  -7818574.558 4  -6092382.685 4  23335622.900    23335619.848    23335622.066
        29.700          28.800
 -17709449.339 7 -13799562.982 6  21112275.289    21112274.466    21112275.049
        42.700          38.500
 -10391273.027 6  -8097089.608 4  22927587.048    22927584.016    22927586.037
        37.000          29.900
 06  1  2  0 35  0.0000000  0  8G29G 6G27G 8G10G 2G26G21
 -18788599.324 7 -14640457.216 6  20741757.279    20741755.538    20741756.616
        43.600          41.600
 -18795862.638 7 -14646115.000 6  21231980.111    21231978.957    21231979.413
        43.600          40.700
   -465225.273 3   -362511.532 3  25130824.175    25130822.540    25130823.304
        23.000          19.300
  -1587222.934 4  -1236796.186 2  24550495.629    24550494.949    24550494.377
        24.200          17.800
 -19706831.337 7 -15355956.066 7  20751548.931    20751547.549    20751547.926
        46.600          42.700
  -7720732.793 5  -6016142.391 4  23354241.702    23354238.798    23354240.952
        31.000          28.400
 -17795290.453 7 -13866452.128 6  21095940.532    21095939.372    21095940.112
        43.000          38.800
 -10482486.801 6  -8168165.258 4  22910229.798    22910226.545    22910228.577
        36.500          29.900
 06  1  2  0 35 30.0000000  0  8G29G 6G27G 8G10G 2G26G21
 -18832572.516 7 -14674722.029 6  20733389.637    20733387.738    20733388.853
        43.500          41.900
 -18784871.678 7 -14637550.619 6  21234071.795    21234070.439    21234071.000
        43.600          40.500
   -458935.654 3   -357610.530 3  25132020.673    25132019.666    25132019.942
        23.400          21.100
  -1639687.806 4  -1277677.874 2  24540512.168    24540511.029    24540510.993
        24.200          16.100
 -19653200.378 7 -15314165.711 7  20761754.793    20761753.193    20761753.609
        46.600          42.500
  -7622703.329 5  -5939755.822 4  23372896.389    23372892.508    23372895.369
        30.800          25.900
 -17880620.272 7 -13932942.868 6  21079702.983    21079701.466    21079702.315
        42.500          38.600
 -10573595.882 6  -8239159.323 4  22892892.304    22892888.830    22892891.177
        36.500          28.100
 06  1  2  0 36  0.0000000  0  8G29G 6G27G 8G10G 2G26G21
 -18875982.048 7 -14708547.619 6  20725128.954    20725127.161    20725128.248
        43.500          41.900
 -18773305.465 7 -14628537.983 6  21236272.745    21236271.499    21236271.955
        43.700          40.500
   -452181.260 3   -352347.359 2  25133305.829    25133304.473    25133304.759
        19.300          17.000
  -1691732.177 4  -1318231.890 3  24530608.698    24530606.854    24530607.544
        26.800          18.600
 -19599263.141 7 -15272136.693 7  20772018.824    20772017.119    20772017.612
        46.700          42.400
  -7524487.258 5  -5863223.838 4  23391585.807    23391582.609    23391585.066
        30.600          26.800
 -17965435.929 7 -13999032.959 6  21063562.719    21063561.746    21063562.286
        42.800          39.300
 -10664598.645 6  -8310070.548 4  22875575.156    22875571.336    22875573.962
        37.300          27.400
 06  1  2  0 36 30.0000000  0  8G29G 6G27G 8G10G 2G26G21
 -18918826.865 7 -14741933.170 6  20716975.878    20716974.059    20716975.125
        43.600          41.900
 -18761164.342 7 -14619077.369 6  21238583.066    21238581.893    21238582.261
        43.600          40.300
   -444961.322 3   -346721.418 3  25134680.148    25134678.724    25134679.349
        23.800          20.500
  -1743353.468 4  -1358456.266 2  24520785.279    24520783.590    24520783.962
        27.600          17.000
 -19545021.326 7 -15229870.343 7  20782340.766    20782339.056    20782339.490
        46.700          42.300
  -7426085.784 4  -5786547.395 4  23410310.467    23410308.271    23410310.011
        29.000          28.100
 -18049734.705 7 -14064720.281 6  21047521.374    21047520.098    21047520.816
        43.000          38.900
 -10755493.358 6  -8380897.592 4  22858278.128    22858274.889    22858277.133
        36.500          29.000
 06  1  2  0 37  0.0000000  0  8G29G 6G27G 8G10G 2G26G21
 -18961105.985 7 -14774877.919 6  20708930.549    20708928.565    20708929.737
        43.700          41.800
 -18748448.798 7 -14609169.151 6  21241002.890    21241001.432    21241002.101
        43.600          40.300
   -437275.821 3   -340732.717 3  25136142.321    25136141.351    25136141.055
        21.600          20.500
  -1794549.238 4  -1398349.042 3  24511042.883    24511041.974    24511041.962
        26.500          21.100
 -19490476.387 7 -15187367.794 7  20792720.227    20792718.463    20792718.983
        46.800          42.400
  -7327499.909 5  -5709727.274 4  23429071.194    23429068.514    23429070.688
        30.200          28.100
 -18133513.839 7 -14130002.699 6  21031578.429    21031577.568    21031578.045
        43.000          39.300
 -10846279.234 6  -8451639.806 5  22841002.187    22840999.154    22841001.053
        36.400          30.200
 06  1  2  0 37 30.0000000  0  8G29G 6G27G 8G10G 2G26G21
 -19002818.208 7 -14807380.932 6  20700992.762    20700990.949    20700992.053
        43.900          41.800
 -18735159.126 7 -14598813.562 6  21243531.504    21243530.375    21243530.797
        43.300          40.300
   -429124.649 3   -334381.125 3  25137693.163    25137692.680    25137692.290
        19.900          19.900
  -1845316.526 4  -1437907.909 3  24501381.700    24501381.061    24501381.052
        24.900          22.600
 -19435629.835 7 -15144630.216 7  20803157.009    20803155.530    20803155.875
        46.800          42.200
  -7228730.669 5  -5632764.240 4  23447867.569    23447863.447    23447866.245
        31.100          27.400
 -18216770.669 7 -14194878.121 6  21015735.948    21015734.167    21015735.154
        43.500          39.100
 -10936954.388 6  -8522295.749 5  22823746.998    22823744.328    22823746.144
        37.700          31.500
 06  1  2  0 38  0.0000000  0  8G29G 6G27G 8G10G 2G26G21
 -19043962.438 7 -14839441.350 7  20693163.374    20693161.352    20693162.625
        44.000          42.000
 -18721295.518 7 -14588010.750 6  21246169.752    21246168.455    21246169.000
        43.400          40.300
   -420507.798 3   -327666.679 3  25139332.620    25139332.083    25139332.235
        21.100          18.600
  -1895653.112 4  -1477131.208 3  24491803.474    24491802.515    24491802.568
        27.900          23.400
 -19380483.513 7 -15101659.058 7  20813651.246    20813649.464    20813649.987
        46.600          42.200
  -7129779.190 4  -5555659.184 4  23466696.576    23466693.602    23466695.468
        28.800          27.900
 -18299502.216 7 -14259344.236 6  20999991.777    20999990.879    20999991.608
        43.600          39.300
 -11027517.127 6  -8592864.096 5  22806513.595    22806510.423    22806512.591
        37.200          30.600
 06  1  2  0 38 30.0000000  0  8G29G 6G27G 8G10G 2G26G21
 -19084537.818 7 -14871058.511 7  20685442.062    20685440.188    20685441.405
        43.900          42.000
 -18706858.646 7 -14576761.241 6  21248916.868    21248915.795    21248916.171
        43.300          40.400
   -411425.079 3   -320589.215 3  25141061.814    25141060.158    25141061.102
        23.800          18.600
  -1945556.594 4  -1516017.020 3  24482307.483    24482306.456    24482306.252
        26.800          22.600
 -19325039.070 7 -15058455.591 7  20824201.822    20824200.301    20824200.563
        46.500          42.100
  -7030646.681 4  -5478413.123 4  23485560.406    23485557.650    23485559.764
        29.500          27.600
 -18381705.936 7 -14323399.058 6  20984349.384    20984347.983    20984348.835
        43.600          39.300
 -11117965.943 6  -8663343.679 5  22789302.101    22789298.564    22789300.792
        37.200          30.800
 06  1  2  0 39  0.0000000  0  8G29G 6G27G 8G10G 2G26G21
 -19124542.880 7 -14902231.270 7  20677829.220    20677827.557    20677828.563
        43.900          42.200
 -18691848.940 7 -14565065.366 6  21251773.391    21251772.062    21251772.559
        43.400          40.300
   -401876.657 3   -313148.853 3  25142878.430    25142877.613    25142877.495
        21.600          21.100
  -1995024.871 4  -1554563.701 3  24472893.330    24472892.453    24472892.461
        25.900          21.100
 -19269298.163 7 -15015021.121 7  20834808.926    20834807.311    20834807.688
        46.500          42.000
  -6931334.363 4  -5401026.921 4  23504460.056    23504456.392    23504458.977
        29.000          26.800
 -18463379.292 7 -14387040.596 6  20968807.176    20968806.007    20968806.795
        43.600          39.300
 -11208299.171 6  -8733733.198 5  22772112.146    22772108.813    22772110.915
        37.100          30.400
 06  1  2  0 39 30.0000000  0  8G29G 6G27G 8G10G 2G26G21
 -19163977.106 7 -14932959.222 7  20670325.233    20670323.400    20670324.505
        43.900          42.200
 -18676266.853 7 -14552923.479 6  21254738.634    21254737.144    21254737.859
        43.400          40.300
   -391862.309 4   -305345.473 3  25144784.273    25144783.049    25144783.221
        24.200          18.600
  -2044055.363 4  -1592769.235 3  24463563.718    24463562.124    24463562.463
        25.600          18.600
 -19213262.081 7 -14971356.642 6  20845472.277    20845470.602    20845471.136
        46.400          41.800
  -6831843.164 5  -5323501.328 4  23523392.660    23523388.944    23523391.853
        31.300          27.100
 -18544519.290 7 -14450266.551 6  20953366.813    20953365.580    20953366.344
        43.700          39.400
 -11298514.542 6  -8804030.871 5  22754944.058    22754941.625    22754943.072
        36.900          30.800
 06  1  2  0 40  0.0000000  0  8G29G 6G27G 8G10G 2G26G21
 -19202839.031 7 -14963241.222 7  20662930.091    20662928.142    20662929.444
        44.300          42.100
 -18660112.760 7 -14540335.873 6  21257812.410    21257810.932    21257811.740
        43.300          39.700
   -381382.330 3   -297179.246 2  25146779.198    25146776.781    25146778.094
        22.100          13.900
  -2092645.821 4  -1630631.924 2  24454316.106    24454314.943    24454314.938
        25.300          17.000
 -19156932.474 7 -14927463.440 6  20856191.341    20856189.789    20856190.212
        46.400          41.900
  -6732174.360 4  -5245837.352 4  23542358.283    23542355.295    23542357.424
        29.900          27.400
 -18625123.305 7 -14513074.846 6  20938028.638    20938027.059    20938027.899
        43.500          39.300
 -11388612.280 6  -8874236.875 5  22737799.098    22737796.484    22737798.130
        36.900          30.800
 06  1  2  0 40 30.0000000  0  8G29G 6G27G 8G10G 2G26G21
 -19241127.875 7 -14993076.673 7  20655643.945    20655641.977    20655643.280
        44.300          42.100
 -18643387.437 7 -14527303.149 6  21260995.287    21260993.874    21260994.525
        43.300          40.000
   -370436.542 3   -288650.047 3  25148861.244    25148860.550    25148859.873
        18.600          19.300
  -2140794.088 4  -1668150.055 2  24445153.923    24445152.957    24445153.205
        24.900          17.000
 -19100311.127 7 -14883342.909 6  20866966.000    20866964.524    20866964.792
        46.500          41.900
  -6632328.842 5  -5168035.661 4  23561357.716    23561354.764    23561357.505
        30.200          24.200
 -18705188.675 7 -14575463.421 6  20922792.420    20922791.080    20922791.904
        43.700          39.700
 -11478589.853 6  -8944349.260 5  22720677.243    22720674.173    22720676.189
        37.600          30.200
 06  1  2  0 41  0.0000000  0  8G29G 6G27G 8G10G 2G26G21
 -19278842.704 7 -15022464.837 7  20648467.187    20648464.995    20648466.402
        44.100          42.100
 -18626091.156 7 -14513825.529 6  21264286.608    21264285.325    21264285.750
        43.100          39.900
   -359024.832 3   -279757.819 2  25151032.916    25151031.813    25151032.017
        19.900          17.800
  -2188497.479 4  -1705321.491 3  24436077.347    24436075.545    24436075.642
        26.200          19.300
 -19043399.431 7 -14838996.131 6  20877796.051    20877794.376    20877794.796
        46.500          41.800
  -6532307.773 4  -5090097.197 4  23580390.786    23580388.525    23580390.635
        28.400          25.900
 -18784712.916 7 -14637430.335 6  20907659.632    20907658.026    20907659.081
        44.000          39.300
 -11568445.706 6  -9014366.790 4  22703577.762    22703575.061    22703576.976
        37.800          29.500
 06  1  2  0 41 30.0000000  0  8G29G 6G27G 8G10G 2G26G21
 -19315982.580 7 -15051404.981 7  20641399.623    20641397.662    20641398.931
        44.200          42.500
 -18608224.787 7 -14499903.679 6  21267686.129    21267685.051    21267685.507
        42.900          40.000
   -347147.659 3   -270502.857 3  25153292.947    25153292.318    25153291.848
        19.900          19.300
  -2235753.789 4  -1742144.561 3  24427084.086    24427083.061    24427083.245
        24.900          18.600
 -18986198.955 7 -14794424.330 6  20888681.150    20888679.218    20888679.963
        46.700          41.700
  -6432112.678 4  -5012023.103 4  23599457.841    23599455.349    23599457.479
        29.700          27.400
 -18863693.356 7 -14698973.506 6  20892630.094    20892628.707    20892629.502
        44.000          39.800
 -11658178.135 6  -9084288.153 4  22686503.066    22686499.604    22686502.034
        38.400          29.900
 06  1  2  0 42  0.0000000  0  8G29G 6G27G 8G10G 2G26G21
 -19352546.571 7 -15079896.388 7  20634441.671    20634439.757    20634440.943
        44.100          42.500
 -18589788.412 7 -14485537.676 6  21271194.948    21271193.429    21271194.150
        43.400          40.100
   -334804.800 4   -260885.056 3  25155642.103    25155640.645    25155641.302
        24.600          19.300
  -2282560.531 4  -1778617.313 3  24418176.733    24418176.400    24418176.039
        24.900          21.600
 -18928711.403 7 -14749628.830 6  20899620.539    20899618.791    20899619.423
        46.700          41.600
  -6331744.422 4  -4933814.119 4  23618556.642    23618554.771    23618556.607
        27.600          27.400
 -18942127.228 7 -14760090.779 6  20877704.839    20877703.121    20877704.187
        44.100          39.700
 -11747785.411 6  -9154112.007 4  22669450.879    22669447.724    22669449.937
        38.000          29.900
 06  1  2  0 42 30.0000000  0  8G29G 6G27G 8G10G 2G26G21
 -19388533.919 7 -15107938.454 7  20627593.391    20627591.677    20627592.726
        44.000          42.600
 -18570783.124 7 -14470728.361 6  21274811.457    21274809.973    21274810.652
        43.200          39.800
   -321996.472 3   -250904.484 2  25158079.911    25158077.755    25158078.728
        22.100          13.900
  -2328915.194 4  -1814737.818 2  24409356.015    24409354.365    24409355.022
        24.900          17.800
 -18870938.127 7 -14704610.691 6  20910614.611    20910612.790    20910613.386
        46.600          41.700
  -6231204.133 4  -4855471.085 4  23637689.068    23637686.959    23637688.767
        27.600          26.800
 -19020012.146 7 -14820780.301 6  20862883.476    20862882.082    20862882.963
        43.900          39.800
 -11837265.952 6  -9223837.085 5  22652422.948    22652420.790    22652422.095
        37.500          31.600
 06  1  2  0 43  0.0000000  0  8G29G 6G27G 8G10G 2G26G21
 -19423943.712 7 -15135530.485 7  20620855.045    20620853.252    20620854.445
        44.000          42.700
 -18551209.491 7 -14455476.176 6  21278536.009    21278535.095    21278535.289
        42.900          40.300
   -308722.786 3   -240561.355 2  25160605.355    25160603.735    25160604.388
        22.100          16.100
  -2374815.716 4  -1850504.421 3  24400621.514    24400619.752    24400620.646
        27.100          19.300
 -18812880.988 7 -14659371.361 6  20921662.459    20921660.558    20921661.321
        46.500          41.800
  -6130492.790 4  -4776994.718 3  23656853.387    23656851.420    23656853.705
        29.000          23.800
 -19097345.521 7 -14881040.041 6  20848167.486    20848165.985    20848166.845
        43.900          39.900
 -11926618.293 6  -9293462.257 5  22635420.549    22635417.185    22635419.304
        38.700          31.500
 06  1  2  0 43 30.0000000  0  8G29G 6G27G 8G10G 2G26G21
 -19458775.046 7 -15162671.770 7  20614227.105    20614225.057    20614226.301
        44.000          42.500
 -18531067.716 7 -14439781.284 6  21282368.888    21282367.758    21282368.100
        42.900          40.200
   -294983.790 3   -229855.633 3  25163219.787    25163218.455    25163218.759
        23.400          19.900
  -2420260.124 4  -1885915.642 3  24391973.595    24391972.875    24391972.650
        25.900          21.100
 -18754541.362 7 -14613911.911 6  20932764.144    20932762.226    20932762.915
        46.600          41.500
  -6029611.822 5  -4698386.189 4  23676051.268    23676048.791    23676050.679
        30.200          25.600
 -19174124.577 7 -14940867.838 6  20833556.621    20833555.357    20833556.219
        44.300          40.000
 -12015841.024 6  -9362986.446 5  22618441.972    22618438.658    22618440.855
        39.100          31.800
 06  1  2  0 44  0.0000000  0  8G29G 6G27G 8G10G 2G26G21
 -19493027.005 7 -15189361.594 7  20607708.984    20607707.117    20607708.374
        44.000          42.600
 -18510358.994 7 -14423644.616 6  21286309.676    21286308.278    21286308.856
        43.000          40.000
   -280779.679 3   -218787.493 3  25165922.631    25165921.524    25165921.645
        22.600          18.600
  -2465245.870 4  -1920969.438 3  24383412.806    24383412.381    24383412.052
        26.500          22.100
 -18695920.803 7 -14568233.549 6  20943919.201    20943917.413    20943917.991
        46.400          41.400
  -5928562.343 4  -4619646.353 4  23695280.013    23695278.105    23695279.688
        28.400          27.100
 -19250347.143 7 -15000262.017 6  20819052.242    20819050.675    20819051.723
        44.600          40.200
 -12104932.202 6  -9432408.131 5  22601488.318    22601485.159    22601487.226
        38.800          31.800
 06  1  2  0 44 30.0000000  0  8G29G 6G27G 8G10G 2G26G21
 -19526699.073 7 -15215599.555 7  20601301.485    20601299.544    20601300.806
        44.200          42.700
 -18489083.738 7 -14407066.493 6  21290358.473    21290356.848    21290357.659
        43.100          39.900
   -266110.551 4   -207356.990 3  25168714.285    25168712.960    25168713.337
        26.800          19.300
  -2509771.362 4  -1955664.611 3  24374940.421    24374939.003    24374939.682
        28.100          20.500
 -18637021.201 7 -14522337.754 6  20955127.345    20955125.546    20955126.152
        46.300          41.400
  -5827345.375 4  -4540776.074 4  23714540.843    23714538.585    23714540.606
        27.900          24.600
 -19326010.556 7 -15059220.488 6  20804653.813    20804652.377    20804653.349
        44.500          40.400
 -12193890.196 6  -9501726.026 5  22584560.162    22584557.055    22584559.144
        39.300          31.800
 06  1  2  0 45  0.0000000  0  8G29G 6G27G 8G10G 2G26G21
 -19559790.335 7 -15241384.939 7  20595004.392    20595002.388    20595003.683
        44.300          42.700
 -18467242.920 7 -14390047.672 6  21294514.420    21294513.255    21294513.637
        43.100          39.800
   -250976.776 4   -195564.437 2  25171594.460    25171592.417    25171593.346
        24.200          16.100
  -2553833.285 4  -1989998.540 3  24366555.292    24366555.099    24366554.498
        26.500          21.100
 -18577843.881 7 -14476225.553 6  20966388.558    20966386.746    20966387.382
        46.300          41.200
  -5725962.294 4  -4461776.244 4  23733834.793    23733831.357    23733833.742
        28.400          24.200
 -19401112.256 7 -15117741.256 6  20790362.428    20790361.025    20790361.938
        44.400          40.600
 -12282713.323 6  -9570938.839 5  22567657.544    22567654.320    22567656.593
        38.900          31.500
 06  1  2  0 45 30.0000000  0  8G29G 6G27G 8G10G 2G26G21
 -19592300.084 7 -15266717.198 7  20588818.029    20588815.977    20588817.297
        44.300          42.700
 -18444837.067 7 -14372588.567 6  21298778.063    21298776.754    21298777.282
        43.100          39.600
   -235378.380 3   -183409.827 2  25174561.899    25174561.204    25174561.188
        23.000          17.000
  -2597429.642 4  -2023969.697 3  24358259.409    24358258.136    24358258.299
        26.500          18.600
 -18518390.387 7 -14429898.155 6  20977702.039    20977700.270    20977700.858
        46.100          40.900
  -5624413.840 4  -4382647.631 3  23753160.175    23753155.014    23753158.433
        28.400          23.000
 -19475649.780 7 -15175822.407 6  20776178.315    20776176.963    20776177.915
        44.500          40.700
 -12371400.061 6  -9640045.377 5  22550780.940    22550777.715    22550779.988
        38.400          31.000
 06  1  2  0 46  0.0000000  0  8G29G 6G27G 8G10G 2G26G21
 -19624227.593 7 -15291595.764 7  20582742.408    20582740.379    20582741.687
        44.300          42.700
 -18421867.108 7 -14354689.899 6  21303149.332    21303147.533    21303148.517
        43.000          39.400
   -219315.723 3   -170893.478 3  25177618.642    25177617.388    25177617.400
        23.000          19.300
  -2640558.933 4  -2057576.912 3  24350051.784    24350051.119    24350050.931
        25.300          19.900
 -18458662.322 7 -14383356.808 6  20989067.784    20989066.113    20989066.650
        45.900          40.600
  -5522701.590 4  -4303391.354 4  23772514.488    23772510.432    23772513.257
        28.800          25.600
 -19549620.769 7 -15233462.107 6  20762102.263    20762100.793    20762101.806
        44.800          40.700
 -12459948.684 6  -9709044.289 5  22533931.015    22533927.834    22533929.966
        39.200          32.300
 06  1  2  0 46 30.0000000  0  8G29G 6G27G 8G10G 2G26G21
 -19655572.198 7 -15316020.116 7  20576777.995    20576775.729    20576777.138
        44.500          42.800
 -18398333.875 7 -14336352.311 6  21307627.210    21307625.856    21307626.523
        43.000          39.500
   -202788.846 4   -158015.399 3  25180763.828    25180762.763    25180763.169
        24.900          20.500
  -2683218.450 4  -2090818.088 2  24341934.870    24341932.725    24341933.450
        25.600          17.800
 -18398661.189 7 -14336602.680 6  21000485.665    21000483.916    21000484.452
        45.800          40.600
  -5420826.545 4  -4224008.226 4  23791900.027    23791896.619    23791899.174
        29.000          24.600
 -19623022.750 7 -15290658.421 6  20748134.458    20748132.645    20748133.765
        44.600          40.900
 -12548357.442 6  -9777934.211 5  22517107.152    22517104.082    22517106.166
        39.100          32.400
 06  1  2  0 47  0.0000000  0  8G29G 6G27G 8G10G 2G26G21
 -19686333.279 7 -15339989.775 7  20570924.214    20570922.042    20570923.497
        44.400          42.800
 -18374237.962 7 -14317576.270 6  21312212.731    21312211.501    21312211.864
        43.000          39.600
   -185798.355 3   -144776.039 3  25183997.021    25183995.599    25183996.002
        21.100          18.600
  -2725406.631 4  -2123691.983 2  24333905.717    24333904.280    24333904.748
        24.200          17.000
 -18338388.639 7 -14289637.054 6  21011955.075    21011953.538    21011953.927
        45.800          40.800
  -5318789.984 4  -4144499.281 4  23811317.415    23811314.044    23811316.028
        27.900          26.200
 -19695853.222 7 -15347409.413 6  20734274.844    20734273.430    20734274.467
        44.800          40.800
 -12636624.656 6  -9846713.837 5  22500310.186    22500307.324    22500309.269
        38.900          32.100
 06  1  2  0 47 30.0000000  0  8G29G 6G27G 8G10G 2G26G21
 -19716509.885 7 -15363504.005 7  20565181.905    20565179.642    20565181.108
        44.500          43.100
 -18349580.284 7 -14298362.497 6  21316904.865    21316903.596    21316904.112
        42.800          39.400
   -168344.309 3   -131175.481 2  25187318.108    25187316.625    25187317.171
        22.600          17.000
  -2767120.909 4  -2156196.571 2  24325967.734    24325966.123    24325966.765
        25.300          17.000
 -18277846.056 7 -14242461.019 6  21023475.944    21023474.409    21023474.715
        45.800          40.800
  -5216592.949 4  -4064865.246 3  23830764.951    23830760.294    23830763.411
        27.600          21.600
 -19768109.939 7 -15403713.336 6  20720524.879    20720523.520    20720524.455
        44.800          40.900
 -12724748.919 6  -9915382.082 5  22483540.966    22483537.614    22483539.873
        39.200          31.500
 06  1  2  0 48  0.0000000  0  8G29G 6G27G 8G10G 2G26G21
 -19746101.818 7 -15386562.643 7  20559550.637    20559548.534    20559549.901
        44.400          43.100
 -18324361.778 7 -14278711.712 6  21321703.763    21321702.316    21321703.007
        42.800          39.400
   -150427.033 3   -117213.960 2  25190727.518    25190726.737    25190726.764
        21.100          17.800
  -2808359.069 4  -2188330.186 2  24318120.842    24318118.865    24318119.928
        25.900          17.000
 -18217034.899 7 -14195075.700 6  21035048.010    21035046.363    21035046.843
        45.900          40.800
  -5114236.705 4  -3985107.166 4  23850242.581    23850239.226    23850241.213
        27.100          24.600
 -19839790.385 7 -15459568.202 6  20706884.485    20706883.233    20706884.071
        44.900          41.000
 -12812728.303 6  -9983937.431 5  22466798.858    22466795.583    22466797.744
        38.700          31.600
 06  1  2  0 48 30.0000000  0  8G29G 6G27G 8G10G 2G26G21
 -19775108.290 7 -15409165.077 7  20554030.718    20554028.787    20554029.983
        44.300          43.100
 -18298583.210 7 -14258624.519 6  21326609.472    21326607.856    21326608.562
        42.700          39.300
   -132046.774 4   -102891.671 3  25194226.099    25194224.141    25194224.977
        24.600          18.600
  -2849119.486 4  -2220091.519 2  24310364.162    24310362.902    24310362.923
        24.600          16.100
 -18155956.868 7 -14147482.433 6  21046670.752    21046669.109    21046669.564
        45.900          40.600
  -5011722.230 4  -3905225.771 3  23869750.321    23869746.694    23869749.299
        25.600          23.800
 -19910892.259 7 -15514972.240 6  20693354.423    20693352.930    20693353.883
        44.800          40.900
 -12900561.183 6 -10052378.618 5  22450085.048    22450081.801    22450083.867
        39.200          32.600
 06  1  2  0 49  0.0000000  0  8G29G 6G27G 8G10G 2G26G21
 -19803528.707 7 -15431310.843 7  20548622.619    20548620.486    20548621.864
        44.200          43.400
 -18272245.629 7 -14238101.729 6  21331621.171    21331619.793    21331620.509
        42.500          39.100
   -113203.749 3    -88208.797 2  25197811.129    25197809.574    25197810.323
        21.100          13.900
  -2889399.454 4  -2251478.525 2  24302699.441    24302697.907    24302698.614
        27.900          17.000
 -18094613.471 7 -14099682.388 6  21058344.016    21058342.466    21058342.914
        45.900          40.700
  -4909050.923 4  -3825222.226 3  23889288.062    23889284.031    23889287.132
        27.100          21.600
 -19981413.309 7 -15569923.687 6  20679934.862    20679933.145    20679934.264
        44.900          40.900
 -12988245.804 6 -10120704.280 5  22433399.219    22433395.943    22433397.948
        39.400          32.800
 06  1  2  0 49 30.0000000  0  8G29G 6G27G 8G10G 2G26G21
 -19831362.486 7 -15452999.493 7  20543325.991    20543323.840    20543325.209
        44.100          43.200
 -18245349.827 7 -14217143.961 6  21336739.078    21336737.828    21336738.314
        42.600          38.900
    -93898.432 4    -73165.687 3  25201485.377    25201483.318    25201484.023
        24.600          18.600
  -2929197.080 4  -2282489.609 2  24295126.075    24295124.604    24295125.084
        28.100          17.800
 -18033006.266 7 -14051676.781 6  21070067.443    21070065.938    21070066.345
        46.300          40.700
  -4806223.965 4  -3745097.303 4  23908854.892    23908851.563    23908854.100
        26.800          24.200
 -20051351.113 7 -15624420.654 6  20666625.784    20666624.320    20666625.448
        45.200          40.900
 -13075780.628 6 -10188913.207 5  22416741.469    22416738.921    22416740.394
        39.100          33.900
 06  1  2  0 50  0.0000000  0  8G29G 6G27G 8G10G 2G26G21
 -19858609.255 7 -15474230.729 7  20538140.998    20538138.936    20538140.308
        44.000          43.400
 -18217896.807 7 -14195752.008 6  21341963.312    21341962.097    21341962.555
        42.500          39.500
    -74131.147 4    -57762.604 2  25205246.634    25205245.269    25205246.077
        24.200          17.800
  -2968510.034 4  -2313123.081 3  24287645.087    24287644.267    24287644.482
        27.900          21.100
 -17971136.881 7 -14003466.873 6  21081841.058    21081839.204    21081839.841
        46.200          40.500
  -4703242.540 4  -3664852.104 3  23928452.331    23928448.666    23928451.157
        25.900          22.600
 -20120703.495 7 -15678461.448 6  20653428.701    20653426.869    20653428.152
        45.100          40.800
 -13163163.447 6 -10257003.679 5  22400113.092    22400110.299    22400112.137
        39.800          33.600
 06  1  2  0 50 30.0000000  0  8G29G 6G27G 8G10G 2G26G21
 -19885268.365 7 -15495004.050 7  20533067.760    20533065.969    20533067.099
        44.000          43.500
 -18189887.824 7 -14173926.826 6  21347293.374    21347292.083    21347292.653
        42.700          39.100
    -53902.476 4    -42000.017 2  25209096.270    25209094.513    25209095.327
        24.900          17.000
  -3007336.696 4  -2343377.583 3  24280257.206    24280255.900    24280255.967
        28.100          20.500
 -17909006.501 7 -13955053.593 6  21093664.083    21093662.265    21093662.791
        46.100          40.500
  -4600107.522 4  -3584487.172 3  23948077.534    23948074.179    23948076.950
        27.400          23.000
 -20189468.136 7 -15732044.259 6  20640343.298    20640341.422    20640342.768
        45.300          40.700
 -13250392.759 6 -10324974.562 5  22383514.264    22383510.835    22383513.205
        40.200          32.400
 06  1  2  0 51  0.0000000  0  8G29G 6G27G 8G10G 2G26G21
 -19911339.377 7 -15515319.113 7  20528106.413    20528104.878    20528105.788
        43.900          43.600
 -18161323.231 7 -14151668.705 6  21352729.044    21352727.511    21352728.267
        42.900          38.900
    -33212.623 3    -25878.065 2  25213032.917    25213031.475    25213031.874
        21.600          17.000
  -3045674.979 4  -2373251.537 3  24272960.746    24272959.916    24272959.760
        27.100          22.100
 -17846616.834 7 -13906438.267 6  21105536.344    21105534.679    21105535.136
        46.000          40.200
  -4496820.513 3  -3504003.799 3  23967731.060    23967729.388    23967731.046
        23.800          23.400
 -20257642.712 7 -15785167.281 6  20627369.861    20627368.322    20627369.395
        45.200          41.100
 -13337467.045 6 -10392824.642 5  22366944.306    22366941.010    22366943.502
        41.100          32.400
 06  1  2  0 51 30.0000000  0  8G29G 6G27G 8G10G 2G26G21
 -19936821.838 7 -15535175.565 7  20523257.445    20523255.627    20523256.746
        44.000          43.500
 -18132204.489 7 -14128978.779 6  21358269.915    21358268.766    21358269.259
        42.500          38.900
    -12062.274 3     -9397.288 2  25217057.453    25217056.257    25217056.808
        21.100          17.800
  -3083523.113 4  -2402743.581 3  24265758.433    24265757.549    24265757.484
        27.400          19.300
 -17783969.578 7 -13857622.228 6  21117457.597    21117456.083    21117456.462
        45.800          40.500
  -4393382.665 4  -3423402.937 4  23987416.142    23987413.227    23987415.285
        26.800          25.300
 -20325225.164 7 -15837828.906 6  20614509.493    20614507.696    20614508.884
        45.100          41.100
 -13424384.208 6 -10460552.297 5  22350404.564    22350401.398    22350403.602
        41.000          32.700
 06  1  2  0 52  0.0000000  0  9G29G 6G27G 8G10G 2G26G21G15
 -19961715.380 7 -15554573.119 7  20518520.333    20518518.527    20518519.676
        43.800          43.500
 -18102532.669 7 -14105857.884 6  21363916.605    21363915.015    21363915.776
        42.700          39.100
      9548.219 3      7442.060 2  25221170.352    25221169.034    25221169.362
        23.400          17.000
  -3120878.965 4  -2431852.015 3  24258650.038    24258648.457    24258649.175
        25.900          19.900
 -17721066.177 7 -13808606.595 6  21129427.624    21129426.369    21129426.495
        45.700          40.600
  -4289795.168 5  -3342685.425 3  24007129.183    24007125.030    24007128.275
        30.100          23.800
 -20392213.202 7 -15890027.353 6  20601762.133    20601760.208    20601761.484
        45.200          41.100
 -13511142.844 6 -10528156.413 5  22333895.129    22333891.666    22333894.012
        40.400          33.000
   -222934.368 3   -173714.714 4  24537686.295    24537686.392    24537685.409
        20.500          24.900
 06  1  2  0 52 30.0000000  0  9G29G 6G27G 8G10G 2G26G21G15
 -19986019.562 7 -15573511.434 7  20513895.212    20513893.579    20513894.623
        43.800          43.500
 -18072308.930 7 -14082306.919 6  21369668.029    21369666.367    21369667.291
        42.700          39.000
     31618.606 3     24639.816 2  25225369.817    25225368.846    25225368.967
        21.100          17.000
  -3157740.672 4  -2460575.402 3  24251634.944    24251634.254    24251633.876
        24.600          19.900
 -17657908.007 7 -13759392.439 6  21141446.222    21141444.834    21141445.096
        45.600          40.100
  -4186059.121 4  -3261852.197 4  24026868.485    24026866.030    24026867.700
        27.100          25.300
 -20458604.527 7 -15941760.837 6  20589128.263    20589126.378    20589127.712
        45.500          41.200
 -13597740.979 6 -10595635.460 5  22317415.662    22317412.708    22317414.818
        40.600          33.100
   -327440.002 3   -255147.609 4  24517798.647    24517799.428    24517797.807
        19.300          25.300
 06  1  2  0 53  0.0000000  0  9G29G 6G27G 8G10G 2G26G21G15
 -20009733.928 7 -15591990.151 7  20509382.590    20509380.864    20509381.955
        44.000          43.500
 -18041533.923 7 -14058326.400 6  21375524.233    21375522.979    21375523.401
        42.500          39.100
     54148.134 3     42195.269 2  25229657.935    25229656.373    25229656.716
        21.600          17.800
  -3194106.227 4  -2488912.177 3  24244715.538    24244714.073    24244714.483
        24.900          21.600
 -17594496.591 7 -13709980.946 6  21153513.145    21153511.448    21153511.987
        45.400          40.100
  -4082175.756 4  -3180904.167 3  24046636.593    24046633.580    24046635.728
        24.600          21.100
 -20524397.220 7 -15993027.850 6  20576608.173    20576606.519    20576607.676
        45.600          41.400
 -13684176.771 6 -10662988.013 5  22300967.711    22300964.523    22300966.681
        40.800          33.500
   -431947.482 3   -336581.964 4  24497912.322    24497912.587    24497911.285
        23.400          26.500
 06  1  2  0 53 30.0000000  0  9G29G 6G27G 8G10G 2G26G21G15
 -20032858.268 7 -15610009.104 7  20504982.445    20504980.431    20504981.649
        44.300          43.600
 -18010209.137 7 -14033917.479 6  21381485.000    21381484.009    21381484.245
        42.600          39.300
     77136.829 3     60108.529 2  25234031.878    25234029.889    25234030.991
        20.500          13.900
  -3229973.425 4  -2516860.624 3  24237889.195    24237888.576    24237888.446
        24.200          20.500
 -17530833.532 7 -13660373.369 6  21165627.413    21165626.203    21165626.480
        45.600          40.000
  -3978146.180 4  -3099842.191 3  24066432.010    24066429.828    24066432.063
        24.900          21.100
 -20589589.027 7 -16043826.644 6  20564202.398    20564200.986    20564201.925
        45.400          41.700
 -13770448.684 6 -10730212.867 5  22284550.520    22284547.470    22284549.518
        41.100          33.400
   -536455.517 3   -418016.723 3  24478026.192    24478024.460    24478024.818
        23.400          23.800
 06  1  2  0 54  0.0000000  0  9G29G 6G27G 8G10G 2G26G21G15
 -20055392.055 7 -15627567.888 7  20500694.563    20500692.434    20500693.782
        44.300          43.700
 -17978335.553 7 -14009080.924 6  21387550.354    21387549.108    21387549.617
        42.100          38.900
    100583.600 3     78378.709 2  25238493.427    25238492.403    25238492.430
        22.600          17.800
  -3265340.437 3  -2544419.318 3  24231159.025    24231158.246    24231157.672
        23.800          21.100
 -17466920.300 7 -13610570.851 6  21177790.259    21177788.467    21177788.992
        45.300          39.800
  -3873971.701 4  -3018667.321 3  24086255.907    24086253.821    24086255.713
        26.200          19.900
 -20654177.750 7 -16094155.494 6  20551911.630    20551910.205    20551911.116
        45.400          41.800
 -13856554.890 6 -10797308.603 5  22268165.245    22268161.837    22268164.279
        41.100          33.800
   -640962.799 4   -499450.942 3  24458138.915    24458137.209    24458138.108
        24.900          21.600
 06  1  2  0 54 30.0000000  0  8G29G 6G 8G10G 2G26G21G15
 -20077335.099 7 -15644666.355 7  20496518.838    20496516.796    20496518.085
        44.400          43.800
 -17945914.386 7 -13983817.685 6  21393719.875    21393718.520    21393719.080
        42.200          38.600
  -3300205.900 3  -2571587.175 3  24224524.915    24224524.718    24224523.864
        23.800          23.800
 -17402758.278 7 -13560574.467 6  21189999.877    21189998.148    21189998.582
        45.300          39.800
  -3769653.655 4  -2937380.516 3  24106106.954    24106104.783    24106106.968
        26.800          21.600
 -20718161.439 7 -16144012.890 6  20539735.862    20539734.519    20539735.431
        45.400          41.900
 -13942493.438 6 -10864273.691 5  22251811.479    22251808.665    22251810.515
        40.800          34.700
   -745467.870 4   -580883.452 3  24438251.786    24438251.130    24438250.652
        24.600          21.100
 06  1  2  0 55  0.0000000  0  8G29G 6G 8G10G 2G26G21G15
 -20098687.070 7 -15661304.241 7  20492455.580    20492453.545    20492454.915
        44.500          43.800
 -17912946.794 7 -13958128.650 6  21399993.373    21399992.138    21399992.663
        42.400          38.600
  -3334567.517 3  -2598362.440 3  24217985.976    24217985.535    24217984.657
        21.600          23.000
 -17338348.956 7 -13510385.383 6  21202256.343    21202254.851    21202255.130
        45.300          39.700
  -3665193.111 4  -2855982.717 3  24125984.317    24125983.058    24125984.734
        24.900          22.100
 -20781537.976 7 -16193397.203 6  20527675.822    20527674.163    20527675.279
        45.400          41.700
 -14028262.447 6 -10931106.661 5  22235490.408    22235487.086    22235489.306
        41.300          34.000
   -849969.529 4   -662313.271 3  24418365.080    24418364.731    24418364.403
        24.600          21.600
 06  1  2  0 55 30.0000000  0  8G29G 6G 8G10G 2G26G21G15
 -20119447.937 7 -15677481.527 7  20488504.885    20488502.856    20488504.244
        44.400          43.600
 -17879433.958 6 -13932014.752 6  21406370.683    21406369.269    21406369.920
        41.900          38.100
  -3368423.170 4  -2624743.435 3  24211543.432    24211542.849    24211542.394
        25.300          22.600
 -17273693.772 7 -13460004.719 6  21214559.766    21214558.278    21214558.582
        45.300          39.700
  -3560591.187 3  -2774474.757 4  24145890.631    24145888.675    24145890.214
        23.800          25.300
 -20844305.218 7 -16242306.732 6  20515731.699    20515729.889    20515731.152
        45.600          41.600
 -14113860.524 6 -10997806.450 5  22219201.343    22219198.211    22219200.426
        41.400          33.400
   -954466.570 3   -743739.493 3  24398480.230    24398479.327    24398479.396
        23.000          23.000
 06  1  2  0 56  0.0000000  0  8G29G 6G 8G10G 2G26G21G15
 -20139617.218 7 -15693197.844 7  20484666.792    20484664.840    20484666.090
        44.400          43.700
 -17845376.964 6 -13905476.844 6  21412851.521    21412850.019    21412850.789
        41.900          38.200
  -3401771.439 4  -2650729.059 3  24205197.433    24205196.797    24205196.649
        24.600          23.000
 -17208794.451 7 -13409433.816 6  21226909.790    21226908.121    21226908.631
        45.300          39.700
  -3455849.296 4  -2692857.719 3  24165822.533    24165820.404    24165822.016
        27.400          23.400
 -20906461.338 7 -16290740.050 6  20503903.922    20503902.048    20503903.274
        45.600          41.800
 -14199285.581 6 -11064371.430 5  22202945.901    22202942.384    22202944.688
        41.400          33.500
  -1058957.492 3   -825160.945 3  24378596.684    24378596.126    24378595.896
        23.400          23.000
 06  1  2  0 56 30.0000000  0  8G29G 6G 8G10G 2G26G21G15
 -20159194.764 7 -15708453.059 7  20480941.446    20480939.356    20480940.670
        44.400          44.000
 -17810777.139 7 -13878515.941 6  21419435.712    21419434.437    21419434.994
        42.200          38.700
  -3434609.990 4  -2676317.511 3  24198949.093    24198947.682    24198947.855
        26.500          21.100
 -17143652.520 7 -13358673.872 6  21239305.901    21239304.451    21239304.685
        45.300          39.900
  -3350968.436 4  -2611132.418 3  24185780.899    24185778.680    24185780.662
        26.500          23.000
 -20968004.156 7 -16338695.475 6  20492192.347    20492190.783    20492191.955
        45.600          41.900
 -14284535.625 6 -11130800.017 5  22186723.193    22186720.031    22186722.142
        41.600          33.800
  -1163441.109 3   -906576.711 3  24358715.162    24358712.930    24358713.830
        23.400          21.600
 06  1  2  0 57  0.0000000  0  8G29G 6G 8G10G 2G26G21G15
 -20178180.454 7 -15723247.089 7  20477328.464    20477326.479    20477327.752
        44.400          43.800
 -17775635.926 6 -13851133.184 6  21426122.830    21426121.735    21426121.977
        41.900          38.600
  -3466937.520 4  -2701507.809 3  24192796.641    24192796.017    24192795.981
        24.200          21.100
 -17078269.292 7 -13307725.901 6  21251747.933    21251746.338    21251746.756
        45.200          39.500
  -3245950.153 4  -2529300.024 4  24205765.780    24205762.992    24205765.188
        24.600          24.600
 -21028931.768 7 -16386171.512 6  20480598.244    20480596.600    20480597.650
        45.500          41.900
 -14369609.147 6 -11197091.070 5  22170534.187    22170530.937    22170533.135
        41.500          34.400
  -1267916.029 3   -987985.725 2  24338832.609    24338831.590    24338831.348
        23.400          17.000
 06  1  2  0 57 30.0000000  0  8G29G 6G 8G10G 2G26G21G15
 -20196573.994 7 -15737579.713 7  20473828.263    20473826.252    20473827.558
        44.300          43.900
 -17739954.273 7 -13823329.308 6  21432912.984    21432911.434    21432912.156
        42.000          38.100
  -3498752.377 4  -2726298.571 3  24186743.924    24186741.840    24186742.661
        27.600          22.600
 -17012646.163 7 -13256590.994 6  21264235.365    21264233.926    21264234.246
        44.900          39.300
  -3140795.618 4  -2447361.443 3  24225776.245    24225772.517    24225775.331
        24.200          19.300
 -21089242.202 7 -16433166.634 7  20469121.387    20469119.930    20469120.955
        45.400          42.100
 -14454504.241 7 -11263243.076 5  22154379.121    22154376.132    22154378.131
        42.000          34.600
  -1372380.976 3  -1069386.919 3  24318952.926    24318953.114    24318951.969
        21.100          20.500
 06  1  2  0 58  0.0000000  0  8G29G 6G 8G10G 2G26G21G15
 -20214375.263 7 -15751450.817 7  20470440.845    20470438.756    20470440.082
        44.300          43.900
 -17703733.728 7 -13795105.507 6  21439805.642    21439803.836    21439804.830
        42.300          38.000
  -3530052.467 4  -2750688.236 3  24180786.840    24180784.993    24180785.201
        26.200          19.900
 -16946784.350 7 -13205270.099 6  21276768.756    21276766.927    21276767.503
        45.000          39.200
  -3035505.985 3  -2365317.604 3  24245812.631    24245808.654    24245811.335
        23.000          22.600
 -21148933.608 7 -16479679.398 7  20457762.472    20457761.095    20457762.119
        45.700          42.200
 -14539218.913 6 -11329254.492 5  22138258.750    22138255.437    22138257.496
        41.700          34.600
  -1476834.376 3  -1150779.132 3  24299076.848    24299075.979    24299075.732
        20.500          23.800
 06  1  2  0 58 30.0000000  0  8G29G 6G 8G10G 2G26G21G15
 -20231584.239 7 -15764860.397 7  20467165.912    20467164.014    20467165.261
        44.300          43.800
 -17666975.435 7 -13766462.686 6  21446800.544    21446798.845    21446799.661
        42.000          38.100
  -3560836.121 4  -2774675.469 3  24174928.569    24174927.747    24174927.844
        28.400          21.600
 -16880685.604 7 -13153764.583 6  21289346.911    21289345.296    21289345.759
        45.000          39.600
  -2930082.386 4  -2283169.373 3  24265873.093    24265870.133    24265872.411
        25.300          23.800
 -21208004.083 7 -16525708.324 7  20446521.719    20446520.174    20446521.330
        45.600          42.000
 -14623751.458 6 -11395123.996 5  22122172.357    22122169.158    22122171.295
        41.900          34.100
  -1581274.980 3  -1232161.332 3  24279201.832    24279201.553    24279201.087
        23.400          19.900
 06  1  2  0 59  0.0000000  0  8G29G 6G 8G10G 2G26G21G15
 -20248200.705 7 -15777808.286 7  20464004.017    20464002.047    20464003.309
        44.300          44.000
 -17629680.937 7 -13737402.050 6  21453897.173    21453895.489    21453896.515
        42.200          37.700
  -3591101.978 4  -2798259.230 3  24169169.179    24169168.055    24169168.439
        25.300          21.600
 -16814351.300 7 -13102075.515 6  21301969.842    21301968.391    21301968.667
        44.900          39.700
  -2824526.149 3  -2200917.817 3  24285959.366    24285957.114    24285958.803
        23.800          23.800
 -21266451.657 7 -16571251.873 7  20435399.591    20435397.922    20435399.058
        45.600          42.000
 -14708099.684 7 -11460849.878 5  22106121.668    22106118.496    22106120.589
        42.300          34.900
  -1685701.368 3  -1313532.551 2  24259330.567    24259329.400    24259329.716
        23.000          17.800
 06  1  2  0 59 30.0000000  0  8G29G 6G 8G10G 2G26G21G15
 -20264224.659 7 -15790294.471 7  20460954.886    20460952.726    20460954.055
        44.400          44.000
 -17591851.356 7 -13707924.449 6  21461096.080    21461094.421    21461095.308
        42.100          38.300
  -3620848.343 4  -2821438.203 3  24163508.714    24163507.606    24163508.078
        28.400          21.600
 -16747782.955 7 -13050204.070 6  21314637.573    21314635.819    21314636.285
        44.700          39.500
  -2718838.695 4  -2118564.032 3  24306071.344    24306069.293    24306071.021
        26.200          22.600
 -21324274.575 7 -16616308.679 7  20424396.339    20424394.673    20424395.830
        45.600          42.400
 -14792262.006 7 -11526430.894 5  22090105.863    22090102.832    22090104.820
        42.100          34.800
  -1790112.173 4  -1394891.601 2  24239462.568    24239460.333    24239461.483
        24.200          17.000
 06  1  2  1  0  0.0000000  0  8G29G 6G 8G10G 2G26G21G15
 -20279656.126 7 -15802318.982 7  20458018.224    20458016.213    20458017.555
        44.300          43.900
 -17553488.361 7 -13678031.216 6  21468396.338    21468394.915    21468395.539
        42.100          38.100
  -3650072.975 4  -2844210.630 3  24157947.981    24157945.707    24157947.036
        28.100          19.300
 -16680982.117 7 -12998151.466 6  21327349.154    21327347.592    21327347.955
        44.700          39.100
  -2613020.926 4  -2036108.583 2  24326207.833    24326204.593    24326207.071
        24.900          16.100
 -21381470.925 7 -16660877.249 7  20413512.189    20413510.695    20413511.720
        45.500          42.500
 -14876236.701 7 -11591865.710 5  22074125.924    22074123.092    22074124.986
        42.400          35.300
  -1894505.898 4  -1476237.373 3  24219596.733    24219595.697    24219595.590
        24.900          22.600
 06  1  2  1  0 30.0000000  0  8G29G 6G 8G10G 2G26G21G15
 -20294494.938 7 -15813881.686 7  20455194.556    20455192.488    20455193.865
        44.500          44.100
 -17514593.137 7 -13647723.253 6  21475797.841    21475796.197    21475797.124
        42.100          37.800
  -3678774.413 4  -2866575.372 3  24152485.717    24152484.285    24152484.976
        27.900          22.100
 -16613950.073 7 -12945918.697 6  21340104.962    21340103.241    21340103.773
        44.700          38.900
  -2507074.369 4  -1953552.837 3  24346368.951    24346365.474    24346368.220
        24.900          19.900
 -21438039.049 7 -16704956.293 7  20402747.710    20402746.092    20402747.169
        45.600          42.600
 -14960021.911 7 -11657152.879 5  22058182.203    22058179.152    22058181.160
        42.200          34.900
  -1998881.231 4  -1557568.741 4  24199735.080    24199733.983    24199734.104
        24.900          24.900
 06  1  2  1  1  0.0000000  0  8G29G 6G 8G10G 2G26G21G15
 -20308741.352 7 -15824982.779 7  20452483.373    20452481.443    20452482.745
        44.300          44.000
 -17475167.445 6 -13617001.939 6  21483300.118    21483298.617    21483299.319
        41.500          37.700
  -3706951.300 4  -2888531.374 3  24147124.041    24147122.459    24147122.987
        27.400          21.600
 -16546688.451 7 -12893507.048 6  21352904.237    21352902.921    21352903.089
        44.400          39.100
  -2401000.331 3  -1870897.748 3  24366555.324    24366551.259    24366554.022
        23.800          18.600
 -21493976.938 7 -16748544.240 7  20392103.005    20392101.492    20392102.487
        45.800          42.700
 -15043615.562 7 -11722290.776 5  22042275.134    22042271.646    22042273.909
        42.300          34.700
  -2103236.706 4  -1638884.660 4  24179877.358    24179875.663    24179876.286
        28.600          24.600
 06  1  2  1  1 30.0000000  0  8G29G 6G 8G10G 2G26G21G15
 -20322395.099 7 -15835622.057 7  20449885.160    20449883.207    20449884.485
        44.100          44.000
 -17435212.379 6 -13585868.134 6  21490903.413    21490901.945    21490902.522
        41.400          38.000
  -3734602.082 4  -2910077.415 3  24141862.660    24141860.525    24141861.529
        28.600          20.500
 -16479198.456 7 -12840917.449 6  21365747.172    21365745.700    21365746.045
        44.400          38.500
  -2294799.887 3  -1788144.160 3  24386763.211    24386761.183    24386762.251
        21.600          23.800
 -21549283.025 7 -16791639.873 7  20381578.746    20381576.994    20381578.106
        45.800          42.600
 -15127015.718 7 -11787277.904 5  22026404.690    22026400.956    22026403.463
        42.200          34.600
  -2207571.054 4  -1720184.140 3  24160022.703    24160021.040    24160021.548
        28.600          23.400
 06  1  2  1  2  0.0000000  0  8G29G 6G 8G10G 2G26G21G15
 -20335456.534 7 -15845799.789 7  20447399.707    20447397.717    20447398.987
        44.400          44.100
 -17394729.365 6 -13554322.936 6  21498606.763    21498605.586    21498606.079
        41.500          37.800
  -3761725.374 4  -2931212.454 3  24136700.485    24136698.847    24136699.618
        27.900          18.600
 -16411481.427 7 -12788150.929 6  21378633.136    21378631.782    21378632.047
        44.600          38.600
  -2188474.130 3  -1705293.007 4  24406996.736    24406994.188    24406995.933
        22.600          24.600
 -21603955.482 7 -16834241.775 7  20371174.915    20371173.180    20371174.348
        46.000          42.800
 -15210220.583 7 -11852112.855 5  22010571.044    22010567.828    22010569.983
        42.700          35.100
  -2311882.754 3  -1801465.988 3  24140172.035    24140171.339    24140170.934
        23.000          23.400
 06  1  2  1  2 30.0000000  0  8G29G 6G 8G10G 2G26G21G15
 -20347925.352 7 -15855515.745 7  20445026.728    20445024.927    20445026.061
        44.100          44.100
 -17353720.127 6 -13522367.687 6  21506410.800    21506409.470    21506410.041
        41.800          37.700
  -3788318.951 4  -2951934.706 3  24131640.913    24131639.212    24131639.742
        29.900          21.100
 -16343538.914 7 -12735208.709 6  21391562.533    21391560.791    21391561.327
        44.500          38.600
  -2082024.623 4  -1622345.375 3  24427254.351    24427250.636    24427253.392
        28.400          18.600
 -21657992.727 7 -16876348.701 7  20360891.980    20360890.177    20360891.350
        46.000          42.700
 -15293228.274 7 -11916794.165 5  21994775.124    21994772.147    21994774.223
        43.000          35.800
  -2416170.540 3  -1882729.141 4  24120326.746    24120326.204    24120325.641
        21.100          25.600
 06  1  2  1  3  0.0000000  0  8G29G 6G 8G10G 2G26G21G15
 -20359801.887 7 -15864770.183 7  20442766.862    20442764.835    20442766.052
        44.000          44.200
 -17312186.026 6 -13490003.457 6  21514314.735    21514313.266    21514313.936
        41.600          37.700
  -3814381.482 4  -2972243.180 3  24126680.989    24126679.060    24126679.808
        27.900          18.600
 -16275372.321 7 -12682091.875 6  21404534.399    21404532.419    21404533.182
        44.400          38.600
  -1975452.629 3  -1539302.253 2  24447533.822    24447530.156    24447532.805
        22.100          16.100
 -21711392.991 7 -16917959.279 7  20350729.951    20350728.477    20350729.449
        45.600          42.700
 -15376036.956 7 -11981320.396 5  21979017.205    21979013.936    21979016.126
        42.800          35.300
  -2520432.860 3  -1963972.484 4  24100486.591    24100485.450    24100485.468
        23.000          24.900
 06  1  2  1  3 30.0000000  0  8G29G 6G 8G10G 2G26G21G15
 -20371086.319 7 -15873563.240 7  20440619.485    20440617.584    20440618.766
        44.300          44.300
 -17270128.645 6 -13457231.482 6  21522317.586    21522316.546    21522316.890
        41.200          38.000
  -3839910.747 4  -2992136.074 3  24121822.712    24121821.189    24121821.915
        29.200          22.100
 -16206983.059 7 -12628801.538 6  21417548.141    21417546.592    21417546.919
        44.200          38.500
  -1868759.164 3  -1456164.531 2  24467836.513    24467833.546    24467835.631
        22.600          17.000
 -21764154.650 7 -16959072.246 7  20340689.778    20340688.199    20340689.214
        45.600          42.700
 -15458644.524 7 -12045689.924 5  21963297.245    21963294.267    21963296.504
        43.200          35.700
  -2624667.994 3  -2045194.627 3  24080652.147    24080649.673    24080650.987
        22.100          23.400
 06  1  2  1  4  0.0000000  0  8G29G 6G 8G10G 2G26G21G15
 -20381778.748 7 -15881894.995 7  20438585.028    20438582.964    20438584.189
        44.600          44.300
 -17227549.352 6 -13424052.820 6  21530420.449    21530419.050    21530419.629
        41.400          37.800
  -3864906.510 4  -3011613.290 3  24117066.013    24117064.885    24117065.133
        28.400          22.600
 -16138372.709 7 -12575338.930 6  21430604.082    21430602.648    21430602.877
        44.200          38.600
  -1761945.832 3  -1372933.417 3  24488161.428    24488159.351    24488161.164
        19.300          18.600
 -21816276.117 7 -16999686.363 7  20330771.190    20330769.836    20330770.776
        45.800          43.000
 -15541049.144 7 -12109901.313 5  21947616.526    21947613.224    21947615.456
        43.100          35.500
  -2728874.487 4  -2126394.461 3  24060822.366    24060819.981    24060821.345
        24.600          23.000
 06  1  2  1  4 30.0000000  0  8G29G 6G 8G10G 2G26G21G15
 -20391879.211 7 -15889765.478 7  20436662.773    20436660.842    20436662.116
        44.600          44.400
 -17184450.006 6 -13390468.918 6  21538621.971    21538620.439    21538621.299
        41.400          37.500
  -3889367.054 4  -3030673.439 3  24112410.878    24112410.072    24112409.645
        25.300          22.600
 -16069542.667 7 -12521705.131 6  21443702.097    21443700.541    21443700.908
        44.200          38.300
  -1655013.645 3  -1289609.659 2  24508511.093    24508507.653    24508510.002
        19.300          17.800
 -21867755.783 7 -17039800.376 7  20320975.091    20320973.568    20320974.610
        45.700          42.800
 -15623248.898 7 -12173953.066 5  21931974.229    21931971.204    21931973.310
        43.000          35.600
  -2833051.073 4  -2207571.003 3  24040998.025    24040996.058    24040996.825
        24.900          22.100
 06  1  2  1  5  0.0000000  0  8G29G 6G 8G10G 2G26G21G15
 -20401388.105 7 -15897175.004 7  20434853.336    20434851.239    20434852.640
        44.800          44.300
 -17140832.254 6 -13356481.069 6  21546922.081    21546920.690    21546921.229
        40.700          37.600
  -3913290.769 4  -3049315.265 3  24107859.099    24107857.596    24107857.933
        27.900          22.600
 -16000494.218 7 -12467901.145 6  21456841.979    21456840.062    21456840.605
        44.200          38.300
  -1547963.851 4  -1206194.256 3  24528882.488    24528878.713    24528881.443
        26.500          18.600
 -21918592.001 7 -17079412.996 7  20311301.298    20311299.699    20311300.744
        45.800          43.000
 -15705241.756 7 -12237843.591 6  21916371.361    21916368.532    21916370.287
        42.600          36.300
  -2937196.306 3  -2288723.116 3  24021179.812    24021177.927    24021178.355
        23.800          21.600
 06  1  2  1  5 30.0000000  0  8G29G 6G 8G10G 2G26G21G15
 -20410305.576 7 -15904123.669 7  20433156.501    20433154.259    20433155.759
        44.600          44.200
 -17096697.418 6 -13322090.298 6  21555320.703    21555319.357    21555319.912
        41.000          37.700
  -3936675.807 4  -3067537.341 3  24103408.263    24103407.474    24103407.322
        25.900          21.100
 -15931228.885 7 -12413928.162 6  21470022.471    21470020.778    21470021.327
        44.300          38.000
  -1440798.011 4  -1122688.336 3  24549275.367    24549271.282    24549273.943
        25.300          18.600
 -21968783.235 7 -17118523.035 7  20301750.051    20301748.517    20301749.581
        45.600          42.900
 -15787026.035 7 -12301571.586 6  21900808.531    21900805.462    21900807.503
        43.300          36.300
  -3041308.494 4  -2369849.469 3  24001367.275    24001365.465    24001366.258
        25.300          21.100
 06  1  2  1  6  0.0000000  0  8G29G 6G 8G10G 2G26G21G15
 -20418631.854 7 -15910611.675 7  20431572.075    20431569.854    20431571.316
        44.800          44.400
 -17052047.229 6 -13287297.949 6  21563817.206    21563816.016    21563816.479
        41.400          37.400
  -3959521.078 4  -3085338.850 3  24099061.639    24099060.255    24099060.601
        26.800          21.100
 -15861747.906 7 -12359787.138 6  21483243.963    21483242.570    21483242.915
        44.200          37.900
  -1333516.936 3  -1039092.759 3  24569690.933    24569687.002    24569689.090
        21.100          22.600
 -22018328.098 7 -17157129.405 7  20292322.183    20292320.418    20292321.593
        45.900          42.900
 -15868599.611 7 -12365135.407 5  21885285.537    21885282.370    21885284.546
        43.200          35.900
  -3145386.294 4  -2450949.029 3  23981562.039    23981560.661    23981560.795
        27.600          21.600
 06  1  2  1  6 30.0000000  0  8G29G 6G 8G10G 2G26G21G15
 -20426367.169 7 -15916639.180 7  20430100.155    20430097.926    20430099.402
        44.700          44.400
 -17006883.161 6 -13252105.175 6  21572411.685    21572410.148    21572411.034
        41.300          36.700
  -3981825.233 4  -3102718.711 3  24094817.384    24094815.810    24094816.439
        28.400          21.600
 -15792052.547 7 -12305479.068 6  21496507.200    21496505.092    21496505.921
        44.100          37.700
  -1226122.173 3   -955408.547 3  24590126.615    24590123.624    24590125.082
        21.100          20.500
 -22067225.029 7 -17195230.897 7  20283017.189    20283015.643    20283016.754
        45.700          43.000
 -15949960.350 7 -12428533.379 6  21869803.218    21869800.023    21869802.205
        43.400          36.100
  -3249428.079 4  -2532020.534 4  23961763.503    23961762.393    23961762.252
        28.400          24.200
 06  1  2  1  7  0.0000000  0  8G29G 6G 8G10G 2G26G21G15
 -20433511.751 7 -15922206.385 7  20428740.282    20428738.404    20428739.709
        44.700          44.500
 -16961207.141 6 -13216513.480 6  21581103.647    21581102.056    21581102.915
        41.100          36.800
  -4003587.045 4  -3119675.983 3  24090676.087    24090674.814    24090674.926
        26.800          23.000
 -15722144.223 7 -12251005.051 6  21509810.115    21509808.199    21509808.919
        43.900          37.700
  -1118614.951 3   -871636.744 3  24610585.320    24610581.317    24610583.737
        19.900          22.600
 -22115472.570 7 -17232826.375 7  20273836.174    20273834.530    20273835.663
        45.900          43.100
 -16031106.513 7 -12491764.147 6  21854361.490    21854358.309    21854360.535
        43.300          36.100
  -3353432.395 4  -2613062.871 3  23941971.323    23941970.693    23941970.710
        28.400          22.600
 06  1  2  1  7 30.0000000  0  7G29G 6G 8G10G26G21G15
 -20440066.043 7 -15927313.613 7  20427493.367    20427491.136    20427492.517
        44.400          44.500
 -16915020.629 6 -13180524.000 6  21589892.755    21589891.263    21589891.889
        41.100          36.700
  -4024804.891 4  -3136209.349 3  24086638.802    24086637.321    24086637.607
        27.900          23.400
 -15652024.174 7 -12196366.055 6  21523153.524    21523151.627    21523152.267
        44.000          37.700
 -22163069.284 7 -17269914.712 7  20264778.971    20264777.205    20264778.418
        46.400          43.500
 -16112036.135 7 -12554826.181 6  21838961.174    21838957.981    21838960.111
        43.500          36.800
  -3457397.730 4  -2694074.784 4  23922189.419    23922187.195    23922187.787
        26.200          26.800
 06  1  2  1  8  0.0000000  0  7G29G 6G 8G10G26G21G15
 -20446030.179 7 -15931960.990 7  20426358.248    20426356.164    20426357.486
        44.300          44.500
 -16868325.366 6 -13144138.091 6  21598778.473    21598777.167    21598777.751
        41.100          37.200
  -4045477.556 4  -3152317.869 3  24082704.858    24082703.362    24082703.821
        28.600          22.600
 -15581693.986 7 -12141563.315 6  21536536.445    21536535.017    21536535.437
        43.700          37.700
 -22210013.715 7 -17306494.775 7  20255845.826    20255844.092    20255845.218
        46.200          43.800
 -16192747.463 7 -12617718.120 6  21823602.205    21823599.160    21823601.343
        44.100          36.400
  -3561322.377 3  -2775054.986 4  23902412.066    23902410.806    23902410.784
        23.000          27.100
 06  1  2  1  8 30.0000000  0  8G29G 6G18G 8G10G26G21G15
 -20451404.804 7 -15936148.996 7  20425335.537    20425333.365    20425334.797
        44.400          44.700
 -16821123.251 6 -13107357.237 6  21607760.879    21607759.346    21607760.151
        41.200          37.100
   -164892.002 2                  23660718.605                    23660716.666
        15.100
  -4065603.711 4  -3168000.589 3  24078873.883    24078873.552    24078873.395
        28.600          23.400
 -15511155.054 7 -12086597.918 6  21549959.846    21549958.327    21549958.661
        43.700          37.900
 -22256304.510 7 -17342565.506 7  20247036.771    20247035.114    20247036.270
        46.100          43.600
 -16273238.251 7 -12680438.205 6  21808285.254    21808282.068    21808284.368
        44.000          36.200
  -3665205.030 4  -2856002.461 4  23882642.789    23882642.705    23882641.998
        24.200          27.600
 06  1  2  1  9  0.0000000  0  8G29G 6G18G 8G10G26G21G15
 -20456190.116 7 -15939877.808 7  20424424.965    20424422.825    20424424.145
        44.400          44.600
 -16773416.008 6 -13070182.766 6  21616839.442    21616837.906    21616838.716
        41.500          37.200
   -249979.334 2   -194788.587 9  23644527.116    23644525.233    23644525.702
        12.600          -3.000
  -4085182.288 4  -3183256.609 3  24075149.800    24075147.765    24075148.486
        27.400          22.600
 -15440408.537 7 -12031470.760 6  21563422.637    21563420.696    21563421.417
        43.800          37.500
 -22301940.428 7 -17378125.950 7  20238352.395    20238350.887    20238351.932
        46.100          43.600
 -16353506.592 7 -12742984.958 6  21793010.824    21793007.637    21793009.793
        43.800          36.800
  -3769044.120 3  -2936915.993 4  23862882.835    23862882.972    23862881.671
        23.800          28.400
 06  1  2  1  9 30.0000000  0  8G29G 6G18G 8G10G26G21G15
 -20460386.674 7 -15943147.841 7  20423626.199    20423624.237    20423625.544
        44.200          44.700
 -16725205.300 6 -13032615.994 6  21626013.384    21626012.274    21626012.713
        41.100          37.700
   -334928.825 2   -260982.976 9  23628362.057    23628360.058    23628361.048
        17.000          -3.000
  -4104211.833 4  -3198084.821 3  24071527.533    24071526.521    24071526.614
        27.900          21.600
 -15369455.779 7 -11976182.897 6  21576923.952    21576922.377    21576922.971
        44.000          37.300
 -22346920.001 7 -17413174.961 7  20229793.070    20229791.555    20229792.550
        46.100          43.400
 -16433550.426 7 -12805356.765 6  21777779.101    21777776.034    21777778.007
        44.000          37.200
  -3872837.973 4  -3017794.272 4  23843132.180    23843131.191    23843131.078
        25.600          28.400
 06  1  2  1 10  0.0000000  0  8G29G 6G18G 8G10G26G21G15
 -20463994.738 7 -15945959.323 7  20422939.693    20422937.556    20422938.925
        44.300          44.500
 -16676493.091 6 -12994658.448 6  21635283.235    21635281.941    21635282.367
        41.000          37.600
   -419739.750 3   -327069.400 1  23612222.398    23612220.664    23612221.790
        18.600           6.500
  -4122691.178 4  -3212484.307 3  24068011.060    24068009.786    24068009.760
        28.100          22.100
 -15298298.254 7 -11920735.474 6  21590464.898    21590463.710    21590463.929
        43.700          37.700
 -22391241.883 7 -17447711.481 7  20221359.112    20221357.309    20221358.552
        46.300          43.600
 -16513367.723 7 -12867552.048 6  21762590.408    21762586.998    21762589.460
        44.400          36.700
  -3976584.984 4  -3098636.067 4  23823390.360    23823388.955    23823389.230
        28.100          28.800
 06  1  2  1 10 30.0000000  0  8G29G 6G18G 8G10G26G21G15
 -20467014.731 7 -15948312.551 7  20422364.856    20422362.760    20422364.187
        44.300          44.700
 -16627280.908 6 -12956311.302 6  21644647.694    21644646.485    21644647.010
        40.600          37.100
   -504411.490 3   -393047.335 2  23596109.813    23596108.247    23596108.942
        21.100          15.100
  -4140619.611 4  -3226454.501 3  24064599.159    24064597.900    24064598.253
        28.400          21.100
 -15226937.347 7 -11865129.576 6  21604044.691    21604043.128    21604043.529
        43.400          37.200
 -22434905.004 7 -17481734.676 7  20213050.233    20213048.470    20213049.721
        46.100          43.600
 -16592956.613 7 -12929569.359 6  21747445.086    21747441.863    21747443.976
        44.200          36.900
  -4080283.565 4  -3179440.125 4  23803656.127    23803655.834    23803655.492
        26.200          28.100
 06  1  2  1 11  0.0000000  0  8G29G 6G18G 8G10G26G21G15
 -20469447.264 7 -15950208.027 7  20421902.038    20421899.943    20421901.196
        44.200          44.800
 -16577570.619 6 -12917576.021 6  21654107.095    21654106.089    21654106.362
        40.200          37.200
   -588943.736 2   -458916.595 2  23580024.401    23580021.986    23580022.847
        17.800          16.100
  -4157995.149 4  -3239993.860 3  24061292.944    24061291.580    24061291.712
        25.900          20.500
 -15155374.319 7 -11809366.187 6  21617662.450    21617661.004    21617661.394
        43.300          37.500
 -22477907.990 7 -17515243.489 7  20204866.848    20204865.266    20204866.414
        46.200          43.800
 -16672315.114 7 -12991407.140 6  21732343.569    21732340.263    21732342.562
        44.300          36.900
  -4183932.039 4  -3260205.116 4  23783933.129    23783932.052    23783932.106
        26.800          25.900
 06  1  2  1 11 30.0000000  0  8G29G 6G18G 8G10G26G21G15
 -20471292.705 7 -15951646.023 7  20421550.614    20421548.894    20421549.983
        44.100          44.800
 -16527364.205 6 -12878454.158 6  21663661.418    21663660.080    21663660.640
        40.500          36.900
   -673336.347 3   -524677.020 2  23563964.424    23563962.481    23563963.785
        22.600          17.000
  -4174816.454 4  -3253101.361 3  24058091.203    24058090.266    24058090.806
        27.900          20.500
 -15083610.495 7 -11753446.327 6  21631318.799    21631317.171    21631317.745
        43.300          37.200
 -22520249.776 7 -17548237.074 7  20196809.418    20196807.817    20196808.942
        46.100          43.800
 -16751441.049 7 -13053063.702 6  21717286.211    21717283.163    21717285.238
        44.200          37.000
  -4287528.846 4  -3340929.914 4  23764219.087    23764217.943    23764218.091
        28.600          24.200
 06  1  2  1 12  0.0000000  0  8G29G 6G18G 8G10G26G21G15
 -20472551.758 7 -15952627.094 7  20421311.165    20421309.296    20421310.453
        44.200          44.800
 -16476663.294 6 -12838946.971 6  21673309.577    21673308.088    21673308.841
        40.600          36.800
   -757588.144 4   -590327.736 3  23547932.221    23547929.809    23547931.396
        25.600          19.300
  -4191082.217 4  -3265775.946 3  24054996.896    24054995.209    24054995.794
        26.500          22.600
 -15011647.066 7 -11697370.930 6  21645012.973    21645011.365    21645011.895
        43.200          37.100
 -22561928.893 7 -17580714.296 7  20188878.290    20188876.563    20188877.790
        46.100          43.700
 -16830332.494 7 -13114537.544 6  21702273.768    21702270.820    21702272.831
        44.600          37.500
  -4391072.568 4  -3421613.297 3  23744515.401    23744513.368    23744514.451
        28.600          19.900
 06  1  2  1 12 30.0000000  0  8G29G 6G18G 8G10G26G21G15
 -20473224.903 7 -15953151.622 7  20421183.088    20421181.159    20421182.364
        44.100          44.800
 -16425469.986 6 -12799056.100 6  21683051.093    21683049.773    21683050.374
        40.200          36.300
   -841699.156 4   -655868.754 3  23531925.770    23531923.769    23531925.155
        26.800          21.600
  -4206791.937 4  -3278017.313 3  24052007.542    24052005.702    24052006.314
        28.400          19.900
 -14939485.564 7 -11641141.188 6  21658744.957    21658743.355    21658743.801
        43.000          37.100
 -22602944.327 7 -17612674.362 7  20181073.178    20181071.552    20181072.722
        45.900          43.700
 -16908987.717 7 -13175827.319 6  21687306.393    21687303.001    21687305.184
        44.300          37.500
  -4494561.343 4  -3502253.873 3  23724822.485    23724819.989    23724821.195
        26.500          22.600
 06  1  2  1 13  0.0000000  0  8G29G 6G18G 8G10G26G21G15
 -20473312.580 7 -15953219.930 7  20421166.517    20421164.490    20421165.736
        44.400          44.600
 -16373785.932 6 -12758782.822 6  21692886.151    21692884.849    21692885.386
        40.300          36.400
   -925668.471 4   -721299.339 3  23515946.786    23515945.227    23515946.091
        28.100          23.400
  -4221944.883 4  -3289824.798 3  24049123.716    24049122.003    24049122.714
        29.200          21.100
 -14867127.086 7 -11584757.966 6  21672514.331    21672512.630    21672513.134
        43.100          36.500
 -22643295.116 7 -17644116.523 7  20173394.647    20173393.127    20173394.205
        46.100          44.000
 -16987404.407 7 -13236931.223 6  21672383.851    21672380.830    21672383.003
        44.600          37.300
  -4597993.670 4  -3582850.506 3  23705139.931    23705137.611    23705139.271
        27.900          19.900
 06  1  2  1 13 30.0000000  0  8G29G 6G18G 8G10G26G21G15
 -20472815.488 7 -15952832.580 7  20421261.175    20421258.975    20421260.420
        44.600          44.800
 -16321613.168 6 -12718128.734 6  21702814.004    21702813.156    21702813.404
        39.800          36.200
  -1009495.227 5   -786618.841 4  23499995.351    23499993.669    23499994.650
        30.200          24.900
  -4236539.818 4  -3301197.450 3  24046346.341    24046344.914    24046345.404
        28.600          22.100
 -14794573.314 7 -11528222.559 6  21686320.630    21686319.139    21686319.643
        42.900          36.700
 -22682979.854 7 -17675039.680 7  20165843.143    20165841.396    20165842.497
        46.100          44.200
 -17065580.503 7 -13297847.650 6  21657507.481    21657504.382    21657506.538
        44.700          37.300
  -4701367.850 4  -3663401.790 4  23685467.946    23685466.920    23685467.228
        27.600          24.600
 06  1  2  1 14  0.0000000  0  8G29G 6G18G 8G10G26G21G15
 -20471734.161 7 -15951989.979 7  20421466.922    20421464.759    20421466.242
        44.600          44.600
 -16268953.513 6 -12677095.261 6  21712834.937    21712834.114    21712834.205
        39.200          36.600
  -1093179.452 5   -851827.297 4  23484071.007    23484068.956    23484070.299
        32.400          26.800
  -4250575.839 4  -3312134.603 3  24043675.343    24043673.417    24043674.404
        29.500          21.100
 -14721825.358 7 -11471535.842 6  21700164.273    21700162.629    21700163.173
        42.700          36.400
 -22721997.770 7 -17705443.238 7  20158418.185    20158416.478    20158417.660
        46.100          44.100
 -17143514.099 7 -13358575.120 6  21642677.586    21642674.062    21642676.480
        44.700          37.600
  -4804682.539 4  -3743906.711 4  23665806.849    23665806.810    23665805.882
        25.600          24.600
 06  1  2  1 14 30.0000000  0  8G29G 6G18G 8G10G26G21G15
 -20470069.178 7 -15950692.580 7  20421783.767    20421781.663    20421783.026
        44.500          44.800
 -16215809.042 6 -12635684.010 6  21722948.496    21722946.951    21722947.662
        39.800          36.100
  -1176720.504 5   -916924.181 4  23468173.558    23468171.302    23468172.742
        32.000          26.800
  -4264051.193 4  -3322634.881 3  24041111.253    24041109.538    24041109.942
        27.900          21.100
 -14648884.174 7 -11414698.559 6  21714044.653    21714042.485    21714043.536
        42.700          36.000
 -22760347.570 7 -17735326.188 7  20151120.512    20151118.732    20151119.875
        46.100          44.300
 -17221203.076 7 -13419111.972 6  21627893.479    21627890.480    21627892.476
        44.600          38.400
  -4907935.698 4  -3824363.695 3  23646160.326    23646158.151    23646158.855
        26.500          23.800
 06  1  2  1 15  0.0000000  0  8G29G 6G18G 8G10G26G21G15
 -20467821.443 7 -15948941.094 7  20422211.413    20422209.316    20422210.681
        44.800          44.700
 -16162181.540 6 -12593896.354 5  21733153.211    21733151.804    21733152.590
        39.700          35.700
  -1260117.691 5   -981908.971 4  23452303.443    23452301.187    23452302.641
        32.000          26.800
  -4276965.276 4  -3332697.789 3  24038653.885    24038652.176    24038652.809
        27.600          21.100
 -14575751.364 7 -11357711.955 6  21727961.488    21727959.467    21727960.174
        42.600          36.500
 -22798028.503 7 -17764687.939 7  20143949.814    20143948.266    20143949.290
        45.900          44.400
 -17298645.151 7 -13479456.434 6  21613156.807    21613153.618    21613155.974
        45.200          37.700
  -5011125.776 4  -3904771.525 4  23626522.765    23626521.958    23626521.840
        26.500          26.500
 06  1  2  1 15 30.0000000  0  8G29G 6G18G 8G10G26G21G15
 -20464991.484 7 -15946735.922 7  20422749.775    20422747.758    20422749.124
        44.500          44.800
 -16108073.355 6 -12551734.146 5  21743449.887    21743448.474    21743449.034
        39.700          35.800
  -1343370.957 5  -1046781.610 4  23436461.115    23436458.619    23436460.398
        32.600          27.600
  -4289316.990 4  -3342322.490 3  24036303.294    24036301.742    24036302.412
        28.100          22.100
 -14502428.097 7 -11300576.949 6  21741914.164    21741912.521    21741913.028
        42.600          36.400
 -22835039.361 7 -17793527.561 7  20136906.814    20136905.442    20136906.311
        45.800          44.500
 -17375838.334 7 -13539606.965 6  21598467.669    21598464.180    21598466.560
        45.200          37.900
  -5114250.959 4  -3985128.791 4  23606898.851    23606897.928    23606897.790
        28.600          29.900
 06  1  2  1 16  0.0000000  0  8G29G 6G18G 8G10G26G21G15
 -20461580.015 7 -15944077.628 7  20423399.068    20423396.995    20423398.354
        44.700          44.600
 -16053485.925 6 -12509198.511 6  21753837.278    21753836.308    21753836.686
        40.100          36.700
  -1426479.637 5  -1111541.595 4  23420646.501    23420643.792    23420645.443
        32.600          27.900
  -4301105.465 4  -3351508.310 3  24034060.037    24034058.704    24034058.795
        25.600          22.100
 -14428915.715 7 -11243294.569 6  21755903.022    21755901.341    21755901.964
        42.600          36.000
 -22871379.235 7 -17821844.332 7  20129991.761    20129990.208    20129991.203
        46.000          44.500
 -17452780.995 7 -13599562.278 6  21583825.944    21583822.613    21583824.832
        45.100          38.100
  -5217309.846 4  -4065434.382 5  23587287.322    23587286.882    23587286.304
        28.100          31.500
 06  1  2  1 16 30.0000000  0  8G29G 6G18G 8G10G26G21G15
 -20457587.636 7 -15940966.680 7  20424158.649    20424156.624    20424158.044
        44.700          44.700
 -15998421.573 6 -12466291.237 6  21764316.100    21764314.687    21764315.256
        39.900          36.100
  -1509443.306 5  -1176188.567 4  23404858.839    23404856.406    23404857.665
        30.600          28.400
  -4312329.937 4  -3360254.639 3  24031924.263    24031922.588    24031923.285
        29.200          22.600
 -14355215.458 7 -11185865.802 6  21769928.109    21769926.224    21769926.814
        42.500          36.000
 -22907047.207 7 -17849637.545 7  20123204.275    20123202.791    20123203.805
        46.100          44.600
 -17529470.871 7 -13659320.612 6  21569231.923    21569229.017    21569230.970
        45.000          38.000
  -5320300.584 4  -4145686.867 5  23567689.533    23567688.069    23567688.174
        28.400          30.600
 06  1  2  1 17  0.0000000  0  8G29G 6G18G 8G10G26G21G15
 -20453015.264 7 -15937403.783 7  20425028.691    20425026.761    20425028.054
        44.600          44.700
 -15942882.177 6 -12423013.798 5  21774884.423    21774883.402    21774883.776
        39.500          35.600
  -1592261.141 4  -1240721.890 4  23389099.063    23389096.320    23389097.725
        28.600          25.900
  -4322989.535 4  -3368560.805 3  24029895.397    24029894.562    24029894.246
        27.600          23.000
 -14281328.568 7 -11128291.603 5  21783988.140    21783986.221    21783986.991
        42.600          35.800
 -22942042.428 7 -17876906.540 7  20116544.859    20116543.343    20116544.405
        46.100          44.500
 -17605905.774 7 -13718880.264 6  21554687.147    21554684.035    21554686.191
        45.500          38.600
  -5423221.485 4  -4225884.941 4  23548103.290    23548102.168    23548102.393
        27.100          27.600
 06  1  2  1 17 30.0000000  0  8G29G 6G18G 8G10G26G21G15
 -20447863.535 7 -15933389.446 7  20426009.151    20426007.178    20426008.458
        44.700          44.700
 -15886870.132 6 -12379368.070 6  21785543.356    21785542.307    21785542.562
        39.100          36.100
  -1674932.570 4  -1305141.167 3  23373366.990    23373364.245    23373366.079
        29.900          22.100
  -4333083.245 4  -3376426.026 3  24027974.708    24027972.949    24027973.855
        27.600          19.300
 -14207256.501 7 -11070573.110 6  21798083.810    21798081.845    21798082.519
        42.500          36.000
 -22976364.016 7 -17903650.619 7  20110013.850    20110012.078    20110013.364
        46.100          44.600
 -17682083.583 7 -13778239.588 6  21540191.112    21540187.754    21540190.107
        45.600          38.400
  -5526070.898 5  -4306027.342 4  23528532.584    23528530.802    23528531.500
        30.600          27.900
 06  1  2  1 18  0.0000000  0  8G29G 6G18G 8G10G26G21G15
 -20442133.301 7 -15928924.318 7  20427099.739    20427097.473    20427098.988
        44.700          44.700
 -15830387.056 6 -12335355.310 6  21796292.029    21796290.800    21796291.204
        39.400          36.000
  -1757457.111 5  -1369446.001 3  23357663.023    23357660.468    23357662.023
        30.100          23.000
  -4342609.777 4  -3383849.284 3  24026161.856    24026160.440    24026160.972
        28.400          21.100
 -14133000.486 7 -11012711.283 6  21812214.091    21812212.440    21812212.990
        42.400          36.000
 -23010011.178 7 -17929869.183 7  20103610.868    20103609.280    20103610.454
        46.300          44.700
 -17758002.567 7 -13837397.235 6  21525744.054    21525740.754    21525743.080
        45.500          38.200
  -5628847.069 4  -4386112.653 4  23508975.043    23508973.616    23508973.925
        29.000          28.800
 06  1  2  1 18 30.0000000  0  8G29G 6G18G 8G10G26G21G15
 -20435825.331 7 -15924009.011 7  20428300.049    20428297.850    20428299.374
        44.800          44.600
 -15773435.310 6 -12290977.347 5  21807129.523    21807128.135    21807128.839
        39.500          35.600
  -1839834.233 5  -1433635.939 4  23341987.073    23341985.026    23341986.191
        31.000          25.300
  -4351568.935 4  -3390830.442 3  24024457.160    24024455.854    24024456.232
        28.100          23.000
 -14058561.708 7 -10954707.045 5  21826379.060    21826377.635    21826378.041
        42.000          35.800
 -23042982.970 7 -17955561.476 7  20097336.602    20097334.991    20097336.082
        46.500          44.800
 -17833660.599 7 -13896351.536 6  21511346.783    21511343.605    21511345.695
        45.300          38.600
  -5731548.204 5  -4466139.506 4  23489431.492    23489429.781    23489430.376
        30.100          27.900
 06  1  2  1 19  0.0000000  0  8G29G 6G18G 8G10G26G21G15
 -20428940.579 7 -15918644.264 7  20429610.285    20429607.971    20429609.497
        44.800          44.600
 -15716016.853 6 -12246235.705 5  21818055.832    21818054.297    21818054.969
        39.000          35.200
  -1922063.145 5  -1497710.398 4  23326339.694    23326337.317    23326338.739
        33.400          25.300
  -4359959.757 4  -3397368.720 3  24022860.318    24022858.951    24022859.236
        27.600          21.100
 -13983941.488 6 -10896561.415 5  21840578.836    21840577.312    21840577.734
        41.800          35.700
 -23075278.761 7 -17980727.019 7  20091190.982    20091189.239    20091190.513
        46.200          44.600
 -17909055.594 7 -13955100.879 6  21496999.737    21496996.321    21496998.755
        45.700          38.400
  -5834172.684 4  -4546106.621 4  23469901.943    23469900.658    23469901.020
        29.200          27.400
 06  1  2  1 19 30.0000000  0  8G29G 6G18G 8G10G26G21G15
 -20421479.796 7 -15912830.661 7  20431029.947    20431027.628    20431029.245
        44.700          44.600
 -15658133.756 6 -12201132.016 5  21829070.402    21829069.307    21829069.670
        38.800          35.500
  -2004144.096 5  -1561669.580 4  23310720.573    23310717.442    23310719.409
        33.200          25.900
  -4367781.432 4  -3403463.502 3  24021371.857    24021370.677    24021370.698
        28.100          21.600
 -13909140.944 6 -10838275.283 5  21854813.401    21854811.231    21854812.255
        41.900          35.500
 -23106897.673 7 -18005365.124 7  20085174.340    20085172.298    20085173.688
        46.400          44.700
 -17984185.467 7 -14013643.629 6  21482703.118    21482699.607    21482702.030
        45.700          38.800
  -5936718.685 4  -4626012.592 4  23450388.803    23450386.880    23450387.616
        29.700          25.900
 06  1  2  1 20  0.0000000  0  8G29G 6G18G 8G10G26G21G15
 -20413443.660 7 -15906568.730 7  20432559.276    20432556.945    20432558.482
        44.800          44.600
 -15599788.253 6 -12155668.010 5  21840173.454    21840172.144    21840172.690
        38.900          35.600
  -2086076.440 5  -1625512.960 4  23295129.100    23295126.269    23295127.969
        32.700          27.900
  -4375033.153 4  -3409114.199 3  24019991.920    24019990.201    24019990.987
        27.900          21.600
 -13834161.203 6 -10779849.510 5  21869081.252    21869078.998    21869080.151
        41.800          34.800
 -23137839.047 7 -18029475.273 7  20079286.027    20079284.306    20079285.685
        46.500          44.700
 -18059047.892 7 -14071977.977 6  21468457.117    21468453.839    21468456.089
        45.700          39.000
  -6039184.277 4  -4705855.906 4  23430890.082    23430888.322    23430888.952
        29.700          27.100
 06  1  2  1 20 30.0000000  0  8G29G 6G18G 8G10G26G21G15
 -20404833.274 7 -15899859.335 7  20434197.571    20434195.458    20434196.837
        44.900          44.700
 -15540982.365 6 -12109845.257 5  21851363.499    21851362.373    21851362.838
        38.600          34.800
  -2167859.420 5  -1689239.919 4  23279566.321    23279563.968    23279565.349
        32.300          29.200
  -4381714.406 4  -3414320.389 3  24018720.531    24018718.452    24018719.417
        26.500          21.600
 -13759003.640 6 -10721285.173 5  21883383.249    21883381.592    21883382.115
        41.400          35.500
 -23168102.231 7 -18053056.970 7  20073527.305    20073525.485    20073526.768
        46.800          44.800
 -18133640.917 7 -14130102.409 6  21454262.455    21454259.114    21454261.439
        45.600          38.600
  -6141567.706 4  -4785635.188 4  23411406.853    23411405.458    23411405.695
        29.200          27.600
 06  1  2  1 21  0.0000000  0  8G29G 6G18G 8G10G26G21G15
 -20395649.700 7 -15892703.296 7  20435945.190    20435943.047    20435944.444
        44.900          44.800
 -15481718.309 6 -12063665.489 5  21862641.114    21862639.856    21862640.340
        38.100          34.700
  -2249492.311 5  -1752849.931 4  23264032.061    23264029.841    23264031.127
        31.500          28.800
  -4387823.876 4  -3419080.990 3  24017557.923    24017556.465    24017557.014
        28.800          22.100
 -13683669.287 6 -10662583.092 5  21897718.599    21897717.169    21897717.573
        41.400          35.200
 -23197686.504 7 -18076109.636 7  20067897.468    20067895.766    20067897.061
        46.500          44.700
 -18207962.413 7 -14188015.253 6  21440119.477    21440116.322    21440118.594
        46.100          39.100
  -6243867.335 4  -4865349.161 4  23391940.254    23391938.243    23391939.221
        27.100          25.300
 06  1  2  1 21 30.0000000  0  8G29G 6G18G 8G10G26G21G15
 -20385893.563 7 -15885101.106 7  20437801.672    20437799.633    20437801.018
        44.800          44.700
 -15421998.250 6 -12017130.405 5  21874005.700    21874004.686    21874004.865
        38.500          35.500
  -2330974.840 5  -1816342.780 4  23248526.370    23248523.759    23248525.346
        32.000          26.200
  -4393361.523 4  -3423396.029 3  24016504.909    24016502.661    24016503.584
        27.600          21.100
 -13608159.283 6 -10603744.118 5  21912088.220    21912086.141    21912086.973
        41.300          35.100
 -23226591.348 7 -18098632.889 7  20062397.171    20062395.366    20062396.655
        46.500          44.800
 -18282010.283 7 -14245714.884 6  21426028.948    21426025.342    21426027.836
        46.100          39.100
  -6346081.323 4  -4944996.429 4  23372489.303    23372487.287    23372488.195
        28.600          25.300
 06  1  2  1 22  0.0000000  0  8G29G 6G18G 8G10G26G21G15
 -20375565.954 7 -15877053.617 7  20439767.026    20439764.852    20439766.292
        44.900          44.700
 -15361824.319 6 -11970241.650 5  21885456.485    21885455.495    21885455.740
        39.100          35.700
  -2412306.386 5  -1879718.015 4  23233049.418    23233046.404    23233048.495
        32.400          24.200
  -4398326.252 4  -3427264.627 3  24015559.144    24015557.889    24015558.229
        28.100          21.100
 -13532475.329 6 -10544769.617 5  21926489.929    21926488.595    21926488.844
        41.100          34.700
 -23254815.930 7 -18120626.055 7  20057026.197    20057024.440    20057025.725
        46.500          44.800
 -18355782.531 7 -14303199.747 6  21411990.164    21411987.050    21411989.163
        45.900          39.500
  -6448207.925 4  -5024575.581 4  23353054.915    23353053.650    23353053.660
        28.600          25.600
 06  1  2  1 22 30.0000000  0  8G29G 6G18G 8G10G26G21G15
 -20364667.841 7 -15868561.577 7  20441840.839    20441838.736    20441840.090
        44.800          44.800
 -15301198.801 6 -11923001.010 5  21896993.281    21896992.050    21896992.424
        38.900          35.600
  -2493486.738 5  -1942975.455 4  23217601.324    23217598.450    23217600.330
        32.100          24.600
  -4402717.748 5  -3430686.579 3  24014724.406    24014722.465    24014723.449
        30.200          23.400
 -13456618.338 6 -10485660.282 5  21940925.067    21940923.599    21940923.989
        41.100          34.900
 -23282359.634 7 -18142088.679 7  20051784.891    20051783.041    20051784.314
        46.600          44.900
 -18429276.788 7 -14360467.992 6  21398004.858    21398001.535    21398003.753
        46.100          39.400
  -6550245.271 4  -5104085.197 4  23333638.184    23333636.748    23333637.280
        29.900          26.500
 06  1  2  1 23  0.0000000  0  8G29G 6G18G 8G10G26G21G15
 -20353200.405 7 -15859625.905 7  20444022.837    20444020.918    20444022.171
        44.700          44.800
 -15240123.690 6 -11875410.031 5  21908615.316    21908613.895    21908614.573
        38.600          34.500
  -2574515.328 5  -2006114.594 4  23202181.900    23202179.826    23202180.944
        31.100          27.400
  -4406535.296 4  -3433661.289 3  24013997.563    24013995.685    24013996.285
        27.900          22.100
 -13380589.450 6 -10426416.995 5  21955393.116    21955391.378    21955391.878
        40.900          34.900
 -23309222.300 7 -18163020.616 7  20046672.947    20046671.174    20046672.498
        46.500          44.800
 -18502491.162 7 -14417518.148 6  21384072.584    21384069.360    21384071.674
        46.300          39.800
  -6652191.717 5  -5183524.003 4  23314238.892    23314236.838    23314237.712
        30.200          26.200
 06  1  2  1 23 30.0000000  0  8G29G 6G18G 8G10G26G21G15
 -20341164.468 7 -15850247.249 7  20446313.215    20446311.197    20446312.553
        44.900          44.800
 -15178601.387 6 -11827470.594 5  21920322.366    21920321.130    21920321.625
        38.200          34.100
  -2655391.268 5  -2069134.766 4  23186791.746    23186789.577    23186790.871
        31.800          28.600
  -4409778.309 4  -3436188.309 3  24013379.841    24013378.252    24013379.240
        26.500          19.300
 -13304389.914 6 -10367040.734 5  21969893.383    21969891.941    21969892.177
        41.100          35.500
 -23335403.214 7 -18183421.321 7  20041690.963    20041689.151    20041690.322
        46.500          44.800
 -18575423.469 7 -14474348.508 6  21370194.003    21370190.929    21370192.976
        46.100          40.100
  -6754045.259 5  -5262890.403 4  23294856.635    23294855.100    23294855.482
        30.200          27.400
 06  1  2  1 24  0.0000000  0  8G29G 6G18G 8G10G26G21G15
 -20328561.066 7 -15840426.411 7  20448711.585    20448709.596    20448710.943
        44.900          44.800
 -15116634.189 6 -11779184.484 5  21932114.578    21932113.307    21932113.758
        38.000          34.500
  -2736114.505 5  -2132035.969 4  23171430.579    23171428.002    23171429.718
        33.100          27.600
  -4412446.490 4  -3438267.387 3  24012872.879    24012871.116    24012871.592
        27.900          22.100
 -13228020.970 6 -10307532.472 5  21984425.921    21984424.081    21984424.782
        41.100          34.900
 -23360901.792 7 -18203290.330 7  20036838.416    20036836.891    20036838.000
        46.300          44.800
 -18648071.739 7 -14530957.541 6  21356369.412    21356366.233    21356368.332
        45.700          39.700
  -6855804.103 5  -5342182.974 4  23275492.704    23275491.169    23275491.658
        31.600          29.900
 06  1  2  1 24 30.0000000  0  8G29G 6G18G 8G10G26G21G15
 -20315391.199 7 -15830164.172 7  20451217.858    20451215.713    20451217.140
        45.100          44.900
 -15054224.247 6 -11730553.382 5  21943990.787    21943989.554    21943990.018
        37.900          34.600
  -2816684.005 5  -2194817.400 4  23156098.751    23156095.971    23156097.774
        34.100          26.200
  -4414538.654 4  -3439897.652 3  24012473.612    24012473.049    24012472.876
        25.900          23.000
 -13151483.649 6 -10247893.007 5  21998990.385    21998988.776    21998989.347
        41.300          34.800
 -23385717.893 7 -18222627.540 7  20032116.422    20032114.467    20032115.808
        46.500          44.900
 -18720433.894 7 -14587343.629 6  21342599.064    21342596.235    21342598.152
        45.900          39.900
  -6957466.340 5  -5421400.294 5  23256146.858    23256145.316    23256145.795
        30.800          30.800
 06  1  2  1 25  0.0000000  0  8G29G 6G18G 8G10G26G21G15
 -20301656.102 7 -15819461.492 7  20453831.543    20453829.478    20453830.828
        44.900          44.900
 -14991373.798 6 -11681579.033 5  21955950.806    21955949.736    21955950.001
        38.100          34.600
  -2897099.417 5  -2257478.755 4  23140796.278    23140793.969    23140795.260
        32.600          28.400
  -4416054.285 4  -3441078.674 3  24012185.928    24012184.491    24012184.609
        26.800          23.400
 -13074779.136 6 -10188123.255 5  22013586.895    22013585.187    22013585.699
        41.000          34.600
 -23409850.788 7 -18241432.388 7  20027523.873    20027522.098    20027523.548
        46.700          44.800
 -18792507.702 7 -14643505.029 6  21328884.309    21328880.970    21328883.209
        46.100          40.000
  -7059030.370 5  -5500541.075 5  23236819.787    23236818.289    23236818.731
        30.800          31.300
 06  1  2  1 25 30.0000000  0  8G29G 6G18G 8G10G26G21G15
 -20287356.765 7 -15808319.151 7  20456552.641    20456550.493    20456551.916
        44.900          44.900
 -14928085.138 6 -11632263.216 5  21967994.468    21967993.214    21967993.733
        38.300          34.400
  -2977360.851 5  -2320020.100 4  23125522.923    23125520.950    23125522.021
        31.800          28.400
  -4416992.740 4  -3441809.932 3  24012006.642    24012005.921    24012006.055
        28.100          21.600
 -12997908.734 6 -10128224.257 5  22028214.874    22028213.063    22028213.668
        40.500          34.500
 -23433300.142 7 -18259704.597 7  20023061.887    20023059.880    20023061.328
        46.800          44.800
 -18864290.723 7 -14699439.843 6  21315224.299    21315221.109    21315223.327
        46.000          39.900
  -7160494.117 5  -5579603.728 5  23217511.811    23217510.666    23217510.787
        31.100          31.500
 06  1  2  1 26  0.0000000  0  8G29G 6G18G 8G10G26G21G15
 -20272494.344 7 -15796738.035 7  20459380.904    20459378.688    20459380.135
        45.000          44.900
 -14864360.635 6 -11582607.779 5  21980120.693    21980119.661    21980119.965
        37.700          34.400
  -3057467.406 5  -2382440.747 4  23110279.047    23110276.652    23110278.036
        32.100          28.100
  -4417354.436 4  -3442091.761 3  24011937.912    24011936.811    24011936.555
        25.600          21.100
 -12920873.511 6 -10068196.813 5  22042874.005    22042872.491    22042872.854
        40.500          34.600
 -23456065.618 7 -18277443.925 7  20018729.651    20018727.808    20018729.163
        46.800          45.100
 -18935781.344 7 -14755146.816 6  21301620.392    21301616.886    21301619.198
        46.200          39.900
  -7261855.851 5  -5658586.876 4  23198224.344    23198222.043    23198222.784
        30.600          29.700
 06  1  2  1 26 30.0000000  0  8G29G 6G18G 8G10G26G21G15
 -20257070.054 7 -15784719.106 7  20462315.913    20462313.915    20462315.220
        44.900          44.900
 -14800202.534 6 -11532614.473 5  21992329.603    21992328.348    21992328.824
        37.700          34.000
  -3137418.970 5  -2444740.660 4  23095064.739    23095062.070    23095063.873
        33.200          26.500
  -4417139.093 4  -3441923.913 3  24011979.831    24011977.796    24011978.779
        27.900          21.600
 -12843674.745 6 -10008041.933 5  22057564.549    22057562.768    22057563.432
        40.500          34.100
 -23478146.905 7 -18294650.109 7  20014527.720    20014525.816    20014527.275
        46.700          45.100
 -19006977.161 7 -14810624.072 6  21288071.957    21288068.639    21288070.906
        46.100          39.700
  -7363113.555 4  -5737488.990 4  23178953.977    23178953.594    23178953.447
        29.900          29.200
 06  1  2  1 27  0.0000000  0  8G29G 6G18G 8G10G26G21G15
 -20241084.956 7 -15772263.180 7  20465357.541    20465355.752    20465356.925
        45.100          44.800
 -14735613.178 6 -11482285.120 5  22004620.537    22004619.277    22004619.741
        37.300          34.300
  -3217214.638 5  -2506919.085 4  23079880.404    23079877.716    23079879.665
        34.000          28.400
  -4416345.674 4  -3441305.707 3  24012130.116    24012129.086    24012129.305
        27.600          22.600
 -12766313.617 6  -9947760.537 5  22072285.718    22072284.253    22072284.665
        40.500          34.300
 -23499543.779 7 -18311322.994 7  20010456.045    20010454.194    20010455.461
        46.800          45.300
 -19077875.975 7 -14865869.897 6  21274580.424    21274577.156    21274579.400
        46.500          40.100
  -7464265.501 4  -5816308.673 4  23159706.385    23159704.123    23159704.929
        29.500          27.400
 06  1  2  1 27 30.0000000  0  8G29G 6G18G 8G10G26G21G15
 -20224540.134 7 -15759371.106 7  20468506.293    20468504.147    20468505.508
        45.200          45.000
 -14670594.952 6 -11431621.591 5  22016993.279    22016991.812    22016992.458
        37.200          33.600
  -3296853.553 5  -2568975.357 4  23064725.600    23064723.142    23064724.595
        33.900          27.600
  -4414974.197 4  -3440237.030 3  24012391.221    24012389.379    24012390.226
        26.500          20.500
 -12688791.269 6  -9887353.517 5  22087037.749    22087036.234    22087036.643
        40.100          34.300
 -23520255.800 7 -18327462.225 7  20006514.459    20006512.857    20006513.949
        46.400          45.300
 -19148475.677 7 -14920882.647 6  21261145.585    21261142.426    21261144.595
        46.600          40.000
  -7565309.789 5  -5895044.485 4  23140477.782    23140476.269    23140476.854
        32.000          28.600
 06  1  2  1 28  0.0000000  0  8G29G 6G18G 8G10G26G21G15
 -20207436.992 7 -15746043.978 7  20471760.805    20471758.776    20471760.061
        45.000          45.000
 -14605150.098 6 -11380625.622 5  22029446.915    22029445.700    22029446.049
        37.100          33.100
  -3376335.679 5  -2630909.460 4  23049599.992    23049597.546    23049599.415
        34.000          27.400
  -4413023.683 4  -3438717.163 3  24012762.015    24012760.990    24012761.027
        27.100          21.100
 -12611108.722 6  -9826821.674 5  22101820.418    22101818.702    22101819.283
        40.500          33.900
 -23540282.855 7 -18343067.711 7  20002703.523    20002701.770    20002703.010
        46.500          45.300
 -19218774.366 7 -14975660.841 6  21247768.106    21247765.023    21247767.110
        46.300          40.100
  -7666244.479 5  -5973694.910 4  23121270.966    23121269.001    23121269.835
        33.100          27.900
 06  1  2  1 28 30.0000000  0  8G29G 6G18G 8G10G26G21G15
 -20189776.608 7 -15732282.634 7  20475121.309    20475119.453    20475120.626
        44.900          44.900
 -14539281.063 6 -11329299.119 5  22041981.249    22041980.202    22041980.440
        37.400          33.500
  -3455660.523 5  -2692721.028 4  23034505.582    23034502.108    23034504.664
        34.000          27.400
  -4410493.447 4  -3436745.527 3  24013243.599    24013242.389    24013242.635
        25.600          19.900
 -12533267.244 6  -9766165.968 5  22116633.156    22116631.410    22116631.940
        40.000          33.900
 -23559624.757 7 -18358139.320 7  19999022.939    19999021.027    19999022.445
        46.800          45.300
 -19288769.925 7 -15030202.832 6  21234448.454    21234445.319    21234447.451
        46.200          40.200
  -7767067.494 5  -6052258.293 4  23102084.570    23102083.243    23102083.348
        31.500          29.000
 06  1  2  1 29  0.0000000  0  8G29G 6G18G 8G10G26G21G15
 -20171560.059 7 -15718087.917 7  20478587.645    20478585.882    20478586.999
        44.800          44.900
 -14472990.221 6 -11277643.930 5  22054595.860    22054594.930    22054595.277
        37.700          33.200
  -3534827.554 5  -2754409.610 4  23019440.062    23019437.846    23019439.399
        32.800          28.100
  -4407384.254 4  -3434322.763 3  24013834.714    24013833.810    24013834.039
        26.200          20.500
 -12455267.822 6  -9705387.209 5  22131476.372    22131474.434    22131475.144
        40.200          34.000
 -23578281.245 7 -18372676.838 7  19995472.518    19995470.861    19995472.149
        46.600          45.500
 -19358460.105 7 -15084506.856 6  21221186.933    21221183.771    21221185.935
        46.300          40.500
  -7867776.892 5  -6130733.130 5  23082920.517    23082918.873    23082919.566
        32.000          30.200
 06  1  2  1 29 30.0000000  0  8G29G 6G18G 8G10G26G21G15
 -20152789.059 7 -15703461.158 7  20482159.893    20482157.809    20482159.142
        45.100          44.800
 -14406279.690 6 -11225661.720 5  22067290.903    22067289.770    22067290.073
        37.800          34.100
  -3613836.167 5  -2815974.728 4  23004405.449    23004403.677    23004404.467
        33.900          29.700
  -4403695.529 4  -3431448.415 3  24014537.774    24014535.918    24014536.786
        27.900          22.100
 -12377111.640 6  -9644486.291 5  22146348.441    22146346.918    22146347.433
        40.100          33.500
 -23596252.095 7 -18386680.086 7  19992052.740    19992051.075    19992052.358
        46.500          45.500
 -19427842.419 7 -15138570.994 6  21207983.850    21207980.605    21207982.874
        46.600          40.600
  -7968370.900 5  -6209118.070 5  23063778.529    23063776.501    23063777.110
        32.000          30.600
 06  1  2  1 30  0.0000000  0  8G29G 6G18G 8G10G26G21G15
 -20133464.454 7 -15688403.023 7  20485837.146    20485835.173    20485836.514
        45.200          44.700
 -14339152.237 6 -11173354.629 5  22080064.976    22080063.663    22080064.221
        38.000          33.600
  -3692685.495 5  -2877415.722 5  22989401.180    22989398.938    22989400.271
        34.600          30.400
  -4399426.907 4  -3428122.214 3  24015349.071    24015348.600    24015348.231
        26.500          21.600
 -12298799.568 6  -9583463.902 5  22161250.577    22161249.133    22161249.453
        39.700          33.100
 -23613537.365 7 -18400149.128 7  19988763.630    19988761.808    19988763.090
        46.600          45.500
 -19496914.958 7 -15192393.747 6  21194840.022    21194836.513    21194838.832
        46.600          40.600
  -8068847.515 5  -6287411.522 4  23044657.771    23044656.133    23044656.487
        32.000          29.700
 06  1  2  1 30 30.0000000  0  8G29G 6G18G 8G10G26G21G15
 -20113587.759 7 -15672914.679 7  20489619.756    20489617.582    20489619.047
        45.200          44.700
 -14271610.148 6 -11120724.447 5  22092917.649    22092916.441    22092916.843
        37.200          33.500
  -3771375.568 5  -2938732.631 4  22974426.505    22974423.914    22974425.595
        33.800          28.600
  -4394578.029 4  -3424343.879 3  24016273.107    24016271.110    24016272.049
        28.600          20.500
 -12220332.970 6  -9522321.099 5  22176182.415    22176180.884    22176181.323
        39.600          33.000
 -23630136.826 7 -18413083.762 7  19985604.765    19985603.071    19985604.431
        46.700          45.600
 -19565675.609 7 -15245973.470 6  21181755.139    21181751.824    21181754.075
        46.600          40.700
  -8169204.929 5  -6365612.079 5  23025560.218    23025558.857    23025559.067
        31.800          30.400
 06  1  2  1 31  0.0000000  0  8G29G 6G18G 8G10G26G21G15
 -20093160.114 7 -15656997.032 7  20493506.928    20493504.884    20493506.244
        45.100          44.800
 -14203655.798 6 -11067773.014 5  22105848.815    22105847.831    22105848.013
        37.000          34.000
  -3849905.917 5  -2999925.098 4  22959482.482    22959479.907    22959481.709
        33.900          27.400
  -4389148.846 4  -3420113.338 3  24017306.205    24017304.154    24017305.097
        27.900          22.600
 -12141712.798 6  -9461058.635 5  22191143.372    22191141.857    22191142.084
        39.500          33.000
 -23646050.501 7 -18425484.019 7  19982576.832    19982574.857    19982576.286
        46.900          45.700
 -19634122.408 7 -15299308.634 6  21168730.351    21168726.858    21168729.249
        46.700          40.700
  -8269441.167 5  -6443718.230 5  23006485.561    23006484.726    23006484.911
        32.300          30.600
 06  1  2  1 31 30.0000000  0  8G29G 6G18G 8G10G26G21G15
 -20072182.903 7 -15640651.152 7  20497498.880    20497496.730    20497498.139
        45.300          44.600
 -14135291.663 6 -11014502.269 5  22118858.137    22118856.961    22118857.406
        37.100          33.200
  -3928276.179 5  -3060992.828 4  22944570.249    22944567.264    22944569.274
        35.300          29.200
  -4383139.146 4  -3415430.465 3  24018448.863    24018448.207    24018448.247
        28.800          23.400
 -12062940.053 6  -9399677.281 5  22206133.011    22206131.649    22206131.949
        39.300          33.200
 -23661278.328 7 -18437349.856 7  19979679.169    19979677.064    19979678.525
        46.800          45.800
 -19702253.051 7 -15352397.435 6  21155765.336    21155762.073    21155764.242
        46.400          40.900
  -8369554.024 5  -6521728.238 5  22987435.168    22987433.979    22987434.073
        32.800          31.600
 06  1  2  1 32  0.0000000  0  8G29G 6G18G 8G10G26G21G15
 -20050657.600 7 -15623878.185 7  20501595.110    20501592.838    20501594.292
        45.300          44.700
 -14066520.265 6 -10960914.181 5  22131944.713    22131943.936    22131943.953
        36.200          33.800
  -4006485.472 5  -3121935.110 4  22929687.249    22929684.573    22929686.092
        34.400          29.900
  -4376548.892 4  -3410295.177 3  24019703.704    24019701.555    24019702.411
        27.600          20.500
 -11984016.074 6  -9338178.075 5  22221152.134    22221150.305    22221150.913
        39.100          33.600
 -23675820.316 7 -18448681.268 7  19976911.625    19976909.820    19976911.143
        46.700          45.900
 -19770065.034 7 -15405237.939 6  21142861.213    21142857.874    21142860.206
        46.700          41.000
  -8469541.706 5  -6599640.696 5  22968408.038    22968406.751    22968407.189
        32.600          30.600
 06  1  2  1 32 30.0000000  0  8G29G 6G18G 8G10G26G21G15
 -20028585.419 7 -15606679.080 7  20505795.110    20505793.015    20505794.348
        45.200          44.700
 -13997344.091 5 -10907010.705 5  22145108.683    22145107.539    22145107.743
        35.900          33.200
  -4084533.439 5  -3182751.654 4  22914834.184    22914831.870    22914833.178
        33.400          28.800
  -4369377.703 4  -3404707.221 3  24021067.752    24021066.261    24021067.034
        27.600          20.500
 -11904942.103 6  -9276561.999 5  22236199.684    22236197.755    22236198.519
        39.700          33.400
 -23689676.499 7 -18459478.283 7  19974274.958    19974273.056    19974274.381
        46.700          45.900
 -19837556.779 7 -15457828.904 6  21130017.952    21130014.592    21130016.884
        46.700          41.000
  -8569402.230 5  -6677454.070 5  22949406.090    22949404.146    22949404.707
        33.200          31.000
 06  1  2  1 33  0.0000000  0  8G29G 6G18G 8G10G26G21G15
 -20005967.670 7 -15589054.860 7  20510099.188    20510096.957    20510098.371
        45.300          44.600
 -13927765.398 6 -10852793.561 5  22158349.287    22158348.005    22158348.588
        36.900          33.000
  -4162419.406 5  -3243442.016 4  22900013.194    22900010.218    22900012.401
        35.100          26.800
  -4361625.121 4  -3398666.259 3  24022543.466    24022541.988    24022542.233
        27.600          21.600
 -11825718.937 6  -9214829.662 5  22251275.177    22251273.521    22251274.016
        38.800          33.200
 -23702846.862 7 -18469740.898 7  19971768.661    19971766.768    19971768.061
        46.700          45.900
 -19904725.907 7 -15510168.479 6  21117236.121    21117232.667    21117235.014
        46.900          41.000
  -8669133.582 5  -6755166.802 5  22930427.133    22930425.271    22930426.106
        33.000          30.600
 06  1  2  1 33 30.0000000  0  8G29G 6G18G 8G10G26G21G15
 -19982806.031 7 -15571006.827 7  20514506.565    20514504.478    20514505.885
        45.200          44.400
 -13857786.870 6 -10798264.859 5  22171665.737    22171664.429    22171665.049
        37.200          32.700
  -4240143.220 6  -3304006.014 4  22885222.920    22885220.678    22885222.233
        36.000          29.700
  -4353291.687 4  -3392172.643 3  24024128.372    24024127.572    24024127.514
        24.200          22.100
 -11746347.790 6  -9152982.021 5  22266378.864    22266377.463    22266377.752
        38.700          33.100
 -23715331.610 7 -18479469.267 7  19969392.781    19969391.081    19969392.279
        46.600          45.900
 -19971570.166 7 -15562254.912 6  21104516.006    21104512.593    21104514.949
        46.800          41.100
  -8768733.753 5  -6832777.302 5  22911474.005    22911472.518    22911472.945
        32.700          30.600
 06  1  2  1 34  0.0000000  0  8G29G 6G18G 8G10G26G21G15
 -19959101.695 7 -15552535.913 7  20519017.214    20519015.173    20519016.624
        45.400          44.200
 -13787410.946 6 -10743426.497 5  22185057.990    22185056.492    22185057.007
        36.600          32.400
  -4317703.902 5  -3364442.877 5  22870463.617    22870461.654    22870462.636
        34.800          30.200
  -4344377.309 4  -3385226.385 3  24025826.207    24025823.557    24025824.956
        29.200          20.500
 -11666829.895 6  -9091020.030 5  22281510.335    22281509.034    22281509.231
        38.800          32.100
 -23727130.654 7 -18488663.316 7  19967147.521    19967145.789    19967147.034
        46.600          46.000
 -20038087.433 7 -15614086.543 6  21091858.302    21091854.851    21091857.198
        46.800          41.100
  -8868200.798 5  -6910284.074 5  22892545.511    22892544.260    22892544.510
        33.200          30.400
 06  1  2  1 34 30.0000000  0  8G29G 6G18G 8G10G26G21G15
 -19934856.221 7 -15533643.339 7  20523631.040    20523628.926    20523630.405
        45.400          44.100
 -13716639.976 6 -10688280.318 5  22198525.307    22198523.748    22198524.583
        37.200          32.300
  -4395101.238 5  -3424752.442 4  22855735.665    22855732.710    22855734.671
        34.400          27.900
  -4334881.317 4  -3377826.915 3  24027631.290    24027630.751    24027630.533
        25.300          20.500
 -11587166.118 6  -9028944.358 5  22296670.064    22296668.612    22296668.932
        38.400          32.700
 -23738244.384 7 -18497323.361 7  19965032.630    19965030.838    19965032.153
        46.800          46.000
 -20104275.498 7 -15665661.655 6  21079263.140    21079259.827    21079262.093
        46.800          41.500
  -8967532.754 5  -6987685.584 4  22873643.813    22873641.808    22873642.765
        34.000          29.900
 06  1  2  1 35  0.0000000  0  8G29G 6G18G 8G10G26G21G15
 -19910071.060 7 -15514330.222 7  20528347.673    20528345.379    20528346.963
        45.500          44.400
 -13645476.713 6 -10632828.427 5  22212067.349    22212065.713    22212066.708
        37.200          32.600
  -4472334.763 5  -3484934.425 4  22841038.381    22841035.361    22841037.682
        35.600          27.600
  -4324804.578 4  -3369974.905 3  24029550.391    24029548.528    24029549.343
        28.800          21.100
 -11507357.608 6  -8966755.916 5  22311857.675    22311855.878    22311856.422
        38.900          33.200
 -23748672.853 7 -18505449.435 7  19963048.183    19963046.360    19963047.655
        46.600          45.900
 -20170132.260 7 -15716978.609 6  21066731.153    21066727.525    21066729.971
        46.800          41.200
  -9066727.477 5  -7064980.160 5  22854767.507    22854765.689    22854766.449
        33.000          31.000
 06  1  2  1 35 30.0000000  0  8G29G 6G18G 8G10G26G21G15
 -19884747.367 7 -15494597.479 7  20533166.619    20533164.374    20533165.947
        45.700          44.300
 -13573923.495 6 -10577072.684 5  22225683.333    22225682.113    22225682.456
        36.100          33.400
  -4549404.100 5  -3544988.434 5  22826372.224    22826370.335    22826371.446
        34.600          30.600
  -4314146.571 4  -3361669.950 3  24031578.058    24031576.625    24031576.615
        24.900          20.500
 -11427405.253 6  -8904455.382 5  22327071.370    22327070.143    22327070.311
        38.600          32.800
 -23758416.396 7 -18513041.802 7  19961194.086    19961192.258    19961193.467
        46.600          46.000
 -20235655.664 7 -15768035.801 6  21054262.087    21054258.803    21054261.061
        46.800          41.300
  -9165783.053 5  -7142166.308 5  22835917.665    22835916.334    22835916.727
        34.100          31.800
 06  1  2  1 36  0.0000000  0  8G29G 6G18G 8G10G26G21G15
 -19858887.071 7 -15474446.598 7  20538087.604    20538085.434    20538086.897
        45.600          44.300
 -13501982.951 5 -10521015.152 5  22239372.715    22239372.003    22239372.085
        35.800          33.200
  -4626308.701 5  -3604914.057 5  22811738.266    22811736.075    22811737.416
        35.800          31.100
  -4302907.782 4  -3352912.441 3  24033716.885    24033714.878    24033715.911
        28.400          19.300
 -11347309.990 6  -8842043.491 5  22342313.017    22342311.748    22342311.997
        38.700          32.800
 -23767475.125 7 -18520100.542 7  19959470.103    19959468.486    19959469.588
        46.400          46.100
 -20300843.394 7 -15818831.432 6  21041857.253    21041854.020    21041856.303
        46.900          41.400
  -9264697.386 5  -7219242.400 5  22817094.990    22817093.534    22817093.913
        33.600          31.800
 06  1  2  1 36 30.0000000  0  8G29G 6G18G 8G10G26G21G15
 -19832491.321 7 -15453878.481 7  20543110.696    20543108.307    20543109.928
        45.700          44.300
 -13429657.594 6 -10464657.735 5  22253135.920    22253135.003    22253135.255
        36.500          33.100
  -4703047.899 6  -3664710.821 5  22797135.674    22797132.442    22797134.735
        36.600          30.100
  -4291087.897 3  -3343702.142 3  24035965.231    24035964.366    24035964.339
        23.400          19.900
 -11267072.792 6  -8779521.001 5  22357581.899    22357580.563    22357580.751
        38.000          32.800
 -23775849.415 7 -18526625.959 7  19957876.561    19957874.911    19957876.036
        46.600          46.100
 -20365693.476 7 -15869363.963 6  21029516.546    21029513.559    21029515.566
        46.600          41.900
  -9363468.360 5  -7296206.760 5  22798299.331    22798298.070    22798298.198
        33.500          33.000
 06  1  2  1 37  0.0000000  0  8G29G 6G18G 8G10G26G21G15
 -19805561.779 7 -15432894.423 7  20548235.086    20548232.937    20548234.417
        45.800          44.400
 -13356950.000 6 -10408002.470 5  22266971.914    22266970.726    22266971.172
        36.200          33.000
  -4779621.509 6  -3724378.556 5  22782564.094    22782560.892    22782563.073
        36.400          30.200
  -4278686.871 4  -3334038.992 3  24038325.583    24038323.997    24038324.517
        25.600          19.300
 -11186694.893 6  -8716888.891 5  22372877.246    22372875.988    22372876.125
        38.300          33.100
 -23783539.462 7 -18532618.198 7  19956413.382    19956411.483    19956412.801
        46.600          46.200
 -20430203.715 7 -15919631.673 6  21017240.697    21017237.580    21017239.638
        46.600          41.900
  -9462093.894 5  -7373057.805 5  22779531.525    22779530.383    22779530.595
        33.800          32.700
 06  1  2  1 37 30.0000000  0  8G29G 6G18G 8G10G26G21G15
 -19778099.868 7 -15411495.529 7  20553461.187    20553458.786    20553460.410
        45.600          44.300
 -13283862.732 5 -10351051.368 5  22280879.674    22280878.609    22280878.906
        35.100          32.000
  -4856028.840 6  -3783916.722 5  22768024.364    22768021.758    22768023.319
        36.700          31.600
  -4265705.207 4  -3323923.432 3  24040796.237    24040794.746    24040795.179
        26.500          21.100
 -11106177.438 6  -8654148.021 5  22388199.316    22388197.741    22388198.211
        38.200          32.600
 -23790545.697 7 -18538077.597 7  19955080.121    19955078.254    19955079.543
        46.700          46.100
 -20494371.787 7 -15969632.764 6  21005029.978    21005026.687    21005029.005
        46.500          41.600
  -9560571.970 5  -7449793.954 5  22760791.680    22760790.623    22760790.685
        33.000          32.400
 06  1  2  1 38  0.0000000  0  8G29G 6G18G 8G10G26G21G15
 -19750107.368 7 -15389683.193 7  20558787.699    20558785.622    20558787.087
        45.600          44.300
 -13210398.362 6 -10293806.421 5  22294859.605    22294858.516    22294858.859
        36.200          32.400
  -4932269.801 6  -3843325.234 5  22753515.697    22753513.848    22753514.846
        36.400          32.400
  -4252142.988 4  -3313355.417 3  24043376.449    24043375.570    24043375.665
        24.600          21.600
 -11025521.435 6  -8591299.190 5  22403547.596    22403546.187    22403546.449
        38.100          32.300
 -23796868.282 7 -18543004.281 7  19953876.740    19953875.028    19953876.316
        46.500          46.100
 -20558195.562 7 -16019365.571 6  20992884.863    20992881.443    20992883.866
        46.900          41.600
  -9658900.395 5  -7526413.496 5  22742080.383    22742079.061    22742079.502
        34.400          31.800
 06  1  2  1 38 30.0000000  0  8G29G 6G18G 8G10G26G21G15
 -19721585.576 7 -15367458.419 7  20564215.186    20564213.118    20564214.515
        45.600          44.300
 -13136559.573 6 -10236269.704 5  22308911.039    22308909.661    22308910.194
        36.000          32.400
  -5008343.361 6  -3902603.305 5  22739039.345    22739036.612    22739038.387
        36.600          30.400
  -4238000.152 4  -3302335.054 4  24046067.984    24046067.247    24046067.010
        24.900          24.600
 -10944727.873 6  -8528343.175 5  22418921.823    22418921.045    22418920.776
        38.400          32.600
 -23802507.837 7 -18547398.737 7  19952803.547    19952801.830    19952803.025
        46.300          46.000
 -20621673.107 7 -16068828.590 6  20980805.639    20980802.032    20980804.565
        47.000          41.600
  -9757077.348 5  -7602915.020 5  22723398.351    22723396.487    22723397.418
        34.600          31.100
 06  1  2  1 39  0.0000000  0  8G29G 6G18G 8G10G26G21G15
 -19692536.350 7 -15344822.661 7  20569743.269    20569741.047    20569742.424
        45.500          44.400
 -13062348.934 5 -10178443.244 5  22323032.214    22323031.541    22323031.596
        34.900          32.100
  -5084249.152 6  -3961750.679 4  22724594.636    22724591.900    22724593.824
        36.400          29.500
  -4223277.078 4  -3290862.546 3  24048869.931    24048868.544    24048869.005
        27.400          23.000
 -10863797.958 6  -8465280.909 5  22434322.679    22434321.260    22434321.541
        38.100          32.300
 -23807464.435 7 -18551261.011 7  19951860.324    19951858.673    19951859.832
        46.400          46.100
 -20684801.922 7 -16118019.873 6  20968792.520    20968789.051    20968791.645
        47.300          41.800
  -9855100.759 5  -7679296.892 5  22704745.164    22704743.398    22704743.976
        34.400          32.100
 06  1  2  1 39 30.0000000  0  8G29G 6G18G 8G10G26G21G15
 -19662960.994 7 -15321776.931 7  20575371.111    20575369.078    20575370.343
        45.300          44.400
 -12987769.024 5 -10120329.054 5  22337224.330    22337223.595    22337223.518
        34.400          31.500
  -5159986.854 6  -4020767.060 5  22710182.420    22710180.438    22710181.618
        37.100          32.000
  -4207973.763 4  -3278937.849 4  24051781.817    24051781.281    24051781.020
        26.200          25.600
 -10782732.597 6  -8402113.098 5  22449749.100    22449747.499    22449747.851
        37.500          32.000
 -23811738.931 7 -18554591.786 7  19951047.089    19951045.274    19951046.593
        46.600          46.300
 -20747580.240 7 -16166938.039 6  20956846.369    20956842.791    20956845.189
        46.900          41.900
  -9952968.690 5  -7755557.596 5  22686121.262    22686119.846    22686120.161
        33.900          32.700
 06  1  2  1 40  0.0000000  0  8G29G 6G18G 8G10G26G21G15
 -19632861.360 7 -15298322.668 7  20581099.057    20581096.820    20581098.236
        45.400          44.300
 -12912822.539 5 -10061929.207 5  22351486.665    22351485.248    22351485.838
        35.700          31.100
  -5235555.531 5  -4079651.691 5  22695801.643    22695800.352    22695800.826
        35.800          32.400
  -4192090.601 4  -3266561.380 3  24054804.724    24054803.052    24054803.558
        27.100          21.600
 -10701532.650 6  -8338840.423 5  22465200.748    22465199.472    22465199.577
        37.700          32.000
 -23815331.566 7 -18557391.237 7  19950363.209    19950361.639    19950362.783
        46.400          46.100
 -20810005.526 7 -16215581.116 7  20944966.916    20944963.720    20944965.841
        46.900          42.200
 -10050678.707 5  -7831695.248 5  22667527.351    22667526.201    22667526.401
        34.100          33.000
 06  1  2  1 40 30.0000000  0  8G29G 6G18G 8G10G26G21G15
 -19602239.091 7 -15274461.158 7  20586925.907    20586924.111    20586925.229
        45.200          44.400
 -12837511.985 5 -10003245.655 5  22365817.639    22365816.563    22365816.983
        35.600          31.300
  -5310954.750 6  -4138404.304 4  22681454.256    22681451.312    22681453.527
        37.300          29.700
  -4175627.739 4  -3253733.172 4  24057937.374    24057936.414    24057936.517
        27.400          24.200
 -10620199.105 6  -8275463.647 5  22480678.269    22480676.443    22480677.042
        37.500          31.500
 -23818243.008 7 -18559659.891 7  19949809.226    19949807.576    19949808.706
        46.200          46.200
 -20872075.777 7 -16263947.539 7  20933155.183    20933152.059    20933154.257
        46.900          42.100
 -10148228.725 5  -7907708.229 5  22648964.474    22648963.059    22648963.347
        34.700          32.300
 06  1  2  1 41  0.0000000  0  8G29G 6G18G 8G10G26G21G15
 -19571095.669 7 -15250193.559 7  20592852.292    20592850.478    20592851.557
        44.900          44.300
 -12761840.073 5  -9944280.550 5  22380217.729    22380216.311    22380216.827
        34.700          31.500
  -5386184.771 6  -4197025.113 4  22667139.114    22667135.465    22667138.129
        37.800          29.200
  -4158585.694 4  -3240453.657 3  24061180.435    24061178.907    24061179.337
        26.500          21.600
 -10538732.882 6  -8211983.476 5  22496179.935    22496178.753    22496178.935
        36.900          31.100
 -23820473.683 7 -18561398.079 7  19949384.709    19949383.131    19949384.201
        46.400          46.100
 -20933788.920 7 -16312035.699 7  20921411.829    20921408.561    20921410.818
        47.200          42.500
 -10245616.544 5  -7983594.845 5  22630432.225    22630430.465    22630431.117
        35.500          31.500
 06  1  2  1 41 30.0000000  0  8G29G 6G18G 8G10G26G21G15
 -19539432.826 7 -15225521.213 7  20598877.624    20598875.759    20598876.876
        45.100          44.300
 -12685809.353 5  -9885035.844 5  22394685.555    22394684.510    22394684.928
        34.500          31.100
  -5461244.437 6  -4255513.158 5  22652855.141    22652852.647    22652854.098
        36.400          31.300
  -4140964.694 4  -3226722.995 3  24064533.173    24064532.182    24064532.232
        26.500          21.600
 -10457135.120 6  -8148400.811 5  22511708.051    22511706.310    22511706.842
        37.300          30.800
 -23822024.126 7 -18562606.211 7  19949089.794    19949088.050    19949089.214
        46.400          46.100
 -20995142.652 7 -16359843.803 7  20909736.868    20909733.313    20909735.756
        47.400          42.500
 -10342840.271 5  -8059353.588 5  22611930.823    22611929.415    22611929.867
        34.600          32.300
 06  1  2  1 42  0.0000000  0  8G29G 6G18G 8G10G26G21G15
 -19507252.211 7 -15200445.412 7  20605001.513    20604999.448    20605000.740
        45.400          44.300
 -12609422.640 5  -9825513.736 5  22409221.577    22409220.350    22409220.773
        34.900          31.000
  -5536133.400 6  -4313868.150 5  22638603.803    22638601.754    22638602.947
        36.000          31.100
  -4122765.244 4  -3212541.630 3  24067996.828    24067994.883    24067995.584
        26.500          19.300
 -10375406.629 6  -8084716.269 5  22527260.196    22527258.845    22527259.048
        36.700          31.300
 -23822895.007 7 -18563284.817 7  19948924.153    19948922.272    19948923.504
        46.400          46.100
 -21056134.864 7 -16407370.204 7  20898130.148    20898126.763    20898129.160
        47.200          42.500
 -10439897.574 5  -8134982.637 5  22593461.996    22593460.287    22593460.820
        35.500          33.200
 06  1  2  1 42 30.0000000  0  8G29G 6G18G 8G10G26G21G15
 -19474555.436 7 -15174967.404 7  20611223.615    20611221.405    20611222.867
        45.700          44.100
 -12532682.536 5  -9765716.256 5  22423824.777    22423823.460    22423824.059
        33.600          30.400
  -5610850.781 6  -4372089.478 4  22624386.421    22624382.749    22624385.557
        38.300          29.900
  -4103987.295 4  -3197909.443 3  24071570.075    24071568.616    24071569.037
        28.100          21.600
 -10293548.604 6  -8020930.799 5  22542837.167    22542835.671    22542835.961
        36.600          30.600
 -23823086.844 7 -18563434.300 7  19948887.662    19948885.821    19948887.115
        46.400          46.200
 -21116763.343 7 -16454613.172 7  20886592.891    20886589.540    20886591.854
        46.900          42.500
 -10536786.195 5  -8210480.253 5  22575024.413    22575022.983    22575023.513
        35.900          33.400
 06  1  2  1 43  0.0000000  0  8G29G 6G18G 8G10G26G21G15
 -19441344.203 7 -15149088.518 7  20617543.474    20617541.255    20617542.755
        45.800          44.000
 -12455591.710 5  -9705645.506 5  22438494.502    22438493.501    22438493.782
        34.000          31.300
  -5685396.686 6  -4430177.200 5  22610200.315    22610197.045    22610199.411
        37.400          30.200
  -4084631.092 4  -3182826.711 3  24075253.394    24075251.985    24075252.390
        26.200          21.100
 -10211562.049 6  -7957045.177 5  22558438.780    22558437.321    22558437.742
        36.900          31.000
 -23822600.317 7 -18563055.185 7  19948980.108    19948978.392    19948979.623
        46.500          46.300
 -21177025.895 7 -16501571.002 7  20875125.240    20875122.007    20875124.203
        46.900          42.600
 -10633504.277 5  -8285844.994 5  22556619.475    22556618.215    22556618.549
        35.700          33.800
 06  1  2  1 43 30.0000000  0  8G29G 6G18G 8G10G26G21G15
 -19407620.508 7 -15122810.305 7  20623960.825    20623958.672    20623960.125
        45.600          44.000
 -12378152.869 5  -9645303.569 5  22453230.977    22453229.887    22453230.328
        34.600          31.300
  -5759770.784 6  -4488131.015 5  22596047.269    22596045.196    22596046.396
        37.800          32.300
  -4064697.254 4  -3167293.837 3  24079046.507    24079044.786    24079045.461
        27.100          19.300
 -10129447.776 6  -7893060.027 5  22574064.933    22574063.164    22574063.762
        36.900          30.800
 -23821436.101 7 -18562148.002 7  19949201.693    19949200.072    19949201.183
        46.600          46.400
 -21236920.493 7 -16548242.114 7  20863727.861    20863724.506    20863726.822
        47.000          42.800
 -10730049.515 6  -8361075.033 5  22538247.668    22538246.524    22538246.634
        36.000          34.700
 06  1  2  1 44  0.0000000  0  8G29G 6G18G 8G10G26G21G15
 -19373385.744 7 -15096133.867 7  20630475.557    20630473.380    20630474.808
        45.700          44.000
 -12300368.614 5  -9584692.478 5  22468032.957    22468031.737    22468032.125
        35.300          30.800
  -5833971.985 6  -4545950.100 5  22581927.619    22581925.196    22581926.805
        38.300          33.000
  -4044186.489 4  -3151311.414 3  24082949.727    24082948.153    24082948.631
        25.600          19.900
 -10047206.634 6  -7828976.021 5  22589714.852    22589713.306    22589713.769
        37.000          31.000
 -23819595.004 7 -18560713.379 7  19949551.959    19949550.413    19949551.484
        46.500          46.400
 -21296444.980 7 -16594624.831 7  20852400.467    20852397.235    20852399.578
        46.900          42.800
 -10826419.567 6  -8436168.564 5  22519909.065    22519907.598    22519908.056
        36.400          34.300
 06  1  2  1 44 30.0000000  0  8G29G 6G18G 8G10G26G21G15
 -19338641.751 7 -15069060.619 7  20637086.960    20637084.905    20637086.278
        45.800          44.100
 -12222241.935 5  -9523814.565 4  22482899.860    22482898.502    22482899.236
        35.100          29.900
  -5907999.991 6  -4603634.246 5  22567839.953    22567837.502    22567839.322
        37.700          32.000
  -4023099.227 4  -3134879.785 2  24086962.186    24086960.458    24086961.075
        25.300          17.800
  -9964839.608 6  -7764793.917 5  22605388.863    22605387.258    22605387.619
        36.500          30.800
 -23817077.658 7 -18558751.806 7  19950031.007    19950029.432    19950030.500
        46.600          46.400
 -21355597.145 7 -16640717.427 7  20841144.363    20841141.018    20841143.343
        47.100          43.000
 -10922612.418 6  -8511124.026 5  22501604.215    22501602.429    22501603.040
        36.000          33.000
 06  1  2  1 45  0.0000000  0  8G29G 6G18G 8G10G26G21G15
 -19303390.398 7 -15041592.032 7  20643794.949    20643793.004    20643794.327
        45.800          43.800
 -12143775.100 5  -9462671.579 5  22497831.539    22497830.275    22497830.890
        34.600          30.400
  -5981854.490 6  -4661183.182 5  22553786.153    22553783.290    22553785.335
        37.800          31.600
  -4001435.588 4  -3117999.028 2  24091084.584    24091083.005    24091083.898
        24.900          16.100
  -9882347.710 6  -7700514.528 5  22621086.364    22621084.700    22621085.248
        36.700          30.100
 -23813884.852 7 -18556263.904 7  19950638.649    19950636.875    19950638.105
        46.400          46.200
 -21414374.839 7 -16686518.222 7  20829959.387    20829955.920    20829958.239
        46.900          43.000
 -11018625.911 6  -8585939.738 5  22483333.652    22483331.683    22483332.480
        36.300          33.400
 06  1  2  1 45 30.0000000  0  8G29G 6G18G 8G10G26G21G15
 -19267633.300 7 -15013729.357 7  20650599.439    20650597.407    20650598.738
        45.800          44.000
 -12064971.018 5  -9401265.811 5  22512827.357    22512826.518    22512826.631
        34.000          31.300
  -6055534.616 6  -4718596.255 5  22539765.664    22539762.744    22539764.787
        38.400          32.100
  -3979196.258 4  -3100669.672 2  24095317.188    24095315.087    24095316.241
        25.900          17.800
  -9799731.979 6  -7636138.626 5  22636808.049    22636806.064    22636806.939
        36.500          30.100
 -23810017.332 7 -18553250.250 7  19951374.539    19951372.790    19951374.016
        46.600          46.300
 -21472776.194 7 -16732025.775 7  20818845.814    20818842.516    20818844.858
        47.000          43.000
 -11114457.852 6  -8660613.968 5  22465097.061    22465095.639    22465096.101
        36.900          34.300
 06  1  2  1 46  0.0000000  0  8G29G 6G18G 8G10G26G21G15
 -19231372.401 7 -14985474.104 7  20657499.728    20657497.689    20657499.027
        45.800          44.000
 -11985832.594 5  -9339599.524 5  22527887.172    22527886.001    22527886.327
        33.800          31.000
  -6129040.294 6  -4775873.386 5  22525777.745    22525774.996    22525776.775
        38.100          32.000
  -3956381.713 4  -3082892.102 2  24099658.413    24099656.400    24099657.198
        26.200          17.000
  -9716993.335 6  -7571666.950 5  22652552.274    22652550.882    22652551.102
        36.400          31.300
 -23805475.950 7 -18549711.509 7  19952238.759    19952237.005    19952238.210
        46.600          46.200
 -21530798.968 7 -16777238.321 7  20807804.547    20807801.227    20807803.506
        47.100          43.100
 -11210106.167 6  -8735145.118 5  22446896.143    22446894.421    22446894.955
        36.400          34.300
 06  1  2  1 46 30.0000000  0  8G29G 6G18G 8G10G26G21G15
 -19194609.399 7 -14956827.606 7  20664495.520    20664493.388    20664494.792
        45.800          44.100
 -11906362.349 5  -9277674.664 5  22543009.181    22543008.619    22543008.700
        32.600          30.600
  -6202370.860 6  -4833014.062 5  22511822.567    22511820.180    22511821.825
        37.400          31.000
  -3932992.764 4  -3064666.948 3  24104108.787    24104106.902    24104107.840
        24.900          20.500
  -9634132.729 6  -7507100.254 5  22668320.216    22668318.931    22668319.033
        36.200          31.100
 -23800261.580 7 -18545648.361 7  19953231.075    19953229.305    19953230.487
        46.700          46.200
 -21588440.773 7 -16822154.014 7  20796835.762    20796832.359    20796834.787
        47.100          43.400
 -11305568.572 6  -8809531.397 5  22428729.676    22428728.382    22428728.672
        36.000          34.100
 06  1  2  1 47  0.0000000  0  8G29G 6G18G 8G10G26G21G15
 -19157346.006 7 -14927791.193 7  20671586.405    20671584.366    20671585.711
        45.700          44.100
 -11826562.813 5  -9215493.243 4  22558194.571    22558193.873    22558193.893
        32.400          29.700
  -6275525.611 6  -4890017.761 5  22497902.793    22497899.222    22497901.906
        39.300          31.500
  -3909029.790 4  -3045994.496 3  24108669.331    24108667.285    24108668.303
        27.100          19.300
  -9551151.011 6  -7442439.180 5  22684111.195    22684109.463    22684109.948
        36.200          30.600
 -23794375.119 7 -18541061.502 7  19954351.279    19954349.508    19954350.759
        46.800          46.400
 -21645699.485 7 -16866771.189 7  20785939.804    20785936.405    20785938.803
        47.100          43.400
 -11400842.913 5  -8883771.139 5  22410599.557    22410598.551    22410598.582
        35.700          34.600
 06  1  2  1 47 30.0000000  0  8G29G 6G18G 8G10G26G21G15
 -19119584.192 7 -14898366.402 7  20678772.145    20678770.134    20678771.458
        45.600          43.900
 -11746437.337 5  -9153057.827 4  22573442.725    22573441.290    22573441.825
        33.200          29.900
  -6348504.452 6  -4946884.389 5  22484014.995    22484012.747    22484014.114
        38.700          33.000
  -3884493.740 4  -3026875.503 3  24113338.123    24113337.407    24113337.102
        26.500          23.000
  -9468049.284 6  -7377684.583 4  22699924.906    22699923.041    22699923.799
        36.600          29.700
 -23787817.375 7 -18535951.568 7  19955599.380    19955597.402    19955598.762
        47.000          46.400
 -21702572.916 7 -16911088.149 7  20775117.208    20775113.714    20775116.086
        46.800          43.400
 -11495926.792 6  -8957862.456 5  22392506.156    22392504.547    22392504.909
        36.500          34.500
 06  1  2  1 48  0.0000000  0  8G29G 6G18G 8G10G26G21G15
 -19081325.776 7 -14868554.647 7  20686052.487    20686050.531    20686051.788
        45.600          44.000
 -11665988.018 5  -9090370.057 5  22588751.826    22588750.361    22588751.052
        34.100          30.100
  -6421306.644 6  -5003613.307 5  22470160.843    22470159.160    22470159.778
        37.200          34.100
  -3859385.099 4  -3007310.339 3  24118116.262    24118114.703    24118115.244
        27.600          21.100
  -9384828.129 6  -7312836.931 5  22715761.804    22715759.685    22715760.512
        36.500          30.200
 -23780589.307 7 -18530319.303 7  19956974.658    19956972.881    19956974.135
        46.900          46.300
 -21759058.806 7 -16955103.122 7  20764368.150    20764364.834    20764367.095
        46.800          43.600
 -11590817.956 6  -9031803.629 5  22374448.410    22374446.994    22374447.575
        37.400          33.500
 06  1  2  1 48 30.0000000  0  8G29G 6G18G 8G10G26G21G15
 -19042572.602 7 -14838357.365 7  20693426.959    20693424.927    20693426.292
        45.800          43.800
 -11585218.229 5  -9027432.576 5  22604121.238    22604120.685    22604120.624
        34.000          30.600
  -6493931.716 6  -5060204.249 5  22456341.484    22456338.119    22456340.705
        40.000          32.300
  -3833703.901 4  -2987299.039 3  24123003.583    24123001.723    24123002.371
        27.400          21.100
  -9301488.577 6  -7247897.021 5  22731620.020    22731618.766    22731618.945
        36.100          30.400
 -23772691.984 7 -18524165.539 7  19958477.426    19958475.621    19958476.782
        46.700          46.300
 -21815155.536 7 -16998814.852 7  20753693.021    20753689.967    20753692.149
        46.800          43.700
 -11685514.367 6  -9105593.045 5  22356428.673    22356427.132    22356427.538
        37.200          34.800
 06  1  2  1 49  0.0000000  0  8G29G 6G18G 8G10G26G21G15
 -19003326.551 7 -14807776.025 7  20700895.343    20700893.225    20700894.602
        45.700          43.800
 -11504130.469 5  -8964247.329 4  22619551.744    22619551.076    22619550.972
        32.800          29.900
  -6566379.003 6  -5116656.691 5  22442554.741    22442551.472    22442553.920
        39.300          31.100
  -3807451.781 4  -2966842.827 3  24127998.630    24127997.876    24127997.793
        27.600          21.600
  -9218031.777 6  -7182865.759 4  22747501.641    22747499.883    22747500.498
        36.200          29.900
 -23764126.195 7 -18517490.894 7  19960107.114    19960105.620    19960106.679
        46.800          46.100
 -21870860.923 7 -17042221.639 7  20743092.918    20743089.604    20743091.823
        47.000          43.700
 -11780013.730 6  -9179228.916 5  22338445.470    22338444.515    22338444.744
        36.900          34.700
 06  1  2  1 49 30.0000000  0  8G29G 6G18G 8G10G26G21G15
 -18963589.333 7 -14776811.954 7  20708456.801    20708454.957    20708456.206
        45.800          43.600
 -11422727.230 5  -8900816.246 4  22635042.579    22635041.245    22635041.685
        33.400          29.500
  -6638648.418 6  -5172970.496 5  22428802.261    22428800.013    22428801.424
        38.300          33.200
  -3780628.932 4  -2945941.914 3  24133102.792    24133101.601    24133101.711
        25.300          19.300
  -9134458.485 5  -7117743.715 5  22763405.304    22763403.409    22763404.076
        35.900          30.100
 -23754893.074 7 -18510296.251 7  19961864.493    19961862.574    19961863.892
        47.000          46.100
 -21926172.762 7 -17085321.770 7  20732567.452    20732563.920    20732566.441
        47.000          43.500
 -11874313.584 6  -9252709.306 5  22320501.103    22320499.837    22320500.139
        36.900          34.700
 06  1  2  1 50  0.0000000  0  8G29G 6G18G 8G10G26G21G15
 -18923363.059 7 -14745466.805 7  20716111.965    20716109.734    20716111.173
        45.900          43.700
 -11341011.610 5  -8837141.740 4  22650591.991    22650591.357    22650591.514
        33.900          29.000
  -6710738.933 6  -5229144.896 5  22415084.497    22415081.222    22415083.584
        39.900          32.600
  -3753236.281 3  -2924596.968 3  24138315.680    24138314.616    24138314.618
        23.400          19.900
  -9050769.294 5  -7052531.365 5  22779330.360    22779328.996    22779329.242
        35.300          30.100
 -23744993.643 7 -18502582.403 7  19963748.185    19963746.326    19963747.685
        46.900          46.000
 -21981088.647 7 -17128113.370 7  20722117.165    20722113.858    20722116.186
        46.900          43.700
 -11968411.801 6  -9326032.592 5  22302594.909    22302593.536    22302593.821
        37.100          34.800
 06  1  2  1 50 30.0000000  0  8G29G 6G18G 8G10G26G21G15
 -18882649.556 7 -14713741.994 7  20723859.420    20723857.167    20723858.730
        46.000          43.600
 -11258986.509 5  -8773226.079 4  22666201.061    22666200.381    22666200.303
        32.000          28.800
  -6782650.463 6  -5285179.860 5  22401399.604    22401396.476    22401398.629
        38.400          32.100
  -3725274.117 4  -2902808.274 3  24143637.071    24143634.889    24143635.904
        27.600          19.300
  -8966965.297 5  -6987229.565 5  22795278.011    22795276.402    22795276.849
        35.700          30.200
 -23734428.956 7 -18494350.177 7  19965758.541    19965756.694    19965758.032
        47.000          46.000
 -22035606.669 7 -17170594.937 7  20711742.856    20711739.482    20711741.756
        46.600          43.900
 -12062306.153 6  -9399197.020 5  22284727.777    22284726.190    22284726.530
        37.100          35.200
 06  1  2  1 51  0.0000000  0  8G29G 6G18G 8G10G26G21G15
 -18841450.776 7 -14681639.050 7  20731699.254    20731697.096    20731698.567
        45.900          43.600
 -11176654.216 5  -8709071.084 4  22681868.612    22681867.445    22681867.903
        32.600          28.800
  -6854382.174 6  -5341074.678 5  22387749.472    22387747.130    22387748.678
        38.900          33.900
  -3696743.602 4  -2880576.705 3  24149066.046    24149064.677    24149065.228
        27.600          19.900
  -8883047.461 5  -6921839.044 4  22811246.609    22811245.450    22811245.650
        35.500          29.500
 -23723200.067 7 -18485600.387 7  19967895.321    19967893.587    19967894.875
        47.200          46.100
 -22089724.704 7 -17212764.827 7  20701444.217    20701441.152    20701443.285
        46.600          43.900
 -12155994.339 6  -9472200.798 5  22266899.216    22266897.639    22266898.126
        37.700          34.400
 06  1  2  1 51 30.0000000  0  8G29G 6G18G 8G10G26G21G15
 -18799768.543 7 -14649159.384 7  20739631.262    20739628.944    20739630.498
        45.700          43.500
 -11094017.867 5  -8644679.137 4  22697593.994    22697592.520    22697593.248
        31.500          28.600
  -6925933.935 6  -5396829.276 5  22374134.100    22374131.446    22374133.145
        39.900          34.800
  -3667645.416 4  -2857902.790 2  24154602.859    24154601.547    24154602.061
        26.800          17.800
  -8799016.521 5  -6856360.397 4  22827236.831    22827236.164    22827235.880
        34.700          29.200
 -23711308.242 7 -18476334.026 7  19970158.348    19970156.471    19970157.883
        47.100          46.100
 -22143440.563 7 -17254621.332 7  20691222.562    20691219.346    20691221.519
        46.500          44.000
 -12249474.007 6  -9545042.100 5  22249110.346    22249108.925    22249109.223
        36.900          34.000
 06  1  2  1 52  0.0000000  0  8G29G 6G18G 8G10G26G21G15
 -18757604.774 7 -14616304.497 7  20747654.617    20747652.590    20747653.834
        45.600          43.600
 -11011080.233 5  -8580052.431 4  22713376.511    22713375.381    22713375.773
        32.800          28.800
  -6997305.079 6  -5452443.135 5  22360552.194    22360549.254    22360551.235
        39.200          33.200
  -3637980.305 4  -2834787.104 2  24160248.743    24160246.604    24160247.647
        27.400          12.600
  -8714873.427 5  -6790794.359 4  22843249.525    22843248.133    22843248.314
        35.100          28.800
 -23698754.455 7 -18466551.846 7  19972547.380    19972545.388    19972546.867
        47.300          46.000
 -22196752.114 7 -17296162.800 7  20681077.871    20681074.463    20681076.718
        46.500          44.000
 -12342743.163 6  -9617719.357 5  22231362.008    22231360.611    22231360.987
        37.600          34.900
 06  1  2  1 52 30.0000000  0  8G29G 6G18G 8G10G26G21G15
 -18714961.455 7 -14583075.933 7  20755769.383    20755767.290    20755768.653
        45.800          43.600
 -10927844.106 5  -8515193.117 4  22729215.993    22729214.752    22729215.315
        32.800          28.600
  -7068495.138 6  -5507915.909 5  22347005.108    22347002.321    22347004.232
        39.600          33.200
  -3607749.368 4  -2811230.526 2  24166001.231    24165999.536    24166000.334
        27.400          17.800
  -8630619.118 5  -6725141.662 4  22859282.777    22859281.028    22859281.591
        35.200          28.600
 -23685539.932 7 -18456254.810 7  19975062.018    19975059.952    19975061.457
        47.200          46.100
 -22249657.234 7 -17337387.563 7  20671010.194    20671006.974    20671009.206
        46.600          44.000
 -12435799.404 6  -9690230.716 5  22213654.279    22213652.771    22213653.073
        37.700          35.500
 06  1  2  1 53  0.0000000  0  8G29G 6G18G 8G10G26G21G15
 -18671840.583 7 -14549475.257 7  20763974.927    20763973.013    20763974.248
        45.800          43.600
 -10844312.395 5  -8450103.486 4  22745111.382    22745110.345    22745110.711
        31.800          29.900
  -7139503.398 6  -5563247.010 5  22333492.692    22333490.076    22333491.875
        39.700          33.100
  -3576953.480 4  -2787233.735 3  24171861.263    24171859.545    24171860.179
        26.200          18.600
  -8546254.380 5  -6659402.916 4  22875336.340    22875334.975    22875335.217
        34.600          29.000
 -23671665.911 7 -18445443.879 7  19977702.051    19977700.221    19977701.521
        47.100          46.100
 -22302154.091 7 -17378294.200 7  20661020.589    20661017.111    20661019.521
        46.500          44.000
 -12528640.453 6  -9762574.370 5  22195987.602    22195985.476    22195986.313
        38.200          35.500
 06  1  2  1 53 30.0000000  0  8G29G 6G18G 8G10G26G21G15
 -18628244.126 7 -14515503.982 7  20772271.160    20772269.092    20772270.379
        45.800          43.500
 -10760487.888 5  -8384785.722 4  22761062.330    22761061.656    22761061.531
        32.000          29.700
  -7210329.578 6  -5618436.236 5  22320014.944    22320012.170    22320014.021
        39.700          33.400
  -3545593.300 4  -2762797.207 2  24177828.535    24177827.772    24177827.566
        24.600          17.000
  -8461780.002 5  -6593578.737 4  22891411.623    22891410.196    22891410.517
        34.900          29.500
 -23657133.535 7 -18434119.946 7  19980467.329    19980465.667    19980466.843
        47.100          46.200
 -22354240.200 7 -17418880.773 7  20651108.920    20651105.357    20651107.851
        46.600          44.000
 -12621263.751 6  -9834748.373 5  22178361.404    22178360.090    22178360.507
        38.800          35.600
 06  1  2  1 54  0.0000000  0  8G29G 6G18G 8G10G26G21G15
 -18584173.914 7 -14481163.557 7  20780657.246    20780655.393    20780656.617
        45.600          43.700
 -10676373.338 5  -8319241.939 4  22777069.229    22777067.963    22777068.390
        33.000          28.800
  -7280973.076 6  -5673483.120 5  22306571.677    22306569.125    22306570.954
        39.500          32.700
  -3513669.731 4  -2737921.675 2  24183903.872    24183902.043    24183902.794
        26.200          17.000
  -8377196.897 5  -6527669.831 4  22907506.886    22907505.688    22907505.876
        34.700          29.500
 -23641944.182 7 -18422284.082 7  19983357.833    19983356.155    19983357.366
        47.200          46.200
 -22405913.592 7 -17459145.749 7  20641275.582    20641272.294    20641274.588
        46.500          44.200
 -12713667.163 6  -9906751.014 5  22160777.506    22160776.266    22160776.570
        38.000          35.800
 06  1  2  1 54 30.0000000  0  8G29G 6G18G 8G10G26G21G15
 -18539632.034 7 -14446455.599 7  20789133.270    20789131.345    20789132.654
        45.800          43.400
 -10591971.536 5  -8253474.316 4  22793130.284    22793128.840    22793129.520
        32.600          27.600
  -7351433.492 6  -5728387.332 5  22293163.789    22293161.281    22293162.951
        40.100          34.000
  -3481184.009 4  -2712608.146 3  24190085.488    24190084.496    24190084.486
        26.200          21.100
  -8292506.001 5  -6461676.944 4  22923623.324    22923622.078    22923622.186
        34.700          28.800
 -23626099.071 7 -18409937.239 7  19986373.180    19986371.302    19986372.658
        47.400          46.200
 -22457172.607 7 -17499087.837 7  20631521.618    20631517.923    20631520.488
        46.500          44.200
 -12805848.432 6  -9978580.562 5  22143236.158    22143234.560    22143235.055
        38.400          35.700
 06  1  2  1 55  0.0000000  0  8G29G 6G18G 8G10G26G21G15
 -18494620.497 7 -14411381.671 7  20797698.824    20797696.834    20797698.091
        45.700          43.400
 -10507285.482 5  -8187485.181 4  22809245.372    22809244.032    22809244.831
        32.300          27.400
  -7421710.311 6  -5783148.484 5  22279790.456    22279787.985    22279789.671
        40.200          34.000
  -3448137.353 4  -2686857.514 3  24196373.956    24196372.849    24196372.948
        25.600          19.900
  -8207708.098 5  -6395600.651 4  22939759.946    22939758.026    22939758.859
        34.600          27.600
 -23609599.358 7 -18397080.313 7  19989513.033    19989511.047    19989512.458
        47.300          46.000
 -22508014.744 7 -17538705.085 7  20621846.624    20621842.993    20621845.531
        46.600          44.300
 -12897805.204 6 -10050235.181 5  22125737.019    22125735.671    22125736.196
        38.300          35.600
 06  1  2  1 55 30.0000000  0  8G29G 6G18G 8G10G26G21G15
 -18449141.316 7 -14375943.345 7  20806353.290    20806351.194    20806352.591
        45.600          43.400
 -10422317.883 5  -8121276.688 4  22825414.175    22825413.386    22825413.478
        32.400          28.800
  -7491802.840 6  -5837766.027 5  22266452.373    22266449.681    22266451.476
        39.900          34.500
  -3414530.149 4  -2660670.065 3  24202769.356    24202768.367    24202768.435
        25.300          22.600
  -8122804.092 5  -6329441.682 4  22955916.618    22955915.137    22955915.485
        33.600          29.000
 -23592446.549 7 -18383714.490 7  19992776.989    19992775.037    19992776.479
        47.400          46.000
 -22558438.058 7 -17577995.971 7  20612251.271    20612247.892    20612250.251
        46.700          44.400
 -12989535.145 6 -10121713.027 5  22108281.382    22108280.052    22108280.321
        37.700          35.500
 06  1  2  1 56  0.0000000  0  8G29G 6G18G 8G10G26G21G15
 -18403196.622 7 -14340142.281 7  20815095.946    20815094.241    20815095.313
        45.600          43.400
 -10337071.809 5  -8054851.200 4  22841636.112    22841634.994    22841635.430
        31.500          29.000
  -7561710.651 6  -5892239.640 5  22253149.324    22253146.495    22253148.348
        39.800          34.000
  -3380363.408 3  -2634046.636 3  24209270.452    24209269.668    24209269.574
        22.600          20.500
  -8037794.849 5  -6263200.732 4  22972092.897    22972091.739    22972091.797
        33.500          28.100
 -23574641.859 7 -18369840.700 7  19996165.072    19996163.221    19996164.554
        47.400          46.000
 -22608440.403 7 -17616958.837 7  20602736.175    20602732.787    20602735.139
        46.600          44.600
 -13081035.875 6 -10193012.278 5  22090869.980    22090867.944    22090868.904
        38.600          35.300
 06  1  2  1 56 30.0000000  0  8G29G 6G18G 8G10G26G21G15
 -18356788.261 7 -14303979.921 7  20823927.449    20823925.399    20823926.651
        45.600          43.500
 -10251549.774 5  -7988210.674 4  22857910.660    22857909.124    22857909.736
        31.300          28.400
  -7631433.313 6  -5946568.978 5  22239881.389    22239878.628    22239880.599
        40.200          33.500
  -3345638.060 4  -2606987.933 3  24215879.099    24215877.387    24215878.381
        26.500          20.500
  -7952681.184 5  -6196878.399 4  22988289.455    22988288.186    22988288.506
        34.600          27.100
 -23556186.746 7 -18355460.090 7  19999677.018    19999675.082    19999676.486
        47.500          46.000
 -22658020.027 7 -17655592.306 7  20593301.324    20593298.140    20593300.448
        46.700          44.800
 -13172305.183 6 -10264131.211 5  22073501.066    22073499.830    22073500.377
        38.600          35.200
 06  1  2  1 57  0.0000000  0  8G29G 6G18G 8G10G26G21G15
 -18309918.327 7 -14267457.893 7  20832846.527    20832844.543    20832845.757
        45.600          43.400
 -10165754.757 5  -7921357.444 4  22874236.611    22874235.534    22874235.973
        30.600          27.900
  -7700970.267 6  -6000753.612 5  22226648.852    22226646.116    22226648.036
        40.000          33.600
  -3310355.439 4  -2579494.994 3  24222593.766    24222592.010    24222592.581
        26.800          19.300
  -7867463.703 5  -6130475.173 4  23004506.632    23004504.482    23004505.343
        34.300          26.800
 -23537082.530 7 -18340573.688 7  20003312.359    20003310.563    20003311.826
        47.200          46.000
 -22707174.637 7 -17693894.596 7  20583947.702    20583944.275    20583946.713
        46.600          44.700
 -13263340.541 6 -10335067.839 5  22056178.523    22056176.708    22056177.402
        39.200          35.900
 06  1  2  1 57 30.0000000  0  8G29G 6G18G 8G10G26G21G15
 -18262588.879 7 -14230577.802 7  20841853.015    20841850.952    20841852.334
        45.700          43.400
 -10079689.673 5  -7854293.761 4  22890614.139    22890613.277    22890613.536
        30.800          27.900
  -7770320.969 6  -6054793.111 5  22213451.941    22213449.305    22213451.124
        40.500          34.300
  -3274516.927 4  -2551568.892 3  24229412.939    24229411.689    24229411.946
        25.300          20.500
  -7782143.193 5  -6063991.666 4  23020742.551    23020740.699    23020741.239
        34.000          28.600
 -23517330.782 7 -18325182.712 7  20007070.865    20007069.102    20007070.322
        47.300          45.900
 -22755902.023 7 -17731863.987 7  20574675.243    20574671.684    20574674.126
        46.200          44.600
 -13354139.634 6 -10405820.363 6  22038899.872    22038898.296    22038898.785
        39.300          36.700
 06  1  2  1 58  0.0000000  0  8G29G 6G18G 8G10G26G21G15
 -18214801.976 7 -14193341.250 7  20850946.587    20850944.510    20850945.897
        45.800          43.400
  -9993357.436 5  -7787021.913 4  22907042.894    22907041.720    22907041.905
        30.400          27.600
  -7839484.889 6  -6108687.055 5  22200290.758    22200288.149    22200289.770
        40.500          35.100
  -3238123.124 4  -2523210.084 2  24236338.645    24236336.813    24236337.535
        24.900          17.000
  -7696720.568 5  -5997428.582 4  23036996.935    23036995.888    23036995.962
        33.000          28.100
 -23496932.795 7 -18309288.176 7  20010952.527    20010950.747    20010951.974
        47.300          45.800
 -22804200.090 7 -17769498.843 7  20565484.255    20565480.923    20565483.137
        46.100          44.800
 -13444700.170 6 -10476386.992 6  22021666.520    22021665.340    22021665.368
        38.600          37.100
 06  1  2  1 58 30.0000000  0  8G29G 6G18G 8G10G26G21G15
 -18166559.630 7 -14155749.809 7  20860126.611    20860124.704    20860125.938
        45.800          43.400
  -9906760.821 5  -7719544.038 4  22923522.090    22923520.278    22923521.396
        32.700          27.100
  -7908461.602 6  -6162435.127 5  22187164.827    22187161.995    22187163.896
        40.800          34.400
  -3201175.086 4  -2494419.421 2  24243369.742    24243368.109    24243368.646
        25.600          17.800
  -7611196.555 5  -5930786.499 4  23053272.319    23053270.115    23053271.078
        32.800          26.500
 -23475890.089 7 -18292891.255 7  20014956.939    20014955.020    20014956.424
        47.400          45.800
 -22852066.810 7 -17806797.581 7  20556375.212    20556372.133    20556374.254
        45.900          44.700
 -13535019.861 6 -10546765.956 6  22004479.364    22004477.927    22004478.284
        39.300          37.000
 06  1  2  1 59  0.0000000  0  8G29G 6G18G 8G10G26G21G15
 -18117863.883 7 -14117805.070 7  20869393.186    20869391.253    20869392.440
        45.500          43.200
  -9819902.787 5  -7651862.471 4  22940050.411    22940048.835    22940049.481
        30.200          25.300
  -7977250.209 6  -6216036.637 5  22174074.962    22174071.903    22174074.059
        41.200          34.000
  -3163674.086 4  -2465197.847 2  24250505.321    24250504.222    24250504.389
        24.900          16.100
  -7525572.203 5  -5864066.236 4  23069566.228    23069564.781    23069564.949
        33.800          28.600
 -23454204.179 7 -18275993.144 7  20019083.763    20019081.736    20019083.178
        47.600          45.700
 -22899500.548 7 -17843758.929 7  20547349.029    20547345.806    20547347.997
        45.900          44.700
 -13625096.246 6 -10616955.324 6  21987338.276    21987336.893    21987337.236
        39.100          37.100
 06  1  2  1 59 30.0000000  0  8G29G 6G18G 8G10G26G21G15
 -18068716.977 7 -14079508.778 7  20878745.388    20878743.609    20878744.730
        45.600          43.200
  -9732786.015 4  -7583979.304 4  22956627.703    22956626.764    22956626.990
        28.800          26.500
  -8045850.831 6  -6269491.659 5  22161020.526    22161017.811    22161019.637
        41.200          34.600
  -3125621.439 4  -2435546.480 3  24257746.964    24257745.309    24257745.965
        27.400          18.600
  -7439848.164 5  -5797268.278 4  23085878.770    23085877.343    23085877.762
        33.200          27.900
 -23431876.685 7 -18258595.095 7  20023332.477    20023330.509    20023331.923
        47.500          45.900
 -22946498.960 7 -17880381.063 7  20538405.713    20538402.283    20538404.695
        46.100          44.900
 -13714926.922 6 -10686953.238 6  21970243.887    21970242.609    21970242.997
        39.600          36.600
 06  1  2  2  0  0.0000000  0  8G29G 6G18G 8G10G26G21G15
 -18019120.812 7 -14040862.413 7  20888183.310    20888181.431    20888182.570
        45.600          43.200
  -9645413.609 4  -7515896.936 4  22973253.951    22973253.219    22973253.204
        28.800          25.900
  -8114262.726 6  -6322799.616 5  22148002.269    22147999.318    22148001.378
        41.400          34.500
  -3087018.398 4  -2405466.167 2  24265092.605    24265090.752    24265091.584
        25.900          17.800
  -7354025.236 5  -5730393.299 4  23102210.118    23102208.899    23102209.040
        32.100          26.800
 -23408909.019 7 -18240698.210 7  20027703.023    20027701.129    20027702.474
        47.600          45.800
 -22993060.136 7 -17916662.499 7  20529545.565    20529542.005    20529544.466
        46.200          45.200
 -13804509.587 6 -10756757.912 6  21953197.413    21953195.296    21953196.121
        39.700          36.500
 06  1  2  2  0 30.0000000  0  8G29G 6G18G 8G10G26G21G15
 -17969077.619 7 -14001867.716 7  20897706.273    20897704.263    20897705.569
        45.600          42.900
  -9557788.336 4  -7447617.512 4  22989928.429    22989927.676    22989927.546
        29.900          25.600
  -8182485.161 6  -6375959.946 5  22135020.148    22135017.031    22135019.168
        41.200          34.300
  -3047866.151 3  -2374957.905 3  24272543.113    24272542.263    24272541.945
        23.800          21.600
  -7268104.171 5  -5663441.824 4  23118560.264    23118558.557    23118559.241
        32.600          27.100
 -23385302.804 7 -18222303.750 7  20032195.134    20032193.195    20032194.678
        47.600          45.700
 -23039182.047 7 -17952601.644 7  20520768.848    20520765.308    20520767.770
        46.100          45.100
 -13893841.776 6 -10826367.388 6  21936197.883    21936196.326    21936196.679
        39.600          37.100
 06  1  2  2  1  0.0000000  0  8G29G 6G18G 8G10G26G21G15
 -17918589.475 7 -13962526.299 7  20907313.935    20907311.867    20907313.195
        45.700          42.800
  -9469913.002 5  -7379143.234 4  23006650.362    23006649.883    23006649.858
        30.100          25.300
  -8250517.756 6  -6428972.338 5  22122073.726    22122071.034    22122072.929
        41.300          35.200
  -3008165.691 4  -2344022.501 3  24280098.468    24280096.558    24280097.627
        29.200          19.900
  -7182085.870 5  -5596414.572 4  23134929.410    23134927.675    23134928.158
        33.100          27.600
 -23361059.510 7 -18203412.869 7  20036808.453    20036806.556    20036807.971
        47.500          45.900
 -23084862.532 7 -17988196.821 7  20512076.230    20512072.579    20512075.134
        46.000          45.300
 -13982921.106 6 -10895779.839 6  21919246.891    21919245.016    21919245.608
        39.800          37.100
 06  1  2  2  1 30.0000000  0  8G29G 6G18G 8G10G26G21G15
 -17867658.569 7 -13922839.881 7  20917005.881    20917003.674    20917005.118
        45.800          42.800
  -9381790.695 4  -7310476.525 4  23023419.545    23023419.043    23023418.717
        28.600          26.200
  -8318359.823 6  -6481836.279 5  22109163.939    22109161.090    22109163.006
        41.300          35.400
  -2967918.106 4  -2312660.736 3  24287756.844    24287755.205    24287755.628
        24.200          18.600
  -7095971.165 5  -5529312.220 4  23151316.582    23151315.104    23151315.395
        32.800          27.900
 -23336180.838 7 -18184026.887 7  20041542.639    20041540.910    20041542.129
        47.500          45.800
 -23130099.762 7 -18023446.611 7  20503467.679    20503464.175    20503466.640
        46.100          45.200
 -14071745.165 6 -10964993.391 6  21902344.033    21902342.179    21902342.926
        40.300          36.600
 06  1  2  2  2  0.0000000  0  8G29G 6G18G 8G10G26G21G15
 -17816286.836 7 -13882809.958 7  20926781.535    20926779.423    20926780.832
        45.800          42.800
  -9293424.280 4  -7241619.617 4  23040235.125    23040234.686    23040234.401
        28.100          26.800
  -8386011.279 6  -6534551.685 5  22096290.253    22096287.495    22096289.313
        41.500          35.600
  -2927124.833 4  -2280873.752 3  24295519.362    24295518.040    24295518.561
        26.500          19.300
  -7009760.600 5  -5462135.165 4  23167721.478    23167720.560    23167720.556
        32.300          28.100
 -23310668.424 7 -18164147.081 7  20046397.435    20046395.767    20046396.910
        47.400          45.800
 -23174891.509 7 -18058349.268 7  20494943.970    20494940.641    20494943.007
        46.100          45.200
 -14160311.695 6 -11034006.263 6  21885490.577    21885488.437    21885489.416
        40.700          36.500
 06  1  2  2  2 30.0000000  0  9G29G 6G18G 8G10G 9G26G21G15
 -17764476.456 7 -13842438.231 7  20936640.646    20936638.630    20936639.931
        45.700          42.700
  -9204816.610 4  -7172574.714 4  23057096.473    23057096.066    23057095.926
        28.800          26.800
  -8453471.071 6  -6587117.738 5  22083452.950    22083450.302    22083452.007
        41.500          35.900
  -2885787.302 4  -2248662.699 3  24303385.436    24303384.537    24303384.804
        25.600          20.500
  -6923454.950 5  -5394884.030 4  23184145.606    23184143.598    23184144.445
        33.200          27.100
   -155466.940 2   -121142.740 9  24638445.168    24638443.528    24638443.480
        16.100          -3.000
 -23284524.035 7 -18143774.827 7  20051372.664    20051370.895    20051372.092
        47.400          46.000
 -23219236.053 7 -18092903.452 7  20486505.506    20486502.109    20486504.511
        45.800          45.200
 -14248618.059 6 -11102816.423 6  21868686.147    21868684.428    21868685.071
        40.300          37.200
 06  1  2  2  3  0.0000000  0  9G29G 6G18G 8G10G 9G26G21G15
 -17712229.716 7 -13801726.482 7  20946582.766    20946580.787    20946582.084
        45.800          42.700
  -9115970.479 5  -7103343.981 4  23074003.795    23074002.739    23074003.093
        30.200          26.500
  -8520738.996 6  -6639534.292 5  22070652.143    22070649.460    22070651.350
        41.900          35.400
  -2843906.950 3  -2216028.655 2  24311354.870    24311353.997    24311353.802
        22.100          15.100
  -6837055.000 5  -5327559.397 4  23200586.550    23200585.274    23200585.449
        32.100          28.600
   -272093.133 3   -212020.322 1  24616250.207    24616249.834    24616249.698
        19.300           6.500
 -23257749.190 7 -18122911.309 7  20056467.614    20056465.917    20056467.085
        47.400          45.600
 -23263131.357 7 -18127107.579 7  20478152.437    20478149.101    20478151.417
        45.800          45.300
 -14336662.087 6 -11171422.151 6  21851931.943    21851930.371    21851930.799
        40.500          37.800
 06  1  2  2  3 30.0000000  0  9G29G 6G18G 8G10G 9G26G21G15
 -17659548.646 7 -13760676.297 7  20956607.876    20956605.677    20956607.053
        45.600          42.500
  -9026888.936 5  -7033929.798 4  23090955.437    23090954.640    23090954.910
        30.200          26.200
  -8587814.176 6  -6691800.654 5  22057888.492    22057885.336    22057887.357
        41.800          35.300
  -2801485.125 4  -2182972.643 3  24319428.146    24319426.996    24319427.077
        25.900          18.600
  -6750561.569 5  -5260161.928 4  23217045.891    23217044.440    23217044.674
        32.600          27.900
   -388738.947 3   -302913.155 1  24594054.436    24594053.356    24594053.237
        22.100          11.000
 -23230345.671 7 -18101557.911 7  20061682.291    20061680.581    20061681.770
        47.400          45.500
 -23306575.436 7 -18160960.104 7  20469885.439    20469881.945    20469884.380
        45.700          45.300
 -14424441.420 6 -11239821.624 6  21835227.995    21835226.612    21835226.896
        40.400          38.300
 06  1  2  2  4  0.0000000  0  9G29G 6G18G 8G10G 9G26G21G15
 -17606435.479 7 -13719289.410 7  20966714.890    20966712.707    20966714.176
        45.700          42.500
  -8937574.926 4  -6964334.474 4  23107951.733    23107950.575    23107950.833
        28.800          24.900
  -8654696.561 6  -6743916.790 5  22045160.903    22045158.058    22045160.026
        41.800          35.700
  -2758522.818 4  -2149495.564 2  24327603.506    24327601.983    24327602.530
        24.200          17.000
  -6663975.528 5  -5192692.301 4  23233522.319    23233521.091    23233521.165
        32.600          26.800
   -505401.280 3   -393818.862 2  24571853.851    24571853.266    24571852.751
        23.000          17.000
 -23202315.088 7 -18079715.894 7  20067016.446    20067014.536    20067015.865
        47.300          45.500
 -23349566.431 7 -18194459.581 7  20461704.592    20461701.033    20461703.502
        45.500          45.400
 -14511953.510 6 -11308012.851 6  21818574.959    21818573.546    21818573.865
        40.300          38.200
 06  1  2  2  4 30.0000000  0  9G29G 6G18G 8G10G 9G26G21G15
 -17552892.280 7 -13677567.438 7  20976903.870    20976901.677    20976903.157
        45.600          42.400
  -8848031.184 4  -6894560.153 4  23124990.302    23124990.444    23124990.002
        27.600          26.800
  -8721385.503 6  -6795882.187 5  22032470.128    22032467.572    22032469.202
        41.100          35.800
  -2715021.450 4  -2115598.423 3  24335881.946    24335880.072    24335880.815
        26.500          19.900
  -6577297.344 5  -5125150.862 4  23250016.989    23250015.328    23250015.732
        32.100          25.900
   -622076.950 3   -484734.922 3  24549652.343    24549651.193    24549651.201
        23.800          19.900
 -23173659.415 7 -18057386.793 7  20072469.329    20072467.561    20072468.770
        47.100          45.400
 -23392102.136 7 -18227604.276 7  20453610.162    20453606.638    20453609.106
        45.600          45.200
 -14599195.970 6 -11375993.989 6  21801973.465    21801971.581    21801972.412
        40.800          37.800
 06  1  2  2  5  0.0000000  0  9G29G 6G18G 8G10G 9G26G21G15
 -17498921.258 7 -13635512.095 7  20987174.153    20987171.967    20987173.433
        45.600          42.400
  -8758260.582 4  -6824609.091 4  23142073.968    23142072.941    23142073.058
        28.600          26.800
  -8787880.371 6  -6847696.354 6  22019816.670    22019814.230    22019815.744
        41.100          36.100
  -2670982.624 4  -2081282.455 2  24344261.550    24344259.977    24344260.641
        25.600          17.000
  -6490527.749 5  -5057538.201 4  23266528.425    23266527.007    23266527.266
        31.500          26.800
   -738763.368 2   -575659.340 3  24527448.132    24527445.973    24527446.184
        17.000          19.300
 -23144380.204 7 -18034571.821 7  20078040.859    20078039.165    20078040.364
        47.200          45.300
 -23434180.882 7 -18260392.903 7  20445602.650    20445599.372    20445601.757
        45.600          45.300
 -14686166.204 6 -11443763.000 6  21785423.573    21785421.817    21785422.438
        41.000          38.300
 06  1  2  2  5 30.0000000  0  9G29G 6G18G 8G10G 9G26G21G15
 -17444524.536 7 -13593125.037 7  20997525.459    20997523.466    20997524.748
        45.600          42.600
  -8668266.221 4  -6754483.640 4  23159199.325    23159198.532    23159198.558
        29.200          26.800
  -8854180.674 6  -6899358.911 6  22007200.270    22007197.672    22007199.287
        41.500          36.000
  -2626407.570 4  -2046548.653 2  24352744.101    24352742.298    24352743.178
        24.200          16.100
  -6403667.624 5  -4989854.993 4  23283056.616    23283056.244    23283055.805
        32.000          27.100
   -855457.260 3   -666589.573 3  24505241.046    24505240.111    24505239.180
        19.300          21.100
 -23114479.435 7 -18011272.516 7  20083730.906    20083729.118    20083730.386
        47.100          45.300
 -23475800.597 7 -18292823.850 7  20437682.913    20437679.403    20437681.925
        45.700          45.500
 -14772861.886 6 -11511318.076 6  21768925.938    21768924.069    21768924.747
        40.700          37.700
 06  1  2  2  6  0.0000000  0  9G29G 6G18G 8G10G 9G26G21G15
 -17389704.300 7 -13550407.973 7  21007957.370    21007955.382    21007956.655
        45.600          42.500
  -8578051.027 4  -6684186.096 4  23176366.954    23176366.175    23176366.244
        29.500          27.100
  -8920285.811 7  -6950869.403 6  21994620.804    21994618.185    21994620.002
        42.000          36.300
  -2581297.990 4  -2011398.333 3  24361328.090    24361326.985    24361326.963
        25.300          18.600
  -6316717.810 5  -4922101.920 4  23299603.233    23299602.362    23299602.066
        31.600          26.200
   -972155.908 3   -757523.543 3  24483034.627    24483033.126    24483032.377
        21.600          20.500
 -23083958.742 7 -17987490.154 7  20089538.722    20089537.045    20089538.219
        47.000          45.300
 -23516959.343 7 -18324895.592 7  20429850.723    20429847.216    20429849.681
        45.600          45.700
 -14859280.477 6 -11578657.237 6  21752480.656    21752479.078    21752479.648
        40.600          37.700
 06  1  2  2  6 30.0000000  0  9G29G 6G18G 8G10G 9G26G21G15
 -17334462.983 7 -13507362.793 7  21018469.536    21018467.550    21018468.719
        45.500          42.500
  -8487617.770 4  -6613718.661 4  23193575.801    23193574.936    23193574.900
        27.400          26.200
  -8986195.492 7  -7002227.584 6  21982078.577    21982075.999    21982077.781
        42.000          36.200
  -2535655.167 4  -1975832.507 2  24370013.341    24370012.012    24370012.611
        25.600          17.800
  -6229679.126 5  -4854279.569 4  23316166.272    23316164.645    23316165.177
        32.400          24.900
  -1088855.875 3   -848458.551 2  24460827.906    24460825.820    24460825.367
        19.900          17.800
 -23052820.088 7 -17963226.266 7  20095464.133    20095462.567    20095463.612
        47.200          45.100
 -23557655.263 7 -18356606.692 7  20422106.736    20422103.071    20422105.590
        45.800          45.800
 -14945419.751 6 -11645778.748 6  21736088.930    21736087.399    21736087.898
        41.200          38.100
 06  1  2  2  7  0.0000000  0  9G29G 6G18G 8G10G 9G26G21G15
 -17278802.409 7 -13463990.918 7  21029061.400    21029059.261    21029060.648
        45.600          42.200
  -8396969.387 4  -6543083.601 3  23210825.427    23210824.616    23210824.499
        27.400          23.800
  -9051908.767 6  -7053432.732 5  21969573.568    21969571.019    21969572.821
        41.900          35.700
  -2489480.410 4  -1939852.175 2  24378800.874    24378799.266    24378799.913
        26.200          17.800
  -6142552.016 5  -4786388.324 4  23332746.175    23332744.674    23332745.052
        31.500          25.900
  -1205554.396 3   -939392.410 3  24438619.537    24438618.935    24438617.890
        23.000          19.900
 -23021065.286 7 -17938482.258 7  20101506.818    20101505.294    20101506.314
        47.100          45.300
 -23597886.207 7 -18387955.475 7  20414450.782    20414447.415    20414449.753
        45.600          45.800
 -15031277.095 6 -11712680.573 6  21719751.204    21719749.297    21719750.066
        41.500          38.000
 06  1  2  2  7 30.0000000  0  9G29G 6G18G 8G10G 9G26G21G15
 -17222724.960 7 -13420294.206 7  21039732.333    21039730.526    21039731.761
        45.400          42.100
  -8306108.794 4  -6472283.146 3  23228115.795    23228114.846    23228115.396
        28.400          23.400
  -9117424.953 7  -7104484.293 6  21957106.457    21957103.877    21957105.624
        42.200          36.500
  -2442775.891 4  -1903459.048 2  24387688.733    24387686.217    24387687.238
        26.500          16.100
  -6055337.443 5  -4718428.919 4  23349342.705    23349341.355    23349341.533
        32.000          26.500
  -1322247.636 3  -1030322.218 3  24416413.758    24416412.543    24416412.168
        20.500          21.100
 -22988696.198 7 -17913259.589 7  20107666.545    20107664.858    20107666.052
        47.000          45.100
 -23637650.373 7 -18418940.535 7  20406883.830    20406880.551    20406882.824
        45.600          45.900
 -15116850.043 6 -11779360.797 6  21703466.774    21703465.396    21703465.796
        41.300          38.100
 06  1  2  2  8  0.0000000  0  9G29G 6G18G 8G10G 9G26G21G15
 -17166232.713 7 -13376274.275 6  21050482.563    21050480.626    21050481.832
        45.100          41.900
  -8215038.996 4  -6401319.705 4  23245446.172    23245444.898    23245445.149
        27.900          25.300
  -9182743.904 7  -7155382.166 6  21944676.944    21944674.134    21944676.000
        42.500          36.700
  -2395542.606 4  -1866653.871 3  24396675.991    24396675.123    24396675.138
        24.600          19.900
  -5968036.010 5  -4650401.841 4  23365955.479    23365954.366    23365954.374
        30.600          25.600
  -1438932.531 3  -1121245.445 3  24394209.589    24394207.852    24394207.513
        20.500          21.600
 -22955714.728 7 -17887559.742 7  20113942.810    20113940.954    20113942.279
        47.200          44.900
 -23676945.994 7 -18449560.492 7  20399406.135    20399402.903    20399405.149
        45.400          46.000
 -15202136.301 6 -11845817.614 6  21687237.606    21687236.150    21687236.548
        41.300          38.600
 06  1  2  2  8 30.0000000  0  9G29G 6G18G 8G10G 9G26G21G15
 -17109328.050 7 -13331932.980 6  21061311.054    21061309.225    21061310.364
        45.300          41.800
  -8123762.930 4  -6330195.528 4  23262815.227    23262814.216    23262814.566
        28.400          24.900
  -9247865.144 7  -7206125.978 6  21932284.824    21932282.006    21932283.823
        42.500          36.600
  -2347781.996 4  -1829437.832 3  24405764.763    24405763.398    24405763.801
        24.600          18.600
  -5880648.426 5  -4582307.655 4  23382584.838    23382583.248    23382583.571
        31.000          25.900
  -1555606.932 3  -1212160.556 3  24372006.840    24372005.665    24372005.457
        21.600          21.100
 -22922122.750 7 -17861384.172 7  20120335.226    20120333.310    20120334.682
        47.300          45.200
 -23715771.154 7 -18479813.859 7  20392017.946    20392014.706    20392016.947
        45.300          46.100
 -15287133.393 6 -11912049.097 6  21671063.022    21671061.575    21671062.033
        41.400          38.900
 06  1  2  2  9  0.0000000  0  9G29G 6G18G 8G10G 9G26G21G15
 -17052013.181 7 -13287272.043 6  21072217.744    21072215.804    21072217.035
        45.100          41.600
  -8032283.457 4  -6258912.843 3  23280223.139    23280221.660    23280222.380
        27.900          22.600
  -9312787.909 7  -7256715.136 6  21919930.510    21919927.305    21919929.581
        43.200          36.300
  -2299495.527 3  -1791812.006 3  24414952.705    24414952.002    24414951.532
        20.500          19.900
  -5793175.449 5  -4514146.890 4  23399230.161    23399228.999    23399229.193
        31.300          26.200
  -1672267.072 3  -1303064.473 3  24349806.748    24349806.109    24349805.301
        19.900          21.100
 -22887922.332 7 -17834734.496 7  20126843.454    20126841.508    20126842.902
        47.700          45.000
 -23754123.959 7 -18509699.157 7  20384719.567    20384716.331    20384718.623
        45.400          46.100
 -15371838.745 7 -11978053.261 6  21654944.539    21654942.639    21654943.382
        42.000          38.900
 06  1  2  2  9 30.0000000  0  9G29G 6G18G 8G10G 9G26G21G15
 -16994290.192 7 -13242293.091 6  21083202.191    21083200.059    21083201.405
        45.100          41.700
  -7940603.467 4  -6187473.918 3  23297669.841    23297668.049    23297668.589
        26.200          23.000
  -9377511.665 7  -7307149.225 6  21907614.071    21907610.848    21907613.094
        43.100          36.500
  -2250684.862 4  -1753777.759 3  24424241.640    24424240.653    24424240.631
        24.900          19.300
  -5705617.743 4  -4445920.138 4  23415892.292    23415890.659    23415891.151
        29.500          26.800
  -1788910.080 3  -1393955.120 3  24327611.848    24327609.752    24327609.697
        22.100          18.600
 -22853115.201 7 -17807612.054 7  20133467.075    20133465.111    20133466.520
        47.700          45.100
 -23792002.547 7 -18539214.932 7  20377511.660    20377508.249    20377510.639
        45.200          46.100
 -15456249.869 6 -12043828.155 6  21638881.507    21638879.784    21638880.373
        41.900          39.000
 06  1  2  2 10  0.0000000  0  9G29G 6G18G 8G10G 9G26G21G15
 -16936161.357 7 -13196997.892 6  21094263.821    21094261.633    21094263.061
        45.100          41.300
  -7848725.942 4  -6115881.080 3  23315152.218    23315152.115    23315151.882
        27.100          23.800
  -9442036.044 7  -7357427.951 6  21895335.043    21895332.327    21895334.151
        42.700          37.100
  -2201351.518 3  -1715336.199 3  24433629.818    24433628.408    24433628.585
        23.400          19.300
  -5617976.110 5  -4377627.960 4  23432569.392    23432568.316    23432568.435
        30.100          25.300
  -1905532.826 2  -1484829.939 2  24305418.643    24305416.303    24305416.354
        17.800          13.900
 -22817703.576 7 -17780018.575 7  20140205.675    20140203.747    20140205.179
        47.600          45.200
 -23829405.027 7 -18568359.717 7  20370394.173    20370390.760    20370393.145
        45.400          46.100
 -15540364.328 7 -12109371.886 6  21622875.112    21622873.035    21622874.055
        42.100          38.400
 06  1  2  2 10 30.0000000  0  9G29G 6G18G 8G10G 9G26G21G15
 -16877628.987 7 -13151388.254 6  21105401.986    21105399.882    21105401.335
        45.100          41.300
  -7756653.828 4  -6044136.581 4  23332673.845    23332672.734    23332673.176
        27.900          24.200
  -9506360.559 7  -7407550.937 6  21883094.384    21883091.699    21883093.594
        42.800          36.600
  -2151497.657 4  -1676489.009 2  24443116.580    24443115.057    24443115.962
        26.500          17.800
  -5530251.053 5  -4309270.812 4  23449263.977    23449262.224    23449262.832
        30.200          26.200
  -2022132.231 3  -1575686.632 3  24283229.764    24283229.103    24283228.520
        23.800          18.600
 -22781689.199 7 -17751955.424 7  20147059.007    20147057.051    20147058.466
        47.600          45.200
 -23866329.483 7 -18597132.017 7  20363367.625    20363364.248    20363366.615
        45.200          46.200
 -15624179.666 6 -12174682.535 6  21606925.405    21606923.656    21606924.343
        41.500          38.800
 06  1  2  2 11  0.0000000  0  9G29G 6G18G 8G10G 9G26G21G15
 -16818695.202 7 -13105465.820 6  21116616.926    21116614.650    21116616.191
        45.100          41.300
  -7664390.035 4  -5972242.755 4  23350231.042    23350229.988    23350230.277
        28.100          24.200
  -9570484.364 7  -7457517.528 6  21870891.858    21870889.267    21870891.002
        42.600          36.700
  -2101124.554 3  -1637237.238 3  24452701.774    24452700.882    24452700.794
        23.800          18.600
  -5442443.302 4  -4240849.198 4  23465972.399    23465971.287    23465971.202
        29.500          24.600
  -2138704.840 4  -1666522.444 2  24261047.231    24261045.641    24261045.628
        24.600          16.100
 -22745074.234 7 -17723424.281 7  20154026.340    20154024.621    20154025.814
        47.300          45.200
 -23902774.187 7 -18625530.481 7  20356432.605    20356429.046    20356431.469
        45.000          46.200
 -15707693.320 7 -12239758.094 6  21591033.591    21591031.659    21591032.386
        42.200          39.100
 06  1  2  2 11 30.0000000  0  9G29G 6G18G 8G10G 9G26G21G15
 -16759362.274 7 -13059232.368 6  21127907.370    21127905.296    21127906.729
        45.200          41.200
  -7571937.353 4  -5900201.750 4  23367823.840    23367823.177    23367823.286
        28.800          25.300
  -9634406.931 7  -7507327.309 6  21858728.071    21858725.336    21858727.203
        42.900          36.900
  -2050233.862 4  -1597582.167 3  24462386.363    24462385.063    24462385.466
        25.600          18.600
  -5354553.433 5  -4172363.592 3  23482697.211    23482696.257    23482696.077
        30.600          23.800
  -2255247.794 3  -1757335.137 2  24238869.256    24238868.433    24238867.738
        23.800          17.000
 -22707860.556 7 -17694426.610 7  20161107.840    20161106.123    20161107.321
        47.300          45.100
 -23938737.140 7 -18653553.554 7  20349588.827    20349585.484    20349587.824
        45.100          46.400
 -15790902.930 7 -12304596.740 6  21575199.358    21575197.374    21575198.149
        42.200          39.100
 06  1  2  2 12  0.0000000  0  9G29G 6G18G 8G10G 9G26G21G15
 -16699632.504 7 -13012689.692 6  21139273.774    21139271.577    21139272.959
        45.100          41.300
  -7479298.885 4  -5828015.973 4  23385452.434    23385451.948    23385451.826
        26.800          24.600
  -9698128.112 7  -7556980.168 6  21846602.342    21846599.445    21846601.526
        43.200          36.700
  -1998827.286 3  -1557525.072 3  24472168.066    24472167.256    24472167.526
        21.600          18.600
  -5266582.406 4  -4103814.770 4  23499437.467    23499436.788    23499436.141
        29.500          25.600
  -2371758.066 3  -1848122.353 3  24216698.731    24216697.664    24216697.332
        21.600          21.100
 -22670050.457 7 -17664964.194 7  20168302.940    20168301.152    20168302.407
        47.200          44.900
 -23974216.697 7 -18681199.959 7  20342837.373    20342833.965    20342836.411
        45.100          46.300
 -15873806.320 7 -12369196.771 6  21559422.910    21559421.278    21559421.842
        42.000          39.000
 06  1  2  2 12 30.0000000  0  9G29G 6G18G 8G10G 9G26G21G15
 -16639508.069 7 -12965839.481 6  21150714.894    21150712.957    21150714.280
        45.400          41.500
  -7386477.450 4  -5755687.642 3  23403115.983    23403115.017    23403115.235
        25.900          23.000
  -9761646.972 7  -7606475.375 6  21834515.390    21834512.242    21834514.379
        43.200          36.800
  -1946906.874 3  -1517067.602 3  24482048.599    24482047.144    24482047.676
        22.600          19.300
  -5178530.766 4  -4035203.132 3  23516193.276    23516191.834    23516192.016
        29.900          23.800
  -2488232.375 3  -1938881.504 3  24194533.318    24194532.952    24194532.510
        22.600          18.600
 -22631645.831 7 -17635038.515 7  20175611.192    20175609.314    20175610.608
        47.200          45.000
 -24009211.200 7 -18708468.399 7  20336178.233    20336174.782    20336177.229
        45.200          46.400
 -15956400.719 7 -12433556.033 6  21543705.869    21543704.175    21543704.797
        42.400          39.300
 06  1  2  2 13  0.0000000  0  9G29G 6G18G 8G10G 9G26G21G15
 -16578991.179 7 -12918683.463 6  21162230.992    21162228.970    21162230.261
        45.200          41.300
  -7293476.071 4  -5683219.060 3  23420813.540    23420812.945    23420812.836
        25.900          23.400
  -9824963.008 7  -7655812.535 6  21822466.496    21822463.699    21822465.659
        43.200          37.200
  -1894473.748 4  -1476210.611 2  24492026.667    24492024.865    24492025.503
        24.200          13.900
  -5090399.141 5  -3966529.129 4  23532964.295    23532963.354    23532963.108
        30.400          25.600
  -2604667.126 3  -2029609.844 3  24172376.002    24172375.978    24172375.431
        23.000          22.100
 -22592648.854 7 -17604651.260 7  20183031.873    20183030.259    20183031.424
        47.300          45.000
 -24043718.704 7 -18735357.358 7  20329611.685    20329608.132    20329610.643
        45.100          46.500
 -16038683.644 7 -12497672.588 6  21528047.551    21528046.100    21528046.657
        42.300          38.900
 06  1  2  2 13 30.0000000  0 10G29G 6G18G 8G10G 9G26G21G22G15
 -16518084.364 7 -12871223.607 6  21173821.076    21173819.009    21173820.390
        45.100          41.000
  -7200297.705 4  -5610612.592 3  23438544.635    23438543.820    23438543.826
        25.900          23.000
  -9888075.424 7  -7704991.027 6  21810456.883    21810453.805    21810455.938
        43.600          37.400
  -1841529.652 4  -1434955.446 3  24502101.567    24502100.354    24502100.653
        26.200          19.900
  -5002188.313 4  -3897793.439 4  23549750.275    23549749.090    23549749.205
        29.500          24.600
  -2721059.528 4  -2120305.182 3  24150227.282    24150227.188    24150226.859
        24.900          23.000
 -22553061.547 7 -17573804.004 7  20190565.232    20190563.424    20190564.665
        47.200          44.800
 -24077737.117 7 -18761865.213 7  20323138.148    20323134.724    20323137.170
        45.200          46.400
   -153335.498 4   -119482.291 1  24693702.484    24693699.365    24693701.908
        26.200           9.000
 -16120652.650 7 -12561544.532 6  21512449.581    21512448.035    21512448.534
        42.200          39.400
 06  1  2  2 14  0.0000000  0 10G29G 6G18G 8G10G 9G26G21G22G15
 -16456789.587 7 -12823461.440 6  21185485.155    21185483.055    21185484.488
        45.100          41.000
  -7106945.140 4  -5537870.356 3  23456309.625    23456308.349    23456308.825
        27.600          23.000
  -9950983.967 7  -7754010.659 6  21798485.495    21798482.685    21798484.592
        43.200          37.700
  -1788076.481 4  -1393303.634 3  24512273.258    24512271.828    24512272.180
        24.200          19.300
  -4913898.912 4  -3828996.526 4  23566551.033    23566549.968    23566549.794
        28.600          24.200
  -2837406.474 4  -2210965.127 3  24128086.498    24128086.730    24128086.698
        24.200          22.600
 -22512886.049 7 -17542498.420 7  20198210.487    20198208.587    20198209.935
        47.400          44.800
 -24111265.048 7 -18787990.872 7  20316758.122    20316754.573    20316757.081
        45.000          46.600
   -241718.673 4   -188352.305 2  24676884.529    24676879.650    24676883.936
        26.200          15.100
 -16202305.248 7 -12625169.919 6  21496911.342    21496909.916    21496910.380
        42.100          39.300
 06  1  2  2 14 30.0000000  0 10G29G 6G18G 8G10G 9G26G21G22G15
 -16395109.251 7 -12775398.841 6  21197222.643    21197220.447    21197221.936
        45.200          41.000
  -7013421.491 4  -5464994.823 3  23474105.807    23474105.460    23474105.038
        24.900          20.500
 -10013688.072 7  -7802870.985 6  21786553.218    21786550.408    21786552.376
        43.500          37.400
  -1734116.029 3  -1351256.552 2  24522541.063    24522539.870    24522540.167
        19.300          12.600
  -4825531.490 5  -3760138.816 3  23583367.219    23583365.622    23583366.202
        30.100          23.000
  -2953704.840 3  -2301587.180 3  24105954.050    24105955.778    24105955.403
        23.000          20.500
 -22472124.473 7 -17510736.152 7  20205967.178    20205965.123    20205966.591
        47.600          44.600
 -24144300.723 7 -18813732.951 7  20310471.434    20310468.072    20310470.483
        44.800          46.700
   -330043.087 3   -257176.503 3  24660075.937    24660072.991    24660075.719
        23.400          18.600
 -16283638.847 7 -12688546.736 6  21481434.502    21481432.845    21481433.347
        42.700          39.900
 06  1  2  2 15  0.0000000  0 10G29G 6G18G 8G10G 9G26G21G22G15
 -16333045.543 7 -12727037.509 6  21209032.815    21209030.828    21209032.175
        45.100          40.900
  -6919729.473 4  -5391988.102 3  23491935.291    23491934.210    23491934.664
        25.600          23.400
 -10076187.115 7  -7851571.521 6  21774660.110    21774657.171    21774659.327
        44.000          37.500
  -1679650.150 3  -1308815.617 2  24532906.049    24532904.953    24532905.161
        23.400          16.100
  -4737086.865 4  -3691220.935 3  23600197.780    23600195.876    23600196.413
        29.200          23.800
  -3069951.396 3  -2392168.918 2  24083832.391    24083834.573    24083834.675
        20.500          16.100
 -22430779.158 7 -17478519.024 7  20213834.802    20213832.882    20213834.321
        47.700          44.500
 -24176842.095 7 -18839089.861 7  20304278.789    20304275.631    20304277.873
        44.700          46.700
   -418308.644 3   -325954.828 3  24643279.947    24643275.974    24643279.401
        23.800          21.600
 -16364651.072 7 -12751673.128 6  21466018.316    21466016.833    21466017.127
        42.700          40.200
 06  1  2  2 15 30.0000000  0 10G29G 6G18G 8G10G 9G26G21G22G15
 -16270600.856 7 -12678379.315 6  21220915.863    21220913.561    21220915.098
        44.800          40.800
  -6825872.209 4  -5318852.610 4  23509795.764    23509795.150    23509795.160
        27.100          24.200
 -10138480.552 7  -7900111.856 6  21762806.261    21762802.918    21762805.357
        44.000          37.200
  -1624680.528 3  -1265982.077 2  24543365.817    24543364.956    24543364.953
        21.600          16.100
  -4648565.445 4  -3622243.208 4  23617042.395    23617040.926    23617041.348
        29.500          24.200
  -3186142.372 4  -2482707.306 3  24061723.693    24061724.635    24061724.435
        24.600          22.100
 -22388852.097 7 -17445848.580 7  20221813.257    20221811.319    20221812.773
        47.600          44.400
 -24208888.009 7 -18864060.702 7  20298180.856    20298177.509    20298179.874
        44.700          46.700
   -506514.636 3   -394686.725 3  24626494.434    24626491.097    24626493.867
        19.300          23.000
 -16445339.301 7 -12814547.057 6  21450663.774    21450662.252    21450662.775
        43.000          40.000
 06  1  2  2 16  0.0000000  0 10G29G 6G18G 8G10G 9G26G21G22G15
 -16207777.352 7 -12629425.933 6  21232870.567    21232868.562    21232869.864
        44.700          40.900
  -6731852.609 4  -5245590.617 4  23527687.423    23527686.256    23527686.599
        26.800          24.200
 -10200567.859 7  -7948491.562 6  21750991.277    21750988.371    21750990.496
        44.100          37.800
  -1569209.171 3  -1222757.680 3  24553922.333    24553921.127    24553920.954
        23.000          19.300
  -4559968.075 4  -3553206.344 4  23633902.276    23633900.624    23633901.263
        29.200          24.900
  -3302274.907 4  -2573200.196 3  24039624.686    24039625.819    24039624.768
        24.600          23.800
 -22346345.535 7 -17412726.582 7  20229902.057    20229900.042    20229901.449
        47.500          44.300
 -24240436.165 7 -18888643.675 7  20292177.596    20292174.217    20292176.574
        44.900          46.900
   -594660.576 2   -463371.794 3  24609720.225    24609718.180    24609719.460
        15.100          23.000
 -16525701.147 7 -12877166.665 6  21435371.443    21435369.779    21435370.298
        42.500          40.000
 06  1  2  2 16 30.0000000  0 10G29G 6G18G 8G10G 9G26G21G22G15
 -16144577.294 7 -12580179.135 6  21244897.197    21244895.116    21244896.436
        44.800          40.700
  -6637673.555 4  -5172204.389 3  23545608.516    23545608.086    23545608.208
        27.900          23.400
 -10262448.471 7  -7996710.206 6  21739215.494    21739212.871    21739214.716
        43.600          38.100
  -1513237.769 3  -1179143.601 2  24564573.296    24564571.796    24564572.317
        23.000          17.800
  -4471295.364 4  -3484110.720 3  23650776.628    23650774.560    23650775.177
        29.900          23.800
  -3418345.939 4  -2663645.083 3  24017539.087    24017537.714    24017537.903
        24.200          23.400
 -22303261.624 7 -17379154.702 7  20238100.419    20238098.674    20238099.946
        47.300          44.400
 -24271485.370 7 -18912837.861 7  20286269.151    20286265.582    20286268.085
        44.700          46.800
   -682746.063 2   -532009.803 3  24592959.127    24592955.725    24592958.561
        13.900          23.000
 -16605733.965 7 -12939529.884 6  21420141.620    21420139.939    21420140.606
        43.000          39.800
 06  1  2  2 17  0.0000000  0 10G29G 6G18G 8G10G 9G26G21G22G15
 -16081003.094 7 -12530640.799 6  21256994.693    21256992.883    21256994.197
        44.700          40.600
  -6543337.916 4  -5098696.133 4  23563560.929    23563560.107    23563560.129
        26.800          24.200
 -10324121.022 7  -8044766.727 6  21727479.823    21727476.972    21727478.917
        43.600          38.000
  -1456768.051 3  -1135141.299 3  24575318.663    24575317.975    24575317.925
        23.000          19.300
  -4382547.960 5  -3414956.930 4  23667664.183    23667663.015    23667663.157
        30.400          24.900
  -3534352.139 3  -2754039.512 3  23995463.742    23995462.006    23995462.261
        23.400          21.100
 -22259602.575 7 -17345134.662 7  20246408.529    20246406.804    20246408.017
        47.400          44.600
 -24302033.337 7 -18936641.475 7  20280456.022    20280452.507    20280454.938
        44.700          46.800
   -770770.848 3   -600600.457 3  24576207.969    24576204.858    24576207.702
        18.600          23.800
 -16685435.387 7 -13001634.883 6  21404975.233    21404973.124    21404974.036
        43.300          39.300
 06  1  2  2 17 30.0000000  0 10G29G 6G18G 8G10G 9G26G21G22G15
 -16017056.802 7 -12480812.518 6  21269163.446    21269161.336    21269162.742
        44.600          40.300
  -6448848.684 4  -5025068.207 3  23581540.558    23581540.222    23581539.947
        24.900          21.600
 -10385586.077 7  -8092661.566 6  21715783.413    21715780.467    21715782.669
        44.000          37.900
  -1399801.964 3  -1090752.143 2  24586159.412    24586158.006    24586158.316
        22.600          16.100
  -4293726.706 4  -3345745.606 4  23684567.036    23684565.380    23684565.461
        29.900          24.900
  -3650290.262 3  -2844380.869 3  23973401.068    23973400.341    23973400.341
        22.600          23.000
 -22215370.730 7 -17310668.291 7  20254825.551    20254823.889    20254825.020
        47.100          44.600
 -24332078.582 7 -18960053.350 7  20274738.565    20274735.132    20274737.497
        44.400          46.900
   -858734.120 3   -669143.268 4  24559469.264    24559466.173    24559468.570
        22.600          24.200
 -16764803.006 7 -13063479.769 6  21389871.704    21389870.075    21389870.772
        43.400          39.800
 06  1  2  2 18  0.0000000  0 10G29G 6G18G 8G10G 9G26G21G22G15
 -15952740.750 7 -12430696.113 6  21281402.380    21281400.318    21281401.654
        44.500          40.400
  -6354208.775 3  -4951322.864 3  23599550.452    23599550.192    23599549.588
        23.800          21.100
 -10446842.650 7  -8140393.952 6  21704126.726    21704123.878    21704125.807
        44.000          38.300
  -1342341.740 3  -1045977.927 3  24597093.580    24597092.773    24597092.267
        19.900          19.300
  -4204832.026 5  -3276477.020 3  23701483.019    23701480.911    23701481.737
        30.400          23.400
  -3766157.105 3  -2934666.658 3  23951352.445    23951351.197    23951351.245
        21.100          19.300
 -22170568.327 7 -17275757.328 7  20263351.194    20263349.478    20263350.636
        47.100          44.500
 -24361619.700 7 -18983072.398 7  20269117.222    20269113.647    20269116.134
        44.700          47.000
   -946635.683 4   -737637.962 3  24542742.705    24542738.678    24542742.150
        25.600          22.100
 -16843834.251 7 -13125062.547 6  21374832.564    21374830.995    21374831.465
        43.300          40.200
 06  1  2  2 18 30.0000000  0 10G29G 6G18G 8G10G 9G26G21G22G15
 -15888057.538 7 -12380293.613 6  21293711.326    21293709.095    21293710.556
        44.500          40.300
  -6259421.097 4  -4877462.365 2  23617587.760    23617586.632    23617586.870
        24.600          16.100
 -10507890.297 7  -8187963.539 6  21692509.825    21692506.840    21692508.897
        44.000          38.300
  -1284388.765 3  -1000819.742 2  24608122.015    24608120.391    24608120.969
        23.000          13.900
  -4115864.649 5  -3207151.811 4  23718412.551    23718411.308    23718411.440
        30.400          24.600
  -3881949.612 3  -3024894.580 3  23929318.884    23929316.439    23929317.416
        23.800          22.100
 -22125197.558 7 -17240403.481 7  20271984.769    20271983.313    20271984.321
        47.100          44.600
 -24390655.005 7 -19005697.314 7  20263591.958    20263588.425    20263590.780
        44.400          47.000
  -1034475.158 4   -806084.284 3  24526027.335    24526023.190    24526026.632
        26.500          21.600
 -16922526.556 7 -13186381.209 6  21359857.900    21359856.296    21359856.885
        43.400          40.200
 06  1  2  2 19  0.0000000  0  9G29G 6G18G10G 9G26G21G22G15
 -15823009.136 7 -12329606.542 6  21306089.617    21306087.454    21306088.829
        44.300          40.000
  -6164488.746 3  -4803489.100 3  23635651.997    23635651.961    23635651.807
        23.400          19.300
 -10568728.477 7  -8235369.902 6  21680932.528    21680929.688    21680931.618
        43.800          38.100
  -4026825.242 4  -3137770.481 4  23735356.166    23735354.743    23735355.021
        28.600          24.600
  -3997664.425 4  -3115061.941 3  23907298.529    23907296.548    23907297.474
        27.400          23.400
 -22079260.721 7 -17204608.541 7  20280726.435    20280724.745    20280725.914
        47.300          44.500
 -24419182.464 7 -19027926.500 7  20258163.300    20258159.849    20258162.162
        44.400          47.000
  -1122252.151 4   -874481.933 3  24509323.815    24509319.936    24509323.092
        25.300          20.500
 -17000877.355 7 -13247433.777 6  21344948.290    21344946.625    21344947.173
        43.100          40.300
 06  1  2  2 19 30.0000000  0  9G29G 6G18G10G 9G26G21G22G15
 -15757597.998 7 -12278636.828 6  21318536.671    21318534.734    21318536.067
        44.600          40.100
  -6069414.388 3  -4729405.236 3  23653745.406    23653743.984    23653744.601
        23.400          19.300
 -10629356.052 7  -8282612.155 6  21669395.374    21669392.562    21669394.570
        44.000          38.500
  -3937714.137 4  -3068333.291 4  23752312.837    23752312.241    23752311.773
        27.100          24.600
  -4113297.938 4  -3205165.913 4  23885293.702    23885292.920    23885292.410
        24.600          24.200
 -22032760.071 7 -17168374.268 7  20289575.213    20289573.616    20289574.762
        47.400          44.400
 -24447200.698 7 -19049758.886 7  20252831.531    20252828.115    20252830.513
        44.300          47.100
  -1209966.073 4   -942830.449 3  24492631.989    24492628.663    24492631.570
        25.900          21.100
 -17078884.213 7 -13308218.325 6  21330104.035    21330102.488    21330102.973
        43.500          40.500
 06  1  2  2 20  0.0000000  0  9G29G 6G18G10G 9G26G21G22G15
 -15691826.307 7 -12227386.158 6  21331052.881    21331050.631    21331052.136
        44.800          40.000
  -5974201.063 4  -4655213.042 3  23671863.517    23671863.072    23671863.098
        26.800          20.500
 -10689772.764 7  -8329690.111 6  21657898.598    21657895.749    21657897.662
        44.000          38.300
  -3848532.179 4  -2998840.881 4  23769283.971    23769282.869    23769282.689
        29.000          24.200
  -4228847.397 3  -3295204.411 3  23863304.762    23863303.797    23863304.019
        22.100          19.900
 -21985698.012 7 -17131702.531 7  20298530.995    20298529.127    20298530.407
        47.200          44.400
 -24474708.100 7 -19071193.221 7  20247597.041    20247593.583    20247596.103
        44.500          47.000
  -1297616.528 4  -1011129.495 3  24475953.419    24475949.128    24475952.688
        25.600          21.100
 -17156544.659 7 -13368732.951 6  21315325.605    21315324.119    21315324.541
        43.200          40.600
 06  1  2  2 20 30.0000000  0  9G29G 6G18G10G 9G26G21G22G15
 -15625696.500 7 -12175856.435 6  21343636.839    21343634.792    21343636.112
        44.700          40.000
  -5878851.728 4  -4580914.880 3  23690008.488    23690007.553    23690007.684
        26.800          23.000
 -10749978.276 7  -8376603.486 6  21646441.684    21646438.917    21646440.863
        44.200          38.600
  -3759279.926 4  -2929293.676 4  23786267.779    23786267.395    23786266.772
        27.600          24.900
  -4344309.184 4  -3385174.600 3  23841333.367    23841332.453    23841332.280
        25.900          21.600
 -21938076.872 7 -17094595.151 7  20307593.041    20307591.113    20307592.448
        47.500          44.300
 -24501703.112 7 -19092228.297 7  20242460.145    20242456.643    20242459.192
        44.400          47.000
  -1385203.076 3  -1079378.743 3  24459285.578    24459282.362    24459284.862
        22.600          19.900
 -17233856.225 7 -13428975.711 6  21300613.821    21300612.231    21300612.679
        43.100          40.700
 06  1  2  2 21  0.0000000  0  9G29G 6G18G10G 9G26G21G22G15
 -15559210.702 7 -12124049.319 6  21356288.871    21356286.585    21356288.201
        44.700          39.700
  -5783369.343 4  -4506513.082 3  23708177.917    23708177.129    23708177.263
        25.600          23.000
 -10809971.746 7  -8423351.638 6  21635025.467    21635022.589    21635024.451
        44.100          38.900
  -3669958.092 4  -2859692.290 3  23803265.317    23803263.991    23803264.301
        27.900          23.800
  -4459679.881 4  -3475073.776 3  23819378.958    23819378.764    23819378.137
        26.500          23.400
 -21889898.856 7 -17057053.840 7  20316760.947    20316759.038    20316760.394
        47.500          44.000
 -24528183.892 7 -19112862.664 7  20237420.956    20237417.470    20237419.945
        44.400          47.100
  -1472724.917 4  -1147577.578 3  24442630.808    24442627.354    24442630.234
        25.300          22.100
 -17310816.410 7 -13488944.679 6  21285968.678    21285967.084    21285967.655
        43.600          40.500
 06  1  2  2 21 30.0000000  0  9G29G 6G18G10G 9G26G21G22G15
 -15492371.326 7 -12071966.688 6  21369007.993    21369005.682    21369007.251
        44.400          39.800
  -5687756.690 4  -4432009.773 4  23726372.722    23726371.777    23726371.849
        24.200          24.200
 -10869752.513 7  -8469934.045 6  21623649.888    21623646.633    21623648.651
        44.200          38.500
  -3580567.253 4  -2790037.096 3  23820276.360    23820274.843    23820275.065
        28.100          22.100
  -4574956.582 4  -3564899.747 3  23797441.169    23797441.607    23797441.415
        25.300          23.000
 -21841166.536 7 -17019080.601 7  20326034.384    20326032.504    20326033.858
        47.400          43.900
 -24554148.987 7 -19133095.208 7  20232480.058    20232476.477    20232478.992
        44.300          47.100
  -1560182.004 4  -1215725.947 3  24425988.689    24425984.917    24425988.056
        25.600          22.100
 -17387422.774 7 -13548637.943 6  21271391.135    21271389.437    21271390.045
        43.600          40.700
 06  1  2  2 22  0.0000000  0  9G29G 6G18G10G 9G26G21G22G15
 -15425180.632 7 -12019610.299 6  21381793.737    21381791.646    21381793.108
        44.100          39.700
  -5592016.821 3  -4357407.300 3  23744590.939    23744590.715    23744589.929
        22.100          23.000
 -10929320.195 7  -8516350.415 6  21612314.247    21612311.308    21612313.447
        44.800          38.800
  -3491107.948 4  -2720328.569 4  23837299.055    23837298.618    23837298.402
        27.400          24.200
  -4690135.671 3  -3654649.625 3  23775522.869    23775523.433    23775523.271
        23.000          22.600
 -21791882.050 7 -16980677.101 7  20335413.046    20335410.953    20335412.419
        47.500          43.800
 -24579596.994 7 -19152924.824 7  20227637.284    20227633.922    20227636.279
        44.300          47.200
  -1647573.962 3  -1283823.549 3  24409356.928    24409354.751    24409356.874
        22.100          23.800
 -17463672.569 7 -13608053.365 6  21256881.314    21256879.613    21256880.197
        43.800          41.000
 06  1  2  2 22 30.0000000  0  9G29G 6G18G10G 9G26G21G22G15
 -15357640.854 7 -11966981.906 6  21394646.215    21394644.193    21394645.445
        44.200          40.000
  -5496152.539 3  -4282707.927 3  23762832.669    23762832.818    23762832.070
        20.500          23.400
 -10988673.943 7  -8562600.082 6  21601019.586    21601016.411    21601018.698
        44.500          38.400
  -3401580.847 4  -2650567.220 3  23854335.906    23854334.519    23854334.403
        27.100          21.100
  -4805214.399 4  -3744321.313 4  23753625.141    23753624.983    23753625.058
        26.200          24.200
 -21742047.949 7 -16941845.332 7  20344896.046    20344894.126    20344895.422
        47.500          44.000
 -24604525.654 7 -19172349.751 7  20222893.624    20222890.198    20222892.529
        44.000          47.300
  -1734900.224 4  -1351869.963 3  24392740.568    24392736.981    24392740.171
        24.600          20.500
 -17539563.500 7 -13667189.149 6  21242439.527    21242438.106    21242438.546
        44.000          41.000
 06  1  2  2 23  0.0000000  0  9G29G 6G18G10G 9G26G21G22G15
 -15289754.433 7 -11914083.398 6  21407564.564    21407562.474    21407563.866
        44.100          39.700
  -5400166.750 3  -4207913.872 3  23781099.281    23781098.081    23781098.462
        23.400          19.900
 -11047813.314 7  -8608682.703 6  21589765.786    21589762.573    21589764.885
        44.600          38.400
  -3311986.609 4  -2580753.538 3  23871384.372    23871384.170    23871383.487
        26.500          21.600
  -4920188.960 4  -3833911.836 3  23731746.818    23731746.054    23731746.075
        27.100          23.800
 -21691666.589 7 -16902587.126 7  20354483.329    20354481.399    20354482.720
        47.300          44.000
 -24628934.118 7 -19191369.330 7  20218248.833    20218245.307    20218247.786
        44.000          47.300
  -1822160.425 4  -1419864.915 3  24376135.416    24376131.655    24376134.933
        24.200          22.100
 -17615093.151 7 -13726043.418 6  21228067.115    21228065.287    21228065.950
        44.100          41.100
 06  1  2  2 23 30.0000000  0  9G29G 6G18G10G 9G26G21G22G15
 -15221523.620 7 -11860916.526 6  21420548.542    21420546.418    21420547.862
        44.300          39.700
  -5304062.573 4  -4133027.521 3  23799387.329    23799385.846    23799386.451
        25.300          18.600
 -11106737.630 7  -8654597.752 6  21578552.751    21578549.875    21578551.859
        44.400          39.000
  -3222325.743 4  -2510887.952 3  23888447.579    23888446.110    23888445.994
        26.500          19.300
  -5035056.177 4  -3923418.702 3  23709888.922    23709887.578    23709887.844
        25.600          23.400
 -21640740.490 7 -16862904.454 7  20364174.041    20364172.325    20364173.560
        47.300          43.800
 -24652820.472 7 -19209982.073 7  20213703.376    20213699.834    20213702.367
        44.000          47.200
  -1909353.925 3  -1487807.870 3  24359542.473    24359539.531    24359541.848
        22.100          22.100
 -17690258.847 7 -13784614.089 6  21213763.249    21213761.627    21213762.178
        43.900          41.000
 06  1  2  2 24  0.0000000  0  9G29G 6G18G10G 9G26G21G22G15
 -15152950.769 7 -11807483.137 6  21433597.632    21433595.342    21433596.842
        44.400          39.700
  -5207842.819 4  -4058051.102 3  23817697.586    23817696.392    23817696.596
        25.300          21.100
 -11165446.680 7  -8700345.050 6  21567380.770    21567378.125    21567379.919
        44.500          39.800
  -3132598.792 4  -2440970.867 3  23905520.737    23905520.048    23905520.564
        26.800          20.500
  -5149812.581 4  -4012839.245 4  23688052.364    23688049.884    23688050.670
        25.300          24.600
 -21589271.865 7 -16822799.029 7  20373968.307    20373966.517    20373967.781
        47.400          43.800
 -24676183.749 7 -19228187.222 7  20209257.394    20209254.012    20209256.403
        43.900          47.200
  -1996480.330 3  -1555698.575 3  24342962.987    24342959.526    24342962.253
        23.000          22.100
 -17765057.990 7 -13842899.135 6  21199529.648    21199527.892    21199528.576
        44.200          41.200
 06  1  2  2 24 30.0000000  0  9G29G 6G18G10G 9G26G21G22G15
 -15084038.070 7 -11753784.924 6  21446711.087    21446709.023    21446710.437
        44.200          39.600
  -5111510.374 4  -3982986.862 3  23836028.083    23836027.633    23836027.592
        25.300          19.900
 -11223939.238 7  -8745923.657 6  21556250.009    21556247.113    21556249.152
        44.700          39.300
  -3042806.265 4  -2371002.692 3  23922609.427    23922607.696    23922607.708
        27.400          22.600
  -5264455.484 4  -4102171.348 3  23666236.533    23666233.813    23666234.761
        25.900          23.800
 -21537263.195 7 -16782272.792 7  20383865.246    20383863.465    20383864.702
        47.400          43.900
 -24699022.368 7 -19245983.546 7  20204911.277    20204908.022    20204910.345
        43.700          47.300
  -2083539.505 3  -1623536.874 3  24326396.970    24326392.648    24326396.268
        23.400          21.600
 -17839488.069 7 -13900896.596 6  21185366.161    21185364.386    21185364.952
        44.000          41.500
 06  1  2  2 25  0.0000000  0  9G29G 6G18G10G 9G26G21G22G15
 -15014787.849 7 -11699823.714 6  21459889.100    21459886.928    21459888.355
        44.100          39.300
  -5015068.084 4  -3907837.064 2  23854381.180    23854379.531    23854380.499
        26.500          17.000
 -11282215.071 7  -8791333.392 6  21545160.345    21545157.551    21545159.540
        44.800          39.100
  -2952948.929 4  -2300984.023 3  23939707.417    23939706.712    23939706.535
        27.900          22.600
  -5378980.949 4  -4191411.945 3  23644443.069    23644440.681    23644441.148
        26.500          23.400
 -21484716.874 7 -16741327.605 7  20393864.269    20393862.712    20393863.839
        47.400          43.700
 -24721334.372 7 -19263369.519 7  20200665.406    20200662.195    20200664.528
        43.800          47.400
  -2170530.466 4  -1691322.035 3  24309843.348    24309839.516    24309842.791
        25.900          21.600
 -17913546.666 7 -13958604.588 6  21171273.136    21171271.435    21171271.997
        44.100          41.500
 06  1  2  2 25 30.0000000  0  9G29G 6G18G10G 9G26G21G22G15
 -14945202.489 7 -11645601.354 6  21473130.480    21473128.472    21473129.872
        43.800          39.100
  -4918518.764 3  -3832603.846 3  23872754.066    23872753.300    23872753.272
        23.800          20.500
 -11340273.555 7  -8836573.767 6  21534112.576    21534109.429    21534111.691
        45.300          39.300
  -2863027.369 4  -2230915.283 3  23956820.401    23956818.302    23956818.877
        27.600          21.100
  -5493385.823 4  -4280558.540 3  23622671.529    23622669.832    23622670.092
        24.600          23.400
 -21431635.494 7 -16699965.492 7  20403965.201    20403963.667    20403964.802
        47.300          43.600
 -24743118.521 7 -19280344.176 7  20196520.184    20196516.795    20196519.214
        43.500          47.400
  -2257453.181 4  -1759054.011 3  24293302.049    24293298.123    24293301.601
        27.400          21.600
 -17987231.329 7 -14016021.207 6  21157251.347    21157249.764    21157250.181
        44.000          41.700
 06  1  2  2 26  0.0000000  0  9G29G 6G18G10G 9G26G21G22G15
 -14875284.173 7 -11591119.547 6  21486435.580    21486433.539    21486434.875
        43.600          39.100
  -4821865.564 4  -3757289.681 3  23891146.310    23891145.829    23891145.492
        25.900          19.900
 -11398113.950 7  -8881644.200 6  21523105.938    21523102.750    21523105.077
        45.300          39.500
  -2773042.052 4  -2160796.874 3  23973942.806    23973941.587    23973942.082
        26.500          21.600
  -5607667.219 4  -4369608.966 4  23600923.688    23600923.270    23600923.305
        27.100          24.200
 -21378021.550 7 -16658188.389 7  20414167.714    20414166.039    20414167.259
        47.200          43.500
 -24764373.435 7 -19296906.445 7  20192475.467    20192472.156    20192474.482
        43.400          47.500
  -2344306.859 4  -1826732.207 3  24276774.148    24276770.443    24276773.517
        25.600          22.100
 -18060539.458 7 -14073144.419 6  21143301.327    21143299.657    21143300.274
        44.400          41.400
 06  1  2  2 26 30.0000000  0  9G29G 6G18G10G 9G26G21G22G15
 -14805035.328 7 -11536380.184 6  21499803.542    21499801.352    21499802.812
        43.400          39.100
  -4725111.294 4  -3681896.804 2  23909558.235    23909557.180    23909557.769
        24.200          16.100
 -11455735.610 7  -8926544.194 6  21512140.974    21512137.744    21512139.947
        45.200          39.400
  -2682993.469 4  -2090629.163 3  23991079.063    23991077.818    23991077.610
        25.600          22.100
  -5721821.173 4  -4458560.061 3  23579200.766    23579199.366    23579200.373
        27.100          21.600
 -21323877.426 7 -16615998.162 7  20424471.156    20424469.305    20424470.633
        47.300          43.600
 -24785097.704 7 -19313055.222 7  20188531.821    20188528.378    20188530.778
        43.300          47.400
  -2431091.246 4  -1894356.385 3  24260258.805    24260256.558    24260258.221
        24.900          23.000
 -18133468.488 7 -14129972.236 6  21129423.479    21129421.574    21129422.363
        44.700          41.500
 06  1  2  2 27  0.0000000  0 10G29G 6G18G 3G10G 9G26G21G22G15
 -14734458.218 7 -11481385.036 6  21513233.801    21513231.889    21513233.096
        43.300          39.100
  -4628258.798 3  -3606427.313 2  23927988.146    23927987.295    23927987.733
        23.000          17.800
 -11513138.149 7  -8971273.443 6  21501217.438    21501214.302    21501216.363
        44.800          39.500
    -88689.614 3    -69107.805 3  24574259.817    24574259.122    24574259.387
        20.500          21.600
  -2592882.571 4  -2020412.933 3  24008226.167    24008224.665    24008225.404
        26.800          18.600
  -5835843.843 4  -4547408.870 4  23557502.751    23557502.091    23557502.488
        25.300          24.200
 -21269205.670 7 -16573396.794 7  20434874.855    20434873.014    20434874.362
        47.300          43.500
 -24805289.866 7 -19328789.372 7  20184689.471    20184685.922    20184688.359
        43.400          47.400
  -2517805.833 4  -1961926.187 4  24243758.894    24243754.981    24243758.108
        25.900          24.600
 -18206015.954 7 -14186502.728 6  21115618.236    21115616.341    21115617.055
        44.700          41.600
 06  1  2  2 27 30.0000000  0 10G29G 6G18G 3G10G 9G26G21G22G15
 -14663555.062 7 -11426135.823 6  21526726.288    21526724.269    21526725.536
        43.200          39.100
  -4531311.024 3  -3530883.604 3  23946436.841    23946436.722    23946436.231
        22.600          22.100
 -11570320.882 7  -9015831.410 6  21490335.640    21490332.909    21490334.893
        44.900          39.600
   -133830.482 3   -104282.495 3  24565670.854    24565668.206    24565669.730
        21.100          19.300
  -2502709.880 4  -1950148.504 3  24025386.258    24025384.552    24025385.017
        26.200          21.600
  -5949732.488 4  -4636153.226 4  23535830.289    23535830.565    23535830.042
        27.100          25.300
 -21214008.820 7 -16530386.261 7  20445378.454    20445376.695    20445377.916
        47.300          43.600
 -24824948.319 7 -19344107.645 7  20180948.514    20180945.091    20180947.464
        43.300          47.600
  -2604450.371 4  -2029441.388 3  24227270.856    24227266.910    24227270.343
        27.100          23.800
 -18278179.438 7 -14242734.011 6  21101886.010    21101884.042    21101884.901
        45.100          41.700
 06  1  2  2 28  0.0000000  0 10G29G 6G18G 3G10G 9G26G21G22G15
 -14592328.254 7 -11370634.414 6  21540280.219    21540278.327    21540279.489
        43.400          39.100
  -4434270.920 3  -3455268.004 4  23964903.602    23964902.805    23964902.694
        19.900          24.200
 -11627283.179 7  -9060217.609 6  21479496.320    21479493.358    21479495.412
        45.300          39.600
   -178470.011 2   -139066.505 2  24557174.795    24557174.193    24557174.017
        17.000          17.000
  -2412475.674 4  -1879836.157 3  24042556.739    24042555.580    24042555.526
        26.800          21.600
  -6063484.157 4  -4724790.849 3  23514185.819    23514183.603    23514184.452
        28.600          23.800
 -21158289.307 7 -16486968.459 7  20455981.501    20455979.767    20455981.001
        47.300          43.500
 -24844072.005 7 -19359009.215 7  20177309.381    20177306.044    20177308.323
        43.600          47.700
  -2691023.955 4  -2096901.339 3  24210796.277    24210793.036    24210795.665
        27.400          23.800
 -18349956.503 7 -14298664.192 6  21088227.288    21088225.366    21088226.145
        45.000          41.800
 06  1  2  2 28 30.0000000  0 10G29G 6G18G 3G10G 9G26G21G22G15
 -14520780.215 7 -11314882.703 6  21553895.375    21553893.481    21553894.628
        43.500          38.600
  -4337141.330 3  -3379582.688 3  23983385.766    23983385.962    23983385.160
        19.900          22.100
 -11684024.334 7  -9104431.491 6  21468698.849    21468695.832    21468698.017
        45.500          39.900
   -222606.802 3   -173458.805 3  24548776.866    24548775.265    24548775.681
        21.100          23.400
  -2322180.482 4  -1809476.306 3  24059739.095    24059738.369    24059738.070
        27.400          21.600
  -6177095.234 4  -4813318.968 4  23492566.617    23492564.778    23492565.036
        27.600          24.900
 -21102049.705 7 -16443145.385 7  20466683.562    20466681.836    20466683.080
        47.300          43.300
 -24862659.459 7 -19373492.938 7  20173772.388    20173768.889    20173771.305
        43.400          47.600
  -2777526.429 4  -2164305.865 4  24194335.547    24194331.795    24194334.786
        26.200          24.600
 -18421344.660 7 -14354291.319 6  21074642.352    21074640.551    21074641.283
        44.800          41.700
 06  1  2  2 29  0.0000000  0 10G29G 6G18G 3G10G 9G26G21G22G15
 -14448913.105 7 -11258882.357 6  21567571.514    21567569.177    21567570.672
        43.400          38.900
  -4239925.133 3  -3303829.847 3  24001885.918    24001885.309    24001885.191
        19.900          23.000
 -11740543.265 7  -9148472.213 6  21457943.593    21457940.504    21457942.711
        45.300          39.800
   -266239.787 3   -207458.542 3  24540473.328    24540472.153    24540472.755
        21.600          21.100
  -2231825.117 4  -1739069.538 3  24076933.516    24076932.173    24076932.272
        24.900          21.600
  -6290562.143 4  -4901734.718 3  23470974.424    23470972.194    23470972.619
        26.200          23.400
 -21045292.499 7 -16398918.994 7  20477484.091    20477482.351    20477483.598
        47.100          43.200
 -24880708.634 7 -19387557.230 7  20170337.737    20170334.246    20170336.657
        43.300          47.600
  -2863957.368 4  -2231654.633 4  24177887.984    24177884.192    24177887.222
        25.600          24.200
 -18492341.392 7 -14409613.449 7  21061132.147    21061130.465    21061131.043
        44.900          42.000
 06  1  2  2 29 30.0000000  0 10G29G 6G18G 3G10G 9G26G21G22G15
 -14376729.216 7 -11202635.175 6  21581307.284    21581305.358    21581306.714
        43.800          38.800
  -4142625.197 3  -3228011.747 3  24020401.042    24020401.082    24020400.167
        22.600          22.600
 -11796839.949 7  -9192339.752 6  21447230.432    21447227.696    21447229.649
        45.300          39.900
   -309367.606 2   -241064.583 4  24532266.931    24532265.671    24532266.164
        16.100          25.300
  -2141410.093 4  -1668616.311 3  24094139.152    24094138.342    24094138.160
        24.900          22.600
  -6403881.182 4  -4990035.236 4  23449409.678    23449408.435    23449408.302
        27.100          25.600
 -20988020.341 7 -16354291.341 7  20488382.698    20488380.877    20488382.122
        47.200          43.100
 -24898219.255 7 -19401201.866 7  20167005.401    20167002.135    20167004.299
        43.200          47.800
  -2950316.051 4  -2298947.113 3  24161454.595    24161451.111    24161453.891
        26.200          23.400
 -18562944.247 7 -14464628.653 7  21047696.876    21047695.255    21047695.825
        45.200          42.200
 06  1  2  2 30  0.0000000  0 10G29G 6G18G 3G10G 9G26G21G22G15
 -14304230.948 7 -11146143.015 6  21595103.512    21595101.199    21595102.783
        43.700          38.100
  -4045244.514 3  -3152130.747 3  24038932.336    24038932.509    24038931.626
        22.100          22.100
 -11852914.040 7  -9236033.845 6  21436560.251    21436557.235    21436559.313
        45.500          40.000
   -351988.787 3   -274275.903 3  24524156.389    24524154.622    24524155.657
        22.100          23.800
  -2050935.680 4  -1598116.812 3  24111355.942    24111355.339    24111354.365
        24.600          23.400
  -6517049.632 4  -5078218.413 4  23427873.654    23427873.097    23427873.344
        28.100          24.900
 -20930235.612 7 -16309264.277 7  20499378.564    20499376.909    20499378.054
        46.900          43.000
 -24915189.619 7 -19414425.519 7  20163776.052    20163772.708    20163775.030
        43.100          47.700
  -3036602.105 4  -2366183.013 4  24145034.768    24145031.620    24145034.177
        25.600          24.200
 -18633150.532 7 -14519334.844 7  21034336.999    21034335.363    21034336.044
        45.000          42.200
 06  1  2  2 30 30.0000000  0 10G29G 6G18G 3G10G 9G26G21G22G15
 -14231420.554 7 -11089407.643 6  21608958.929    21608956.706    21608958.232
        43.600          38.500
  -3947785.795 4  -3076188.921 3  24057478.105    24057478.163    24057477.735
        25.600          22.100
 -11908764.564 7  -9279553.728 6  21425931.962    21425929.110    21425931.056
        45.300          40.000
   -394102.264 3   -307091.607 3  24516142.407    24516140.253    24516141.411
        23.000          21.100
  -1960402.629 4  -1527571.614 3  24128583.091    24128582.624    24128582.697
        24.200          19.900
  -6630063.987 4  -5166281.511 3  23406366.834    23406366.957    23406366.886
        26.500          23.800
 -20871941.108 7 -16263839.988 7  20510471.682    20510469.976    20510471.176
        47.000          43.000
 -24931618.080 7 -19427226.915 7  20160649.823    20160646.374    20160648.847
        43.100          47.500
  -3122815.144 4  -2433361.975 4  24128628.643    24128625.797    24128628.037
        24.200          24.900
 -18702957.881 7 -14573730.176 7  21021053.267    21021051.593    21021052.092
        45.400          42.500
 06  1  2  2 31  0.0000000  0 10G29G 6G18G 3G10G 9G26G21G22G15
 -14158300.358 7 -11032430.870 6  21622873.205    21622870.991    21622872.487
        43.500          38.200
  -3850252.024 4  -3000188.622 2  24076039.002    24076038.098    24076038.059
        26.500          17.000
 -11964390.585 7  -9322898.673 6  21415346.763    21415343.698    21415345.870
        45.500          40.100
   -435706.711 4   -339510.633 4  24508224.798    24508223.837    24508224.098
        24.200          24.900
  -1869811.626 4  -1456981.214 3  24145822.770    24145821.322    24145821.333
        24.600          21.600
  -6742920.781 4  -5254221.835 4  23384891.034    23384891.241    23384891.358
        27.400          26.500
 -20813139.216 7 -16218020.333 7  20521661.453    20521659.582    20521660.849
        46.900          42.700
 -24947503.597 7 -19439605.235 7  20157626.955    20157623.530    20157625.878
        42.700          47.700
  -3208954.838 4  -2500483.772 4  24112236.680    24112233.759    24112236.465
        25.300          26.200
 -18772363.886 7 -14627812.768 7  21007845.535    21007843.978    21007844.452
        45.400          42.500
 06  1  2  2 31 30.0000000  0 10G29G 6G18G 3G10G 9G26G21G22G15
 -14084872.726 7 -10975214.531 6  21636845.973    21636843.907    21636845.186
        43.200          38.400
  -3752646.063 4  -2924132.038 2  24094612.471    24094610.996    24094611.523
        25.900          13.900
 -12019792.040 7  -9366068.636 6  21404804.292    21404801.259    21404803.408
        45.600          40.100
   -476800.759 4   -371531.941 4  24500405.288    24500404.017    24500404.250
        26.500          25.900
  -1779163.137 4  -1386346.064 3  24163071.786    24163071.334    24163070.803
        25.900          21.600
  -6855616.654 4  -5342036.749 4  23363447.705    23363446.273    23363446.430
        27.600          28.600
 -20753832.706 7 -16171807.468 7  20532946.925    20532945.297    20532946.510
        47.100          42.800
 -24962845.029 7 -19451559.593 7  20154707.338    20154704.179    20154706.377
        42.800          47.600
  -3295020.493 4  -2567547.889 4  24095859.140    24095855.621    24095858.632
        27.400          24.200
 -18841366.027 7 -14681580.663 7  20994714.820    20994713.410    20994713.729
        45.000          42.600
 06  1  2  2 32  0.0000000  0 10G29G 6G18G 3G10G 9G26G21G22G15
 -14011139.886 7 -10917760.372 6  21650876.701    21650874.750    21650876.043
        43.000          38.100
  -3654970.663 4  -2848021.305 2  24113199.930    24113197.573    24113199.221
        25.600          13.900
 -12074967.701 7  -9409062.653 6  21394304.616    21394301.620    21394303.696
        45.400          40.200
   -517383.211 4   -403154.627 3  24492682.554    24492681.515    24492681.551
        24.600          23.400
  -1688457.620 4  -1315666.463 3  24180332.855    24180331.965    24180331.585
        25.600          20.500
  -6968147.947 4  -5429723.447 4  23342033.851    23342031.968    23342032.642
        28.600          27.900
 -20694023.977 7 -16125203.265 7  20544328.484    20544326.326    20544327.812
        47.100          42.400
 -24977640.910 7 -19463088.848 7  20151891.843    20151888.544    20151890.834
        42.700          47.700
  -3381011.648 4  -2634553.975 3  24079495.969    24079491.681    24079495.211
        27.900          23.000
 -18909961.791 7 -14735031.892 7  20981661.479    20981659.797    20981660.374
        44.900          42.200
 06  1  2  2 32 30.0000000  0 10G29G 6G18G 3G10G 9G26G21G22G15
 -13937103.818 7 -10860069.928 6  21664965.340    21664963.231    21664964.643
        42.800          38.100
  -3557228.767 3  -2771858.809 2  24131798.691    24131798.894    24131798.158
        22.100          17.000
 -12129917.318 7  -9451880.531 6  21383848.035    21383845.086    21383847.165
        45.500          40.500
   -557452.900 4   -434377.796 3  24485058.215    24485055.757    24485057.044
        25.300          21.100
  -1597695.666 3  -1244942.890 3  24197605.728    24197603.146    24197604.107
        23.800          18.600
  -7080511.712 4  -5517279.610 4  23320651.405    23320649.679    23320649.923
        27.400          25.600
 -20633715.694 7 -16078209.799 7  20555804.450    20555802.607    20555803.936
        47.000          42.500
 -24991890.334 7 -19474192.294 7  20149180.374    20149176.960    20149179.346
        42.900          47.700
  -3466927.840 4  -2701501.638 3  24063146.478    24063142.335    24063146.062
        27.600          21.600
 -18978148.818 7 -14788164.639 7  20968686.174    20968684.281    20968685.058
        45.100          42.200
 06  1  2  2 33  0.0000000  0 10G29G 6G18G 3G10G 9G26G21G22G15
 -13862767.173 7 -10802145.273 6  21679111.159    21679109.038    21679110.461
        42.700          38.100
  -3459423.232 3  -2695646.763 3  24150411.050    24150410.515    24150410.080
        20.500          18.600
 -12184639.880 7  -9494521.484 6  21373434.758    21373431.771    21373433.846
        45.600          40.400
   -597008.796 3   -465200.524 4  24477530.222    24477529.144    24477529.340
        23.000          26.500
  -1506877.954 4  -1174175.847 3  24214885.393    24214885.419    24214884.924
        25.900          20.500
  -7192704.434 4  -5604702.476 4  23299301.305    23299299.621    23299299.772
        28.100          24.200
 -20572910.508 7 -16030829.132 7  20567375.417    20567373.483    20567374.825
        47.000          42.400
 -25005591.946 7 -19484868.875 7  20146573.154    20146569.732    20146572.126
        42.900          47.800
  -3552768.464 4  -2768390.429 2  24046811.386    24046807.214    24046810.953
        26.200          17.000
 -19045924.577 7 -14840976.910 7  20955788.789    20955787.017    20955787.611
        45.600          42.300
 06  1  2  2 33 30.0000000  0 10G29G 6G18G 3G10G 9G26G21G22G15
 -13788132.223 7 -10743988.173 6  21693313.530    21693311.557    21693313.049
        42.800          37.700
  -3361557.000 3  -2619387.400 2  24169034.632    24169033.823    24169033.688
        21.100          15.100
 -12239135.125 7  -9536985.310 6  21363064.824    21363061.613    21363063.898
        45.600          40.500
   -636049.734 4   -495622.062 4  24470101.296    24470099.656    24470100.515
        26.500          26.500
  -1416004.876 4  -1103365.688 3  24232178.708    24232178.145    24232177.377
        24.200          19.900
  -7304722.672 4  -5691989.402 4  23277985.089    23277983.659    23277984.259
        29.500          25.300
 -20511611.017 7 -15983063.296 7  20579040.355    20579038.454    20579039.857
        47.100          42.400
 -25018744.276 7 -19495117.443 7  20144070.448    20144066.903    20144069.327
        42.700          47.700
  -3638533.183 4  -2835220.060 3  24030490.274    24030486.706    24030489.861
        26.500          19.300
 -19113286.531 7 -14893466.742 7  20942970.165    20942968.463    20942969.045
        45.400          42.500
 06  1  2  2 34  0.0000000  0 10G29G 6G18G 3G10G 9G26G21G22G15
 -13713201.033 7 -10685600.238 6  21707572.723    21707570.473    21707572.023
        43.000          37.700
  -3263633.014 2  -2543082.983 2  24187668.400    24187668.523    24187667.702
        17.000          16.100
 -12293401.821 7  -9579271.037 6  21352737.966    21352735.174    21352737.040
        45.400          40.900
   -674574.492 4   -525641.334 3  24462769.971    24462768.649    24462769.083
        24.600          23.400
  -1325076.886 4  -1032512.778 3  24249482.197    24249480.964    24249481.075
        26.200          19.300
  -7416562.900 4  -5779137.615 3  23256701.476    23256700.436    23256701.534
        29.900          23.800
 -20449820.024 7 -15934914.471 7  20590798.890    20590796.838    20590798.304
        47.300          42.300
 -25031346.422 7 -19504937.294 7  20141672.345    20141668.773    20141671.239
        43.000          47.800
  -3724221.281 4  -2901989.980 3  24014185.584    24014181.328    24014184.725
        27.100          21.600
 -19180232.326 7 -14945632.288 7  20930230.571    20930229.013    20930229.542
        45.300          42.300
 06  1  2  2 34 30.0000000  0 10G29G 6G18G 3G10G 9G26G21G22G15
 -13637976.414 7 -10626983.652 6  21721887.414    21721885.136    21721886.759
        42.900          37.200
  -3165653.848 2  -2466735.647 2  24206313.534    24206313.078    24206312.656
        17.800          17.000
 -12347440.013 7  -9621378.712 6  21342454.899    21342451.970    21342453.943
        45.500          40.700
   -712581.862 4   -555257.458 3  24455537.715    24455535.628    24455536.914
        26.200          22.600
  -1234094.612 4   -961617.475 3  24266795.634    24266794.456    24266794.368
        24.900          19.300
  -7528221.648 4  -5866144.399 4  23235453.444    23235453.133    23235453.168
        28.100          25.300
 -20387539.944 7 -15886384.537 7  20602650.376    20602648.440    20602649.832
        47.200          42.200
 -25043397.027 7 -19514327.373 7  20139379.327    20139375.675    20139378.221
        42.800          47.800
  -3809832.827 4  -2968700.238 3  23997893.621    23997889.947    23997893.193
        27.600          23.800
 -19246759.479 7 -14997471.621 7  20917571.009    20917569.343    20917569.922
        45.200          42.500
 06  1  2  2 35  0.0000000  0 10G29G 6G18G 3G10G 9G26G21G22G15
 -13562460.232 7 -10568139.869 6  21736257.727    21736255.444    21736257.070
        42.700          37.300
  -3067622.509 3  -2390347.658 2  24224969.019    24224967.642    24224967.904
        21.600          15.100
 -12401248.794 7  -9663307.627 6  21332215.438    21332212.541    21332214.494
        45.500          40.900
   -750070.969 4   -584469.734 4  24448403.977    24448401.921    24448403.006
        26.200          24.600
  -1143058.515 3   -890680.291 3  24284118.604    24284118.326    24284117.208
        23.000          19.900
  -7639695.532 4  -5953007.131 4  23214241.446    23214240.431    23214240.713
        29.500          26.800
 -20324773.367 7 -15837475.514 7  20614594.384    20614592.613    20614593.903
        47.000          42.300
 -25054894.786 7 -19523286.665 7  20137191.146    20137187.745    20137190.095
        42.700          47.800
  -3895366.952 4  -3035350.175 4  23981616.791    23981613.519    23981616.421
        25.900          25.600
 -19312865.416 7 -15048982.731 7  20904991.471    20904989.751    20904990.440
        45.500          42.800
 06  1  2  2 35 30.0000000  0 10G29G 6G18G 3G10G 9G26G21G22G15
 -13486654.845 7 -10509070.744 6  21750683.036    21750680.845    21750682.302
        42.700          37.200
  -2969541.804 4  -2313921.085 2  24243632.865    24243631.013    24243632.085
        24.900          15.100
 -12454827.551 7  -9705057.299 6  21322019.929    21322016.988    21322018.997
        45.800          41.200
   -787040.611 3   -613277.209 3  24441368.930    24441367.285    24441367.828
        23.800          22.600
  -1051969.091 3   -819701.561 3  24301452.816    24301452.065    24301451.961
        23.400          22.100
  -7750981.559 4  -6039723.486 4  23193065.428    23193063.472    23193063.664
        29.200          26.500
 -20261523.093 7 -15788189.593 7  20626630.512    20626628.663    20626629.934
        46.800          42.100
 -25065838.685 7 -19531814.378 7  20135108.538    20135105.115    20135107.444
        42.400          47.700
  -3980823.127 4  -3101939.351 4  23965354.845    23965351.987    23965354.391
        26.500          26.800
 -19378547.704 7 -15100163.731 7  20892492.592    20892490.791    20892491.500
        45.600          42.800
