     2.10           OBSERVATION DATA    G (GPS)             RINEX VERSION / TYPE
teqc  2005Sep1                          20060607 01:04:30UTCPGM / RUN BY / DATE
Linux 2.4.20-8|Pentium IV|gcc|Linux|486/DX+                 COMMENT
ALGO CACS-ACP   883160   ALGONQUIN PARK  ONT  CANADA        MARKER NAME
40104M002                                                   MARKER NUMBER
-Unknown-           GEOD. SURVEY, NATURAL RESOURCES CANADA  OBSERVER / AGENCY
1103                AOA BENCHMARK ACT   3.3.32.2N           REC # / TYPE / VERS
386                 AOAD/M_T        NONE                    ANT # / TYPE
   918129.4000 -4346071.2000  4561977.8000                  APPROX POSITION XYZ
        0.1000        0.0000        0.0000                  ANTENNA: DELTA H/E/N
     1     1                                                WAVELENGTH FACT L1/2
     7    L1    L2    C1    P2    P1    S1    S2            # / TYPES OF OBSERV
    30.0000                                                 INTERVAL
L1 PHASE CENTRE  .110m ABOVE ARP                            COMMENT
L2 PHASE CENTRE  .128m ABOVE ARP                            COMMENT
where ARP is the Antenna Reference Point for HI measurement COMMENT
    P1 =    P1  TurboRogue; =    Y1  Benchmark              COMMENT
    L1 = L1(CA)                                             COMMENT
    P2 =    P2  TurboRogue; =    Y2  Benchmark              COMMENT
    L2 = L2(P2) TurboRogue; = L2(Y2) Benchmark              COMMENT
 SNR is mapped to RINEX snr flag value [0-9]                COMMENT
  L1 & L2: min(max(int(snr_dBHz/6), 0), 9)                  COMMENT
  2006     6     7     0     0    0.0000000     GPS         TIME OF FIRST OBS
                                                            END OF HEADER
 06  6  7  0  0  0.0000000  0  9G20G 6G 1G16G25G13G23G 3G 7
  -8379122.508 5  -6529175.322 3  23044619.278    23044619.599    23044617.979
        33.000          23.800
  -3421115.454 3  -2665786.305 2  23940817.636    23940816.986    23940816.797
        23.800          17.000
  -9091601.247 5  -7084359.849 5  22487119.796    22487120.052    22487118.502
        34.300          32.000
 -22810495.657 7 -17774397.982 8  20236401.618    20236400.017    20236400.446
        43.500          50.500
 -14996780.857 7 -11685788.825 6  21600006.206    21600006.011    21600005.572
        42.900          38.400
  -8757285.645 4  -6823852.502 4  22931804.667    22931804.240    22931804.420
        29.900          26.800
 -20889919.343 7 -16277848.634 7  20689229.594    20689225.785    20689228.290
        46.300          43.400
  -3843024.647 3  -2994560.443 1  23796436.087    23796439.457    23796436.350
        21.100          11.000
 -12788011.485 6  -9964671.774 5  22073935.972    22073937.172    22073934.740
        37.100          33.800
 06  6  7  0  0 30.0000000  0  9G20G 6G 1G16G25G13G23G 3G 7
  -8301483.547 5  -6468677.455 3  23059393.728    23059393.796    23059392.468
        33.600          21.100
  -3365155.193 3  -2622180.902 3  23951466.265    23951466.665    23951465.668
        23.800          21.600
  -8999081.124 5  -7012266.290 5  22504725.465    22504726.244    22504724.212
        33.200          32.700
 -22814864.079 7 -17777801.930 8  20235570.319    20235568.610    20235569.146
        43.500          50.300
 -14944355.028 7 -11644937.551 6  21609982.401    21609982.386    21609981.849
        42.700          37.700
  -8852564.570 5  -6898095.809 4  22913673.416    22913673.016    22913673.433
        30.200          26.200
 -20934692.339 7 -16312736.704 7  20680709.397    20680705.497    20680708.127
        45.100          42.700
  -3954052.735 3  -3081075.654 2  23775308.750    23775311.168    23775308.182
        22.100          17.800
 -12831200.647 6  -9998325.650 5  22065717.050    22065718.129    22065716.117
        38.000          33.000
 06  6  7  0  1  0.0000000  0  9G20G 6G 1G16G25G13G23G 3G 7
  -8223501.728 5  -6407912.450 3  23074232.884    23074233.432    23074231.779
        34.400          23.000
  -3308744.420 3  -2578224.464 3  23962200.151    23962201.130    23962199.643
        22.100          23.400
  -8906262.444 5  -6939940.088 5  22522388.377    22522388.926    22522387.105
        33.100          32.300
 -22818719.229 7 -17780805.934 8  20234836.486    20234834.898    20234835.346
        43.100          50.100
 -14891712.940 7 -11603917.787 6  21620000.298    21619999.809    21619999.533
        43.000          37.300
  -8947603.333 4  -6972151.942 4  22895588.420    22895587.416    22895588.035
        29.700          24.900
 -20978959.532 7 -16347230.640 7  20672285.649    20672281.668    20672284.414
        44.900          42.700
  -4064994.465 2  -3167523.561 3  23754197.617    23754199.648    23754196.550
        17.000          18.600
 -12873917.772 6 -10031611.706 5  22057588.715    22057589.210    22057587.465
        37.900          33.500
 06  6  7  0  1 30.0000000  0  9G20G 6G 1G16G25G13G23G 3G 7
  -8145180.044 5  -6346882.618 4  23089136.998    23089137.723    23089135.754
        32.600          24.200
  -3251885.164 3  -2533918.543 3  23973020.549    23973021.062    23973020.173
        19.900          21.600
  -8813146.958 5  -6867382.618 5  22540107.977    22540108.233    22540106.601
        33.000          31.600
 -22822062.063 7 -17783410.733 8  20234200.287    20234198.762    20234199.200
        43.400          50.300
 -14838854.942 7 -11562729.760 6  21630058.827    21630058.198    21630058.036
        42.600          37.500
  -9042399.600 4  -7046019.134 4  22877549.243    22877547.926    22877549.045
        29.700          25.600
 -21022719.121 7 -16381329.039 7  20663958.617    20663954.675    20663957.272
        45.200          43.100
  -4175846.973 3  -3253901.944 3  23733104.211    23733104.928    23733102.480
        19.900          21.600
 -12916161.214 6 -10064528.643 5  22049550.346    22049550.644    22049548.986
        38.100          33.200
 06  6  7  0  2  0.0000000  0  9G20G 6G 1G16G25G13G23G 3G 7
  -8066521.677 5  -6285590.423 4  23104105.474    23104106.182    23104104.220
        33.500          24.900
  -3194578.922 3  -2489264.293 3  23983925.397    23983925.501    23983924.703
        23.400          19.900
  -8719736.289 5  -6794595.119 5  22557883.473    22557884.037    22557882.174
        34.800          30.800
 -22824893.237 7 -17785616.833 8  20233661.922    20233660.259    20233660.730
        42.900          50.000
 -14785781.215 6 -11521373.647 6  21640158.374    21640158.076    21640157.743
        41.500          37.200
  -9136951.029 5  -7119695.558 4  22859556.874    22859555.919    22859556.526
        31.000          26.500
 -21065968.953 7 -16415030.239 7  20655728.620    20655724.860    20655727.331
        47.200          44.700
  -4286607.460 4  -3340208.647 3  23712026.249    23712027.682    23712024.790
        24.200          19.300
 -12957929.299 5 -10097075.159 5  22041601.901    22041602.736    22041600.775
        35.800          33.100
 06  6  7  0  2 30.0000000  0  9G20G 6G 1G16G25G13G23G 3G 7
  -7987529.603 5  -6224038.196 3  23119137.270    23119137.740    23119136.135
        33.200          23.400
  -3136827.660 3  -2444263.292 3  23994916.003    23994914.938    23994915.003
        23.000          19.900
  -8626032.092 5  -6721578.901 5  22575714.519    22575715.233    22575713.592
        34.600          30.100
 -22827213.541 7 -17787424.854 8  20233220.240    20233218.731    20233219.145
        43.000          49.800
 -14732492.013 6 -11479849.622 6  21650298.966    21650298.809    21650298.325
        41.200          37.700
  -9231255.084 5  -7193179.203 4  22841611.338    22841610.382    22841611.047
        31.800          26.200
 -21108707.211 7 -16448332.791 7  20647596.087    20647592.067    20647594.676
        47.200          44.400
  -4397272.869 4  -3426441.227 3  23690967.159    23690968.861    23690965.837
        25.600          19.900
 -12999220.178 6 -10129249.841 5  22033744.558    22033745.560    22033743.211
        36.000          33.500
 06  6  7  0  3  0.0000000  0  9G20G 6G 1G16G25G13G23G 3G 7
  -7908206.817 5  -6162228.276 3  23134231.561    23134232.176    23134230.455
        32.700          22.600
  -3078633.061 3  -2398916.815 2  24005988.747    24005988.917    24005988.414
        22.600          17.800
  -8532036.082 5  -6648335.297 5  22593601.243    22593602.240    22593600.270
        33.600          31.100
 -22829023.515 7 -17788835.208 8  20232875.941    20232874.261    20232874.773
        43.200          49.900
 -14678987.558 6 -11438157.868 6  21660480.645    21660480.403    21660479.955
        41.100          37.700
  -9325308.796 5  -7266467.809 4  22823713.483    22823712.321    22823713.140
        31.000          25.900
 -21150931.776 7 -16481235.061 7  20639560.808    20639557.060    20639559.461
        47.300          44.500
  -4507840.173 4  -3512597.366 3  23669926.736    23669928.470    23669925.452
        27.100          19.300
 -13040032.582 6 -10161051.687 5  22025977.421    22025978.992    22025976.678
        36.100          33.100
 06  6  7  0  3 30.0000000  0  9G20G 6G 1G16G25G13G23G 3G 7
  -7828556.205 5  -6100162.911 3  23149389.025    23149389.103    23149387.734
        31.300          23.400
  -3019996.996 3  -2353226.355 3  24017147.472    24017147.383    24017146.851
        23.000          18.600
  -8437749.988 5  -6574865.653 4  22611543.198    22611544.256    22611542.233
        34.500          29.700
 -22830323.847 7 -17789848.447 8  20232628.534    20232626.904    20232627.303
        43.200          49.900
 -14625268.030 6 -11396298.518 6  21670703.161    21670702.992    21670702.478
        40.700          37.400
  -9419109.458 5  -7339559.202 4  22805864.322    22805862.730    22805863.875
        32.000          27.400
 -21192640.666 7 -16513735.501 7  20631623.961    20631620.115    20631622.610
        47.400          44.400
  -4618306.357 3  -3598674.721 2  23648905.996    23648907.189    23648904.757
        23.800          17.800
 -13080364.609 6 -10192479.210 5  22018302.950    22018303.978    22018302.052
        36.300          32.400
 06  6  7  0  4  0.0000000  0  9G20G 6G 1G16G25G13G23G 3G 7
  -7748580.923 5  -6037844.549 3  23164607.742    23164608.155    23164606.405
        30.800          21.600
  -2960921.070 3  -2307193.135 3  24028389.869    24028389.310    24028388.869
        22.100          18.600
  -8343175.497 5  -6501171.285 5  22629539.895    22629541.133    22629539.178
        33.500          30.100
 -22831115.419 7 -17790465.249 8  20232477.751    20232476.319    20232476.505
        42.700          49.900
 -14571333.713 6 -11354271.799 6  21680966.378    21680966.314    21680965.753
        40.600          37.600
  -9512655.075 5  -7412451.883 4  22788063.073    22788061.796    22788062.706
        33.100          27.600
 -21233832.084 7 -16545832.723 7  20623785.450    20623781.556    20623784.186
        47.500          44.200
  -4728668.557 4  -3684671.063 2  23627904.159    23627905.668    23627903.371
        24.900          16.100
 -13120214.576 6 -10223531.110 5  22010720.013    22010720.593    22010718.811
        36.600          32.600
 06  6  7  0  4 30.0000000  0  9G20G 6G 1G16G25G13G23G 3G 7
  -7668284.317 5  -5975275.822 3  23179887.216    23179887.897    23179886.013
        31.600          21.600
  -2901407.331 4  -2260818.761 3  24039715.079    24039714.553    24039714.385
        24.600          20.500
  -8248314.301 5  -6427253.516 4  22647591.696    22647592.786    22647590.806
        33.800          29.900
 -22831399.092 7 -17790686.285 8  20232423.681    20232422.323    20232422.555
        42.600          50.000
 -14517184.802 6 -11312077.862 6  21691270.728    21691270.553    21691270.014
        41.000          37.500
  -9605942.791 5  -7485143.589 4  22770310.862    22770309.605    22770310.450
        32.400          28.100
 -21274504.333 7 -16577525.397 7  20616045.938    20616042.030    20616044.542
        47.200          44.700
  -4838924.013 4  -3770584.246 2  23606923.037    23606924.241    23606922.319
        25.300          17.000
 -13159581.279 6 -10254206.445 5  22003228.827    22003229.219    22003227.406
        36.400          32.400
 06  6  7  0  5  0.0000000  0  9G20G 6G 1G16G25G13G23G 3G 7
  -7587668.905 4  -5912458.675 3  23195227.674    23195228.713    23195226.590
        29.900          21.600
  -2841457.479 3  -2214104.563 3  24051122.960    24051122.660    24051122.624
        22.600          21.600
  -8153168.108 5  -6353113.660 4  22665696.912    22665698.443    22665696.347
        34.100          29.700
 -22831175.671 7 -17790512.186 8  20232466.253    20232464.885    20232465.106
        42.800          50.000
 -14462821.581 6 -11269716.931 6  21701615.576    21701615.545    21701614.847
        40.800          37.400
  -9698970.090 5  -7557632.363 4  22752608.080    22752607.344    22752607.723
        32.000          28.800
 -21314655.365 7 -16608811.920 7  20608405.056    20608401.475    20608403.939
        47.400          44.600
  -4949069.440 3  -3856411.695 2  23585962.233    23585963.904    23585961.599
        23.000          16.100
 -13198462.661 6 -10284503.598 5  21995829.470    21995830.467    21995828.505
        37.000          32.100
 06  6  7  0  5 30.0000000  0  9G20G 6G 1G16G25G13G23G 3G 7
  -7506737.867 5  -5849395.584 3  23210628.784    23210629.354    23210627.613
        30.800          18.600
  -2781073.391 3  -2167051.995 3  24062613.559    24062613.710    24062612.536
        18.600          23.000
  -8057738.597 5  -6278753.051 5  22683857.204    22683858.302    22683856.275
        33.100          30.200
 -22830445.607 7 -17789943.295 8  20232604.979    20232603.746    20232603.875
        42.800          50.000
 -14408244.188 6 -11227189.116 6  21712001.308    21712001.449    21712000.656
        40.800          37.500
  -9791734.632 5  -7629916.418 4  22734954.920    22734954.586    22734954.804
        31.800          28.800
 -21354283.047 7 -16639690.631 7  20600864.231    20600860.626    20600863.015
        47.500          44.700
  -5059101.844 4  -3942151.036 2  23565024.355    23565025.529    23565023.548
        24.600          16.100
 -13236857.408 6 -10314421.560 5  21988523.943    21988523.926    21988522.651
        37.500          31.500
 06  6  7  0  6  0.0000000  0  9G20G 6G 1G16G25G13G23G 3G 7
  -7425494.588 5  -5786089.178 3  23226089.122    23226089.336    23226087.813
        31.500          19.900
  -2720256.729 3  -2119662.391 3  24074186.276    24074186.800    24074184.948
        19.900          23.000
  -7962027.593 5  -6204173.092 5  22702070.362    22702071.544    22702069.419
        32.700          30.800
 -22829210.183 7 -17788980.618 8  20232840.032    20232838.804    20232838.992
        43.000          50.000
 -14353453.003 6 -11184494.701 6  21722427.828    21722427.791    21722427.240
        40.700          37.100
  -9884233.906 5  -7701993.798 4  22717353.226    22717352.476    22717352.810
        31.800          28.400
 -21393385.732 7 -16670160.252 7  20593423.351    20593419.547    20593422.065
        47.600          44.400
  -5169018.214 4  -4027800.032 2  23544107.557    23544109.155    23544106.696
        24.600          17.000
 -13274764.052 6 -10343959.192 5  21981309.942    21981310.322    21981309.074
        37.900          31.500
 06  6  7  0  6 30.0000000  0  9G20G 6G 1G16G25G13G23G 3G 7
  -7343941.712 5  -5722541.537 3  23241608.066    23241608.867    23241606.827
        32.400          19.900
  -2659009.678 3  -2071937.406 3  24085841.499    24085841.049    24085840.437
        22.100          19.900
  -7866036.829 5  -6129375.140 4  22720337.377    22720337.787    22720336.002
        33.400          29.200
 -22827470.024 7 -17787624.639 8  20233171.098    20233169.873    20233170.141
        43.500          50.000
 -14298448.122 6 -11141633.771 6  21732895.232    21732894.642    21732894.288
        40.900          37.400
  -9976465.008 5  -7773862.147 4  22699802.008    22699801.620    22699801.843
        32.000          28.800
 -21431961.614 7 -16700219.373 7  20586082.644    20586078.833    20586081.327
        46.800          44.900
  -5278815.812 4  -4113356.466 3  23523213.515    23523215.135    23523212.763
        26.800          19.300
 -13312180.972 6 -10373115.197 5  21974189.785    21974190.333    21974188.804
        36.200          33.400
 06  6  7  0  7  0.0000000  0  9G20G 6G 1G16G25G13G23G 3G 7
  -7262082.597 5  -5658755.263 2  23257185.663    23257185.690    23257184.378
        32.700          17.800
  -2597333.889 3  -2023878.330 2  24097577.915    24097577.759    24097577.174
        23.400          17.800
  -7769768.017 5  -6054360.514 4  22738656.690    22738657.286    22738655.457
        31.800          29.500
 -22825225.864 7 -17785875.936 8  20233598.326    20233596.828    20233597.251
        43.600          50.700
 -14243229.891 7 -11098606.599 6  21743402.604    21743402.345    21743401.884
        42.000          37.200
 -10068425.573 5  -7845519.692 4  22682302.534    22682302.009    22682302.412
        32.300          27.900
 -21470008.575 7 -16729866.347 7  20578842.587    20578838.688    20578841.170
        46.700          44.500
  -5388491.766 4  -4198818.101 3  23502342.441    23502344.410    23502341.372
        24.200          18.600
 -13349106.633 6 -10401888.424 5  21967163.235    21967163.587    21967162.020
        38.800          33.800
 06  6  7  0  7 30.0000000  0  9G20G 6G 1G16G25G13G23G 3G 7
  -7179920.187 5  -5594732.637 3  23272820.753    23272820.487    23272819.160
        31.600          19.300
  -2535231.311 3  -1975486.691 2  24109396.035    24109394.794    24109394.996
        23.000          12.600
  -7673222.857 5  -5979130.565 5  22757028.314    22757029.419    22757027.246
        31.500          30.600
 -22822478.692 7 -17783735.266 8  20234121.188    20234119.599    20234120.014
        43.700          50.700
 -14187798.483 6 -11055413.314 6  21753950.940    21753950.607    21753950.238
        41.900          37.000
 -10160112.762 5  -7916964.236 4  22664854.878    22664854.494    22664854.676
        30.600          27.400
 -21507525.255 7 -16759100.118 7  20571703.607    20571699.434    20571702.130
        47.000          44.600
  -5498043.093 4  -4284182.640 3  23481495.731    23481497.325    23481495.022
        25.300          20.500
 -13385539.694 6 -10430277.789 5  21960230.127    21960230.844    21960229.069
        38.900          34.400
 06  6  7  0  8  0.0000000  0  9G20G 6G 1G16G25G13G23G 3G 7
  -7097457.597 5  -5530476.103 3  23288512.009    23288513.048    23288511.048
        30.800          19.900
  -2472703.829 3  -1926763.916 2  24121293.750    24121293.212    24121293.309
        23.000          16.100
  -7576403.149 5  -5903686.687 5  22775452.075    22775453.627    22775451.138
        31.300          30.400
 -22819229.337 7 -17781203.286 8  20234739.390    20234737.899    20234738.333
        43.500          50.700
 -14132154.129 6 -11012054.093 6  21764539.689    21764539.260    21764539.023
        41.600          36.600
 -10251524.309 5  -7988193.981 4  22647460.089    22647459.503    22647459.793
        31.600          28.400
 -21544509.509 7 -16787919.009 7  20564665.400    20564661.416    20564664.213
        46.900          44.400
  -5607466.632 4  -4369447.638 3  23460672.281    23460674.888    23460672.060
        26.500          21.100
 -13421478.803 6 -10458282.265 5  21953391.152    21953391.696    21953389.884
        38.600          34.100
 06  6  7  0  8 30.0000000  0  9G20G 6G 1G16G25G13G23G 3G 7
  -7014697.941 5  -5465988.126 3  23304261.514    23304261.741    23304260.087
        30.800          21.600
  -2409753.319 3  -1877711.544 2  24133272.974    24133273.046    24133272.278
        21.100          16.100
  -7479310.591 5  -5828030.205 5  22793927.760    22793929.911    22793927.177
        30.600          31.800
 -22815478.657 7 -17778280.661 8  20235453.266    20235451.549    20235452.104
        43.500          50.600
 -14076296.999 6 -10968529.071 6  21775168.896    21775168.602    21775168.225
        41.900          37.100
 -10342657.368 5  -8059206.777 4  22630118.442    22630117.543    22630117.926
        31.800          27.600
 -21580959.989 7 -16816321.981 7  20557728.967    20557725.110    20557727.857
        47.000          44.300
  -5716759.604 4  -4454610.900 2  23439873.994    23439876.485    23439874.288
        26.800          16.100
 -13456922.105 6 -10485900.392 5  21946646.580    21946647.021    21946645.287
        38.500          34.000
 06  6  7  0  9  0.0000000  0  9G20G 6G 1G16G25G13G23G 3G 7
  -6931644.277 5  -5401271.034 3  23320066.106    23320066.493    23320064.939
        30.800          21.600
  -2346381.596 3  -1828330.968 3  24145332.159    24145332.070    24145331.487
        22.600          19.300
  -7381947.015 5  -5752162.546 5  22812454.782    22812457.119    22812454.919
        31.500          30.100
 -22811227.598 7 -17774968.131 8  20236262.228    20236260.463    20236261.062
        43.700          50.500
 -14020227.352 6 -10924838.462 6  21785838.680    21785838.445    21785837.900
        41.500          37.000
 -10433509.403 5  -8130000.562 4  22612830.083    22612829.111    22612829.614
        32.300          28.100
 -21616874.612 7 -16844307.404 7  20550894.770    20550890.779    20550893.500
        47.000          44.300
  -5825918.809 4  -4539669.930 3  23419103.049    23419104.493    23419102.289
        26.500          19.900
 -13491868.555 6 -10513131.357 5  21939996.242    21939996.975    21939995.062
        38.700          34.600
 06  6  7  0  9 30.0000000  0  9G20G 6G 1G16G25G13G23G 3G 7
  -6848299.860 5  -5336327.396 3  23335925.525    23335926.353    23335924.594
        30.200          19.300
  -2282590.621 3  -1778623.720 3  24157472.276    24157471.403    24157470.963
        20.500          18.600
  -7284314.333 5  -5676085.165 4  22831034.686    22831036.406    22831034.238
        32.000          29.500
 -22806477.117 7 -17771266.441 8  20237166.189    20237164.433    20237165.050
        43.600          50.500
 -13963945.513 6 -10880982.510 6  21796548.752    21796548.279    21796548.054
        41.900          36.600
 -10524077.890 5  -8200573.359 4  22595594.903    22595594.145    22595594.579
        32.600          27.900
 -21652251.454 7 -16871873.777 7  20544162.947    20544158.800    20544161.462
        46.800          44.300
  -5934941.109 4  -4624622.270 3  23398356.693    23398358.243    23398355.892
        24.900          19.900
 -13526316.358 6 -10539973.769 5  21933441.089    21933441.692    21933440.142
        38.800          34.400
 06  6  7  0 10  0.0000000  0  9G20G 6G 1G16G25G13G23G 3G 7
  -6764667.997 4  -5271159.762 3  23351840.316    23351841.044    23351838.988
        29.900          20.500
  -2218382.447 3  -1728591.358 3  24169689.809    24169689.620    24169689.003
        19.300          18.600
  -7186414.136 5  -5599799.346 4  22849664.796    22849665.973    22849663.850
        31.300          28.600
 -22801228.029 7 -17767176.224 8  20238164.896    20238163.321    20238163.792
        43.800          50.500
 -13907451.674 6 -10836961.354 6  21807299.144    21807298.769    21807298.529
        41.900          36.800
 -10614360.381 5  -8270923.356 4  22578414.921    22578413.864    22578414.493
        32.400          28.400
 -21687088.824 7 -16899019.779 7  20537533.414    20537529.476    20537532.075
        46.800          44.400
  -6043823.544 4  -4709465.639 3  23377636.519    23377638.480    23377636.000
        25.600          20.500
 -13560264.439 6 -10566426.786 5  21926981.099    21926981.491    21926979.868
        38.700          34.600
 06  6  7  0 10 30.0000000  0  9G20G 6G 1G16G25G13G23G 3G 7
  -6680751.285 4  -5205770.163 3  23367809.245    23367809.921    23367807.927
        29.000          21.100
  -2153758.926 3  -1678235.327 3  24181987.290    24181987.325    24181986.561
        21.100          18.600
  -7088248.294 4  -5523306.536 4  22868345.463    22868346.340    22868344.243
        29.700          28.600
 -22795481.482 7 -17762698.377 8  20239258.361    20239256.868    20239257.286
        43.600          50.500
 -13850746.068 6 -10792775.196 6  21818089.914    21818089.703    21818089.280
        41.400          36.800
 -10704353.837 5  -8341048.103 4  22561289.974    22561288.915    22561289.477
        32.800          29.000
 -21721384.942 7 -16925744.026 7  20531007.023    20531003.193    20531005.712
        46.900          44.500
  -6152563.228 4  -4794197.796 3  23356943.357    23356945.700    23356943.415
        25.900          21.100
 -13593711.337 6 -10592489.274 5  21920615.776    21920616.651    21920614.863
        39.000          34.100
 06  6  7  0 11  0.0000000  0  9G20G 6G 1G16G25G13G23G 3G 7
  -6596552.750 5  -5140160.986 3  23383831.517    23383832.772    23383830.568
        30.200          22.100
  -2088722.052 3  -1627557.221 2  24194363.658    24194362.668    24194362.693
        23.000          17.000
  -6989818.655 5  -5446608.182 4  22887076.102    22887077.006    22887074.918
        30.100          28.100
 -22789238.364 7 -17757833.600 8  20240446.473    20240444.800    20240445.336
        43.600          50.500
 -13793828.907 6 -10748424.195 6  21828920.903    21828920.717    21828920.244
        41.400          36.600
 -10794056.135 5  -8410945.979 4  22544219.410    22544219.207    22544219.252
        32.600          29.700
 -21755138.479 7 -16952045.484 7  20524583.776    20524580.134    20524582.526
        46.800          44.700
  -6261157.409 4  -4878816.541 3  23336278.940    23336280.997    23336278.583
        27.100          21.100
 -13626655.816 6 -10618160.259 5  21914346.922    21914347.699    21914345.827
        39.100          34.800
 06  6  7  0 11 30.0000000  0  9G20G 6G 1G16G25G13G23G 3G 7
  -6512075.770 5  -5074334.827 3  23399907.682    23399907.961    23399906.098
        30.100          21.100
  -2023273.996 3  -1576558.676 2  24206817.628    24206816.720    24206816.842
        20.500          13.900
  -6891127.076 5  -5369705.701 4  22905856.760    22905857.347    22905855.335
        30.100          28.600
 -22782499.586 7 -17752582.587 8  20241728.645    20241727.073    20241727.584
        43.600          50.400
 -13736700.430 6 -10703908.522 6  21839792.109    21839791.806    21839791.433
        41.400          36.500
 -10883464.359 5  -8480614.720 4  22527205.917    22527205.374    22527205.659
        33.200          29.900
 -21788347.298 7 -16977922.492 7  20518264.398    20518260.688    20518263.133
        46.700          44.700
  -6369602.649 4  -4963319.277 3  23315642.469    23315644.849    23315642.245
        27.100          23.400
 -13659096.376 6 -10643438.577 5  21908174.086    21908174.417    21908172.719
        38.600          34.800
 06  6  7  0 12  0.0000000  0  9G20G 6G 1G16G25G13G23G 3G 7
  -6427323.570 5  -5008294.216 3  23416035.413    23416035.700    23416033.966
        30.200          22.100
  -1957416.658 3  -1525241.237 1  24219349.508    24219348.768    24219348.902
        19.900           9.000
  -6792175.356 5  -5292600.515 4  22924687.208    22924687.343    22924685.575
        30.600          28.600
 -22775266.219 7 -17746946.185 8  20243105.190    20243103.512    20243104.049
        43.500          50.300
 -13679360.877 6 -10659228.375 6  21850703.490    21850703.281    21850702.787
        40.700          36.500
 -10972576.063 5  -8550052.395 4  22510248.715    22510247.561    22510248.415
        33.200          28.600
 -21821010.155 7 -17003374.071 7  20512049.046    20512045.210    20512047.696
        46.800          44.800
  -6477896.177 4  -5047703.779 3  23295034.722    23295037.184    23295034.510
        26.500          21.100
 -13691031.739 6 -10668323.236 5  21902096.881    21902097.250    21902095.674
        39.100          35.100
 06  6  7  0 12 30.0000000  0  9G20G 6G 1G16G25G13G23G 3G 7
  -6342299.131 5  -4942041.455 3  23432214.610    23432215.178    23432213.495
        30.100          19.900
  -1891151.982 3  -1473606.404 2  24231959.274    24231958.946    24231958.676
        20.500          13.900
  -6692965.257 5  -5215294.001 4  22943565.066    22943566.616    22943564.465
        30.600          28.100
 -22767539.205 7 -17740925.122 8  20244575.629    20244573.961    20244574.500
        43.600          50.400
 -13621810.436 6 -10614383.900 6  21861654.810    21861654.778    21861654.182
        40.900          36.600
 -11061388.418 5  -8619256.790 4  22493348.401    22493347.231    22493348.017
        33.600          28.600
 -21853125.186 7 -17028398.780 7  20505937.897    20505933.963    20505936.632
        47.100          45.200
  -6586034.994 4  -5131967.737 3  23274457.004    23274459.038    23274456.266
        27.400          22.600
 -13722460.548 6 -10692813.179 5  21896115.926    21896116.402    21896114.847
        38.900          34.400
 06  6  7  0 13  0.0000000  0  9G20G 6G 1G16G25G13G23G 3G 7
  -6257005.586 5  -4875579.001 3  23448445.774    23448446.283    23448444.512
        30.800          21.600
  -1824481.820 2  -1421655.652 2  24244645.872    24244646.154    24244645.105
        17.000          12.600
  -6593498.599 4  -5137787.591 4  22962493.230    22962494.296    22962492.231
        29.700          27.900
 -22759319.598 7 -17734520.218 8  20246139.810    20246138.110    20246138.734
        43.600          50.400
 -13564049.380 6 -10569375.316 6  21872646.457    21872646.450    21872645.814
        40.700          36.700
 -11149899.141 5  -8688226.145 4  22476505.543    22476504.268    22476505.058
        34.300          29.700
 -21884690.485 7 -17052995.122 7  20499931.193    20499927.283    20499929.879
        47.000          45.200
  -6694016.116 4  -5216108.843 3  23253907.951    23253910.830    23253908.285
        26.200          23.400
 -13753381.848 6 -10716907.665 5  21890231.919    21890232.302    21890230.784
        39.300          34.800
 06  6  7  0 13 30.0000000  0  9G20G 6G 1G16G25G13G23G 3G 7
  -6171446.005 5  -4808909.240 3  23464726.813    23464727.733    23464725.821
        30.400          18.600
  -1757408.362 3  -1369390.606 2  24257409.803    24257410.024    24257409.142
        18.600          17.000
  -6493777.394 5  -5060082.788 4  22981469.408    22981470.419    22981468.585
        30.100          27.100
 -22750608.352 7 -17727732.213 8  20247797.485    20247795.800    20247796.373
        43.900          50.500
 -13506077.959 6 -10524202.806 6  21883677.935    21883678.074    21883677.438
        40.900          36.500
 -11238105.595 5  -8756958.420 4  22459720.034    22459719.192    22459719.803
        33.200          29.200
 -21915704.557 7 -17077161.929 7  20494029.127    20494025.542    20494027.908
        46.900          45.300
  -6801836.294 4  -5300124.534 3  23233390.312    23233392.729    23233390.541
        25.300          19.900
 -13783793.953 6 -10740605.370 5  21884444.581    21884445.029    21884443.393
        39.000          34.800
 06  6  7  0 14  0.0000000  0  9G20G 6G 1G16G25G13G23G 3G 7
  -6085623.537 4  -4742034.652 2  23481058.808    23481059.295    23481057.450
        29.700          17.800
  -1689933.621 3  -1316812.891 3  24270250.367    24270250.157    24270249.492
        20.500          19.900
  -6393803.415 4  -4982181.043 4  23000494.374    23000495.407    23000493.292
        29.900          28.800
 -22741406.645 7 -17720562.032 8  20249548.433    20249546.806    20249547.295
        43.800          50.500
 -13447896.379 6 -10478866.533 6  21894749.787    21894749.677    21894749.092
        40.700          36.300
 -11326005.162 5  -8825451.538 4  22442993.102    22442992.092    22442992.947
        33.500          29.900
 -21946165.921 7 -17100898.054 7  20488232.674    20488228.935    20488231.264
        46.700          45.300
  -6909492.479 4  -5384012.448 3  23212904.276    23212906.668    23212904.427
        27.400          19.900
 -13813695.923 6 -10763905.574 5  21878754.421    21878754.827    21878753.258
        39.500          35.200
 06  6  7  0 14 30.0000000  0  9G20G 6G 1G16G25G13G23G 3G 7
  -5999541.354 5  -4674957.669 2  23497439.949    23497440.164    23497438.754
        30.100          17.000
  -1622059.586 3  -1263924.061 3  24283166.866    24283165.808    24283165.797
        18.600          19.900
  -6293578.513 4  -4904083.791 4  23019566.139    23019567.657    23019565.310
        29.900          28.100
 -22731715.653 7 -17713010.586 8  20251392.666    20251391.000    20251391.467
        43.800          50.400
 -13389504.870 6 -10433366.678 6  21905861.652    21905861.188    21905860.781
        40.700          36.500
 -11413594.748 5  -8893703.121 5  22426325.613    22426324.714    22426325.268
        34.000          30.400
 -21976072.977 7 -17124202.255 7  20482541.479    20482537.740    20482540.194
        46.900          45.200
  -7016981.895 4  -5467770.398 3  23192450.297    23192451.814    23192449.695
        28.400          22.600
 -13843086.490 6 -10786807.279 5  21873161.868    21873162.102    21873160.599
        39.400          35.100
 06  6  7  0 15  0.0000000  0  9G20G 6G 1G16G25G13G23G 3G 7
  -5913202.624 4  -4607680.800 2  23513869.744    23513869.970    23513868.281
        29.500          17.800
  -1553788.331 3  -1210725.716 2  24296157.203    24296157.026    24296156.460
        23.400          17.000
  -6193104.511 5  -4825792.426 4  23038685.504    23038687.100    23038685.072
        30.200          28.600
 -22721536.077 7 -17705078.421 8  20253329.750    20253328.185    20253328.607
        43.800          50.600
 -13330903.587 6 -10387703.357 5  21917012.973    21917012.466    21917012.256
        40.700          35.900
 -11500872.177 5  -8961711.476 5  22409717.548    22409716.400    22409717.018
        34.500          30.200
 -22005424.058 7 -17147073.220 7  20476956.418    20476952.316    20476955.075
        47.000          45.200
  -7124301.486 4  -5551396.041 3  23172028.333    23172029.912    23172027.595
        26.800          21.600
 -13871964.473 6 -10809309.570 5  21867666.318    21867666.819    21867665.169
        39.400          34.900
 06  6  7  0 15 30.0000000  0  9G20G 6G 1G16G25G13G23G 3G 7
  -5826610.533 4  -4540206.471 2  23530347.233    23530347.932    23530346.044
        28.800          17.000
  -1485121.739 3  -1157219.285 2  24309224.286    24309223.874    24309223.583
        21.100          12.600
  -6092383.264 4  -4747308.379 4  23057852.706    23057853.987    23057851.741
        29.200          28.600
 -22710869.303 7 -17696766.624 8  20255359.477    20255357.938    20255358.444
        43.600          50.500
 -13272092.877 6 -10341876.843 6  21928204.002    21928203.968    21928203.497
        40.700          36.000
 -11587834.936 5  -9029474.649 5  22393168.341    22393168.011    22393168.231
        34.300          30.600
 -22034217.613 7 -17169509.758 7  20471476.981    20471473.174    20471475.806
        47.300          45.400
  -7231448.163 4  -5634886.928 3  23151639.208    23151640.310    23151638.340
        28.600          21.600
 -13900328.648 6 -10831411.490 5  21862268.306    21862269.055    21862267.224
        38.900          35.100
 06  6  7  0 16  0.0000000  0  9G20G 6G 1G16G25G13G23G 3G 7
  -5739768.036 4  -4472537.048 2  23546872.815    23546873.646    23546871.173
        27.600          16.100
  -1416062.249 3  -1103406.708 1  24322366.783    24322365.161    24322365.728
        19.900           9.000
  -5991416.661 5  -4668633.190 4  23077066.606    23077067.548    23077065.357
        30.200          29.700
 -22699716.342 7 -17688075.985 8  20257481.830    20257480.196    20257480.724
        43.900          50.400
 -13213072.997 6 -10295887.342 6  21939435.367    21939435.084    21939434.693
        40.700          36.200
 -11674480.222 5  -9096990.412 4  22376680.640    22376679.447    22376680.299
        34.400          29.000
 -22062451.918 7 -17191510.513 7  20466104.263    20466100.423    20466102.939
        47.200          45.400
  -7338419.117 4  -5718240.881 3  23131283.475    23131284.677    23131282.296
        26.800          22.600
 -13928177.878 6 -10853112.151 5  21856968.961    21856969.499    21856967.754
        39.100          34.800
 06  6  7  0 16 30.0000000  0  9G20G 6G 1G16G25G13G23G 3G 7
  -5652678.389 4  -4404675.046 3  23563445.145    23563446.442    23563444.170
        26.500          18.600
  -1346611.515 3  -1049289.260 1  24335582.264    24335581.536    24335581.256
        20.500          11.000
  -5890206.407 4  -4589768.122 4  23096325.385    23096327.163    23096324.586
        28.400          27.600
 -22688078.177 7 -17679007.251 8  20259696.569    20259694.762    20259695.399
        44.200          50.400
 -13153844.062 6 -10249734.937 5  21950706.433    21950705.791    21950705.602
        40.500          35.600
 -11760805.329 5  -9164256.689 4  22360253.522    22360252.261    22360253.210
        35.500          29.200
 -22090125.727 7 -17213074.509 7  20460837.867    20460834.192    20460836.630
        47.000          45.300
  -7445211.240 4  -5801455.503 3  23110961.531    23110962.758    23110960.488
        29.200          22.100
 -13955510.947 6 -10874410.618 5  21851767.736    21851768.227    21851766.522
        39.000          35.200
 06  6  7  0 17  0.0000000  0  9G20G 6G 1G16G25G13G23G 3G 7
  -5565344.669 4  -4336622.872 3  23580064.398    23580065.567    23580063.138
        25.600          21.100
  -1276771.922 3   -994868.777 2  24348872.286    24348871.416    24348871.493
        20.500          12.600
  -5788754.452 4  -4510714.717 4  23115630.437    23115632.766    23115629.888
        27.900          26.500
 -22675956.098 7 -17669561.443 8  20262003.311    20262001.492    20262002.139
        44.000          50.300
 -13094406.387 6 -10203419.870 5  21962017.073    21962016.552    21962016.189
        40.500          35.800
 -11846807.962 5  -9231271.729 5  22343887.949    22343886.669    22343887.543
        34.800          30.800
 -22117237.361 7 -17234200.450 7  20455678.706    20455674.905    20455677.482
        47.000          45.200
  -7551821.280 4  -5884528.232 4  23090675.100    23090675.620    23090673.700
        28.100          24.900
 -13982326.898 6 -10895306.127 5  21846664.723    21846665.347    21846663.488
        39.300          35.300
 06  6  7  0 17 30.0000000  0  9G20G 6G 1G16G25G13G23G 3G 7
  -5477770.029 4  -4268382.962 3  23596729.387    23596730.386    23596728.397
        26.500          19.300
  -1206545.359 3   -940146.748 2  24362235.715    24362235.144    24362235.159
        22.100          12.600
  -5687062.812 4  -4431474.544 4  23134981.980    23134984.081    23134981.575
        28.400          27.600
 -22663351.044 7 -17659739.287 8  20264401.936    20264400.123    20264400.823
        44.100          50.200
 -13034760.212 6 -10156942.340 5  21973366.701    21973367.042    21973366.341
        40.200          35.700
 -11932485.224 5  -9298033.189 5  22327583.521    22327582.757    22327583.213
        33.500          30.400
 -22143785.500 7 -17254887.294 7  20450626.933    20450622.999    20450625.650
        47.100          45.200
  -7658246.284 4  -5967456.775 4  23070422.405    23070423.390    23070421.339
        27.600          24.600
 -14008624.566 6 -10915797.775 5  21841660.353    21841660.955    21841659.163
        39.100          35.100
 06  6  7  0 18  0.0000000  0  9G20G 6G 1G16G25G13G23G 3G 7
  -5389957.839 4  -4199957.969 3  23613439.347    23613440.838    23613438.375
        27.900          21.100
  -1135934.124 3   -885124.981 3  24375672.630    24375672.450    24375672.272
        22.100          18.600
  -5585133.205 4  -4352048.948 4  23154379.101    23154380.728    23154378.484
        27.900          27.100
 -22650264.350 7 -17649541.826 8  20266892.257    20266890.427    20266891.086
        44.100          50.300
 -12974905.792 6 -10110302.539 5  21984757.166    21984756.782    21984756.402
        40.200          35.200
 -12017834.293 5  -9364538.894 4  22311341.996    22311340.960    22311341.757
        34.600          29.900
 -22169768.526 7 -17275133.797 7  20445682.518    20445678.627    20445681.327
        47.100          45.300
  -7764483.293 4  -6050238.832 3  23050206.423    23050207.023    23050205.141
        28.800          22.600
 -14034402.922 6 -10935884.771 5  21836754.852    21836755.484    21836753.764
        39.400          35.200
 06  6  7  0 18 30.0000000  0  9G20G 6G 1G16G25G13G23G 3G 7
  -5301911.007 4  -4131350.123 3  23630194.637    23630195.652    23630193.291
        29.000          22.100
  -1064940.159 2   -829804.999 2  24389181.777    24389182.301    24389181.406
        17.800          17.000
  -5482967.679 4  -4272439.515 4  23173820.726    23173822.347    23173819.850
        28.600          26.500
 -22636697.164 7 -17638969.956 8  20269473.886    20269472.110    20269472.766
        44.100          50.300
 -12914843.347 6 -10063500.631 5  21996186.929    21996186.386    21996186.064
        40.300          35.200
 -12102852.865 5  -9430787.104 5  22295163.808    22295162.423    22295163.402
        34.800          30.100
 -22195184.895 7 -17294938.748 7  20440845.985    20440842.011    20440844.751
        47.200          45.400
  -7870529.354 4  -6132872.112 3  23030026.547    23030027.194    23030025.371
        28.800          23.800
 -14059660.758 6 -10955566.156 5  21831948.714    21831948.982    21831947.477
        39.600          35.100
 06  6  7  0 19  0.0000000  0  9G20G 6G 1G16G25G13G23G 3G 7
  -5213632.791 4  -4062561.972 3  23646993.653    23646994.423    23646992.291
        29.700          19.900
   -993565.735 3   -774188.588 2  24402764.263    24402764.313    24402763.728
        20.500          17.000
  -5380568.187 4  -4192647.777 4  23193307.610    23193308.120    23193306.104
        27.600          24.900
 -22622650.544 7 -17628024.499 8  20272146.913    20272145.036    20272145.733
        43.900          50.200
 -12854573.027 6 -10016536.745 5  22007655.890    22007655.421    22007654.954
        39.800          35.500
 -12187538.268 5  -9496775.683 5  22279048.512    22279047.503    22279048.274
        34.900          31.500
 -22220033.183 7 -17314301.035 7  20436117.334    20436113.604    20436116.127
        47.100          45.500
  -7976381.430 4  -6215354.241 4  23009883.283    23009884.270    23009881.977
        28.800          24.200
 -14084397.172 6 -10974841.238 5  21827241.651    21827241.743    21827240.312
        39.000          35.100
 06  6  7  0 19 30.0000000  0  9G20G 6G 1G16G25G13G23G 3G 7
  -5125126.076 4  -3993595.775 3  23663835.813    23663836.617    23663834.627
        29.700          19.300
   -921812.956 3   -718277.320 2  24416418.173    24416418.099    24416417.701
        19.300          17.000
  -5277936.639 4  -4112675.216 4  23212837.122    23212838.338    23212835.801
        26.200          25.600
 -22608125.807 7 -17616706.480 8  20274910.728    20274909.005    20274909.639
        44.000          50.300
 -12794095.119 6  -9969411.096 5  22019164.113    22019163.806    22019163.513
        39.800          35.100
 -12271888.097 5  -9562502.825 5  22262997.767    22262996.510    22262997.278
        35.300          31.500
 -22244312.228 7 -17333219.761 7  20431497.185    20431493.402    20431495.950
        47.200          45.600
  -8082036.593 4  -6297682.918 3  22989777.968    22989778.376    22989776.546
        27.900          21.600
 -14108611.164 6 -10993709.234 5  21822633.216    21822633.866    21822632.306
        39.500          35.500
 06  6  7  0 20  0.0000000  0  9G20G 6G 1G16G25G13G23G 3G 7
  -5036394.401 4  -3924454.256 2  23680720.623    23680721.820    23680719.598
        28.400          17.800
   -849683.885 3   -662072.863 2  24430144.626    24430144.186    24430143.886
        21.100          16.100
  -5175075.021 4  -4032523.378 4  23232410.833    23232412.811    23232410.163
        28.400          26.200
 -22593123.987 7 -17605016.712 8  20277765.336    20277763.685    20277764.293
        44.000          50.100
 -12733409.956 6  -9922123.955 5  22030712.087    22030711.855    22030711.542
        39.900          34.800
 -12355899.488 5  -9627966.220 5  22247011.014    22247009.612    22247010.602
        35.700          32.000
 -22268020.216 7 -17351693.491 7  20426985.956    20426981.818    20426984.650
        47.300          45.400
  -8187491.708 4  -6379855.721 4  22969710.324    22969711.172    22969709.194
        28.600          24.200
 -14132301.628 6 -11012169.286 5  21818125.052    21818125.725    21818124.043
        39.300          34.600
 06  6  7  0 20 30.0000000  0  9G20G 6G 1G16G25G13G23G 3G 7
  -4947440.688 4  -3855139.723 2  23697648.337    23697648.630    23697647.183
        28.800          12.600
   -777180.514 3   -605576.721 2  24443942.707    24443940.842    24443941.307
        21.600          13.900
  -5071985.173 4  -3952193.685 4  23252027.479    23252029.881    23252027.498
        28.800          25.900
 -22577646.595 7 -17592956.368 8  20280710.636    20280708.849    20280709.454
        43.900          50.100
 -12672517.685 6  -9874675.430 5  22042299.650    22042299.196    22042298.838
        39.200          34.600
 -12439569.786 6  -9693163.817 5  22231089.116    22231087.622    22231088.663
        36.000          32.100
 -22291156.025 7 -17369721.371 7  20422583.433    20422579.197    20422582.148
        47.400          45.500
  -8292743.722 4  -6461870.245 4  22949681.350    22949682.637    22949680.253
        29.200          24.200
 -14155467.636 6 -11030220.671 5  21813716.785    21813717.319    21813715.686
        39.500          35.500
 06  6  7  0 21  0.0000000  0  9G20G 6G 1G16G25G13G23G 3G 7
  -4858267.893 4  -3785654.484 2  23714617.217    23714617.895    23714616.017
        26.500          17.800
   -704305.347 3   -548790.909 1  24457809.354    24457808.755    24457808.412
        21.100           9.000
  -4968669.049 4  -3871687.665 4  23271687.995    23271690.221    23271687.749
        28.400          26.500
 -22561694.721 7 -17580526.297 8  20283746.247    20283744.315    20283745.159
        44.100          50.000
 -12611418.571 6  -9827065.719 5  22053926.444    22053925.817    22053925.613
        39.500          34.300
 -12522896.380 6  -9758093.603 5  22215232.181    22215231.124    22215231.959
        36.200          32.000
 -22313718.389 7 -17387302.412 7  20418289.782    20418285.777    20418288.467
        47.400          45.600
  -8397789.717 5  -6543724.246 4  22929691.829    22929693.001    22929690.795
        30.200          24.900
 -14178108.271 6 -11047862.672 5  21809408.788    21809408.812    21809407.360
        39.500          35.500
 06  6  7  0 21 30.0000000  0  9G20G 6G 1G16G25G13G23G 3G 7
  -4768879.801 4  -3716001.482 2  23731627.301    23731627.536    23731626.177
        25.600          12.600
   -631060.504 3   -491717.017 2  24471747.414    24471746.301    24471746.409
        19.300          13.900
  -4865128.594 4  -3791006.856 4  23291392.464    23291393.799    23291391.412
        27.100          27.900
 -22545269.453 7 -17567727.344 8  20286871.809    20286869.936    20286870.706
        44.000          50.000
 -12550112.913 6  -9779295.067 5  22065592.174    22065592.130    22065591.535
        39.200          34.700
 -12605877.044 6  -9822753.894 5  22199441.763    22199440.222    22199441.374
        36.100          31.300
 -22335706.023 7 -17404435.614 7  20414105.565    20414101.635    20414104.335
        47.400          45.600
  -8502626.325 4  -6625415.100 4  22909741.516    22909743.209    22909740.620
        29.500          25.300
 -14200222.772 6 -11065094.690 5  21805200.116    21805200.502    21805199.013
        39.800          35.400
 06  6  7  0 22  0.0000000  0  9G20G 6G 1G16G25G13G23G 3G 7
  -4679279.223 4  -3646182.930 2  23748678.052    23748678.616    23748676.612
        24.900          13.900
   -557448.126 3   -434356.745 1  24485754.101    24485754.264    24485753.724
        19.300           6.500
  -4761365.634 4  -3710152.696 4  23311137.488    23311139.232    23311136.406
        25.900          27.600
 -22528372.098 7 -17554560.539 8  20290087.231    20290085.375    20290086.058
        44.000          50.000
 -12488600.866 6  -9731363.596 5  22077297.523    22077297.446    22077296.850
        38.900          34.400
 -12688508.399 6  -9887141.927 5  22183717.265    22183716.035    22183716.955
        36.700          31.800
 -22357117.199 7 -17421119.626 7  20410031.236    20410027.148    20410029.940
        47.300          45.600
  -8607250.889 5  -6706940.692 4  22889832.094    22889833.667    22889831.504
        30.100          25.600
 -14221810.007 6 -11081915.850 5  21801092.069    21801092.607    21801091.087
        39.700          35.600
 06  6  7  0 22 30.0000000  0  9G20G 6G 1G16G25G13G23G 3G 7
  -4589469.186 4  -3576201.169 2  23765767.305    23765768.985    23765766.492
        24.600          15.100
   -483470.012 3   -376711.505 2  24499831.420    24499832.508    24499831.119
        21.600          15.100
  -4657382.260 4  -3629126.757 4  23330925.403    23330926.821    23330924.343
        27.400          26.200
 -22511003.983 7 -17541026.901 8  20293392.150    20293390.433    20293391.012
        44.100          50.000
 -12426882.742 6  -9683271.537 5  22089042.196    22089042.084    22089041.511
        39.100          34.600
 -12770788.249 6  -9951256.045 5  22168059.915    22168058.717    22168059.670
        36.000          31.500
 -22377950.661 7 -17437353.472 7  20406066.771    20406062.631    20406065.514
        47.400          45.700
  -8711660.114 4  -6788298.499 4  22869963.503    22869964.967    22869962.864
        29.900          24.200
 -14242869.073 6 -11098325.444 5  21797084.904    21797085.033    21797083.724
        39.700          35.400
 06  6  7  0 23  0.0000000  0  9G20G 6G 1G16G25G13G23G 3G 7
  -4499452.874 4  -3506058.654 2  23782897.706    23782898.496    23782896.567
        25.900          16.100
   -409128.755 2   -318783.310 2  24513978.117    24513979.230    24513978.006
        17.000          15.100
  -4553180.421 4  -3547930.590 4  23350753.937    23350755.583    23350752.957
        27.600          24.900
 -22493166.518 7 -17527127.540 8  20296786.376    20296784.812    20296785.284
        44.000          50.100
 -12364958.816 6  -9635019.118 5  22100826.102    22100825.768    22100825.415
        39.200          34.400
 -12852713.753 6 -10015093.996 5  22152469.838    22152468.660    22152469.514
        36.000          31.800
 -22398205.392 7 -17453136.363 7  20402212.379    20402208.311    20402211.185
        47.600          45.600
  -8815851.033 4  -6869486.184 4  22850136.140    22850138.071    22850135.763
        29.000          25.600
 -14263399.189 6 -11114322.866 5  21793177.838    21793178.304    21793176.684
        39.800          35.200
 06  6  7  0 23 30.0000000  0  9G20G 6G 1G16G25G13G23G 3G 7
  -4409233.508 4  -3435757.899 1  23800066.247    23800066.373    23800064.821
        26.200           9.000
   -334426.466 3   -260573.786 1  24528193.822    24528194.611    24528193.227
        20.500           9.000
  -4448762.060 4  -3466565.672 4  23370623.856    23370625.541    23370623.048
        26.200          24.900
 -22474860.752 7 -17512863.274 8  20300269.799    20300268.226    20300268.698
        43.900          49.900
 -12302829.281 6  -9586606.497 5  22112648.779    22112648.699    22112648.231
        39.000          34.100
 -12934282.882 6 -10078654.316 5  22136947.664    22136946.599    22136947.323
        36.100          32.100
 -22417880.105 7 -17468467.286 7  20398468.773    20398464.407    20398467.371
        47.700          45.900
  -8919820.560 4  -6950501.360 4  22830351.366    22830353.503    22830351.048
        29.200          24.900
 -14283399.585 6 -11129907.527 5  21789372.225    21789372.317    21789370.976
        40.200          35.600
 06  6  7  0 24  0.0000000  0  9G20G 6G 1G16G25G13G23G 3G 7
  -4318814.499 4  -3365301.600 2  23817271.989    23817272.825    23817270.789
        27.100          13.900
   -259365.229 3   -202084.520 1  24542478.679    24542478.334    24542477.543
        21.100          11.000
  -4344129.223 4  -3385033.649 3  23390534.676    23390536.374    23390533.979
        26.200          22.100
 -22456087.872 7 -17498235.019 8  20303842.099    20303840.546    20303841.060
        44.100          50.000
 -12240494.357 6  -9538033.825 5  22124510.884    22124510.522    22124510.077
        38.900          34.800
 -13015492.512 6 -10141934.451 5  22121493.989    22121492.999    22121493.711
        36.600          32.600
 -22436973.537 7 -17483345.271 7  20394835.086    20394831.065    20394833.798
        47.500          45.700
  -9023565.681 4  -7031341.664 4  22810610.662    22810611.177    22810609.284
        29.700          25.300
 -14302869.298 6 -11145078.664 6  21785667.029    21785667.437    21785665.825
        40.000          36.100
 06  6  7  0 24 30.0000000  0  9G20G 6G 1G16G25G13G23G 3G 7
  -4228198.574 4  -3294691.849 2  23834515.640    23834516.535    23834514.356
        25.900          13.900
   -183947.282 3   -143317.348 1  24556830.335    24556829.661    24556829.304
        19.900          11.000
  -4239283.825 4  -3303335.994 3  23410487.081    23410488.218    23410485.634
        25.300          23.800
 -22436849.281 7 -17483243.877 8  20307503.281    20307501.464    20307502.113
        44.100          49.900
 -12177954.392 6  -9489301.381 5  22136411.722    22136411.588    22136411.126
        39.100          34.800
 -13096340.132 6 -10204932.560 5  22106109.069    22106108.116    22106108.777
        36.500          32.700
 -22455484.372 7 -17497769.287 7  20391312.378    20391308.519    20391311.157
        47.500          45.900
  -9127083.461 5  -7112004.833 4  22790911.972    22790912.264    22790910.621
        30.600          24.900
 -14321807.722 6 -11159835.813 6  21782062.962    21782063.368    21782062.000
        40.400          36.100
 06  6  7  0 25  0.0000000  0  9G20G 6G 1G16G25G13G23G 3G 7
  -4137389.116 3  -3223931.305 2  23851796.447    23851797.372    23851794.878
        23.400          17.800
   -108174.892 3    -84273.920 1  24571248.823    24571248.315    24571248.083
        19.300           9.000
  -4134227.923 4  -3221474.313 4  23430479.014    23430479.972    23430477.426
        27.400          25.300
 -22417146.490 7 -17467891.025 8  20311252.571    20311250.717    20311251.479
        44.100          49.800
 -12115209.575 6  -9440409.326 5  22148351.580    22148351.643    22148351.081
        38.900          34.500
 -13176823.251 6 -10267646.641 5  22090793.846    22090792.477    22090793.490
        36.900          32.000
 -22473411.281 7 -17511738.286 7  20387901.061    20387897.145    20387899.825
        47.500          45.900
  -9230370.912 4  -7192488.509 4  22771256.821    22771257.862    22771255.335
        29.900          26.200
 -14340213.810 6 -11174178.159 5  21778560.568    21778560.714    21778559.355
        40.200          35.900
 06  6  7  0 25 30.0000000  0  9G20G 6G 1G16G25G13G23G 3G 7
  -4046389.338 4  -3153022.439 3  23869112.833    23869113.946    23869111.752
        27.600          19.300
    -32050.263 3    -24956.047 1  24585734.476    24585734.119    24585734.009
        20.500           6.500
  -4028963.485 4  -3139450.136 4  23450508.930    23450511.163    23450508.269
        26.200          24.600
 -22396980.605 7 -17452177.317 8  20315090.034    20315088.170    20315088.884
        44.300          49.900
 -12052260.149 6  -9391357.827 5  22160331.199    22160330.374    22160330.129
        39.100          34.300
 -13256939.064 6 -10330074.485 5  22075548.351    22075546.937    22075547.963
        37.100          32.600
 -22490753.365 7 -17525251.590 7  20384601.137    20384596.980    20384599.817
        47.500          45.700
  -9333424.869 5  -7272790.253 4  22751646.657    22751647.156    22751645.140
        31.000          26.800
 -14358086.746 6 -11188105.051 5  21775159.382    21775159.478    21775158.165
        40.000          35.800
 06  6  7  0 26  0.0000000  0  9G20G 6G 1G16G25G13G23G 3G 7
  -3955202.306 4  -3081967.644 2  23886465.475    23886466.570    23886464.142
        27.600          17.800
     44424.357 3     34634.523    24600287.832    24600287.302    24600287.146
        21.100           3.000
  -3923492.381 4  -3057264.891 4  23470578.445    23470581.495    23470578.820
        27.100          24.900
 -22376353.243 7 -17436104.015 8  20319015.240    20319013.414    20319014.145
        44.300          49.800
 -11989106.469 6  -9342147.178 5  22172348.177    22172348.139    22172347.665
        38.800          33.900
 -13336685.100 6 -10392214.232 5  22060372.927    22060371.938    22060372.708
        37.500          33.200
 -22507509.309 7 -17538308.164 7  20381412.397    20381408.379    20381411.126
        47.500          46.000
  -9436242.459 5  -7352907.823 4  22732080.270    22732081.454    22732079.460
        31.300          27.400
 -14375426.282 6 -11201616.320 6  21771859.507    21771860.037    21771858.521
        40.100          36.100
 06  6  7  0 26 30.0000000  0  9G20G 6G 1G16G25G13G23G 3G 7
  -3863830.963 4  -3010769.237 2  23903852.893    23903854.231    23903851.432
        26.200          17.000
    121246.840 3     94496.201 9  24614907.152    24614906.232    24614906.006
        21.100          -3.000
  -3817816.408 4  -2974920.013 3  23490689.039    23490690.924    23490688.116
        25.600          23.400
 -22355265.165 7 -17419671.720 8  20323028.154    20323026.284    20323026.989
        44.400          49.800
 -11925748.636 6  -9292777.443 5  22184405.045    22184404.657    22184404.335
        39.000          33.800
 -13416058.465 6 -10454063.553 5  22045268.953    22045267.553    22045268.546
        37.400          33.200
 -22523678.017 7 -17550907.152 7  20378335.610    20378331.591    20378334.395
        47.400          45.800
  -9538820.550 5  -7432838.743 4  22712559.387    22712561.375    22712559.355
        31.500          27.100
 -14392231.302 6 -11214711.083 6  21768661.594    21768662.036    21768660.483
        40.300          36.500
 06  6  7  0 27  0.0000000  0  9G20G 6G 1G16G25G13G23G 3G 7
  -3772278.558 4  -2939429.730 2  23921274.723    23921275.779    23921273.378
        25.600          13.900
    198414.677 3    154626.897 1  24629590.973    24629590.780    24629590.415
        20.500           6.500
  -3711937.633 4  -2892417.109 3  23510838.236    23510838.853    23510836.580
        25.900          22.600
 -22333718.095 7 -17402881.760 8  20327128.390    20327126.561    20327127.218
        44.400          49.800
 -11862186.885 6  -9243248.814 5  22196500.394    22196500.165    22196499.666
        38.700          33.600
 -13495056.833 6 -10515620.653 5  22030236.346    22030234.608    22030235.825
        37.500          33.500
 -22539258.233 7 -17563047.577 7  20375370.803    20375366.812    20375369.517
        47.400          45.900
  -9641156.184 5  -7512580.735 4  22693085.625    22693087.547    22693085.585
        31.800          27.100
 -14408501.104 6 -11227388.789 6  21765565.634    21765565.962    21765564.480
        40.200          36.100
 06  6  7  0 27 30.0000000  0  9G20G 6G 1G16G25G13G23G 3G 7
  -3680548.565 4  -2867951.862 2  23938730.639    23938731.391    23938729.506
        25.900          15.100
    275925.932 2    215025.256 9  24644341.269    24644340.470    24644340.686
        17.000          -3.000
  -3605858.232 4  -2809757.901 4  23531024.397    23531025.541    23531022.707
        24.900          24.200
 -22311713.529 7 -17385735.313 8  20331315.687    20331313.858    20331314.563
        44.300          49.600
 -11798421.649 6  -9193561.624 5  22208634.619    22208634.316    22208633.963
        38.600          34.100
 -13573677.641 6 -10576883.622 5  22015274.918    22015273.637    22015274.552
        37.600          33.000
 -22554248.664 7 -17574728.422 7  20372518.113    20372514.212    20372516.896
        47.400          45.900
  -9743246.346 5  -7592131.452 4  22673659.086    22673660.342    22673658.197
        30.100          26.200
 -14424235.112 6 -11239649.006 6  21762571.675    21762571.760    21762570.541
        40.300          36.300
 06  6  7  0 28  0.0000000  0  9G20G 6G 1G16G25G13G23G 3G 7
  -3588644.225 4  -2796338.154 2  23956219.437    23956220.166    23956218.065
        24.600          16.100
    353778.352 2    275689.433 2  24659156.219    24659155.730    24659155.196
        17.000          12.600
  -3499580.124 4  -2726943.828 4  23551247.801    23551249.402    23551246.647
        25.300          24.900
 -22289252.737 7 -17368233.362 8  20335589.816    20335587.923    20335588.715
        44.400          49.700
 -11734453.054 6  -9143715.969 5  22220807.340    22220807.210    22220806.625
        38.200          33.900
 -13651918.152 6 -10637850.181 5  22000386.120    22000384.860    22000385.728
        37.500          34.100
 -22568648.727 7 -17585949.249 7  20369778.139    20369774.034    20369776.708
        47.300          46.000
  -9845088.206 5  -7671488.710 4  22654280.367    22654280.236    22654278.928
        31.000          25.300
 -14439432.955 6 -11251491.422 6  21759679.664    21759679.728    21759678.396
        40.200          36.500
 06  6  7  0 28 30.0000000  0  9G20G 6G 1G16G25G13G23G 3G 7
  -3496568.278 4  -2724590.710 2  23973740.774    23973741.881    23973739.536
        25.600          17.000
    431969.559 2    336617.591 9  24674035.262    24674034.854    24674034.378
        17.000          -3.000
  -3393105.497 4  -2643976.637 4  23571509.146    23571511.002    23571508.294
        25.900          25.300
 -22266337.113 7 -17350376.999 8  20339950.494    20339948.606    20339949.425
        44.700          49.700
 -11670281.371 6  -9093712.072 5  22233019.119    22233018.389    22233018.085
        37.700          33.000
 -13729775.789 6 -10698518.437 5  21985570.153    21985568.746    21985569.820
        38.100          33.400
 -22582457.264 7 -17596709.138 7  20367150.113    20367146.347    20367148.879
        47.200          46.200
  -9946678.666 5  -7750650.057 4  22634948.500    22634948.430    22634946.885
        31.300          26.500
 -14454093.404 6 -11262915.089 6  21756889.496    21756889.805    21756888.453
        40.200          36.100
 06  6  7  0 29  0.0000000  0  9G20G 6G 1G16G25G13G23G 3G 7
  -3404323.900 4  -2652712.024 2  23991294.475    23991295.138    23991293.209
        24.900          15.100
    510497.080 2    397807.818    24688978.582    24688978.367    24688977.417
        17.000           3.000
  -3286436.320 4  -2560857.869 4  23591808.161    23591809.828    23591807.115
        25.300          26.200
 -22242967.878 7 -17332167.180 8  20344397.562    20344395.591    20344396.452
        44.700          49.600
 -11605906.895 6  -9043550.157 5  22245268.939    22245268.627    22245268.255
        38.000          33.200
 -13807247.962 6 -10758886.320 5  21970827.089    21970826.268    21970827.009
        37.200          33.100
 -22595672.943 7 -17607007.061 7  20364635.223    20364631.466    20364634.076
        47.300          46.100
 -10048014.582 5  -7829613.075 4  22615663.711    22615664.545    22615662.741
        30.200          25.300
 -14468216.399 6 -11273919.967 6  21754201.857    21754202.029    21754200.925
        40.900          36.100
 06  6  7  0 29 30.0000000  0  9G20G 6G 1G16G25G13G23G 3G 7
  -3311914.253 4  -2580704.550 2  24008879.785    24008880.374    24008878.229
        25.600          12.600
    589358.894 2    459258.489    24703986.239    24703985.368    24703985.284
        13.900           3.000
  -3179574.421 4  -2477588.941 4  23612143.942    23612145.126    23612142.478
        25.600          25.900
 -22219146.794 7 -17313605.257 8  20348930.420    20348928.566    20348929.299
        44.400          49.500
 -11541329.963 6  -8993230.477 5  22257557.346    22257557.339    22257556.687
        38.000          34.000
 -13884332.268 6 -10818952.015 5  21956158.550    21956157.701    21956158.267
        37.700          33.800
 -22608294.638 7 -17616842.142 7  20362233.717    20362229.617    20362232.343
        47.400          46.100
 -10149092.929 5  -7908375.354 4  22596428.885    22596429.937    22596428.053
        30.800          27.400
 -14481801.079 6 -11284505.384 5  21751617.318    21751616.908    21751616.056
        40.600          35.700
 06  6  7  0 30  0.0000000  0  8G20G 1G16G25G13G23G 3G 7
  -3219342.783 4  -2508570.956 2  24026495.602    24026496.039    24026494.334
        24.900          12.600
  -3072521.841 4  -2394171.410 3  23632514.175    23632516.306    23632513.545
        25.600          22.100
 -22194874.866 7 -17294692.034 8  20353549.022    20353547.365    20353548.003
        44.300          49.400
 -11476550.774 6  -8942753.201 5  22269884.470    22269884.505    22269883.792
        38.100          34.000
 -13961026.055 6 -10878713.380 5  21941564.581    21941563.277    21941564.178
        37.900          33.500
 -22620321.894 7 -17626214.023 7  20359944.803    20359940.764    20359943.488
        47.300          45.900
 -10249910.640 5  -7986934.560 4  22577243.811    22577245.291    22577243.113
        31.100          27.900
 -14494846.837 6 -11294670.870 5  21749134.487    21749134.493    21749133.435
        40.600          35.800
 06  6  7  0 30 30.0000000  0  8G20G 1G16G25G13G23G 3G 7
  -3126612.417 4  -2436313.561 2  24044140.744    24044142.591    24044140.017
        24.900          17.800
  -2965280.633 4  -2310606.851 3  23652920.378    23652923.742    23652920.310
        24.200          21.100
 -22170153.555 7 -17275428.636 8  20358253.599    20358251.621    20358252.470
        44.700          49.400
 -11411569.514 6  -8892118.467 5  22282250.187    22282249.864    22282249.410
        38.100          33.000
 -14037326.694 6 -10938168.411 5  21927045.147    21927043.622    21927044.837
        38.100          33.400
 -22631753.483 7 -17635121.753 7  20357769.453    20357765.406    20357768.144
        47.300          46.100
 -10350464.885 5  -8065288.460 4  22558109.815    22558110.307    22558108.369
        31.500          27.600
 -14507353.232 6 -11304416.066 6  21746754.159    21746754.401    21746753.273
        40.500          36.000
 06  6  7  0 31  0.0000000  0  8G20G 1G16G25G13G23G 3G 7
  -3033726.278 4  -2363934.802 2  24061816.609    24061818.247    24061815.980
        26.500          15.100
  -2857852.824 3  -2226896.929 3  23673365.107    23673367.070    23673363.798
        23.400          23.000
 -22144984.477 7 -17255816.336 8  20363042.971    20363041.069    20363041.895
        44.500          49.200
 -11346386.532 6  -8841326.544 5  22294653.922    22294653.757    22294653.273
        37.600          33.500
 -14113231.293 6 -10997314.795 5  21912600.828    21912599.272    21912600.483
        38.100          33.400
 -22642588.238 7 -17643564.410 7  20355707.593    20355703.669    20355706.367
        47.300          46.000
 -10450752.550 5  -8143434.655 4  22539025.946    22539026.068    22539024.275
        31.000          27.900
 -14519319.694 6 -11313740.532 6  21744477.144    21744477.431    21744476.102
        40.400          36.300
 06  6  7  0 31 30.0000000  0  8G20G 1G16G25G13G23G 3G 7
  -2940687.501 4  -2291437.086 2  24079521.626    24079522.815    24079520.429
        25.600          15.100
  -2750240.582 4  -2143043.283 3  23693842.790    23693844.355    23693841.962
        24.900          19.900
 -22119369.113 7 -17235856.274 8  20367917.361    20367915.487    20367916.305
        44.600          49.200
 -11281002.071 6  -8790377.618 5  22307096.535    22307096.186    22307095.702
        37.800          33.400
 -14188737.621 6 -11056150.875 5  21898232.391    21898231.031    21898232.048
        38.400          34.100
 -22652825.429 7 -17651541.432 7  20353759.769    20353755.541    20353758.394
        47.400          46.100
 -10550770.734 5  -8221370.855 4  22519992.483    22519993.074    22519991.195
        31.600          27.600
 -14530745.675 6 -11322643.847 5  21742302.984    21742303.040    21742301.787
        40.300          35.900
 06  6  7  0 32  0.0000000  0  8G20G 1G16G25G13G23G 3G 7
  -2847499.373 4  -2218823.000 2  24097255.126    24097255.945    24097253.750
        27.400          12.600
  -2642445.886 3  -2059047.479 3  23714354.615    23714357.218    23714354.617
        23.800          22.100
 -22093308.854 7 -17215549.540 8  20372876.541    20372874.547    20372875.365
        44.600          49.100
 -11215416.382 6  -8739271.904 5  22319576.887    22319576.796    22319576.115
        37.700          33.000
 -14263843.013 6 -11114674.513 5  21883940.506    21883939.038    21883940.116
        38.600          34.500
 -22662464.230 7 -17659052.179 7  20351925.232    20351921.441    20351924.021
        47.100          46.200
 -10650516.401 5  -8299094.698 4  22501010.431    22501012.061    22501010.077
        32.100          28.600
 -14541630.810 6 -11331125.724 5  21740231.199    21740231.621    21740230.296
        40.100          35.900
 06  6  7  0 32 30.0000000  0  8G20G 1G16G25G13G23G 3G 7
  -2754165.030 4  -2146094.971 1  24115015.520    24115017.158    24115014.727
        24.900          11.000
  -2534470.813 3  -1974911.110 3  23734902.190    23734904.370    23734901.728
        23.800          22.600
 -22066805.137 7 -17194897.252 8  20377919.890    20377917.947    20377918.823
        44.500          48.900
 -11149629.776 6  -8688009.625 5  22332095.456    22332095.418    22332094.861
        37.600          33.500
 -14338544.935 6 -11172883.796 5  21869725.056    21869723.749    21869724.782
        38.700          34.300
 -22671503.634 7 -17666095.868 7  20350205.333    20350201.275    20350203.901
        47.200          46.300
 -10749986.406 5  -8376603.732 4  22482081.532    22482083.668    22482081.368
        31.800          28.400
 -14551974.508 6 -11339185.697 6  21738262.807    21738263.117    21738261.887
        40.500          36.300
 06  6  7  0 33  0.0000000  0  8G20G 1G16G25G13G23G 3G 7
  -2660687.475 4  -2073255.351 2  24132804.323    24132805.180    24132803.038
        24.900          13.900
  -2426317.320 3  -1890635.712 3  23755483.228    23755485.307    23755482.191
        23.000          22.100
 -22039859.288 7 -17173900.459 8  20383047.659    20383045.548    20383046.493
        44.600          49.000
 -11083642.627 6  -8636591.084 5  22344652.305    22344652.467    22344651.764
        37.400          33.100
 -14412840.496 6 -11230776.399 5  21855586.770    21855585.801    21855586.682
        38.900          34.900
 -22679942.876 7 -17672671.890 7  20348599.414    20348595.406    20348598.079
        47.200          46.200
 -10849177.555 5  -8453895.491 4  22463207.251    22463207.887    22463206.237
        33.400          27.900
 -14561776.329 6 -11346823.439 6  21736397.617    21736397.907    21736396.662
        40.500          36.000
 06  6  7  0 33 30.0000000  0  8G20G 1G16G25G13G23G 3G 7
  -2567070.034 3  -2000306.745 1  24150618.523    24150620.147    24150617.661
        22.100          11.000
  -2317987.385 3  -1806222.841 3  23776097.868    23776099.329    23776096.527
        23.000          19.300
 -22012473.046 7 -17152560.503 8  20388258.917    20388256.999    20388257.819
        44.500          48.900
 -11017455.012 6  -8585016.342 5  22357247.624    22357247.308    22357246.974
        37.300          32.800
 -14486727.556 6 -11288350.707 5  21841526.790    21841525.594    21841526.508
        38.800          35.100
 -22687780.955 7 -17678779.475 7  20347107.769    20347103.828    20347106.535
        47.400          46.200
 -10948087.260 5  -8530967.934 4  22444385.401    22444386.174    22444384.207
        32.700          29.000
 -14571035.996 6 -11354038.717 6  21734635.411    21734635.932    21734634.353
        40.400          36.500
 06  6  7  0 34  0.0000000  0  8G20G 1G16G25G13G23G 3G 7
  -2473315.624 4  -1927251.417 2  24168460.013    24168461.018    24168458.563
        24.600          13.900
  -2209483.124 3  -1721674.123 3  23796745.787    23796747.469    23796744.533
        23.000          22.100
 -21984647.546 7 -17130878.265 8  20393553.881    20393551.988    20393552.759
        44.500          49.000
 -10951067.355 6  -8533285.718 5  22369880.934    22369880.571    22369880.188
        37.400          33.100
 -14560203.355 6 -11345604.535 5  21827544.905    21827543.511    21827544.464
        38.700          34.800
 -22695017.064 7 -17684417.999 7  20345730.788    20345726.765    20345729.531
        47.100          46.100
 -11046712.380 5  -8607818.607 4  22425617.600    22425618.330    22425616.383
        32.300          28.800
 -14579753.079 6 -11360831.205 6  21732976.646    21732976.953    21732975.713
        40.200          36.400
 06  6  7  0 34 30.0000000  0  8G20G 1G16G25G13G23G 3G 7
  -2379427.479 3  -1854091.883 1  24186325.931    24186327.340    24186324.563
        22.600          11.000
  -2100806.562 3  -1636991.116 3  23817425.205    23817427.678    23817424.519
        22.600          22.600
 -21956384.735 7 -17108855.277 8  20398932.148    20398930.174    20398930.989
        44.700          48.800
 -10884479.857 6  -8481399.391 5  22382551.809    22382552.051    22382551.188
        36.800          33.200
 -14633265.370 6 -11402535.953 5  21813641.343    21813640.167    21813641.054
        38.600          34.800
 -22701650.411 7 -17689586.840 7  20344468.492    20344464.515    20344467.228
        47.400          46.400
 -11145050.202 5  -8684445.419 4  22406904.101    22406905.179    22406903.304
        32.700          28.400
 -14587927.164 6 -11367200.586 6  21731421.338    21731421.233    21731420.368
        40.600          36.100
 06  6  7  0 35  0.0000000  0  8G20G 1G16G25G13G23G 3G 7
  -2285408.732 3  -1780830.560 1  24204217.401    24204218.545    24204215.928
        21.100          11.000
  -1991959.837 3  -1552175.526 3  23838138.783    23838140.613    23838137.626
        21.600          20.500
 -21927685.751 7 -17086492.421 8  20404393.534    20404391.349    20404392.291
        44.600          48.800
 -10817692.851 6  -8429357.606 5  22395261.200    22395261.013    22395260.436
        36.600          32.600
 -14705911.151 6 -11459143.017 5  21799817.245    21799816.156    21799816.918
        38.700          34.800
 -22707680.574 7 -17694285.667 7  20343320.952    20343317.146    20343319.753
        47.500          46.400
 -11243097.464 5  -8760845.820 4  22388246.979    22388247.351    22388245.826
        33.200          29.000
 -14595557.851 6 -11373146.541 6  21729969.215    21729969.263    21729968.268
        40.700          36.200
 06  6  7  0 35 30.0000000  0  8G20G 1G16G25G13G23G 3G 7
  -2191262.437 3  -1707469.869 1  24222132.462    24222134.030    24222131.377
        22.600          11.000
  -1882945.037 3  -1467228.979 3  23858884.164    23858885.219    23858882.811
        23.000          21.100
 -21898552.246 7 -17063790.970 8  20409937.030    20409935.293    20409936.028
        44.600          48.700
 -10750706.543 6  -8377160.511 5  22408008.144    22408008.014    22408007.603
        36.900          31.600
 -14778138.124 6 -11515423.754 5  21786072.942    21786071.715    21786072.673
        39.100          34.800
 -22713106.303 7 -17698513.507 7  20342288.495    20342284.615    20342287.210
        47.300          46.400
 -11340851.047 5  -8837017.374 4  22369644.549    22369645.547    22369643.445
        32.100          29.000
 -14602644.840 6 -11378668.837 6  21728620.801    21728620.776    21728619.606
        40.500          36.500
 06  6  7  0 36  0.0000000  0  8G20G 1G16G25G13G23G 3G 7
  -2096991.981 3  -1634012.424 2  24240071.920    24240072.814    24240070.548
        22.100          12.600
  -1773764.226 4  -1382153.077 3  23879660.181    23879662.366    23879659.100
        24.600          22.100
 -21868985.629 7 -17040752.034 8  20415563.620    20415561.638    20415562.457
        44.600          48.700
 -10683521.235 6  -8324808.364 5  22420793.288    22420793.044    22420792.528
        36.300          32.300
 -14849943.684 6 -11571376.139 5  21772408.889    21772407.410    21772408.620
        39.300          35.200
 -22717927.227 7 -17702270.072 7  20341371.006    20341367.124    20341369.839
        47.400          46.200
 -11438308.201 5  -8912957.945 4  22351099.292    22351099.726    22351098.070
        33.500          28.100
 -14609187.991 6 -11383767.358 6  21727375.470    21727375.644    21727374.454
        40.300          36.500
 06  6  7  0 36 30.0000000  0  8G20G 1G16G25G13G23G 3G 7
  -2002600.052 3  -1560460.337 2  24258034.245    24258035.421    24258032.629
        21.600          15.100
  -1664419.517 3  -1296949.439 3  23900466.781    23900470.287    23900466.656
        23.800          21.100
 -21838987.398 7 -17017376.781 8  20421272.013    20421270.113    20421270.980
        44.700          48.700
 -10616137.285 6  -8272301.422 5  22433615.880    22433615.827    22433615.324
        36.500          32.300
 -14921325.261 6 -11626998.121 5  21758825.382    21758824.131    21758825.014
        39.400          35.600
 -22722142.106 7 -17705554.395 7  20340568.987    20340565.029    20340567.670
        47.100          46.200
 -11535465.886 5  -8988665.179 4  22332610.942    22332611.104    22332609.792
        33.600          29.700
 -14615186.829 6 -11388441.738 6  21726233.722    21726234.024    21726232.765
        40.300          36.700
 06  6  7  0 37  0.0000000  0  8G20G 1G16G25G13G23G 3G 7
  -1908090.229 3  -1486816.395 2  24276018.898    24276019.807    24276017.215
        23.400          15.100
  -1554912.852 3  -1211619.626 3  23921306.706    23921308.230    23921305.461
        23.000          22.100
 -21808559.354 7 -16993666.607 8  20427062.218    20427060.358    20427061.175
        44.700          48.600
 -10548554.930 6  -8219639.881 5  22446476.347    22446476.244    22446475.660
        36.200          31.300
 -14992280.420 6 -11682287.799 5  21745322.729    21745321.760    21745322.531
        39.100          35.500
 -22725750.822 7 -17708366.384 7  20339881.931    20339878.385    20339880.809
        47.100          46.300
 -11632321.076 5  -9064136.697 4  22314179.158    22314179.997    22314178.553
        33.600          29.500
 -14620641.004 6 -11392691.708 6  21725195.670    21725196.100    21725194.810
        40.200          36.700
 06  6  7  0 37 30.0000000  0  8G20G 1G16G25G13G23G 3G 7
  -1813465.339 4  -1413082.774 1  24294024.846    24294026.254    24294023.972
        25.900           6.500
  -1445246.441 3  -1126165.360 3  23942174.974    23942177.171    23942174.264
        20.500          19.900
 -21777702.948 7 -16969622.643 8  20432934.155    20432932.057    20432933.001
        44.700          48.400
 -10480774.424 6  -8166823.950 5  22459374.488    22459374.655    22459373.891
        36.000          31.800
 -15062806.596 6 -11737243.220 5  21731902.231    21731900.853    21731901.918
        39.300          35.100
 -22728752.519 7 -17710705.374 7  20339311.118    20339307.170    20339309.812
        47.300          46.300
 -11728870.810 5  -9139370.204 5  22295806.825    22295807.599    22295805.684
        33.900          30.400
 -14625550.690 6 -11396517.405 6  21724261.532    21724261.852    21724260.474
        40.300          36.700
 06  6  7  0 38  0.0000000  0  8G20G 1G16G25G13G23G 3G 7
  -1718728.638 3  -1339262.019 1  24312053.719    24312054.037    24312052.118
        23.400          11.000
  -1335422.508 3  -1040588.328 3  23963073.418    23963075.993    23963072.923
        21.100          19.900
 -21746419.641 7 -16945246.041 8  20438887.014    20438885.051    20438885.962
        45.000          48.300
 -10412796.115 6  -8113853.873 5  22472310.532    22472310.360    22472309.810
        36.000          31.500
 -15132901.332 6 -11791862.484 5  21718563.782    21718562.165    21718563.486
        39.400          35.200
 -22731146.528 7 -17712570.838 7  20338855.570    20338851.580    20338854.262
        47.300          46.400
 -11825112.083 5  -9214363.338 5  22277492.994    22277493.597    22277491.810
        34.500          30.400
 -14629915.103 6 -11399918.212 6  21723430.706    21723431.182    21723429.689
        40.000          36.800
 06  6  7  0 38 30.0000000  0  8G20G 1G16G25G13G23G 3G 7
  -1623883.233 4  -1265356.553 2  24330102.118    24330102.854    24330100.793
        24.600          13.900
  -1225443.038 3   -954890.095 3  23984003.250    23984004.189    23984001.884
        21.100          18.600
 -21714710.882 7 -16920537.908 8  20444921.126    20444919.039    20444920.024
        45.000          48.200
 -10344620.305 5  -8060729.908 5  22485284.237    22485283.752    22485283.389
        35.900          31.000
 -15202562.071 6 -11846143.554 5  21705307.592    21705306.126    21705307.370
        39.400          35.300
 -22732932.244 7 -17713962.308 7  20338515.634    20338511.803    20338514.473
        47.300          46.500
 -11921042.137 5  -9289113.974 5  22259237.510    22259238.436    22259236.607
        34.000          30.100
 -14633734.392 6 -11402894.242 6  21722703.829    21722704.412    21722702.887
        40.200          36.600
 06  6  7  0 39  0.0000000  0  8G20G 1G16G25G13G23G 3G 7
  -1528932.166 4  -1191368.773 1  24348170.569    24348171.770    24348169.240
        24.600           9.000
  -1115309.898 3   -869072.122 2  24004961.844    24004962.162    24004960.046
        21.600          17.800
 -21682578.204 7 -16895499.451 8  20451035.873    20451033.673    20451034.777
        44.900          48.200
 -10276247.271 6  -8007452.264 5  22498295.296    22498294.831    22498294.458
        36.300          31.000
 -15271786.501 6 -11900084.670 5  21692135.086    21692133.161    21692134.642
        39.700          35.100
 -22734109.016 7 -17714879.277 7  20338291.756    20338287.934    20338290.498
        47.300          46.400
 -12016658.113 5  -9363619.871 5  22241042.245    22241043.249    22241041.473
        33.600          30.200
 -14637008.273 6 -11405445.279 6  21722080.964    21722081.317    21722080.090
        40.400          36.600
 06  6  7  0 39 30.0000000  0  8G20G 1G16G25G13G23G 3G 7
  -1433878.450 4  -1117300.993 1  24366258.636    24366259.733    24366257.520
        25.300          11.000
  -1005025.280 3   -783136.109 2  24025947.646    24025948.631    24025946.405
        23.800          17.000
 -21650023.469 7 -16870132.121 8  20457230.876    20457228.680    20457229.671
        44.800          48.100
 -10207677.337 5  -7954021.184 5  22511343.333    22511343.631    22511342.743
        35.700          31.600
 -15340571.582 6 -11953683.400 5  21679045.689    21679043.869    21679045.360
        40.600          35.500
 -22734676.289 7 -17715321.312 7  20338183.826    20338179.968    20338182.545
        47.000          46.400
 -12111956.674 5  -9437878.444 5  22222908.412    22222908.531    22222907.051
        33.800          30.400
 -14639736.636 6 -11407571.236 6  21721561.889    21721562.060    21721560.969
        40.300          36.900
 06  6  7  0 40  0.0000000  0  8G20G 1G16G25G13G23G 3G 7
  -1338725.313 3  -1043155.742 1  24384365.130    24384366.708    24384363.820
        19.900          11.000
   -894591.398 3   -697083.795 2  24046961.327    24046963.525    24046960.467
        21.600          17.000
 -21617048.047 7 -16844436.978 8  20463505.594    20463503.754    20463504.485
        44.800          48.100
 -10138910.737 5  -7900436.877 5  22524429.511    22524429.434    22524428.615
        35.700          31.600
 -15408915.184 6 -12006938.143 5  21666039.752    21666038.577    21666039.528
        40.000          35.800
 -22734633.821 7 -17715288.223 7  20338191.772    20338188.081    20338190.546
        47.100          46.300
 -12206935.027 5  -9511887.493 5  22204833.605    22204834.826    22204832.732
        33.900          30.400
 -14641919.260 6 -11409271.948 6  21721146.526    21721146.674    21721145.571
        40.500          36.700
 06  6  7  0 40 30.0000000  0  8G20G 1G16G25G13G23G 3G 7
  -1243475.686 3   -968935.323 1  24402490.601    24402492.398    24402489.278
        21.600           9.000
   -784010.343 3   -610916.776 3  24068003.581    24068006.590    24068003.385
        22.100          18.600
 -21583653.615 7 -16818415.337 8  20469860.407    20469858.474    20469859.224
        44.700          48.100
 -10069947.909 5  -7846699.649 5  22537552.483    22537552.505    22537551.978
        35.700          30.800
 -15476814.816 6 -12059846.932 6  21653118.955    21653117.656    21653118.704
        40.200          36.100
 -22733981.086 7 -17714779.608 7  20338316.172    20338312.315    20338314.911
        47.300          46.500
 -12301590.222 5  -9585644.740 5  22186821.474    22186822.352    22186820.728
        34.000          30.400
 -14643556.213 6 -11410547.453 6  21720835.118    21720835.088    21720834.115
        40.300          36.500
 06  6  7  0 41  0.0000000  0  8G20G 1G16G25G13G23G 3G 7
  -1148132.953 3   -894642.326 2  24420634.772    24420635.418    24420632.809
        19.900          12.600
   -673284.179 3   -524636.685 3  24089075.222    24089077.037    24089074.564
        23.400          18.600
 -21549841.538 7 -16792068.261 7  20476294.468    20476292.690    20476293.397
        44.700          47.900
 -10000788.934 5  -7792809.586 5  22550713.257    22550713.367    22550712.338
        35.300          31.500
 -15544268.336 6 -12112408.105 6  21640283.414    21640281.740    21640282.937
        40.200          36.200
 -22732717.253 7 -17713794.806 7  20338556.788    20338552.745    20338555.422
        47.200          46.300
 -12395919.362 5  -9659147.916 5  22168871.511    22168872.059    22168870.508
        34.900          30.600
 -14644647.149 6 -11411397.498 6  21720627.515    21720627.536    21720626.405
        40.400          36.500
 06  6  7  0 41 30.0000000  0  8G20G 1G16G25G13G23G 3G 7
  -1052700.056 3   -820279.098 2  24438794.393    24438795.709    24438793.610
        21.100          15.100
   -562415.011 3   -438245.160 3  24110172.276    24110174.806    24110172.060
        21.600          21.100
 -21515613.498 7 -16765397.055 7  20482808.027    20482806.076    20482806.826
        44.600          47.900
  -9931434.279 5  -7738767.041 5  22563910.543    22563911.098    22563910.173
        34.900          31.600
 -15611272.932 6 -12164619.452 6  21627532.498    21627531.291    21627532.214
        40.200          36.500
 -22730841.864 7 -17712333.474 7  20338913.528    20338909.587    20338912.269
        47.500          46.400
 -12489919.521 5  -9732394.758 5  22150984.039    22150984.410    22150982.611
        34.300          31.000
 -14645192.103 6 -11411822.098 6  21720523.787    21720523.658    21720522.743
        40.500          36.500
 06  6  7  0 42  0.0000000  0  8G20G 1G16G25G13G23G 3G 7
   -957180.062 2   -745847.974 1  24456970.780    24456972.678    24456969.733
        17.800           9.000
   -451404.884 3   -351743.792 3  24131297.564    24131299.589    24131296.281
        21.600          20.500
 -21480971.133 7 -16738402.995 7  20489400.240    20489398.263    20489399.162
        45.100          47.800
  -9861884.226 5  -7684572.248 5  22577146.109    22577146.002    22577145.193
        35.200          31.300
 -15677826.074 6 -12216479.056 6  21614867.814    21614866.537    21614867.569
        40.600          36.200
 -22728354.737 7 -17710395.462 7  20339386.953    20339382.906    20339385.643
        47.300          46.200
 -12583587.987 5  -9805383.122 5  22133158.771    22133159.683    22133157.944
        35.100          30.200
 -14645191.166 6 -11411821.330 6  21720524.057    21720523.745    21720522.980
        40.300          36.300
 06  6  7  0 42 30.0000000  0  8G20G 1G16G25G13G23G 3G 7
   -861576.141 3   -671351.470 1  24475164.149    24475165.334    24475163.072
        19.900           6.500
   -340255.870 3   -265134.229 3  24152447.805    24152450.331    24152447.065
        23.000          20.500
 -21445916.213 7 -16711087.464 7  20496070.923    20496068.965    20496069.845
        44.900          47.700
  -9792139.057 5  -7630225.409 5  22590417.419    22590417.964    22590417.217
        34.900          31.000
 -15743925.232 6 -12267984.887 6  21602289.799    21602288.253    21602289.374
        40.300          36.500
 -22725255.080 7 -17707980.151 7  20339976.776    20339972.805    20339975.537
        47.400          46.200
 -12676921.756 5  -9878110.679 5  22115398.138    22115399.002    22115397.106
        35.600          31.300
 -14644644.174 6 -11411395.060 6  21720627.773    21720627.764    21720626.904
        40.500          36.700
 06  6  7  0 43  0.0000000  0  8G20G 1G16G25G13G23G 3G 7
   -765891.249 3   -596791.887 1  24493372.556    24493374.730    24493371.202
        20.500           6.500
   -228970.212 3   -178418.151 3  24173623.846    24173627.389    24173624.096
        19.900          19.300
 -21410450.131 7 -16683451.537 7  20502819.846    20502817.946    20502818.759
        44.900          47.700
  -9722199.086 5  -7575726.791 5  22603727.944    22603727.192    22603726.660
        34.800          30.400
 -15809568.216 6 -12319135.272 6  21589798.138    21589796.795    21589797.831
        40.500          36.500
 -22721542.642 7 -17705087.350 7  20340683.384    20340679.298    20340682.086
        47.500          46.300
 -12769917.711 5  -9950575.014 5  22097701.964    22097702.214    22097700.647
        35.200          31.300
 -14643551.173 6 -11410543.332 6  21720836.113    21720835.978    21720835.053
        40.400          36.900
 06  6  7  0 43 30.0000000  0  8G20G 1G16G25G13G23G 3G 7
   -670128.462 3   -522171.554    24511595.496    24511596.770    24511594.469
        19.300           3.000
   -117549.915 3    -91597.160 2  24194828.208    24194829.721    24194826.696
        19.300          16.100
 -21374574.722 7 -16655496.660 7  20509646.664    20509644.752    20509645.676
        45.100          47.600
  -9652064.621 5  -7521076.600 5  22617072.863    22617073.210    22617072.678
        34.800          30.100
 -15874752.502 6 -12369928.241 6  21577394.101    21577392.713    21577393.769
        40.600          36.600
 -22717217.104 7 -17701716.798 7  20341506.387    20341502.436    20341505.135
        47.600          46.400
 -12862573.181 5 -10022774.044 5  22080069.868    22080070.344    22080068.853
        35.700          31.000
 -14641912.182 6 -11409266.156 6  21721147.869    21721148.100    21721146.878
        40.100          37.300
 06  6  7  0 44  0.0000000  0  8G20G 1G16G25G13G23G 3G 7
   -574290.953 3   -447493.028 9  24529832.982    24529833.608    24529831.573
        20.500          -3.000
     -5997.190 3     -4672.993 3  24216055.457    24216057.766    24216054.012
        19.900          19.300
 -21338291.346 7 -16627223.885 7  20516551.357    20516549.189    20516550.199
        45.000          47.700
  -9581735.998 5  -7466275.118 5  22630456.794    22630456.613    22630455.935
        35.100          31.300
 -15939475.463 6 -12420361.707 6  21565077.858    21565076.321    21565077.504
        40.800          37.000
 -22712278.146 7 -17697868.264 7  20342446.175    20342442.143    20342444.931
        47.500          46.300
 -12954885.100 5 -10094705.363 5  22062502.870    22062504.040    22062502.224
        35.500          31.000
 -14639727.208 6 -11407563.537 6  21721563.476    21721563.740    21721562.475
        40.200          37.300
 06  6  7  0 44 30.0000000  0  8G20G 1G16G25G13G23G 3G 7
   -478381.762 3   -372758.683 1  24548083.763    24548085.079    24548082.607
        19.900           6.500
    105685.774 3     82352.672 2  24237306.045    24237310.454    24237306.646
        19.300          16.100
 -21301601.878 7 -16598634.677 7  20523532.931    20523530.996    20523531.820
        44.800          47.500
  -9511213.519 5  -7411322.602 5  22643876.593    22643877.011    22643875.953
        34.800          31.100
 -16003734.991 6 -12470434.056 6  21552849.655    21552848.049    21552849.293
        40.900          36.700
 -22706725.448 7 -17693541.489 7  20343502.936    20343498.767    20343501.621
        47.600          46.200
 -13046850.439 5 -10166366.605 5  22045003.077    22045003.779    22045001.881
        35.300          32.300
 -14636996.235 6 -11405435.464 6  21722082.837    21722083.193    21722081.922
        40.200          37.000
 06  6  7  0 45  0.0000000  0  8G20G 1G16G25G13G23G 3G 7
   -382403.830 3   -297970.729 1  24566347.751    24566348.932    24566346.098
        19.300          11.000
    217496.872 3    169478.193 2  24258585.094    24258587.364    24258584.035
        19.300          16.100
 -21264507.801 7 -16569730.189 7  20530591.838    20530589.758    20530590.586
        44.800          47.400
  -9440497.609 5  -7356219.331 5  22657333.012    22657333.621    22657332.651
        34.400          31.000
 -16067528.649 6 -12520143.425 6  21540709.903    21540708.437    21540709.723
        41.000          36.900
 -22700558.611 7 -17688736.164 7  20344676.450    20344672.345    20344675.227
        47.600          46.100
 -13138466.535 5 -10237755.720 5  22027568.943    22027569.688    22027567.953
        35.900          31.600
 -14633719.527 6 -11402882.146 6  21722706.348    21722706.644    21722705.574
        40.200          36.800
 06  6  7  0 45 30.0000000  0  8G20G 1G16G25G13G23G 3G 7
   -286360.321 3   -223131.712    24584624.506    24584625.529    24584623.352
        22.600           3.000
    329434.125 3    256702.005 3  24279886.547    24279888.168    24279885.457
        21.600          19.300
 -21227010.708 7 -16540511.659 7  20537727.200    20537725.209    20537726.079
        45.100          47.300
  -9369588.464 5  -7300965.505 5  22670827.430    22670826.980    22670826.301
        34.300          30.600
 -16130853.935 6 -12569487.798 6  21528659.646    21528658.221    21528659.424
        41.200          37.100
 -22693777.581 7 -17683452.246 7  20345966.934    20345962.784    20345965.610
        47.500          46.100
 -13229730.458 5 -10308870.401 5  22010201.868    22010202.716    22010200.966
        35.500          32.100
 -14629897.038 6 -11399903.540 6  21723434.008    21723434.057    21723432.962
        39.900          37.000
 06  6  7  0 46  0.0000000  0  8G20G 1G16G25G13G23G 3G 7
   -190254.253 3   -148243.907 1  24602912.321    24602914.672    24602911.570
        19.900           6.500
    441495.160 3    344022.295 2  24301211.294    24301213.069    24301209.823
        21.100          15.100
 -21189112.175 7 -16510980.326 7  20544939.141    20544937.021    20544937.952
        44.700          47.000
  -9298486.545 5  -7245561.449 5  22684356.738    22684357.313    22684356.440
        34.300          30.400
 -16193708.275 6 -12618465.200 6  21516699.090    21516697.500    21516698.650
        41.200          37.300
 -22686382.158 7 -17677689.581 7  20347373.941    20347370.025    20347372.719
        47.400          46.100
 -13320639.311 5 -10379708.419 5  21992902.869    21992903.093    21992901.651
        35.400          31.600
 -14625528.893 6 -11396499.751 6  21724265.155    21724265.392    21724264.130
        40.100          37.000
 06  6  7  0 46 30.0000000  0  8G20G 1G16G25G13G23G 3G 7
    -94088.666 3    -73309.761 1  24621212.184    24621213.818    24621210.880
        21.600           6.500
    553677.982 2    431437.455 2  24322558.039    24322560.876    24322557.043
        15.100          15.100
 -21150814.017 7 -16481137.577 7  20552226.804    20552224.815    20552225.697
        44.600          47.000
  -9227192.041 5  -7190007.342 4  22697924.395    22697924.295    22697923.608
        33.900          29.700
 -16256089.478 6 -12667073.914 6  21504827.988    21504826.746    21504827.704
        41.200          37.400
 -22678371.809 7 -17671447.755 7  20348898.468    20348894.361    20348897.081
        47.300          46.200
 -13411190.294 6 -10450267.570 5  21975671.068    21975671.828    21975670.291
        36.100          32.300
 -14620615.424 6 -11392671.032 6  21725200.083    21725200.229    21725199.061
        40.000          37.000
 06  6  7  0 47  0.0000000  0  8G20G 1G16G25G13G23G 3G 7
      2133.263 3      1668.310 1  24639522.194    24639523.878    24639521.597
        20.500           6.500
    665980.543 3    518945.960 2  24343928.336    24343930.977    24343927.784
        19.900          15.100
 -21112118.036 7 -16450984.846 7  20559590.504    20559588.364    20559589.325
        44.700          46.800
  -9155705.345 5  -7134303.478 5  22711527.585    22711527.815    22711527.066
        34.300          30.400
 -16317995.237 6 -12715312.158 6  21493047.882    21493046.393    21493047.491
        41.300          37.300
 -22669746.377 7 -17664726.638 7  20350539.613    20350535.740    20350538.404
        47.300          46.100
 -13501380.576 5 -10520545.653 5  21958508.344    21958509.197    21958507.403
        35.700          32.300
 -14615156.561 6 -11388417.331 6  21726238.552    21726238.998    21726237.784
        39.800          36.900
 06  6  7  0 47 30.0000000  0  9G20G19G 1G16G25G13G23G 3G 7
     98408.868 3     76688.192    24657843.844    24657845.452    24657842.637
        18.600           3.000
   -194360.639 3   -151449.418 3  24568397.691    24568398.041    24568396.569
        19.900          19.300
    778400.812 3    606546.168 2  24365321.859    24365323.986    24365320.907
        19.300          13.900
 -21073025.623 7 -16420523.210 7  20567029.410    20567027.407    20567028.333
        44.900          46.900
  -9084026.783 5  -7078450.095 4  22725167.900    22725167.840    22725167.085
        33.800          29.900
 -16379423.025 6 -12763177.967 6  21481358.806    21481357.046    21481358.431
        41.400          37.300
 -22660505.691 7 -17657526.103 7  20352298.064    20352294.141    20352296.824
        47.300          46.100
 -13591207.299 5 -10590540.447 5  21941414.904    21941415.681    21941414.021
        35.800          32.600
 -14609152.536 6 -11383738.836 6  21727381.423    21727381.388    21727380.495
        40.000          36.800
 06  6  7  0 48  0.0000000  0  9G20G19G 1G16G25G13G23G 3G 7
    194734.554 3    151747.112 1  24676174.082    24676175.400    24676172.508
        19.900           9.000
   -306481.263 3   -238816.091 2  24547062.306    24547062.081    24547060.355
        21.600          17.000
    890936.573 3    694236.363 2  24386736.999    24386738.245    24386736.139
        19.900          12.600
 -21033538.596 7 -16389754.080 7  20574543.612    20574541.601    20574542.509
        45.000          46.900
  -9012156.720 5  -7022447.498 5  22738844.201    22738844.405    22738843.492
        34.100          30.600
 -16440370.549 6 -12810669.502 6  21469760.751    21469758.920    21469760.393
        41.600          37.500
 -22650649.538 7 -17649845.979 7  20354173.657    20354169.685    20354172.434
        47.200          46.100
 -13680667.559 6 -10660249.668 5  21924390.962    21924391.766    21924390.093
        36.100          32.400
 -14602603.668 6 -11378635.782 6  21728627.409    21728627.598    21728626.530
        40.200          36.800
 06  6  7  0 48 30.0000000  0  9G20G19G 1G16G25G13G23G 3G 7
    291107.413 3    226842.764 9  24694513.597    24694514.142    24694512.304
        21.600          -3.000
   -418590.559 3   -326173.959 2  24525728.874    24525728.151    24525726.403
        22.100          15.100
   1003585.561 3    782014.795 2  24408173.074    24408175.172    24408172.201
        20.500          15.100
 -20993658.300 7 -16358678.498 7  20582132.651    20582130.605    20582131.519
        44.900          46.700
  -8940095.431 5  -6966295.893 5  22752556.313    22752557.440    22752556.059
        33.500          30.800
 -16500835.672 6 -12857785.214 6  21458254.387    21458252.844    21458254.041
        41.600          37.400
 -22640177.917 7 -17641686.271 7  20356166.355    20356162.463    20356165.034
        47.100          46.100
 -13769758.430 6 -10729671.069 5  21907438.335    21907438.307    21907436.969
        36.200          33.200
 -14595510.066 6 -11373108.266 6  21729977.455    21729977.410    21729976.426
        40.200          36.900
 06  6  7  0 49  0.0000000  0  9G20G19G 1G16G25G13G23G 3G 7
    387524.618 3    301973.012 9  24712860.892    24712861.723    24712859.545
        19.300          -3.000
   -530685.953 3   -413520.972 2  24504398.166    24504397.087    24504395.994
        23.000          16.100
   1116345.690 3    869879.830 3  24429630.431    24429632.799    24429629.757
        18.600          19.300
 -20953386.820 7 -16327298.104 7  20589795.871    20589794.002    20589794.888
        45.100          46.800
  -8867843.377 5  -6909995.640 4  22766305.963    22766306.516    22766305.167
        33.200          29.900
 -16560815.739 6 -12904522.889 6  21446840.442    21446838.997    21446840.151
        41.300          37.700
 -22629090.724 7 -17633046.899 7  20358276.104    20358272.303    20358274.860
        47.100          46.000
 -13858477.120 6 -10798802.460 5  21890554.934    21890555.523    21890554.295
        37.200          33.000
 -14587872.156 6 -11367156.610 6  21731430.684    21731430.688    21731429.802
        40.000          36.700
 06  6  7  0 49 30.0000000  0  9G20G19G 1G16G25G13G23G 3G 7
    483983.207 3    377135.492    24731215.804    24731217.220    24731214.321
        18.600           3.000
   -642764.714 3   -500855.050 3  24483070.074    24483069.309    24483067.280
        23.800          18.600
   1229214.748 3    957829.729 3  24451107.440    24451110.985    24451107.556
        19.300          18.600
 -20912725.671 7 -16295614.068 7  20597533.712    20597531.532    20597532.541
        45.100          46.600
  -8795400.859 5  -6853546.969 4  22780091.301    22780091.810    22780090.706
        33.500          29.700
 -16620308.947 6 -12950881.246 6  21435519.508    21435517.852    21435519.062
        41.300          37.700
 -22617388.006 7 -17623927.893 7  20360503.060    20360499.214    20360501.835
        47.100          46.000
 -13946821.085 6 -10867641.845 5  21873743.876    21873744.218    21873742.824
        36.800          33.100
 -14579690.085 6 -11360780.941 6  21732987.742    21732987.690    21732986.832
        40.200          36.600
 06  6  7  0 50  0.0000000  0  9G20G19G 1G16G25G13G23G 3G 7
    580480.169 3    452327.882    24749578.829    24749580.740    24749577.657
        19.900           3.000
   -754824.197 3   -588174.101 2  24461744.772    24461744.792    24461743.338
        23.800          13.900
   1342190.564 2   1045862.818 2  24472607.896    24472609.373    24472606.285
        13.900          16.100
 -20871676.669 7 -16263627.814 7  20605344.890    20605342.896    20605343.842
        45.200          46.700
  -8722768.125 5  -6796950.065 4  22793913.194    22793913.252    22793912.539
        33.900          29.500
 -16679312.359 6 -12996857.900 6  21424291.398    21424289.988    21424291.066
        41.400          37.700
 -22605069.518 7 -17614329.067 7  20362847.086    20362843.426    20362845.873
        47.100          46.100
 -14034787.324 6 -10936186.901 5  21857004.392    21857004.859    21857003.394
        36.800          33.100
 -14570964.053 6 -11353981.397 6  21734648.282    21734647.980    21734647.381
        40.300          36.900
 06  6  7  0 50 30.0000000  0  8G19G 1G16G25G13G23G 3G 7
   -866861.883 3   -675476.179 2  24440424.796    24440424.671    24440422.898
        20.500          12.600
   1455271.016 2   1133977.425 2  24494126.522    24494127.852    24494125.732
        13.900          16.100
 -20830241.481 7 -16231340.638 7  20613229.951    20613227.759    20613228.724
        45.300          46.500
  -8649945.653 5  -6740205.324 4  22807771.376    22807771.274    22807770.273
        33.200          29.900
 -16737823.819 6 -13042451.216 6  21413156.955    21413155.669    21413156.707
        41.800          38.300
 -22592135.127 7 -17604250.317 7  20365308.432    20365304.769    20365307.300
        47.100          46.000
 -14122372.944 6 -11004435.365 5  21840337.121    21840337.828    21840336.345
        36.800          32.800
 -14561694.410 6 -11346758.268 6  21736412.410    21736411.994    21736411.403
        40.500          36.800
 06  6  7  0 51  0.0000000  0  8G19G 1G16G25G13G23G 3G 7
   -978874.784 3   -762758.910 2  24419110.082    24419109.602    24419108.155
        22.600          17.000
   1568453.934 3   1222171.886 2  24515663.296    24515666.129    24515662.933
        19.900          12.600
 -20788421.609 7 -16198753.706 7  20621187.765    20621185.764    20621186.652
        45.100          46.500
  -8576933.727 5  -6683312.957 4  22821664.310    22821664.636    22821663.807
        33.100          28.600
 -16795841.221 6 -13087659.594 6  21402116.895    21402115.274    21402116.542
        41.900          38.200
 -22578584.973 7 -17593691.752 7  20367887.154    20367883.111    20367885.838
        47.000          45.900
 -14209575.291 6 -11072385.182 5  21823743.804    21823743.645    21823742.401
        37.200          33.200
 -14551881.729 6 -11339111.989 6  21738279.696    21738279.332    21738278.570
        40.600          37.000
 06  6  7  0 51 30.0000000  0  8G19G 1G16G25G13G23G 3G 7
  -1090860.440 3   -850020.426 2  24397799.573    24397799.442    24397797.970
        22.600          17.800
   1681737.277 2   1310444.633 1  24537221.458    24537222.746    24537220.224
        17.000           9.000
 -20746218.780 7 -16165868.361 7  20629218.687    20629216.656    20629217.600
        45.300          46.300
  -8503732.749 5  -6626273.266 4  22835594.708    22835594.374    22835593.632
        32.600          28.400
 -16853362.005 6 -13132480.943 6  21391170.800    21391169.368    21391170.518
        41.900          38.300
 -22564418.962 7 -17582653.296 7  20370582.468    20370578.837    20370581.313
        46.900          45.700
 -14296391.397 6 -11140034.037 5  21807222.311    21807222.968    21807221.491
        37.000          33.200
 -14541526.239 6 -11331042.737 6  21740249.914    21740250.007    21740249.104
        40.700          37.200
 06  6  7  0 52  0.0000000  0  8G19G 1G16G25G13G23G 3G 7
  -1202815.952 3   -937258.454 2  24376494.962    24376494.894    24376493.867
        21.600          17.000
   1795118.851 2   1398793.889 1  24558795.829    24558798.260    24558795.645
        17.000           9.000
 -20703634.348 7 -16132685.668 7  20637322.290    20637320.200    20637321.126
        45.000          46.300
  -8430343.020 5  -6569086.506 4  22849560.257    22849559.892    22849559.215
        32.300          27.900
 -16910384.159 7 -13176913.773 6  21380319.976    21380318.287    21380319.633
        42.000          38.100
 -22549637.399 7 -17571135.191 7  20373395.433    20373391.810    20373394.221
        46.900          46.000
 -14382818.645 6 -11207379.876 5  21790776.021    21790776.681    21790774.986
        37.200          34.000
 -14530628.158 6 -11322550.690 6  21742323.963    21742323.814    21742322.961
        40.500          37.200
 06  6  7  0 52 30.0000000  0  8G19G 1G16G25G13G23G 3G 7
  -1314738.868 3  -1024471.090 2  24355197.776    24355196.715    24355195.769
        21.600          17.800
   1908596.449 3   1487217.994 2  24580390.713    24580392.744    24580389.614
        18.600          12.600
 -20660670.539 7 -16099207.355 7  20645497.908    20645495.903    20645496.767
        45.000          46.200
  -8356764.911 5  -6511752.943 4  22863560.521    22863561.288    22863560.538
        32.000          27.400
 -16966905.526 7 -13220956.394 6  21369564.362    21369562.634    21369563.953
        42.000          38.100
 -22534240.242 7 -17559137.404 7  20376325.536    20376321.846    20376324.331
        47.000          46.100
 -14468854.303 6 -11274420.590 5  21774403.925    21774404.336    21774402.906
        37.300          33.500
 -14519187.982 6 -11313636.220 6  21744501.171    21744500.846    21744500.050
        40.200          37.400
 06  6  7  0 53  0.0000000  0  8G19G 1G16G25G13G23G 3G 7
  -1426626.637 3  -1111656.333 2  24333905.938    24333904.841    24333903.774
        22.600          17.800
   2022168.033 3   1575715.296 2  24602001.790    24602004.940    24602001.226
        18.600          12.600
 -20617329.000 7 -16065434.704 7  20653745.542    20653743.487    20653744.372
        44.900          46.100
  -8282998.815 5  -6454272.901 4  22877598.092    22877598.946    22877597.705
        32.300          28.100
 -17022923.722 7 -13264606.930 6  21358904.301    21358902.825    21358904.054
        42.300          38.400
 -22518227.760 7 -17546660.142 7  20379372.585    20379368.845    20379371.379
        47.100          46.000
 -14554495.333 6 -11341153.787 5  21758106.483    21758107.291    21758105.761
        37.100          33.900
 -14507206.235 6 -11304299.745 6  21746780.995    21746780.940    21746780.014
        40.600          37.400
 06  6  7  0 53 30.0000000  0  7G19G16G25G13G23G 3G 7
  -1538476.264 3  -1198811.847 2  24312621.595    24312620.541    24312619.171
        22.600          15.100
 -20573611.531 7 -16031369.119 7  20662064.675    20662062.591    20662063.469
        44.800          46.100
  -8209045.140 5  -6396646.691 4  22891671.998    22891671.705    22891670.993
        32.100          28.400
 -17078436.401 7 -13307863.562 6  21348340.506    21348339.122    21348340.210
        42.100          38.500
 -22501599.746 7 -17533703.242 7  20382536.825    20382532.977    20382535.598
        47.100          45.800
 -14639739.051 6 -11407577.414 5  21741885.465    21741885.754    21741884.476
        37.400          33.800
 -14494683.298 6 -11294541.571 6  21749163.917    21749164.014    21749162.995
        40.700          37.300
 06  6  7  0 54  0.0000000  0  7G19G16G25G13G23G 3G 7
  -1650285.100 3  -1285935.569 2  24291343.559    24291344.333    24291343.083
        21.100          16.100
 -20529519.711 7 -15997011.836 7  20670455.019    20670452.955    20670453.857
        44.800          45.900
  -8134904.244 5  -6338874.599 4  22905780.280    22905780.493    22905779.438
        31.800          28.800
 -17133441.274 7 -13350724.479 6  21337873.392    21337871.953    21337873.062
        42.200          38.700
 -22484356.489 7 -17520266.932 7  20385818.061    20385814.296    20385816.839
        46.900          45.800
 -14724582.885 6 -11473689.433 5  21725740.471    21725740.665    21725739.453
        38.100          34.100
 -14481619.601 6 -11284362.026 6  21751649.685    21751649.766    21751648.888
        40.600          37.300
 06  6  7  0 54 30.0000000  0  7G19G16G25G13G23G 3G 7
  -1762050.423 3  -1373025.378 3  24270075.616    24270075.857    24270074.609
        21.100          19.300
 -20485054.912 7 -15962363.906 7  20678916.423    20678914.288    20678915.271
        45.100          45.800
  -8060576.383 5  -6280956.830 4  22919924.437    22919924.628    22919923.556
        32.400          29.000
 -17187936.490 7 -13393188.273 6  21327503.445    21327501.883    21327503.108
        42.100          38.600
 -22466498.140 7 -17506351.326 7  20389216.453    20389212.614    20389215.187
        47.000          45.600
 -14809024.024 6 -11539487.672 5  21709672.061    21709671.891    21709670.928
        38.100          34.100
 -14468015.399 6 -11273761.293 6  21754238.664    21754238.362    21754237.602
        40.700          37.200
 06  6  7  0 55  0.0000000  0  7G19G16G25G13G23G 3G 7
  -1873769.604 3  -1460079.214 3  24248816.631    24248816.045    24248814.842
        23.400          18.600
 -20440219.204 7 -15927426.971 7  20687448.268    20687446.255    20687447.172
        45.100          45.800
  -7986062.165 5  -6222893.827 4  22934104.332    22934103.861    22934103.438
        32.400          27.900
 -17241919.589 7 -13435253.045 6  21317230.735    21317229.343    21317230.494
        42.400          39.100
 -22448024.885 7 -17491956.575 7  20392731.911    20392727.897    20392730.651
        47.000          45.500
 -14893059.804 6 -11604970.038 5  21693680.158    21693680.500    21693679.120
        38.100          34.100
 -14453871.588 6 -11262740.095 6  21756930.087    21756929.863    21756929.143
        40.200          37.200
 06  6  7  0 55 30.0000000  0  7G19G16G25G13G23G 3G 7
  -1985439.856 4  -1547094.945 3  24227566.664    24227565.974    24227564.896
        24.600          19.300
 -20395014.459 7 -15892202.480 7  20696050.453    20696048.414    20696049.296
        45.200          45.800
  -7911361.742 5  -6164685.723 4  22948318.534    22948319.037    22948318.295
        32.000          27.100
 -17295388.327 7 -13476916.979 6  21307055.952    21307054.682    21307055.619
        42.000          39.400
 -22428936.883 7 -17477082.801 7  20396364.200    20396360.188    20396362.899
        46.900          45.700
 -14976687.579 6 -11670134.488 5  21677766.347    21677766.533    21677765.316
        38.400          34.400
 -14439188.468 6 -11251298.651 6  21759724.039    21759723.926    21759723.170
        40.300          37.300
 06  6  7  0 56  0.0000000  0  7G19G16G25G13G23G 3G 7
  -2097058.414 3  -1634070.399 2  24206326.339    24206325.475    24206324.218
        23.000          17.800
 -20349442.119 7 -15856691.535 7  20704722.411    20704720.526    20704721.355
        45.100          45.600
  -7836475.636 5  -6106332.945 4  22962568.975    22962569.513    22962568.267
        31.500          28.400
 -17348340.642 7 -13518178.510 6  21296979.273    21296978.268    21296979.008
        42.100          39.700
 -22409234.328 7 -17461730.155 7  20400113.338    20400109.515    20400112.118
        47.000          45.600
 -15059904.556 6 -11734978.834 5  21661930.600    21661930.863    21661929.494
        38.300          34.300
 -14423966.631 6 -11239437.427 6  21762620.616    21762620.513    21762619.604
        40.200          37.400
 06  6  7  0 56 30.0000000  0  7G19G16G25G13G23G 3G 7
  -2208622.838 4  -1721003.659 3  24185097.758    24185095.786    24185094.993
        24.600          21.100
 -20303503.931 7 -15820895.511 7  20713464.358    20713462.260    20713463.177
        45.000          45.600
  -7761404.141 5  -6047835.708 4  22976854.927    22976855.406    22976854.137
        31.500          29.200
 -17400774.395 7 -13559035.956 6  21287001.621    21287000.325    21287001.297
        42.400          39.300
 -22388917.761 7 -17445899.061 7  20403979.432    20403975.551    20403978.154
        46.800          45.500
 -15142707.946 6 -11799500.907 5  21646173.212    21646173.964    21646172.242
        37.900          34.900
 -14408206.766 6 -11227156.962 6  21765619.685    21765619.494    21765618.562
        39.800          37.000
 06  6  7  0 57  0.0000000  0  7G19G16G25G13G23G 3G 7
  -2320130.309 4  -1807892.536 3  24163877.205    24163876.734    24163875.802
        24.600          19.900
 -20257201.493 7 -15784815.658 7  20722275.322    20722273.275    20722274.193
        45.000          45.500
  -7686147.778 5  -5989194.422 4  22991175.581    22991176.361    22991175.027
        30.400          28.100
 -17452687.412 7 -13599487.627 6  21277122.933    21277121.454    21277122.493
        42.200          39.500
 -22367987.457 7 -17429589.730 7  20407962.455    20407958.418    20407961.237
        46.900          45.500
 -15225095.094 6 -11863698.630 5  21630495.679    21630495.924    21630494.622
        38.400          34.500
 -14391909.121 6 -11214457.450 6  21768720.931    21768720.886    21768719.921
        40.000          37.500
 06  6  7  0 57 30.0000000  0  7G19G16G25G13G23G 3G 7
  -2431578.014 3  -1894734.836 2  24142669.969    24142668.495    24142667.490
        23.400          17.800
 -20210536.945 7 -15748453.647 7  20731155.160    20731153.100    20731154.016
        44.900          45.200
  -7610706.782 5  -5930409.255 4  23005531.606    23005531.702    23005531.186
        32.600          26.800
 -17504077.840 7 -13639532.102 6  21267343.584    21267342.041    21267343.252
        42.400          39.300
 -22346443.624 7 -17412802.318 7  20412062.251    20412058.095    20412060.958
        47.100          45.500
 -15307063.369 6 -11927569.973 5  21614897.736    21614897.651    21614896.801
        38.900          34.600
 -14375074.782 6 -11201339.737 6  21771924.481    21771924.250    21771923.494
        40.100          37.400
 06  6  7  0 58  0.0000000  0  7G19G16G25G13G23G 3G 7
  -2542963.288 3  -1981528.519 3  24121473.751    24121472.572    24121471.642
        23.000          19.300
 -20163511.629 7 -15711810.514 7  20740103.908    20740101.743    20740102.732
        45.100          45.200
  -7535081.656 5  -5871480.612 4  23019922.653    23019922.734    23019921.966
        31.000          26.200
 -17554943.084 7 -13679167.346 6  21257664.204    21257662.639    21257663.877
        42.500          39.400
 -22324286.589 7 -17395537.090 7  20416278.630    20416274.522    20416277.403
        47.200          45.600
 -15388610.100 6 -11991112.834 5  21599379.683    21599379.909    21599378.834
        38.400          34.600
 -14357703.873 6 -11187803.911 6  21775230.022    21775229.675    21775228.978
        40.100          37.100
 06  6  7  0 58 30.0000000  0  7G19G16G25G13G23G 3G 7
  -2654283.400 3  -2068271.366 3  24100290.266    24100288.656    24100287.966
        22.100          21.100
 -20116127.358 7 -15674887.681 7  20749120.846    20749118.690    20749119.747
        45.100          45.100
  -7459272.842 5  -5812408.832 4  23034348.292    23034348.823    23034347.871
        31.300          26.800
 -17605281.333 7 -13718391.960 6  21248085.120    21248083.719    21248084.785
        42.300          39.500
 -22301516.723 7 -17377794.330 7  20420611.505    20420607.405    20420610.221
        47.100          45.500
 -15469732.633 6 -12054325.145 5  21583942.730    21583942.799    21583941.671
        38.500          34.700
 -14339797.462 6 -11173850.818 6  21778637.190    21778636.941    21778636.223
        39.900          37.100
 06  6  7  0 59  0.0000000  0  7G19G16G25G13G23G 3G 7
  -2765535.411 4  -2154961.164 3  24079118.796    24079118.158    24079117.531
        24.200          19.300
 -20068386.067 7 -15637686.657 7  20758205.575    20758203.503    20758204.547
        45.100          45.000
  -7383280.590 5  -5753194.110 4  23048808.931    23048809.284    23048808.651
        30.800          25.300
 -17655090.395 7 -13757204.203 6  21238606.717    21238605.395    21238606.430
        42.700          39.500
 -22278134.309 7 -17359574.259 7  20425060.965    20425056.905    20425059.759
        46.900          45.500
 -15550428.546 6 -12117205.036 5  21568586.958    21568586.851    21568585.877
        38.900          35.200
 -14321355.882 6 -11159480.705 6  21782146.723    21782146.305    21782145.581
        40.000          37.200
 06  6  7  0 59 30.0000000  0  7G19G16G25G13G23G 3G 7
  -2876716.755 4  -2241595.902 3  24057961.841    24057960.961    24057960.143
        24.600          20.500
 -20020289.497 7 -15600208.794 7  20767358.093    20767356.048    20767357.025
        45.100          45.100
  -7307105.381 5  -5693836.833 4  23063304.994    23063305.411    23063304.479
        31.100          26.500
 -17704368.298 7 -13795602.545 6  21229229.704    21229228.002    21229229.292
        42.700          39.500
 -22254139.978 7 -17340877.371 7  20429626.904    20429622.941    20429625.586
        46.900          45.500
 -15630695.101 6 -12179750.358 5  21553312.582    21553312.502    21553311.554
        38.900          34.800
 -14302379.838 6 -11144694.135 6  21785757.539    21785757.291    21785756.659
        40.100          37.100
 06  6  7  1  0  0.0000000  0  7G19G16G25G13G23G 3G 7
  -2987824.338 4  -2328173.141 3  24036818.384    24036818.181    24036817.040
        25.300          22.100
 -19971839.148 7 -15562455.254 7  20776577.807    20776575.907    20776576.715
        45.100          45.000
  -7230747.689 5  -5634337.352 4  23077834.821    23077836.133    23077834.624
        31.100          27.600
 -17753112.885 7 -13833585.322 6  21219953.827    21219952.156    21219953.451
        42.900          39.700
 -22229534.060 7 -17321703.919 7  20434309.031    20434305.319    20434307.842
        46.800          45.400
 -15710529.585 6 -12241959.009 5  21538120.270    21538120.575    21538119.370
        38.700          34.900
 -14282870.236 6 -11129491.789 6  21789470.087    21789469.858    21789469.066
        40.000          36.700
 06  6  7  1  0 30.0000000  0  7G19G16G25G13G23G 3G 7
  -3098856.079 3  -2414691.280 3  24015690.306    24015689.480    24015688.156
        23.400          21.600
 -19923036.874 7 -15524427.492 7  20785864.593    20785862.644    20785863.464
        45.200          45.200
  -7154207.816 5  -5574695.939 4  23092400.830    23092401.124    23092400.086
        31.300          27.100
 -17801322.217 7 -13871151.021 6  21210779.795    21210778.216    21210779.468
        43.000          39.500
 -22204317.097 7 -17302054.334 7  20439107.822    20439103.834    20439106.580
        46.800          45.300
 -15789929.355 6 -12303828.918 5  21523011.377    21523011.032    21523010.092
        38.900          34.600
 -14262827.782 6 -11113874.255 6  21793283.806    21793283.721    21793282.867
        39.800          36.800
 06  6  7  1  1  0.0000000  0  8G27G19G16G25G13G23G 3G 7
   -114267.990 3    -89039.454 3  25130961.499    25130962.348    25130960.446
        21.100          19.900
  -3209809.176 4  -2501148.144 3  23994576.765    23994575.194    23994575.303
        27.400          19.300
 -19873884.431 7 -15486126.871 7  20795218.149    20795216.010    20795216.936
        45.100          45.000
  -7077486.251 4  -5514912.941 4  23107000.149    23107000.967    23106999.623
        29.900          27.100
 -17848994.042 7 -13908297.872 6  21201708.341    21201706.573    21201707.877
        42.800          39.500
 -22178489.349 7 -17281928.807 7  20444022.609    20444018.730    20444021.417
        46.600          45.100
 -15868891.726 6 -12365358.001 5  21507984.618    21507985.080    21507983.965
        39.300          35.300
 -14242253.049 6 -11097841.949 6  21797199.090    21797198.767    21797198.169
        40.100          37.000
 06  6  7  1  1 30.0000000  0  8G27G19G16G25G13G23G 3G 7
   -199997.840 3   -155841.815 2  25114647.832    25114648.280    25114646.832
        19.900          13.900
  -3320680.356 4  -2587541.191 3  23973478.025    23973477.120    23973476.559
        26.200          21.100
 -19824383.486 7 -15447554.703 7  20804637.683    20804635.667    20804636.616
        45.200          44.700
  -7000583.381 5  -5454988.676 4  23121634.426    23121634.804    23121633.850
        30.400          26.200
 -17896126.576 7 -13945024.479 6  21192739.110    21192737.509    21192738.729
        42.700          39.800
 -22152051.667 7 -17261328.013 7  20449053.519    20449049.636    20449052.334
        46.600          45.100
 -15947414.299 6 -12426544.379 5  21493042.355    21493042.896    21493041.492
        39.400          35.600
 -14221146.979 6 -11081395.625 6  21801215.498    21801215.198    21801214.468
        39.500          37.300
 06  6  7  1  2  0.0000000  0  8G27G19G16G25G13G23G 3G 7
   -285751.924 3   -222663.082 1  25098328.994    25098329.323    25098327.807
        18.600           9.000
  -3431467.217 4  -2673868.503 3  23952397.088    23952395.522    23952394.447
        25.600          21.600
 -19774535.826 7 -15408712.351 7  20814123.447    20814121.296    20814122.349
        45.100          44.700
  -6923499.630 5  -5394923.449 4  23136302.897    23136303.230    23136302.217
        30.200          26.200
 -17942717.799 7 -13981329.329 6  21183872.882    21183871.473    21183872.646
        43.100          39.900
 -22125004.353 7 -17240252.180 7  20454200.503    20454196.566    20454199.226
        46.600          45.100
 -16025494.528 6 -12487386.065 5  21478184.435    21478184.433    21478183.472
        39.100          35.300
 -14199510.257 6 -11064535.803 6  21805332.789    21805332.552    21805331.865
        40.000          37.000
 06  6  7  1  2 30.0000000  0  8G27G19G16G25G13G23G 3G 7
   -371530.005 2   -289503.032 1  25082005.286    25082006.662    25082004.789
        16.100          11.000
  -3542167.030 4  -2760127.995 3  23931331.082    23931329.513    23931328.692
        25.300          20.500
 -19724343.156 7 -15369601.154 7  20823674.938    20823672.608    20823673.736
        45.200          44.500
  -6846235.478 5  -5334717.662 4  23151006.362    23151006.418    23151005.348
        30.600          27.600
 -17988765.720 7 -14017210.796 6  21175110.446    21175108.822    21175110.213
        43.200          40.200
 -22097348.410 7 -17218702.088 7  20459463.068    20459459.296    20459461.960
        46.500          45.000
 -16103129.712 6 -12547880.976 5  21463410.878    21463410.969    21463410.063
        39.700          35.800
 -14177343.597 6 -11047263.042 6  21809550.843    21809550.735    21809549.908
        40.200          37.200
 06  6  7  1  3  0.0000000  0  8G27G19G16G25G13G23G 3G 7
   -457331.555 2   -356361.333 9  25065678.748    25065678.354    25065677.587
        17.000          -3.000
  -3652776.868 4  -2846317.362 3  23910282.315    23910281.132    23910280.428
        24.900          23.000
 -19673807.414 7 -15330222.635 7  20833291.488    20833289.237    20833290.318
        45.300          44.300
  -6768791.273 5  -5274371.559 4  23165742.761    23165743.611    23165742.463
        30.200          27.100
 -18034268.319 7 -14052667.360 6  21166451.570    21166449.956    21166451.234
        42.800          40.000
 -22069084.146 7 -17196677.983 7  20464841.871    20464837.898    20464840.596
        46.800          45.100
 -16180317.472 6 -12608027.232 6  21448722.865    21448722.663    21448721.675
        39.400          36.000
 -14154648.062 6 -11029578.174 6  21813869.540    21813869.496    21813868.733
        40.200          37.200
 06  6  7  1  3 30.0000000  0  8G27G19G16G25G13G23G 3G 7
   -543155.770 3   -423237.229 1  25049346.494    25049347.100    25049345.527
        18.600          11.000
  -3763294.062 4  -2932434.526 3  23889251.478    23889250.552    23889249.520
        27.100          23.000
 -19622930.133 7 -15290577.975 7  20842973.114    20842970.855    20842971.954
        45.400          44.400
  -6691167.458 5  -5213885.506 4  23180514.481    23180515.096    23180514.224
        30.200          27.100
 -18079223.602 7 -14087697.426 6  21157896.753    21157895.233    21157896.422
        42.900          40.300
 -22040211.799 7 -17174180.046 7  20470336.157    20470331.979    20470334.830
        46.800          44.800
 -16257055.152 6 -12667822.778 6  21434119.820    21434119.932    21434118.949
        39.800          36.200
 -14131424.246 6 -11011481.649 6  21818289.206    21818288.757    21818288.161
        40.100          36.900
 06  6  7  1  4  0.0000000  0  8G27G19G16G25G13G23G 3G 7
   -629002.043 3   -490130.314 1  25033010.921    25033010.864    25033009.676
        18.600           6.500
  -3873715.685 4  -3018477.235 3  23868237.440    23868237.690    23868236.773
        24.600          22.100
 -19571712.971 7 -15250668.476 7  20852719.252    20852717.169    20852718.161
        45.500          44.100
  -6613364.552 5  -5153259.906 4  23195320.178    23195320.706    23195319.361
        30.400          27.600
 -18123629.786 7 -14122299.620 6  21149446.771    21149445.009    21149446.343
        43.100          40.500
 -22010732.450 7 -17151209.115 7  20475945.755    20475941.644    20475944.438
        46.800          44.700
 -16333340.167 6 -12727265.600 5  21419603.240    21419603.205    21419602.168
        39.800          35.700
 -14107673.036 6 -10992974.178 6  21822808.971    21822808.262    21822807.961
        40.200          37.000
 06  6  7  1  4 30.0000000  0  8G27G19G16G25G13G23G 3G 7
   -714869.849 3   -557040.181 2  25016670.788    25016671.164    25016669.779
        20.500          12.600
  -3984039.396 4  -3104443.666 3  23847244.851    23847243.800    23847242.813
        26.800          21.600
 -19520157.942 7 -15210495.707 7  20862529.815    20862527.778    20862528.739
        45.300          44.200
  -6535382.927 5  -5092495.060 4  23210159.862    23210160.007    23210158.947
        30.400          27.100
 -18167484.959 7 -14156472.467 6  21141101.165    21141099.741    21141100.905
        43.200          40.600
 -21980646.741 7 -17127765.694 7  20481670.748    20481666.854    20481669.569
        46.800          44.900
 -16409170.043 6 -12786353.761 6  21405173.302    21405173.256    21405172.240
        39.900          36.300
 -14083395.439 6 -10974056.533 6  21827428.429    21827428.075    21827427.505
        40.200          36.900
 06  6  7  1  5  0.0000000  0  8G27G19G16G25G13G23G 3G 7
   -800758.738 3   -623966.512    25000326.569    25000326.269    25000325.377
        19.300           3.000
  -4094262.285 4  -3190331.524 3  23826269.648    23826268.737    23826267.800
        24.900          23.800
 -19468266.775 7 -15170061.023 7  20872404.544    20872402.290    20872403.436
        45.300          44.100
  -6457223.049 4  -5031591.319 4  23225032.814    23225033.317    23225032.266
        28.800          25.900
 -18210786.938 7 -14190214.268 6  21132861.213    21132859.610    21132860.836
        43.300          40.700
 -21949955.334 7 -17103850.303 7  20487511.355    20487507.314    20487510.020
        46.700          44.800
 -16484542.501 6 -12845085.495 6  21390830.070    21390830.217    21390829.204
        39.800          36.300
 -14058592.316 6 -10954729.393 6  21832148.235    21832148.005    21832147.328
        39.900          37.100
 06  6  7  1  5 30.0000000  0  8G27G19G16G25G13G23G 3G 7
   -886668.046 3   -690908.739 2  24983977.469    24983978.435    24983977.192
        19.900          12.600
  -4204381.560 4  -3276138.601 3  23805314.161    23805313.885    23805312.853
        25.300          23.800
 -19416041.195 7 -15129365.752 7  20882342.575    20882340.386    20882341.562
        45.200          43.900
  -6378885.335 4  -4970549.000 4  23239939.155    23239940.596    23239939.035
        29.500          25.600
 -18253533.835 7 -14223523.512 6  21124726.580    21124725.008    21124726.287
        43.200          40.300
 -21918658.771 7 -17079463.363 7  20493466.635    20493462.739    20493465.384
        46.700          44.600
 -16559455.006 6 -12903458.814 6  21376574.675    21376574.992    21376573.839
        39.800          36.800
 -14033264.388 6 -10934993.317 6  21836968.313    21836967.978    21836967.227
        40.000          37.300
 06  6  7  1  6  0.0000000  0  8G27G19G16G25G13G23G 3G 7
   -972597.275 2   -757866.526 2  24967625.916    24967626.520    24967625.341
        17.800          13.900
  -4314394.209 4  -3361862.637 3  23784379.552    23784378.414    23784378.547
        26.800          22.100
 -19363482.794 7 -15088411.143 7  20892344.222    20892341.875    20892343.043
        45.200          43.800
  -6300370.308 4  -4909368.513 4  23254880.572    23254881.412    23254880.177
        28.800          25.300
 -18295724.202 7 -14256399.102 6  21116698.020    21116696.310    21116697.691
        43.200          40.600
 -21886758.047 7 -17054605.642 7  20499537.147    20499533.172    20499535.948
        46.700          44.600
 -16633904.985 6 -12961471.727 6  21362407.528    21362407.385    21362406.396
        39.700          36.400
 -14007412.766 6 -10914849.164 6  21841887.341    21841887.292    21841886.592
        40.100          37.200
 06  6  7  1  6 30.0000000  0  8G27G19G16G25G13G23G 3G 7
  -1058545.816 2   -824839.309 2  24951270.276    24951271.567    24951269.215
        17.000          13.900
  -4424297.595 4  -3447501.552 3  23763466.151    23763465.118    23763464.211
        26.200          22.600
 -19310593.480 7 -15047198.684 7  20902408.780    20902406.420    20902407.629
        45.300          43.800
  -6221678.334 4  -4848050.156 4  23269855.474    23269856.015    23269854.601
        28.800          24.900
 -18337356.188 7 -14288839.602 6  21108775.740    21108774.076    21108775.428
        43.500          40.600
 -21854253.730 7 -17029277.596 7  20505722.506    20505718.616    20505721.264
        46.500          44.500
 -16707889.894 6 -13019122.247 6  21348328.444    21348328.567    21348327.471
        40.200          36.300
 -13981038.437 6 -10894297.709 6  21846906.557    21846905.940    21846905.504
        40.300          36.500
 06  6  7  1  7  0.0000000  0  8G27G19G16G25G13G23G 3G 7
  -1144512.578 3   -891826.307 1  24934910.944    24934912.118    24934910.254
        18.600           9.000
  -4534088.989 4  -3533053.177 3  23742573.181    23742572.359    23742571.225
        27.400          23.400
 -19257375.143 7 -15005729.838 7  20912535.994    20912533.551    20912534.703
        45.000          43.700
  -6142809.911 5  -4786594.297 4  23284864.050    23284864.145    23284863.217
        30.200          24.200
 -18378427.721 7 -14320843.385 6  21100960.111    21100958.540    21100959.843
        43.400          41.100
 -21821146.735 7 -17003479.925 7  20512022.586    20512018.581    20512021.348
        46.700          44.300
 -16781407.466 6 -13076408.613 6  21334338.627    21334338.529    21334337.668
        40.200          36.500
 -13954142.392 6 -10873339.725 6  21852024.615    21852023.871    21852023.697
        40.000          36.400
 06  6  7  1  7 30.0000000  0  8G27G19G16G25G13G23G 3G 7
  -1230497.292 3   -958827.330 2  24918548.238    24918549.547    24918547.552
        18.600          12.600
  -4643765.601 4  -3618515.386 4  23721701.868    23721701.763    23721700.510
        27.600          25.300
 -19203829.294 7 -14964005.784 7  20922724.943    20922722.988    20922723.924
        44.900          43.400
  -6063765.476 4  -4725001.271 4  23299905.689    23299906.459    23299904.670
        29.900          26.200
 -18418936.816 7 -14352408.901 6  21093251.719    21093249.983    21093251.295
        43.400          41.100
 -21787437.876 7 -16977213.272 7  20518437.158    20518433.099    20518435.934
        46.600          44.300
 -16854455.283 6 -13133328.933 6  21320438.156    21320438.076    21320437.056
        40.400          36.800
 -13926725.440 6 -10851975.840 6  21857242.219    21857241.109    21857241.033
        40.200          36.500
 06  6  7  1  8  0.0000000  0  8G27G19G16G25G13G23G 3G 7
  -1316499.133 3  -1025841.728 1  24902183.721    24902183.589    24902182.892
        18.600          11.000
  -4753324.787 4  -3703886.087 3  23700854.417    23700852.858    23700852.146
        26.200          23.800
 -19149957.534 7 -14922027.776 7  20932976.634    20932974.454    20932975.480
        44.900          43.500
  -5984545.506 4  -4663271.476 4  23314980.213    23314980.911    23314979.832
        29.000          24.600
 -18458881.860 7 -14383534.891 6  21085650.059    21085648.647    21085649.785
        43.600          41.000
 -21753128.099 7 -16950478.372 7  20524966.066    20524962.135    20524964.858
        46.600          44.400
 -16927030.814 6 -13189881.241 6  21306627.285    21306627.220    21306626.317
        40.600          36.900
 -13898788.556 6 -10830206.799 6  21862558.132    21862557.481    21862557.101
        39.700          36.500
 06  6  7  1  8 30.0000000  0  8G27G19G16G25G13G23G 3G 7
  -1402517.857 3  -1092869.251 2  24885814.180    24885814.749    24885813.345
        18.600          13.900
  -4862763.872 4  -3789163.186 4  23680028.367    23680027.151    23680026.582
        27.900          25.300
 -19095761.875 7 -14879797.378 7  20943289.616    20943287.564    20943288.545
        44.900          43.300
  -5905150.462 4  -4601405.251 3  23330088.590    23330089.231    23330088.274
        28.600          23.400
 -18498261.161 7 -14414220.053 6  21078156.572    21078154.915    21078156.240
        43.800          41.300
 -21718218.074 7 -16923275.743 7  20531609.124    20531605.416    20531607.998
        46.500          44.400
 -16999131.920 6 -13246063.873 6  21292906.866    21292906.715    21292905.972
        40.900          36.700
 -13870332.984 6 -10808033.599 6  21867973.095    21867972.468    21867972.013
        39.800          37.100
 06  6  7  1  9  0.0000000  0  8G27G19G16G25G13G23G 3G 7
  -1488552.320 2  -1159909.027 2  24869442.831    24869443.425    24869441.605
        17.000          13.900
  -4972079.723 4  -3874344.290 3  23659226.007    23659224.962    23659224.496
        27.100          23.800
 -19041244.088 7 -14837315.966 7  20953663.897    20953661.891    20953662.841
        44.900          43.200
  -5825580.796 4  -4539402.967 4  23345231.522    23345230.990    23345230.117
        28.400          24.900
 -18537072.944 7 -14444463.009 6  21070771.173    21070769.263    21070770.803
        43.900          41.100
 -21682708.718 7 -16895606.107 7  20538366.558    20538362.449    20538365.326
        46.400          44.300
 -17070756.264 6 -13301875.001 6  21279277.366    21279277.065    21279276.244
        40.600          36.900
 -13841359.766 6 -10785457.027 6  21873486.093    21873485.904    21873485.264
        39.800          36.700
 06  6  7  1  9 30.0000000  0  8G27G19G16G25G13G23G 3G 7
  -1574601.907 3  -1226960.531 2  24853067.100    24853068.613    24853066.140
        19.900          16.100
  -5081269.887 4  -3959427.448 3  23638448.189    23638446.514    23638446.494
        26.500          23.400
 -18986405.853 7 -14794584.866 7  20964099.454    20964097.169    20964098.322
        44.900          43.100
  -5745837.095 4  -4477265.084 4  23360405.681    23360406.253    23360404.750
        28.600          26.200
 -18575315.249 7 -14474262.200 6  21063493.659    21063492.013    21063493.376
        43.600          41.100
 -21646601.050 7 -16867470.252 7  20545237.496    20545233.419    20545236.390
        46.500          44.000
 -17141901.235 6 -13357312.581 6  21265738.610    21265738.534    21265737.774
        40.700          36.800
 -13811869.785 6 -10762477.790 6  21879097.951    21879097.632    21879096.995
        39.600          37.000
 06  6  7  1 10  0.0000000  0  8G27G19G16G25G13G23G 3G 7
  -1660666.137 3  -1294023.441 2  24836689.952    24836691.040    24836688.956
        21.100          15.100
  -5190331.384 4  -4044410.364 4  23617694.970    23617692.419    23617692.873
        27.400          24.600
 -18931248.780 7 -14751605.305 7  20974595.368    20974593.165    20974594.298
        45.100          43.100
  -5665919.729 4  -4414991.868 4  23375613.624    23375613.981    23375612.570
        29.000          25.300
 -18612986.481 7 -14503616.396 6  21056324.815    21056323.562    21056324.579
        43.600          41.500
 -21609895.898 7 -16838868.827 7  20552222.282    20552218.322    20552221.037
        46.400          44.200
 -17212564.352 6 -13412374.703 6  21252291.988    21252291.817    21252290.935
        40.500          37.100
 -13781864.246 6 -10739096.813 6  21884807.969    21884807.369    21884806.977
        39.700          37.200
 06  6  7  1 10 30.0000000  0  8G27G19G16G25G13G23G 3G 7
  -1746744.668 2  -1361097.576 2  24820310.160    24820310.617    24820309.549
        17.800          16.100
  -5299261.513 4  -4129290.877 4  23596965.469    23596963.986    23596963.823
        26.500          24.600
 -18875774.836 7 -14708378.824 7  20985151.627    20985149.515    20985150.577
        44.900          42.900
  -5585829.192 4  -4352583.715 4  23390852.900    23390854.661    23390853.122
        28.600          24.200
 -18650084.984 7 -14532524.302 6  21049265.405    21049263.917    21049265.107
        43.800          41.600
 -21572594.353 7 -16809802.679 7  20559320.492    20559316.549    20559319.247
        46.200          44.300
 -17282743.178 6 -13467059.439 6  21238937.599    21238937.190    21238936.460
        41.000          37.600
 -13751344.069 6 -10715314.816 6  21890615.956    21890615.151    21890614.846
        40.000          36.700
 06  6  7  1 11  0.0000000  0  8G27G19G16G25G13G23G 3G 7
  -1832836.542 3  -1428182.045 2  24803927.424    24803927.557    24803926.311
        19.900          17.800
  -5408057.334 4  -4214066.759 4  23576262.148    23576260.666    23576260.518
        26.500          25.300
 -18819985.631 7 -14664906.692 7  20995767.929    20995765.780    20995766.926
        44.900          42.800
  -5505566.052 4  -4290041.049 4  23406127.194    23406128.451    23406126.837
        28.600          25.900
 -18686609.091 7 -14560984.635 6  21042315.123    21042313.365    21042314.788
        43.800          41.300
 -21534697.331 7 -16780272.528 7  20566532.061    20566528.027    20566530.745
        46.000          43.800
 -17352435.542 6 -13521365.123 6  21225675.197    21225675.075    21225674.285
        41.100          37.200
 -13720310.542 6 -10691132.819 6  21896521.110    21896520.679    21896520.233
        40.000          36.900
 06  6  7  1 11 30.0000000  0  8G27G19G16G25G13G23G 3G 7
  -1918941.167 3  -1495276.483 2  24787541.790    24787542.135    24787541.417
        18.600          15.100
  -5516716.421 4  -4298736.078 4  23555586.035    23555583.520    23555583.542
        28.600          25.300
 -18763882.936 7 -14621190.276 7  21006443.986    21006441.766    21006442.962
        44.900          42.700
  -5425130.670 4  -4227364.170 4  23421433.437    23421434.652    23421433.370
        29.500          26.200
 -18722557.069 7 -14588996.051 6  21035474.567    21035472.782    21035474.227
        43.900          41.600
 -21496205.579 7 -16750278.947 7  20573856.593    20573852.804    20573855.356
        45.900          44.000
 -17421639.231 6 -13575290.027 6  21212506.147    21212505.985    21212505.218
        41.100          37.200
 -13688764.836 6 -10666551.718 6  21902523.907    21902523.758    21902523.022
        39.500          37.200
 06  6  7  1 12  0.0000000  0  8G27G19G16G25G13G23G 3G 7
  -2005057.601 3  -1562380.109 2  24771155.015    24771154.914    24771153.930
        21.100          16.100
  -5625235.587 4  -4383296.371 3  23534935.111    23534932.436    23534932.778
        29.900          23.800
 -18707468.648 7 -14577231.065 7  21017179.335    21017177.093    21017178.234
        44.900          42.500
  -5344523.684 4  -4164553.580 4  23436772.542    23436773.986    23436772.287
        28.400          24.900
 -18757927.227 7 -14616557.222 6  21028743.741    21028742.129    21028743.443
        43.700          41.800
 -21457120.587 7 -16719823.106 7  20581294.195    20581290.466    20581293.085
        46.100          44.000
 -17490352.077 6 -13628832.444 6  21199430.689    21199430.351    21199429.604
        40.900          37.500
 -13656707.978 6 -10641572.329 6  21908624.182    21908623.842    21908623.207
        39.600          37.000
 06  6  7  1 12 30.0000000  0  8G27G19G16G25G13G23G 3G 7
  -2091184.959 3  -1629492.241 2  24754764.576    24754765.607    24754763.508
        21.100          17.000
  -5733612.301 4  -4467745.686 4  23514310.520    23514309.529    23514309.168
        29.500          25.300
 -18650744.184 7 -14533030.170 7  21027973.557    21027971.335    21027972.459
        44.700          42.300
  -5263745.462 4  -4101609.546 4  23452144.439    23452145.309    23452144.070
        28.400          24.600
 -18792718.106 7 -14643666.985 7  21022123.345    21022121.790    21022122.955
        43.900          42.000
 -21417443.230 7 -16688905.683 7  20588844.850    20588840.833    20588843.538
        46.100          44.000
 -17558571.967 6 -13681990.749 6  21186448.566    21186448.411    21186447.704
        41.100          37.600
 -13624141.169 6 -10616195.572 6  21914821.661    21914820.890    21914820.624
        39.500          36.800
 06  6  7  1 13  0.0000000  0  8G27G19G16G25G13G23G 3G 7
  -2177322.928 3  -1696612.672 2  24738373.832    24738374.147    24738372.632
        21.600          17.800
  -5841843.607 4  -4552081.680 4  23493715.104    23493713.440    23493713.566
        29.700          25.600
 -18593711.726 7 -14488589.278 7  21038826.398    21038824.120    21038825.317
        44.800          42.400
  -5182796.520 4  -4038532.487 4  23467548.828    23467549.295    23467547.927
        27.100          24.200
 -18826928.037 7 -14670324.060 6  21015613.498    21015611.781    21015613.170
        44.100          41.900
 -21377174.497 7 -16657527.450 7  20596507.630    20596503.700    20596506.390
        46.100          43.700
 -17626296.207 6 -13734762.826 6  21173560.989    21173561.081    21173560.132
        41.500          37.700
 -13591065.504 6 -10590422.306 6  21921115.286    21921114.931    21921114.379
        39.300          36.600
 06  6  7  1 13 30.0000000  0  8G27G19G16G25G13G23G 3G 7
  -2263470.811 3  -1763740.813 2  24721980.057    24721980.152    24721978.830
        19.900          13.900
  -5949926.830 4  -4636302.263 4  23473148.035    23473146.116    23473145.738
        29.900          25.300
 -18536372.739 7 -14443909.533 7  21049737.755    21049735.360    21049736.621
        44.600          42.100
  -5101677.439 4  -3975322.849 3  23482985.198    23482985.851    23482984.411
        27.400          23.400
 -18860555.433 7 -14696527.218 6  21009214.226    21009212.548    21009213.902
        44.100          41.800
 -21336315.664 7 -16625689.395 7  20604282.791    20604278.927    20604281.609
        46.100          44.000
 -17693522.492 6 -13787146.894 6  21160768.214    21160768.226    21160767.289
        41.100          37.700
 -13557482.262 6 -10564253.522 6  21927505.964    21927505.687    21927505.110
        39.300          36.500
 06  6  7  1 14  0.0000000  0  8G27G19G16G25G13G23G 3G 7
  -2349627.949 3  -1830876.148 3  24705584.934    24705585.128    24705584.009
        19.300          19.300
  -6057859.376 4  -4720405.439 4  23452608.259    23452607.098    23452606.458
        28.100          27.600
 -18478728.972 7 -14398992.299 7  21060706.929    21060704.667    21060705.868
        44.700          42.200
  -5020388.646 4  -3911980.949 3  23498454.536    23498454.053    23498453.225
        26.200          20.500
 -18893598.546 7 -14722275.092 6  21002926.217    21002924.567    21002925.942
        44.000          41.900
 -21294867.751 7 -16593392.323 7  20612170.004    20612166.196    20612168.841
        46.200          44.000
 -17760248.912 6 -13839141.450 6  21148070.732    21148070.732    21148069.716
        41.500          38.200
 -13523392.728 6 -10537690.231 6  21933993.246    21933992.754    21933992.271
        39.400          36.500
 06  6  7  1 14 30.0000000  0  8G27G19G16G25G13G23G 3G 7
  -2435793.265 3  -1898017.857 3  24689188.131    24689188.025    24689187.199
        22.100          19.300
  -6165638.358 4  -4804388.963 4  23432097.877    23432097.152    23432097.339
        28.100          25.900
 -18420782.267 7 -14353839.014 7  21071733.780    21071731.569    21071732.765
        44.700          42.100
  -4938930.698 4  -3848507.233 3  23513955.036    23513955.271    23513954.132
        27.600          22.600
 -18926055.842 7 -14747566.474 6  20996749.979    20996748.201    20996749.556
        44.100          41.800
 -21252831.893 7 -16560637.109 7  20620169.198    20620165.302    20620167.874
        45.900          43.600
 -17826473.050 6 -13890744.620 6  21135468.745    21135468.413    21135467.658
        41.300          37.900
 -13488798.114 6 -10510733.383 6  21940576.257    21940575.724    21940575.275
        39.100          36.400
 06  6  7  1 15  0.0000000  0  8G27G19G16G25G13G23G 3G 7
  -2521966.320 2  -1965165.604 2  24672789.408    24672789.760    24672788.743
        17.800          17.800
  -6273260.814 5  -4888250.530 4  23411619.741    23411617.063    23411617.652
        30.100          27.100
 -18362534.385 7 -14308451.036 7  21082817.826    21082815.692    21082816.837
        44.700          42.100
  -4857304.076 4  -3784902.064 3  23529487.193    23529488.778    23529487.233
        26.500          21.100
 -18957925.990 7 -14772400.350 6  20990685.099    20990683.618    20990684.825
        43.900          41.900
 -21210209.312 7 -16527424.710 7  20628280.109    20628276.073    20628278.836
        46.000          43.700
 -17892192.790 6 -13941954.746 6  21122962.343    21122962.233    21122961.444
        41.400          38.100
 -13453699.554 6 -10483383.840 6  21947255.246    21947254.803    21947254.166
        38.700          36.600
 06  6  7  1 15 30.0000000  0  8G27G19G16G25G13G23G 3G 7
  -2608146.439 3  -2032318.846 3  24656390.518    24656390.223    24656389.530
        20.500          19.300
  -6380724.136 4  -4971988.061 4  23391171.069    23391167.607    23391168.040
        28.800          27.400
 -18303987.092 7 -14262829.765 7  21093958.925    21093956.983    21093957.989
        44.900          42.100
  -4775509.390 4  -3721165.969 4  23545052.406    23545053.736    23545052.144
        26.200          24.200
 -18989207.431 7 -14796775.504 7  20984732.727    20984730.966    20984732.339
        44.200          42.100
 -21167001.385 7 -16493756.202 7  20636502.392    20636498.187    20636501.089
        46.000          43.400
 -17957406.062 6 -13992770.230 6  21110552.670    21110552.457    21110551.731
        41.400          37.700
 -13418098.381 6 -10455642.651 6  21954029.833    21954029.456    21954028.829
        38.900          36.500
 06  6  7  1 16  0.0000000  0  8G27G19G16G25G13G23G 3G 7
  -2694332.808 3  -2099476.973 2  24639989.318    24639989.195    24639988.750
        21.100          17.000
  -6488025.446 4  -5055599.381 4  23370751.332    23370748.341    23370748.850
        29.500          25.900
 -18245141.928 7 -14216976.380 7  21105157.035    21105154.897    21105155.931
        44.800          42.100
  -4693547.097 4  -3657299.270 3  23560650.505    23560650.825    23560649.401
        27.100          23.800
 -19019898.638 7 -14820690.739 7  20978892.326    20978890.601    20978891.976
        44.300          42.100
 -21123209.109 7 -16459632.352 7  20644835.646    20644831.601    20644834.360
        45.700          43.400
 -18022110.635 6 -14043189.330 6  21098239.987    21098239.588    21098238.927
        41.700          38.100
 -13381995.904 6 -10427510.841 6  21960899.907    21960899.656    21960898.985
        38.800          36.500
 06  6  7  1 16 30.0000000  0  8G27G19G16G25G13G23G 3G 7
  -2780524.452 3  -2166639.210 3  24623587.317    24623587.860    24623586.305
        23.800          21.100
  -6595161.774 4  -5139082.132 4  23350362.219    23350361.087    23350361.493
        29.500          26.200
 -18186000.938 7 -14170892.485 7  21116411.220    21116409.011    21116410.027
        44.700          42.000
  -4611417.808 4  -3593302.429 3  23576279.441    23576279.128    23576278.217
        26.200          22.600
 -19049998.234 7 -14844144.989 7  20973164.474    20973162.789    20973164.154
        44.200          42.000
 -21078833.687 7 -16425054.108 7  20653280.048    20653276.100    20653278.810
        46.100          43.400
 -18086304.396 6 -14093210.394 6  21086024.211    21086023.943    21086023.179
        41.800          38.100
 -13345393.304 6 -10398989.329 6  21967865.063    21967864.842    21967864.256
        38.800          36.500
 06  6  7  1 17  0.0000000  0  8G27G19G16G25G13G23G 3G 7
  -2866721.294 4  -2233805.498 3  24607185.504    24607185.117    24607184.418
        24.600          18.600
  -6702130.612 4  -5222434.405 4  23330008.170    23330005.890    23330005.715
        29.000          26.200
 -18126565.334 7 -14124579.000 6  21127721.240    21127719.149    21127720.166
        44.700          41.900
  -4529121.986 4  -3529175.836 3  23591939.634    23591939.267    23591938.641
        25.900          21.100
 -19079504.727 7 -14867137.087 7  20967549.513    20967547.898    20967549.206
        44.000          42.000
 -21033876.398 7 -16390022.456 7  20661835.008    20661831.123    20661833.826
        45.800          43.200
 -18149985.272 6 -14142831.808 6  21073905.985    21073905.713    21073905.039
        41.900          38.200
 -13308292.023 6 -10370079.216 6  21974925.455    21974924.810    21974924.446
        38.900          36.300
 06  6  7  1 17 30.0000000  0  8G27G19G16G25G13G23G 3G 7
  -2952921.790 4  -2300974.631 2  24590781.514    24590781.725    24590780.694
        24.200          17.800
  -6808929.330 4  -5305654.070 4  23309685.905    23309682.780    23309682.826
        28.800          27.900
 -18066837.462 7 -14078037.775 6  21139087.089    21139084.997    21139086.019
        44.500          41.500
  -4446660.168 4  -3464919.898 3  23607631.041    23607631.729    23607630.407
        27.100          22.600
 -19108416.469 7 -14889665.734 7  20962047.627    20962046.222    20962047.367
        43.900          42.100
 -20988338.651 7 -16354538.506 7  20670500.438    20670496.573    20670499.348
        45.800          42.900
 -18213150.753 7 -14192051.620 6  21061885.983    21061885.849    21061885.144
        42.100          38.500
 -13270693.300 6 -10340781.476 6  21982080.080    21982079.479    21982079.096
        39.000          36.000
 06  6  7  1 18  0.0000000  0  8G27G19G16G25G13G23G 3G 7
  -3039125.540 3  -2368146.286 2  24574376.031    24574377.012    24574375.669
        21.600          16.100
  -6915554.953 4  -5388738.872 4  23289394.326    23289392.404    23289392.042
        29.500          26.200
 -18006818.719 7 -14031269.910 6  21150508.618    21150506.120    21150507.358
        44.600          41.500
  -4364032.936 4  -3400535.067 3  23623355.353    23623354.952    23623354.191
        26.500          21.100
 -19136732.184 7 -14911729.946 7  20956659.580    20956658.062    20956659.182
        43.900          42.400
 -20942221.656 7 -16318603.189 7  20679276.662    20679272.401    20679275.272
        45.900          43.000
 -18275799.069 6 -14240868.445 6  21049964.553    21049964.199    21049963.502
        41.800          38.900
 -13232598.656 6 -10311097.309 6  21989329.423    21989328.745    21989328.307
        38.600          36.300
 06  6  7  1 18 30.0000000  0  8G27G19G16G25G13G23G 3G 7
  -3125331.730 3  -2435319.870 2  24557972.459    24557972.284    24557972.052
        22.100          15.100
  -7022004.655 5  -5471686.614 4  23269136.030    23269135.361    23269135.380
        31.000          27.600
 -17946510.726 7 -13984276.646 6  21161984.578    21161982.313    21161983.501
        44.500          41.300
  -4281240.800 4  -3336021.736 3  23639109.457    23639109.934    23639108.477
        25.300          21.600
 -19164450.765 7 -14933328.857 7  20951385.021    20951383.272    20951384.614
        44.000          42.200
 -20895527.027 7 -16282217.767 7  20688161.954    20688158.167    20688160.927
        46.100          42.900
 -18337927.976 7 -14289280.539 6  21038141.578    21038141.305    21038140.689
        42.200          38.600
 -13194009.149 6 -10281027.539 6  21996672.706    21996672.232    21996671.567
        38.700          36.400
 06  6  7  1 19  0.0000000  0  8G27G19G16G25G13G23G 3G 7
  -3211539.722 3  -2502494.856 2  24541567.772    24541567.277    24541567.100
        22.600          16.100
  -7128275.560 5  -5554495.027 4  23248913.845    23248912.847    23248912.676
        30.400          27.600
 -17885915.353 7 -13937059.451 6  21173515.497    21173513.227    21173514.388
        44.400          41.400
  -4198284.267 4  -3271380.330 3  23654895.136    23654895.605    23654894.477
        25.600          21.600
 -19191570.705 7 -14954461.295 7  20946224.095    20946222.430    20946223.793
        44.100          42.200
 -20848255.749 7 -16245383.009 7  20697157.596    20697153.496    20697156.278
        45.800          42.700
 -18399535.698 7 -14337286.511 6  21026418.162    21026417.776    21026417.091
        42.200          38.900
 -13154926.367 6 -10250573.406 6  22004110.075    22004109.354    22004108.974
        38.900          36.100
 06  6  7  1 19 30.0000000  0  8G27G19G16G25G13G23G 3G 7
  -3297748.302 3  -2569670.305 2  24525162.628    24525162.389    24525161.823
        20.500          16.100
  -7234365.348 5  -5637162.305 4  23228726.532    23228724.239    23228724.113
        30.100          27.100
 -17825034.516 7 -13889619.824 6  21185100.559    21185098.455    21185099.494
        44.400          41.200
  -4115163.949 4  -3206611.305 3  23670712.901    23670713.164    23670712.241
        25.900          22.100
 -19218090.487 7 -14975126.088 7  20941177.605    20941176.010    20941177.332
        44.300          42.200
 -20800409.230 7 -16208100.011 7  20706262.239    20706258.399    20706261.066
        45.600          42.700
 -18460620.318 7 -14384884.869 6  21014793.927    21014793.720    21014793.071
        42.400          38.900
 -13115351.692 6 -10219735.968 6  22011640.722    22011640.093    22011639.691
        38.900          36.300
 06  6  7  1 20  0.0000000  0  8G27G19G16G25G13G23G 3G 7
  -3383957.035 3  -2636845.842 2  24508757.640    24508757.507    24508757.062
        22.600          16.100
  -7340270.885 5  -5719686.015 4  23208573.625    23208571.119    23208571.051
        30.800          27.900
 -17763869.654 7 -13841958.872 6  21196739.964    21196737.798    21196738.758
        44.100          41.100
  -4031880.473 4  -3141715.111 3  23686561.389    23686561.547    23686560.450
        26.200          21.100
 -19244008.840 7 -14995322.223 7  20936245.650    20936243.935    20936245.292
        44.300          42.500
 -20751988.867 7 -16170369.866 7  20715476.228    20715472.617    20715475.064
        45.500          42.900
 -18521179.705 7 -14432073.956 6  21003269.999    21003269.663    21003268.984
        42.500          39.100
 -13075286.562 6 -10188516.341 6  22019264.428    22019264.376    22019263.527
        38.500          36.300
 06  6  7  1 20 30.0000000  0  8G27G19G16G25G13G23G 3G 7
  -3470165.188 3  -2704020.971 3  24492352.871    24492353.216    24492352.087
        22.100          19.300
  -7445989.331 5  -5802063.940 4  23188455.142    23188453.440    23188453.166
        30.200          28.100
 -17702422.642 7 -13794078.073 6  21208432.925    21208430.662    21208431.823
        44.300          41.200
  -3948434.296 4  -3076692.163 3  23702440.250    23702441.285    23702439.348
        26.200          19.900
 -19269324.516 7 -15015048.736 7  20931428.210    20931426.458    20931427.871
        44.300          42.500
 -20702996.429 7 -16132193.942 7  20724799.510    20724795.631    20724798.235
        45.700          42.900
 -18581211.724 7 -14478852.108 6  20991845.790    20991845.936    20991845.053
        42.500          39.300
 -13034732.340 6 -10156915.620 6  22026981.748    22026981.510    22026980.762
        38.600          36.100
 06  6  7  1 21  0.0000000  0  8G27G19G16G25G13G23G 3G 7
  -3556372.043 3  -2771195.044 3  24475948.251    24475948.378    24475947.435
        23.400          19.300
  -7551517.966 5  -5884293.958 4  23168373.612    23168371.881    23168371.750
        30.800          28.600
 -17640695.148 7 -13745978.713 6  21220179.112    21220177.015    21220178.071
        44.100          40.900
  -3864826.036 4  -3011542.920 3  23718350.584    23718351.003    23718349.732
        25.600          20.500
 -19294036.221 7 -15034304.619 7  20926725.686    20926723.985    20926725.325
        44.200          42.600
 -20653433.114 7 -16093573.184 7  20734230.802    20734227.073    20734229.802
        45.800          42.700
 -18640714.414 7 -14525217.804 6  20980523.224    20980522.828    20980522.185
        42.800          39.200
 -12993690.325 6 -10124934.792 6  22034791.766    22034791.427    22034790.770
        38.300          36.000
 06  6  7  1 21 30.0000000  0  8G27G19G16G25G13G23G 3G 7
  -3642576.341 3  -2838367.128 3  24459544.094    24459543.903    24459543.369
        23.800          22.100
  -7656853.783 5  -5966373.754 4  23148329.061    23148327.173    23148327.071
        31.000          29.500
 -17578688.849 7 -13697662.093 6  21231978.592    21231976.341    21231977.547
        44.200          40.600
  -3781056.250 4  -2946267.790 3  23734291.252    23734291.840    23734290.288
        24.600          19.300
 -19318142.695 7 -15053088.890 7  20922138.213    20922136.719    20922137.873
        44.000          42.500
 -20603300.313 7 -16054508.670 7  20743770.993    20743767.069    20743769.795
        45.700          42.700
 -18699685.790 7 -14571169.488 6  20969301.072    20969300.815    20969300.254
        42.700          39.400
 -12952162.300 6 -10092575.253 6  22042694.257    22042693.892    22042693.345
        38.400          36.100
 06  6  7  1 22  0.0000000  0  8G27G19G16G25G13G23G 3G 7
  -3728777.498 3  -2905536.757 3  24443139.764    24443140.722    24443138.871
        23.000          23.000
  -7761994.545 5  -6048301.527 4  23128320.569    23128319.479    23128319.419
        30.800          29.000
 -17516405.413 7 -13649129.522 6  21243831.183    21243828.470    21243829.868
        44.300          40.600
  -3697125.496 4  -2880867.242 3  23750263.028    23750263.453    23750262.226
        25.600          19.900
 -19341642.592 7 -15071400.506 7  20917666.223    20917664.860    20917665.984
        44.100          42.500
 -20552599.654 7 -16015001.673 7  20753419.019    20753415.082    20753417.838
        45.700          42.400
 -18758123.806 7 -14616705.574 6  20958181.130    20958180.541    20958180.113
        43.000          39.400
 -12910149.451 6 -10059837.922 6  22050689.046    22050688.740    22050688.117
        38.400          36.000
 06  6  7  1 22 30.0000000  0  8G27G19G16G25G13G23G 3G 7
  -3814974.825 3  -2972703.424 3  24426736.672    24426738.143    24426736.025
        23.400          22.100
  -7866937.108 5  -6130074.861 4  23108351.680    23108349.456    23108349.674
        32.000          28.800
 -17453846.692 7 -13600382.434 6  21255735.501    21255732.833    21255734.404
        44.300          40.400
  -3613034.367 4  -2815341.719 3  23766264.571    23766265.531    23766264.128
        26.200          19.900
 -19364535.100 7 -15089238.829 7  20913310.298    20913308.588    20913309.906
        44.200          42.600
 -20501332.548 7 -15975053.285 7  20763174.679    20763170.876    20763173.548
        45.500          42.300
 -18816026.596 7 -14661824.597 6  20947162.482    20947161.974    20947161.475
        43.000          39.300
 -12867653.291 6 -10026723.990 5  22058775.432    22058775.247    22058774.646
        38.100          35.400
 06  6  7  1 23  0.0000000  0  8G27G19G16G25G13G23G 3G 7
  -3901167.174 3  -3039866.191 3  24410334.500    24410335.614    24410334.198
        23.000          23.400
  -7971678.816 5  -6211691.698 4  23088420.538    23088417.828    23088418.121
        32.400          29.700
 -17391014.550 7 -13551422.291 6  21267691.999    21267689.442    21267690.904
        44.500          40.400
  -3528783.409 4  -2749691.667 3  23782296.718    23782297.886    23782296.394
        25.900          22.100
 -19386818.825 7 -15106602.778 7  20909069.685    20909068.171    20909069.380
        44.300          42.800
 -20449500.643 7 -15934664.794 7  20773037.911    20773034.067    20773036.888
        45.600          42.000
 -18873392.221 7 -14706525.052 6  20936246.222    20936245.518    20936245.135
        43.000          39.400
 -12824675.287 6  -9993234.589 5  22066954.376    22066953.630    22066953.347
        38.200          35.800
 06  6  7  1 23 30.0000000  0  8G27G19G16G25G13G23G 3G 7
  -3987353.915 3  -3107024.595 3  24393933.966    24393934.018    24393933.140
        23.000          19.900
  -8076216.885 5  -6293149.844 4  23068527.220    23068524.730    23068524.758
        32.400          29.200
 -17327909.989 7 -13502249.883 6  21279700.312    21279697.865    21279699.216
        44.300          40.500
  -3444373.315 4  -2683917.603 3  23798359.457    23798360.766    23798359.579
        24.600          20.500
 -19408492.534 7 -15123491.391 7  20904945.222    20904943.962    20904944.920
        44.000          42.900
 -20397105.501 7 -15893837.419 7  20783008.357    20783004.734    20783007.161
        45.300          42.300
 -18930218.849 7 -14750805.510 6  20925432.409    20925431.800    20925431.414
        43.100          39.300
 -12781217.226 6  -9959371.122 5  22075224.191    22075223.340    22075223.103
        38.600          35.900
 06  6  7  1 24  0.0000000  0  8G27G19G16G25G13G23G 3G 7
  -4073534.216 3  -3174177.982 2  24377534.619    24377534.640    24377533.884
        22.600          17.000
  -8180548.637 5  -6374447.238 4  23048671.331    23048670.504    23048671.004
        32.100          27.900
 -17264535.525 7 -13452867.139 6  21291760.395    21291757.600    21291759.063
        44.000          40.600
  -3359804.521 4  -2618019.884 3  23814452.278    23814453.868    23814452.413
        24.200          20.500
 -19429555.221 7 -15139903.887 7  20900937.355    20900935.858    20900936.946
        44.100          42.800
 -20344148.706 7 -15852572.393 7  20793085.977    20793082.078    20793084.595
        45.300          42.300
 -18986504.732 7 -14794664.606 6  20914721.506    20914720.918    20914720.514
        43.400          39.800
 -12737280.270 6  -9925134.497 5  22083584.742    22083584.257    22083583.857
        38.100          35.800
 06  6  7  1 24 30.0000000  0  8G27G19G16G25G13G23G 3G 7
  -4159707.288 3  -3241325.775 2  24361136.683    24361135.880    24361135.437
        21.600          16.100
  -8284671.159 5  -6455581.586 4  23028857.778    23028856.796    23028857.388
        32.100          28.600
 -17200892.699 7 -13403275.316 6  21303870.738    21303868.440    21303869.649
        44.000          40.300
  -3275077.776 4  -2551999.099 3  23830575.747    23830576.769    23830575.317
        24.200          19.900
 -19450005.487 7 -15155839.159 7  20897045.700    20897044.144    20897045.347
        44.000          42.700
 -20290631.772 7 -15810870.892 7  20803269.958    20803265.966    20803268.747
        45.600          42.000
 -19042248.007 7 -14838100.893 6  20904114.031    20904113.077    20904112.964
        43.400          39.300
 -12692866.130 6  -9890526.058 5  22092036.815    22092036.069    22092035.687
        37.800          35.700
 06  6  7  1 25  0.0000000  0  8G27G19G16G25G13G23G 3G 7
  -4245872.206 3  -3308467.219 2  24344740.252    24344739.519    24344739.570
        22.600          16.100
  -8388581.491 5  -6536550.601 4  23009085.471    23009083.419    23009083.557
        32.400          29.900
 -17136982.969 7 -13353475.500 6  21316032.299    21316030.029    21316031.229
        44.000          40.300
  -3190193.550 3  -2485855.602 3  23846728.299    23846729.730    23846728.021
        23.800          19.900
 -19469842.704 7 -15171296.739 7  20893270.563    20893269.175    20893270.351
        44.300          42.600
 -20236556.436 7 -15768734.277 6  20813560.147    20813556.162    20813558.854
        45.600          41.900
 -19097446.759 7 -14881112.886 6  20893609.726    20893609.156    20893608.773
        43.100          39.500
 -12647976.581 6  -9855547.180 5  22100578.791    22100578.348    22100577.802
        37.700          35.600
 06  6  7  1 25 30.0000000  0  8G27G19G16G25G13G23G 3G 7
  -4332028.114 3  -3375601.627 3  24328346.277    24328344.691    24328345.123
        23.800          18.600
  -8492277.284 5  -6617352.424 4  22989352.773    22989350.604    22989350.735
        32.100          29.500
 -17072808.106 7 -13303469.093 6  21328244.749    21328242.066    21328243.433
        43.800          40.200
  -3105152.467 3  -2419589.858 3  23862912.270    23862912.386    23862911.120
        23.800          18.600
 -19489065.385 7 -15186275.448 7  20889612.965    20889611.286    20889612.681
        44.500          42.800
 -20181924.083 7 -15726163.616 7  20823956.212    20823952.433    20823955.033
        45.500          42.000
 -19152099.113 7 -14923699.105 6  20883209.883    20883209.147    20883208.849
        43.300          39.800
 -12602612.957 6  -9820198.875 5  22109211.420    22109210.603    22109210.254
        37.700          35.400
 06  6  7  1 26  0.0000000  0  8G27G19G16G25G13G23G 3G 7
  -4418173.861 4  -3442728.103 3  24311952.493    24311951.615    24311951.385
        24.900          19.300
  -8595755.578 5  -6697984.746 4  22969662.057    22969659.260    22969659.493
        32.600          29.200
 -17008369.882 7 -13253257.470 6  21340506.541    21340504.209    21340505.451
        43.900          40.000
  -3019955.240 4  -2353202.446 3  23879124.529    23879125.134    23879123.433
        25.300          18.600
 -19507672.704 7 -15200774.656 7  20886072.141    20886070.468    20886071.821
        44.500          42.800
 -20126736.596 7 -15683160.391 7  20834458.095    20834454.288    20834456.899
        45.600          42.000
 -19206203.353 7 -14965858.231 6  20872914.045    20872913.521    20872913.099
        43.100          39.800
 -12556776.725 6  -9784482.291 5  22117933.624    22117932.853    22117932.579
        38.100          35.300
 06  6  7  1 26 30.0000000  0  8G27G19G16G25G13G23G 3G 7
  -4504308.830 3  -3509846.178 3  24295561.114    24295561.253    24295559.995
        23.800          21.100
  -8699013.571 5  -6778445.441 4  22950012.293    22950009.709    22950009.820
        32.100          29.200
 -16943669.774 7 -13202841.763 6  21352818.422    21352816.189    21352817.340
        43.600          39.700
  -2934602.354 4  -2286693.748 3  23895366.554    23895367.770    23895365.543
        24.200          19.300
 -19525663.493 7 -15214793.450 7  20882648.444    20882646.882    20882648.150
        44.600          42.900
 -20070995.589 7 -15639725.846 6  20845065.262    20845061.412    20845064.071
        45.400          41.900
 -19259757.731 7 -15007588.893 6  20862723.139    20862722.510    20862722.003
        43.200          39.900
 -12510469.615 6  -9748398.793 5  22126745.419    22126744.731    22126744.475
        38.100          34.900
 06  6  7  1 27  0.0000000  0  8G27G19G16G25G13G23G 3G 7
  -4590432.080 4  -3576955.079 3  24279171.860    24279172.209    24279171.016
        24.900          23.000
  -8802048.661 5  -6858732.429 5  22930405.326    22930403.082    22930403.108
        32.700          30.600
 -16878709.621 7 -13152223.442 6  21365179.794    21365177.793    21365178.837
        43.500          40.000
  -2849094.462 4  -2220064.253 3  23911638.853    23911639.389    23911637.735
        24.200          20.500
 -19543036.896 7 -15228331.167 7  20879342.347    20879340.803    20879342.105
        44.400          42.700
 -20014702.997 7 -15595861.500 6  20855777.387    20855773.652    20855776.246
        45.300          41.900
 -19312760.417 7 -15048889.661 6  20852636.861    20852636.346    20852635.821
        43.200          39.900
 -12463693.293 6  -9711949.693 5  22135646.382    22135646.095    22135645.628
        37.700          35.400
 06  6  7  1 27 30.0000000  0  8G27G19G16G25G13G23G 3G 7
  -4676542.522 4  -3644054.033 3  24262786.264    24262785.732    24262784.920
        25.900          22.600
  -8904858.038 5  -6938843.524 5  22910840.969    22910838.627    22910839.053
        33.000          30.100
 -16813491.061 7 -13101403.769 6  21377590.814    21377588.371    21377589.581
        43.500          39.800
  -2763432.288 3  -2153314.546 3  23927939.993    23927940.397    23927938.574
        23.400          21.100
 -19559791.922 7 -15241387.027 7  20876154.125    20876152.444    20876153.749
        44.400          42.700
 -19957860.116 7 -15551568.354 6  20866594.508    20866590.412    20866593.106
        45.300          41.700
 -19365209.659 7 -15089759.173 6  20842655.906    20842655.518    20842654.958
        43.300          40.000
 -12416449.276 6  -9675136.134 5  22144637.134    22144636.244    22144636.011
        37.700          35.400
 06  6  7  1 28  0.0000000  0  8G27G19G16G25G13G23G 3G 7
  -4762639.687 3  -3711142.614 3  24246402.055    24246401.613    24246400.969
        23.400          23.000
  -9007438.678 5  -7018776.417 5  22891319.725    22891318.131    22891318.424
        32.700          30.100
 -16748015.896 7 -13050384.136 6  21390050.257    21390047.819    21390049.122
        43.600          39.500
  -2677616.285 3  -2086444.959 2  23944269.672    23944270.091    23944268.897
        22.600          17.800
 -19575927.799 7 -15253960.436 7  20873083.391    20873081.752    20873083.106
        44.400          42.700
 -19900468.902 7 -15506847.931 6  20877515.260    20877511.553    20877514.223
        45.300          41.600
 -19417103.858 7 -15130196.186 6  20832780.915    20832780.339    20832779.889
        43.400          40.000
 -12368739.045 6  -9637959.294 5  22153715.899    22153715.213    22153714.888
        37.900          35.300
 06  6  7  1 28 30.0000000  0  8G27G19G16G25G13G23G 3G 7
  -4848722.699 4  -3778220.220 3  24230020.961    24230020.875    24230020.175
        25.300          23.400
  -9109788.013 5  -7098529.049 5  22871842.951    22871841.800    22871842.175
        33.100          30.800
 -16682285.509 7 -12999165.624 6  21402558.360    21402555.915    21402557.242
        43.400          39.300
  -2591647.154 4  -2019456.045 2  23960629.251    23960629.393    23960628.177
        25.300          16.100
 -19591443.294 7 -15266050.428 7  20870130.782    20870129.196    20870130.542
        44.300          42.700
 -19842531.012 7 -15461701.530 6  20888540.810    20888536.759    20888539.493
        45.300          41.600
 -19468441.290 7 -15170199.350 6  20823011.683    20823011.175    20823010.651
        43.400          40.300
 -12320564.613 6  -9600420.743 5  22162883.340    22162882.391    22162882.236
        37.900          35.400
 06  6  7  1 29  0.0000000  0  8G27G19G16G25G13G23G 3G 7
  -4934790.359 4  -3845285.820 3  24213642.634    24213642.751    24213641.802
        24.600          23.800
  -9211903.453 5  -7178099.442 5  22852410.917    22852409.486    22852410.349
        33.500          30.200
 -16616301.829 7 -12947749.756 6  21415114.969    21415112.305    21415113.639
        43.400          39.500
  -2505525.611 3  -1952348.357 2  23977018.172    23977017.884    23977016.730
        23.000          17.000
 -19606337.144 7 -15277656.017 7  20867296.762    20867295.177    20867296.351
        44.300          43.100
 -19784048.316 7 -15416130.604 6  20899669.622    20899665.676    20899668.366
        45.200          41.600
 -19519220.358 7 -15209767.428 6  20813348.760    20813348.166    20813347.782
        43.600          40.200
 -12271927.547 6  -9562521.716 5  22172138.552    22172137.720    22172137.578
        38.100          34.800
 06  6  7  1 29 30.0000000  0  8G27G19G16G25G13G23G 3G 7
  -5020841.881 3  -3912338.869 3  24197267.237    24197267.203    24197266.386
        21.100          21.600
  -9313782.098 5  -7257485.317 5  22833024.914    22833022.558    22833023.431
        32.700          30.600
 -16550066.431 7 -12896137.770 6  21427718.755    21427716.429    21427717.809
        43.500          39.300
  -2419252.233 3  -1885122.355 2  23993435.910    23993435.183    23993434.210
        23.400          17.000
 -19620609.337 7 -15288777.195 7  20864580.894    20864579.353    20864580.514
        44.300          43.200
 -19725022.814 7 -15370136.716 6  20910901.616    20910897.782    20910900.492
        45.200          41.300
 -19569439.367 7 -15248899.101 6  20803792.317    20803791.793    20803791.385
        43.800          40.300
 -12222829.223 6  -9524263.263 5  22181481.638    22181480.597    22181480.518
        37.700          34.700
 06  6  7  1 30  0.0000000  0  8G27G19G16G25G13G23G 3G 7
  -5106876.100 3  -3979378.385 3  24180895.417    24180895.046    24180894.830
        23.400          20.500
  -9415421.344 5  -7336684.655 5  22813683.259    22813681.206    22813681.864
        33.600          30.800
 -16483580.742 7 -12844330.740 6  21440370.867    21440368.186    21440369.654
        43.600          39.100
  -2332827.614 3  -1817778.530 3  24009881.651    24009881.557    24009880.158
        22.600          18.600
 -19634258.678 7 -15299413.033 7  20861983.203    20861981.868    20861982.939
        44.500          43.100
 -19665456.164 7 -15323721.148 6  20922236.949    20922232.999    20922235.696
        45.100          41.300
 -19619096.537 7 -15287592.978 6  20794342.804    20794342.216    20794341.920
        43.900          40.400
 -12173271.564 6  -9485646.857 5  22190911.632    22190911.219    22190910.684
        37.300          34.500
 06  6  7  1 30 30.0000000  0  8G27G19G16G25G13G23G 3G 7
  -5192892.214 4  -4046403.781 3  24164527.663    24164526.635    24164526.598
        25.300          19.300
  -9516818.357 5  -7415695.229 5  22794388.536    22794386.132    22794386.933
        34.400          31.300
 -16416846.831 7 -12792330.269 6  21453069.840    21453067.279    21453068.552
        43.400          39.300
  -2246252.458 3  -1750317.382 3  24026356.288    24026356.697    24026354.762
        23.800          20.500
 -19647284.216 7 -15309562.787 7  20859504.858    20859503.172    20859504.542
        44.600          43.000
 -19605350.434 7 -15276885.526 6  20933674.591    20933670.890    20933673.375
        45.100          41.400
 -19668190.537 7 -15325848.018 6  20785000.416    20785000.134    20784999.544
        43.800          40.500
 -12123256.351 6  -9446673.934 5  22200429.203    22200428.844    22200428.343
        37.700          34.700
 06  6  7  1 31  0.0000000  0  8G27G19G16G25G13G23G 3G 7
  -5278889.287 4  -4113414.408 3  24148162.147    24148161.740    24148161.558
        26.200          19.300
  -9617970.436 5  -7494514.970 4  22775140.015    22775137.155    22775137.878
        33.500          29.900
 -16349866.189 7 -12740137.563 6  21465815.635    21465813.256    21465814.557
        43.100          38.900
  -2159527.485 3  -1682739.492 3  24042859.486    24042859.745    24042857.823
        22.600          20.500
 -19659685.280 7 -15319225.943 7  20857145.161    20857143.348    20857144.758
        44.600          43.100
 -19544706.905 7 -15229630.834 6  20945214.897    20945210.947    20945213.688
        45.300          41.400
 -19716719.740 7 -15363662.953 6  20775765.782    20775765.246    20775764.796
        43.600          40.600
 -12072785.053 6  -9407345.620 5  22210033.772    22210033.248    22210032.847
        37.500          35.100
 06  6  7  1 31 30.0000000  0  8G27G19G16G25G13G23G 3G 7
  -5364866.464 4  -4180409.556 3  24131801.626    24131801.243    24131800.795
        25.600          19.300
  -9718874.812 5  -7573141.671 5  22755937.731    22755935.574    22755936.177
        33.400          30.200
 -16282640.368 7 -12687753.772 6  21478608.164    21478605.846    21478607.074
        43.100          38.600
  -2072653.182 3  -1615045.229 3  24059390.932    24059391.800    24059389.533
        23.400          21.100
 -19671460.997 7 -15328401.822 7  20854904.063    20854902.548    20854903.704
        44.500          43.100
 -19483527.844 7 -15181958.843 6  20956856.857    20956852.926    20956855.633
        45.300          41.100
 -19764682.493 7 -15401036.500 6  20766638.837    20766638.169    20766637.822
        44.000          40.800
 -12021859.636 6  -9367663.451 5  22219724.997    22219723.896    22219723.849
        37.100          34.600
 06  6  7  1 32  0.0000000  0  8G27G19G16G25G13G23G 3G 7
  -5450822.596 4  -4247388.307 3  24115445.177    24115443.883    24115444.313
        26.800          21.100
  -9819528.596 5  -7651573.140 5  22736784.739    22736781.720    22736782.614
        34.300          30.400
 -16215171.322 7 -12635180.481 6  21491447.134    21491444.682    21491446.000
        43.200          38.500
  -1985630.374 3  -1547235.274 2  24075951.327    24075951.259    24075949.422
        19.900          17.000
 -19682610.811 7 -15337089.974 7  20852782.234    20852780.866    20852781.974
        44.500          43.400
 -19421815.264 7 -15133871.121 6  20968600.456    20968596.441    20968599.160
        45.200          41.200
 -19812077.295 7 -15437967.492 6  20757619.917    20757619.312    20757618.906
        43.800          40.900
 -11970481.845 6  -9327628.785 5  22229501.476    22229500.846    22229500.432
        37.200          35.100
 06  6  7  1 32 30.0000000  0  8G27G19G16G25G13G23G 3G 7
  -5536756.601 4  -4314349.817 3  24099092.097    24099091.400    24099091.012
        25.900          22.100
  -9919929.457 5  -7729807.517 5  22717678.981    22717676.335    22717677.042
        34.500          31.500
 -16147460.552 7 -12582418.807 6  21504332.042    21504329.659    21504330.912
        42.900          38.600
  -1898459.598 3  -1479310.029 2  24092539.406    24092539.019    24092537.649
        23.000          17.800
 -19693133.898 7 -15345289.772 7  20850779.924    20850778.535    20850779.539
        44.500          43.600
 -19359570.737 7 -15085368.900 6  20980445.094    20980441.277    20980443.890
        45.000          41.200
 -19858902.561 7 -15474454.689 6  20748709.331    20748708.677    20748708.322
        44.000          40.900
 -11918653.232 6  -9287242.826 5  22239363.797    22239363.432    22239362.955
        37.100          34.900
 06  6  7  1 33  0.0000000  0  8G27G19G16G25G13G23G 3G 7
  -5622667.801 4  -4381293.527 4  24082743.487    24082743.047    24082742.432
        25.600          24.600
 -10020074.309 5  -7807842.406 5  22698621.997    22698619.424    22698620.015
        34.700          31.500
 -16079509.601 7 -12529470.003 6  21517262.835    21517260.303    21517261.650
        43.000          38.600
  -1811141.580 3  -1411270.011 2  24109155.369    24109155.108    24109153.983
        22.600          17.000
 -19703029.281 7 -15353000.452 7  20848896.856    20848895.314    20848896.518
        44.500          43.500
 -19296796.413 7 -15036453.852 6  20992390.467    20992386.637    20992389.271
        44.800          40.900
 -19905156.920 7 -15510497.026 6  20739907.228    20739906.813    20739906.254
        44.000          41.100
 -11866375.443 6  -9246506.874 5  22249312.375    22249311.410    22249311.278
        36.600          34.600
 06  6  7  1 33 30.0000000  0  8G27G19G16G25G13G23G 3G 7
  -5708555.249 4  -4448218.754 3  24066399.744    24066399.110    24066398.735
        24.900          23.400
 -10119960.540 5  -7885675.771 5  22679614.491    22679611.574    22679612.182
        35.100          32.600
 -16011320.182 7 -12476335.370 6  21530238.898    21530236.298    21530237.766
        43.100          38.500
  -1723677.056 3  -1343115.827 2  24125800.114    24125798.635    24125798.564
        22.100          13.900
 -19712296.461 7 -15360221.627 7  20847133.142    20847131.805    20847132.913
        44.600          43.500
 -19233494.316 7 -14987127.547 6  21004436.521    21004432.746    21004435.312
        44.700          41.000
 -19950838.671 7 -15546093.170 6  20731214.212    20731213.720    20731213.290
        44.000          41.000
 -11813650.600 6  -9205422.562 5  22259345.385    22259344.566    22259344.500
        37.100          34.400
 06  6  7  1 34  0.0000000  0  8G27G19G16G25G13G23G 3G 7
  -5794417.899 4  -4515124.632 4  24050060.002    24050060.086    24050059.533
        24.200          25.300
 -10219585.192 5  -7963305.308 5  22660656.221    22660653.794    22660654.260
        35.400          32.600
 -15942893.644 7 -12423015.975 6  21543260.085    21543257.498    21543258.791
        42.800          38.200
  -1636066.625 3  -1274847.994 2  24142470.157    24142470.563    24142469.218
        22.600          16.100
 -19720934.902 7 -15366952.877 7  20845489.396    20845487.818    20845489.104
        44.300          43.000
 -19169666.418 7 -14937391.532 6  21016582.476    21016578.702    21016581.332
        44.800          41.000
 -19995946.467 7 -15581242.073 6  20722630.674    20722630.030    20722629.616
        44.100          41.100
 -11760480.088 6  -9163990.966 5  22269463.451    22269462.666    22269462.609
        37.000          34.600
 06  6  7  1 34 30.0000000  0  8G27G19G16G25G13G23G 3G 7
  -5880255.028 4  -4582010.625 4  24033726.428    24033725.501    24033725.455
        25.900          24.600
 -10318946.053 5  -8040729.299 5  22641748.387    22641745.850    22641746.476
        35.400          32.400
 -15874231.603 7 -12369513.071 6  21556325.847    21556323.419    21556324.739
        42.800          38.400
  -1548310.918 3  -1206466.944 2  24159169.397    24159169.837    24159168.158
        22.100          17.800
 -19728944.140 7 -15373193.839 7  20843965.312    20843963.729    20843964.965
        44.400          43.200
 -19105314.572 7 -14887247.244 6  21028828.270    21028824.525    21028827.099
        44.700          40.700
 -20040478.770 7 -15615942.543 6  20714156.357    20714155.699    20714155.391
        44.300          41.000
 -11706866.184 6  -9122213.890 5  22279665.526    22279665.040    22279664.714
        37.200          34.900
 06  6  7  1 35  0.0000000  0  8G27G19G16G25G13G23G 3G 7
  -5966065.186 4  -4648875.609 4  24017397.004    24017396.622    24017395.932
        25.900          25.600
 -10418040.191 5  -8117945.459 5  22622891.492    22622888.778    22622889.232
        34.900          32.400
 -15805336.450 7 -12315828.517 6  21569435.984    21569433.705    21569434.859
        42.500          38.400
  -1460410.753 3  -1137973.356 2  24175896.631    24175896.726    24175895.570
        23.000          15.100
 -19736323.338 7 -15378943.858 7  20842561.021    20842559.419    20842560.692
        44.300          43.100
 -19040440.796 7 -14836696.253 6  21041173.688    21041169.459    21041172.306
        44.600          40.400
 -20084434.460 7 -15650193.705 6  20705791.914    20705791.242    20705790.858
        44.400          41.200
 -11652810.175 6  -9080092.312 5  22289952.240    22289951.407    22289951.287
        36.600          33.800
 06  6  7  1 35 30.0000000  0  8G27G19G16G25G13G23G 3G 7
  -6051847.261 4  -4715718.715 4  24001072.865    24001072.590    24001071.955
        25.900          24.600
 -10516864.971 5  -8194951.736 5  22604085.875    22604083.141    22604083.451
        34.700          33.100
 -15736209.178 7 -12261963.108 6  21582590.502    21582588.165    21582589.365
        42.500          38.200
  -1372366.776 3  -1069367.667 2  24192650.468    24192651.628    24192650.019
        22.100          16.100
 -19743071.743 7 -15384202.358 7  20841277.114    20841275.389    20841276.706
        44.600          43.100
 -18975047.396 7 -14785740.362 6  21053617.055    21053613.503    21053616.064
        44.300          40.600
 -20127812.145 7 -15683994.468 6  20697537.368    20697536.756    20697536.288
        44.300          41.100
 -11598314.422 6  -9037628.079 5  22300322.250    22300321.607    22300321.395
        36.800          34.300
 06  6  7  1 36  0.0000000  0  8G27G19G16G25G13G23G 3G 7
  -6137600.537 4  -4782539.364 4  23984754.158    23984754.310    23984753.358
        24.900          24.600
 -10615417.456 5  -8271745.815 5  22585332.053    22585329.075    22585329.549
        34.700          32.700
 -15666851.430 7 -12207918.100 6  21595788.986    21595786.524    21595787.797
        42.500          38.100
  -1284179.646 3  -1000650.461 2  24209430.719    24209433.044    24209430.869
        21.100          17.800
 -19749188.997 7 -15388969.046 7  20840112.692    20840111.329    20840112.454
        44.100          43.200
 -18909135.954 7 -14734380.816 6  21066159.967    21066156.086    21066158.642
        44.400          40.500
 -20170610.372 7 -15717343.705 6  20689392.940    20689392.558    20689391.976
        44.200          41.200
 -11543380.295 6  -8994822.290 5  22310776.150    22310775.311    22310775.145
        36.700          34.300
 06  6  7  1 36 30.0000000  0  8G27G19G16G25G13G23G 3G 7
  -6223323.868 4  -4849336.671 4  23968442.088    23968441.604    23968441.427
        25.600          24.200
 -10713695.036 5  -8348325.690 5  22566630.092    22566627.402    22566627.670
        34.900          33.100
 -15597264.738 7 -12153694.689 6  21609030.785    21609028.242    21609029.608
        42.500          38.000
  -1195850.013 3   -931822.221 3  24226240.520    24226241.362    24226240.109
        21.600          18.600
 -19754674.557 7 -15393243.502 7  20839068.814    20839067.474    20839068.513
        44.100          43.400
 -18842708.788 7 -14682619.388 6  21078800.802    21078796.611    21078799.441
        44.600          40.000
 -20212827.700 7 -15750240.301 6  20681359.439    20681358.662    20681358.384
        44.600          41.100
 -11488009.763 6  -8951676.408 5  22321312.883    22321311.931    22321311.906
        36.900          33.900
 06  6  7  1 37  0.0000000  0  8G27G19G16G25G13G23G 3G 7
  -6309016.286 4  -4916109.926 4  23952135.009    23952134.917    23952134.309
        26.500          24.200
 -10811695.189 5  -8424689.388 5  22547981.347    22547978.310    22547979.068
        35.100          32.100
 -15527450.943 7 -12099294.318 6  21622315.897    21622313.399    21622314.779
        42.500          37.700
  -1107378.749 3   -862883.593 2  24243076.203    24243076.527    24243075.603
        21.600          13.900
 -19759528.184 7 -15397025.554 7  20838145.614    20838143.869    20838145.210
        44.500          43.400
 -18775768.003 7 -14630457.741 6  21091538.928    21091535.094    21091537.806
        44.500          40.100
 -20254462.826 7 -15782683.230 6  20673436.447    20673435.718    20673435.462
        44.300          41.100
 -11432204.876 6  -8908192.072 5  22331932.514    22331931.198    22331931.406
        36.600          33.600
 06  6  7  1 37 30.0000000  0  8G27G19G16G25G13G23G 3G 7
  -6394677.154 4  -4982858.594 3  23935834.274    23935834.166    23935833.337
        25.900          23.800
 -10909415.071 5  -8500834.705 5  22529385.848    22529382.674    22529383.619
        35.800          32.600
 -15457411.628 7 -12044718.227 6  21635643.766    21635641.602    21635642.722
        42.200          37.900
  -1018766.438 3   -793835.051 2  24259938.572    24259939.637    24259937.305
        20.500          17.000
 -19763749.039 7 -15400314.535 7  20837342.167    20837340.797    20837341.857
        44.700          43.500
 -18708315.787 7 -14577897.581 6  21104374.376    21104370.861    21104373.390
        44.300          40.200
 -20295514.530 7 -15814671.535 6  20665624.727    20665623.897    20665623.608
        44.300          41.500
 -11375967.071 6  -8864370.400 5  22342633.812    22342633.111    22342632.850
        36.900          34.300
 06  6  7  1 38  0.0000000  0  8G27G19G16G25G13G23G 3G 7
  -6480304.963 4  -5049581.538 3  23919540.519    23919539.146    23919539.316
        27.400          22.100
 -11006851.951 6  -8576759.504 5  22510843.962    22510841.005    22510842.029
        36.000          32.100
 -15387148.383 7 -11989967.665 6  21649014.351    21649012.184    21649013.395
        42.300          37.800
   -930013.778 3   -724677.155 2  24276827.896    24276828.655    24276826.115
        21.100          13.900
 -19767336.861 7 -15403110.241 7  20836659.535    20836657.730    20836659.145
        44.400          43.200
 -18640354.241 7 -14524940.537 6  21117307.689    21117303.543    21117306.279
        44.600          39.900
 -20335981.444 7 -15846204.166 6  20657923.886    20657923.243    20657922.900
        44.200          41.300
 -11319298.639 6  -8820213.183 5  22353417.232    22353416.742    22353416.348
        36.500          34.000
 06  6  7  1 38 30.0000000  0  8G27G19G16G25G13G23G 3G 7
  -6565898.600 4  -5116277.818 3  23903251.980    23903250.583    23903251.115
        27.600          19.300
 -11104003.465 5  -8652461.931 5  22492356.745    22492353.690    22492354.629
        35.200          32.400
 -15316662.746 6 -11935043.782 6  21662427.461    21662425.087    21662426.364
        41.900          37.600
   -841121.539 3   -655410.539 2  24293743.658    24293744.480    24293742.223
        18.600          15.100
 -19770291.314 7 -15405412.420 7  20836097.303    20836095.642    20836096.985
        44.600          43.400
 -18571885.043 7 -14471587.916 6  21130336.482    21130332.752    21130335.346
        44.300          39.700
 -20375862.336 7 -15877280.158 6  20650334.791    20650334.203    20650333.745
        44.400          41.300
 -11262201.078 6  -8775721.574 5  22364282.749    22364281.812    22364281.631
        36.300          33.400
 06  6  7  1 39  0.0000000  0  8G27G19G16G25G13G23G 3G 7
  -6651457.231 4  -5182946.874 3  23886970.884    23886969.543    23886970.036
        28.600          21.100
 -11200866.647 6  -8727939.687 5  22473924.345    22473921.292    22473922.332
        36.800          32.700
 -15245956.358 6 -11879947.907 6  21675882.636    21675880.094    21675881.431
        41.700          37.600
   -752090.450 3   -586035.663 2  24310684.449    24310686.076    24310684.175
        21.600          12.600
 -19772611.874 7 -15407220.661 7  20835655.597    20835654.007    20835655.321
        44.500          43.400
 -18502910.762 7 -14417841.727 6  21143461.699    21143458.224    21143460.751
        44.600          39.900
 -20415156.065 7 -15907898.626 6  20642857.445    20642856.726    20642856.475
        44.400          41.500
 -11204676.592 6  -8730897.302 5  22375229.545    22375228.275    22375228.502
        36.600          32.700
 06  6  7  1 39 30.0000000  0  8G27G19G16G25G13G23G 3G 7
  -6736979.457 4  -5249587.591 3  23870696.673    23870695.206    23870695.728
        28.600          22.600
 -11297438.640 6  -8803190.551 5  22455547.392    22455544.203    22455545.271
        36.900          32.800
 -15175030.494 6 -11824681.010 6  21689379.391    21689376.999    21689378.203
        41.900          37.500
   -662921.182 3   -516553.165 3  24327652.839    24327655.020    24327652.643
        21.100          18.600
 -19774298.117 7 -15408534.625 7  20835334.902    20835333.233    20835334.612
        44.600          43.200
 -18433433.496 7 -14363703.605 6  21156683.518    21156679.237    21156682.098
        44.600          39.800
 -20453861.491 7 -15938058.664 6  20635491.914    20635491.362    20635490.894
        44.300          41.600
 -11146727.022 6  -8685741.805 5  22386256.821    22386255.814    22386255.764
        36.100          33.100
 06  6  7  1 40  0.0000000  0  8G27G19G16G25G13G23G 3G 7
  -6822464.462 4  -5316199.263 3  23854429.400    23854428.095    23854428.319
        27.100          20.500
 -11393717.294 6  -8878212.844 5  22437224.930    22437222.945    22437223.804
        37.100          33.000
 -15103887.061 7 -11769244.576 6  21702917.293    21702914.991    21702916.261
        42.000          36.900
   -573614.479 3   -446963.533 2  24344648.082    24344648.997    24344647.591
        19.900          13.900
 -19775349.766 7 -15409354.104 7  20835134.891    20835133.058    20835134.547
        44.700          43.500
 -18363455.471 7 -14309175.272 6  21169999.677    21169995.660    21169998.318
        44.100          39.800
 -20491977.444 7 -15967759.376 6  20628238.593    20628238.084    20628237.667
        44.600          41.600
 -11088353.978 5  -8640256.317 5  22397364.434    22397364.007    22397363.603
        35.800          34.000
 06  6  7  1 40 30.0000000  0  8G27G19G16G25G13G23G 3G 7
  -6907911.120 4  -5382781.062 4  23838169.328    23838168.964    23838168.418
        28.400          24.600
 -11489699.934 6  -8953004.465 5  22418959.959    22418958.136    22418958.774
        37.000          33.600
 -15032527.475 6 -11713639.728 6  21716496.640    21716494.274    21716495.504
        41.800          36.900
   -484171.148 3   -377267.468 2  24361669.216    24361669.669    24361667.960
        19.300          13.900
 -19775766.684 7 -15409678.989 7  20835055.407    20835053.796    20835055.125
        44.800          43.500
 -18292978.985 7 -14254258.536 6  21183410.652    21183406.797    21183409.669
        44.300          39.600
 -20529502.586 7 -15996999.713 6  20621097.795    20621097.377    20621096.891
        44.700          41.700
 -11029559.674 5  -8594442.575 5  22408552.897    22408552.201    22408551.793
        35.600          33.600
 06  6  7  1 41  0.0000000  0  8G27G19G16G25G13G23G 3G 7
  -6993318.204 4  -5449331.984 4  23821916.442    23821916.150    23821915.654
        26.800          24.600
 -11585383.699 6  -9027563.201 5  22400751.924    22400750.186    22400750.844
        36.900          33.800
 -14960953.292 6 -11657867.632 6  21730116.950    21730114.309    21730115.680
        41.400          37.200
   -394591.858 3   -307465.446 2  24378715.671    24378715.649    24378714.465
        21.100          17.000
 -19775548.466 7 -15409508.962 7  20835097.287    20835095.326    20835096.872
        44.700          43.600
 -18222005.978 7 -14198954.901 6  21196916.524    21196912.577    21196915.442
        44.100          39.500
 -20566435.824 7 -16025778.835 6  20614069.746    20614069.101    20614068.765
        44.600          41.800
 -10970346.072 6  -8548302.106 5  22419820.980    22419820.281    22419820.021
        36.100          34.000
 06  6  7  1 41 30.0000000  0  8G27G19G16G25G13G23G 3G 7
  -7078684.865 4  -5515851.461 4  23805672.720    23805671.603    23805671.535
        27.400          24.600
 -11680765.891 6  -9101886.929 5  22382601.407    22382599.739    22382600.041
        36.400          34.800
 -14889166.113 6 -11601929.576 6  21743777.809    21743775.085    21743776.537
        41.600          36.900
   -304877.340 3   -237558.059 2  24395787.597    24395788.249    24395786.250
        21.100          15.100
 -19774694.727 7 -15408843.735 7  20835259.484    20835257.716    20835259.178
        44.900          43.200
 -18150539.078 7 -14143266.416 6  21210516.353    21210512.166    21210515.001
        44.000          39.000
 -20602776.075 7 -16054095.885 6  20607154.262    20607153.787    20607153.391
        44.800          41.700
 -10910714.970 6  -8501836.322 5  22431168.206    22431167.716    22431167.411
        36.000          34.100
 06  6  7  1 42  0.0000000  0  8G27G19G16G25G13G23G 3G 7
  -7164010.002 4  -5582338.532 4  23789435.826    23789434.377    23789434.926
        27.600          24.900
 -11775843.867 6  -9175973.600 5  22364508.443    22364507.011    22364507.212
        36.500          35.300
 -14817167.815 6 -11545827.014 6  21757478.360    21757475.977    21757477.135
        41.600          36.700
   -215028.418 3   -167545.934 2  24412885.282    24412885.759    24412884.254
        21.600          12.600
 -19773205.315 7 -15407683.177 7  20835542.889    20835541.186    20835542.567
        44.600          43.400
 -18078580.426 7 -14087194.745 6  21224209.389    21224205.556    21224208.142
        43.900          39.100
 -20638522.382 7 -16081950.124 6  20600352.035    20600351.454    20600351.063
        44.800          41.900
 -10850668.244 6  -8455046.657 5  22442594.893    22442594.016    22442593.995
        36.100          33.200
 06  6  7  1 42 30.0000000  0  8G27G19G16G25G13G23G 3G 7
  -7249292.170 4  -5648792.105 4  23773206.669    23773205.870    23773205.728
        27.900          26.500
 -11870615.123 6  -9249821.277 5  22346474.671    22346472.336    22346472.940
        37.100          35.100
 -14744959.687 6 -11489560.968 6  21771219.146    21771216.864    21771217.880
        41.200          37.300
   -125045.857 3    -97429.682 2  24430009.746    24430009.211    24430007.864
        19.300          12.600
 -19771079.981 7 -15406027.094 7  20835947.406    20835945.714    20835947.064
        44.600          43.500
 -18006131.876 7 -14030741.337 6  21237995.636    21237991.966    21237994.801
        43.900          39.200
 -20673673.604 7 -16109340.655 6  20593663.023    20593662.369    20593662.037
        44.800          41.900
 -10790207.821 6  -8407934.613 5  22454100.243    22454099.094    22454099.198
        36.000          33.100
 06  6  7  1 43  0.0000000  0  8G27G19G16G25G13G23G 3G 7
  -7334530.501 4  -5715211.542 4  23756986.350    23756985.553    23756985.461
        29.000          27.600
 -11965076.868 6  -9323427.799 5  22328499.747    22328496.792    22328497.506
        37.700          34.300
 -14672542.786 6 -11433132.202 6  21784999.762    21784997.253    21784998.524
        41.500          37.000
    -34930.318 3    -27209.809    24447159.240    24447156.941    24447157.034
        19.900           3.000
 -19768318.526 7 -15403875.335 7  20836473.044    20836471.281    20836472.652
        44.800          43.600
 -17933196.207 7 -13973908.364 6  21251874.982    21251871.289    21251873.918
        43.800          39.200
 -20708228.833 7 -16136266.782 7  20587087.333    20587086.750    20587086.372
        45.000          42.300
 -10729335.797 5  -8360501.835 5  22465683.790    22465682.730    22465682.685
        35.500          33.400
 06  6  7  1 43 30.0000000  0  8G27G19G16G25G13G23G 3G 7
  -7419724.038 4  -5781596.106 4  23740774.415    23740773.927    23740773.634
        28.800          28.100
 -12059226.633 6  -9396791.217 5  22310583.500    22310580.521    22310581.139
        37.100          34.700
 -14599919.239 6 -11376542.402 6  21798819.629    21798816.912    21798818.424
        41.500          36.500
     55317.345 3     43113.031 2  24464332.516    24464330.615    24464330.537
        21.100          13.900
 -19764920.964 7 -15401227.903 7  20837119.477    20837117.819    20837119.143
        44.700          43.400
 -17859775.595 7 -13916697.514 6  21265846.771    21265842.799    21265845.481
        43.600          39.200
 -20742186.693 7 -16162727.429 7  20580625.452    20580624.782    20580624.457
        45.000          42.100
 -10668054.231 5  -8312749.921 5  22477345.049    22477344.526    22477344.028
        35.600          33.900
 06  6  7  1 44  0.0000000  0  8G27G19G16G25G13G23G 3G 7
  -7504871.407 4  -5847944.654 4  23724571.460    23724570.627    23724570.521
        28.100          27.600
 -12153061.625 6  -9469909.355 5  22292727.043    22292724.011    22292724.784
        37.200          34.100
 -14527090.540 6 -11319792.747 6  21812678.173    21812675.824    21812677.183
        41.500          36.500
    145696.377 2    113538.225 1  24481530.053    24481529.007    24481528.293
        17.800           9.000
 -19760887.035 7 -15398084.605 7  20837886.913    20837885.486    20837886.606
        44.300          43.600
 -17785872.195 7 -13859110.455 6  21279910.168    21279906.064    21279908.858
        43.900          39.000
 -20775546.327 7 -16188721.917 7  20574277.281    20574276.580    20574276.256
        45.000          42.100
 -10606364.774 6  -8264680.164 5  22489084.092    22489083.491    22489083.167
        36.100          32.800
 06  6  7  1 44 30.0000000  0  8G27G19G16G25G13G23G 3G 7
  -7589971.755 4  -5914256.565 4  23708377.476    23708376.379    23708376.306
        27.900          26.500
 -12246579.505 6  -9542780.391 5  22274930.689    22274928.223    22274928.831
        37.600          33.800
 -14454058.020 6 -11262884.278 6  21826575.446    21826573.426    21826574.526
        41.200          36.100
    236206.076 3    184065.247 1  24498753.049    24498752.607    24498751.236
        19.900          11.000
 -19756216.698 7 -15394445.401 7  20838775.980    20838774.174    20838775.597
        44.800          43.700
 -17711488.270 7 -13801148.964 6  21294064.861    21294060.921    21294063.532
        43.500          39.200
 -20808306.907 7 -16214249.618 7  20568043.072    20568042.387    20568042.072
        45.200          42.200
 -10544269.830 5  -8216294.473 5  22500900.084    22500899.746    22500899.391
        35.800          32.300
 06  6  7  1 45  0.0000000  0  8G27G19G16G25G13G23G 3G 7
  -7675023.506 4  -5980530.635 4  23692191.992    23692191.349    23692191.258
        28.400          25.900
 -12339777.557 6  -9615402.211 5  22257195.845    22257193.269    22257194.076
        38.000          34.700
 -14380823.352 6 -11205818.294 6  21840512.170    21840509.161    21840510.917
        41.000          36.000
    326845.638 3    254693.426 2  24516000.730    24516001.027    24515999.119
        19.300          12.600
 -19750910.093 7 -15390310.401 7  20839785.771    20839783.970    20839785.423
        44.800          43.600
 -17636626.427 7 -13742815.081 6  21308310.054    21308306.572    21308309.224
        43.600          38.700
 -20840467.459 7 -16239309.757 7  20561923.233    20561922.353    20561922.269
        45.300          42.400
 -10481771.007 5  -8167594.039 5  22512793.028    22512792.761    22512792.268
        35.300          32.400
 06  6  7  1 45 30.0000000  0  8G27G19G16G25G13G23G 3G 7
  -7760025.506 4  -6046765.916 4  23676016.226    23676015.979    23676015.379
        27.400          24.600
 -12432653.118 6  -9687772.740 5  22239521.867    22239519.635    22239520.328
        38.100          34.500
 -14307388.242 6 -11148596.099 5  21854486.285    21854483.583    21854485.199
        41.300          35.700
    417614.200 3    325422.147 1  24533272.606    24533274.043    24533271.959
        21.100          11.000
 -19744966.784 7 -15385679.269 7  20840916.573    20840914.883    20840916.271
        44.600          43.400
 -17561289.113 7 -13684110.702 6  21322646.175    21322642.829    21322645.465
        43.500          38.400
 -20872026.874 7 -16263901.481 7  20555917.512    20555916.740    20555916.625
        45.200          42.300
 -10418870.481 5  -8118580.627 5  22524762.728    22524762.160    22524761.801
        34.700          31.800
 06  6  7  1 46  0.0000000  0  8G27G19G16G25G13G23G 3G 7
  -7844976.523 4  -6112961.475 4  23659851.140    23659850.691    23659850.136
        28.400          25.900
 -12525203.615 6  -9759889.972 5  22221910.177    22221907.908    22221908.555
        38.100          34.900
 -14233753.779 6 -11091218.563 5  21868498.068    21868495.756    21868497.246
        41.000          35.500
    508511.045 3    396250.783 2  24550570.593    24550571.443    24550569.242
        19.300          16.100
 -19738386.923 7 -15380552.117 7  20842168.635    20842167.164    20842168.335
        44.600          43.600
 -17485478.423 7 -13625037.452 6  21337072.700    21337069.186    21337071.823
        43.500          38.600
 -20902984.409 7 -16288024.203 7  20550026.534    20550025.811    20550025.586
        45.500          42.200
 -10355570.280 5  -8069255.752 5  22536808.834    22536807.576    22536807.801
        35.700          31.300
 06  6  7  1 46 30.0000000  0  8G27G19G16G25G13G23G 3G 7
  -7929875.812 4  -6179116.734 4  23643695.129    23643694.570    23643694.288
        29.000          25.600
 -12617426.499 6  -9831751.922 5  22204361.014    22204358.516    22204359.170
        38.400          35.900
 -14159921.590 6 -11033686.962 6  21882548.016    21882545.495    21882546.800
        40.500          36.000
    599535.371 3    467178.766 2  24567891.363    24567892.069    24567890.750
        18.600          13.900
 -19731170.509 7 -15374928.946 7  20843542.064    20843540.472    20843541.685
        44.700          43.800
 -17409196.722 7 -13565597.188 6  21351588.912    21351585.226    21351587.748
        43.300          38.900
 -20933339.207 7 -16311677.258 7  20544250.204    20544249.465    20544249.156
        45.400          42.500
 -10291872.523 5  -8019621.099 5  22548930.336    22548928.867    22548929.321
        35.800          31.600
 06  6  7  1 47  0.0000000  0  8G27G19G16G25G13G23G 3G 7
  -8014722.110 4  -6245230.729 4  23627549.586    23627548.810    23627548.805
        29.700          25.300
 -12709319.177 6  -9903356.574 5  22186874.850    22186871.843    22186872.680
        38.100          35.400
 -14085893.308 6 -10976002.579 5  21896635.291    21896632.727    21896634.013
        40.700          35.900
    690686.406 3    538205.482 2  24585236.803    24585237.837    24585235.995
        20.500          13.900
 -19723317.506 7 -15368809.733 7  20845036.391    20845034.819    20845036.062
        44.600          43.700
 -17332446.646 7 -13505791.949 6  21366194.071    21366190.207    21366192.731
        43.100          38.500
 -20963090.660 7 -16334860.177 7  20538588.530    20538587.771    20538587.565
        45.300          42.000
 -10227779.029 5  -7969678.088 5  22561126.686    22561125.527    22561125.642
        35.400          32.100
 06  6  7  1 47 30.0000000  0  8G27G19G16G25G13G23G 3G 7
  -8099514.434 4  -6311302.627 4  23611414.340    23611413.377    23611413.517
        29.900          26.800
 -12800878.990 6  -9974701.846 5  22169451.509    22169448.449    22169449.534
        38.500          35.100
 -14011670.430 6 -10918166.557 5  21910759.137    21910756.791    21910758.047
        40.500          35.900
    781963.333 3    609330.287 1  24602605.541    24602607.296    24602605.700
        18.600          11.000
 -19714828.077 7 -15362194.598 7  20846651.654    20846650.337    20846651.350
        44.400          43.600
 -17255230.443 7 -13445623.498 6  21380888.046    21380884.066    21380886.621
        42.900          38.400
 -20992237.866 7 -16357572.253 7  20533042.084    20533041.154    20533041.130
        45.500          42.400
 -10163291.843 5  -7919428.304 5  22573397.734    22573397.139    22573396.859
        34.800          31.800
 06  6  7  1 48  0.0000000  0  8G27G19G16G25G13G23G 3G 7
  -8184251.115 4  -6377331.165 4  23595289.658    23595288.250    23595288.591
        28.600          26.800
 -12892103.817 6 -10045786.091 5  22152091.252    22152088.853    22152089.765
        38.300          35.500
 -13937254.429 6 -10860180.050 5  21924920.305    21924917.780    21924918.937
        40.600          35.800
    873365.397 2    680552.636    24619998.448    24620000.325    24619999.151
        17.800           3.000
 -19705702.230 7 -15355083.555 7  20848388.312    20848387.060    20848387.945
        44.500          43.800
 -17177550.356 7 -13385093.578 6  21395669.799    21395666.088    21395668.528
        43.100          38.400
 -21020779.828 7 -16379812.709 7  20527610.842    20527609.751    20527609.762
        45.600          42.300
 -10098413.119 5  -7868873.437 5  22585743.724    22585743.000    22585742.834
        34.800          32.000
 06  6  7  1 48 30.0000000  0  8G27G19G16G25G13G23G 3G 7
  -8268930.915 5  -6443315.395 4  23579175.669    23579174.251    23579174.527
        30.100          27.600
 -12982990.597 6 -10116606.916 5  22134795.563    22134793.553    22134794.297
        38.600          35.400
 -13862646.808 6 -10802044.210 5  21939117.381    21939114.891    21939116.343
        40.500          35.400
    964891.682 2    751871.746 1  24637415.445    24637417.835    24637415.618
        17.800           9.000
 -19695940.282 7 -15347476.844 7  20850246.110    20850244.552    20850245.743
        44.600          43.600
 -17099409.240 7 -13324204.416 6  21410539.287    21410535.828    21410538.224
        42.700          38.400
 -21048715.734 7 -16401580.915 7  20522294.619    20522293.739    20522293.651
        45.600          42.300
 -10033144.824 5  -7818015.024 5  22598164.103    22598163.251    22598162.898
        34.600          32.000
 06  6  7  1 49  0.0000000  0  8G27G19G16G25G13G23G 3G 7
  -8353553.093 4  -6509254.696 4  23563072.002    23563071.415    23563071.265
        29.900          27.400
 -13073536.933 6 -10187162.463 5  22117565.540    22117563.162    22117563.980
        38.600          35.400
 -13787848.931 6 -10743760.149 5  21953351.274    21953348.651    21953350.107
        40.500          35.300
   1056541.475 2    823287.093 1  24654855.426    24654857.945    24654856.161
        16.100           9.000
 -19685542.211 7 -15339374.450 7  20852224.871    20852223.251    20852224.567
        44.700          43.600
 -17020809.428 7 -13262957.832 6  21425496.122    21425492.874    21425495.264
        42.500          37.800
 -21076045.029 7 -16422876.436 7  20517094.038    20517093.138    20517093.026
        45.600          42.600
  -9967489.167 5  -7766854.739 5  22610658.195    22610656.943    22610657.094
        34.800          32.100
 06  6  7  1 49 30.0000000  0  8G27G19G16G25G13G23G 3G 7
  -8438116.197 5  -6575148.004 4  23546981.189    23546978.982    23546979.982
        30.200          26.800
 -13163740.450 6 -10257450.881 6  22100400.787    22100398.193    22100398.966
        38.700          36.300
 -13712862.277 6 -10685328.985 5  21967620.780    21967618.116    21967619.676
        40.000          35.200
   1148313.932 2    894798.023    24672319.160    24672321.606    24672319.973
        16.100           3.000
 -19674508.232 7 -15330776.541 7  20854324.452    20854322.899    20854324.097
        44.500          43.700
 -16941753.279 7 -13201355.650 6  21440540.098    21440536.607    21440539.280
        42.500          37.500
 -21102766.943 7 -16443698.676 7  20512008.994    20512008.078    20512007.992
        45.600          42.500
  -9901448.055 5  -7715394.157 5  22623225.430    22623224.069    22623224.482
        35.200          31.500
 06  6  7  1 50  0.0000000  0  8G27G19G16G25G13G23G 3G 7
  -8522619.249 4  -6640994.527 4  23530899.689    23530898.927    23530898.923
        29.700          28.100
 -13253598.451 6 -10327470.065 6  22083301.399    22083298.770    22083299.621
        39.500          36.500
 -13637688.356 6 -10626751.886 5  21981926.011    21981923.175    21981924.713
        40.300          35.100
   1240208.204 3    966403.876 1  24689806.372    24689808.753    24689806.956
        21.100           6.500
 -19662838.606 7 -15321683.325 7  20856545.036    20856543.623    20856544.684
        44.400          43.500
 -16862243.421 7 -13139399.937 6  21455670.270    21455667.097    21455669.400
        42.300          37.900
 -21128881.068 7 -16464047.309 7  20507039.650    20507038.784    20507038.682
        45.800          42.700
  -9835023.483 5  -7663634.724 5  22635865.491    22635864.411    22635864.416
        34.600          32.000
 06  6  7  1 50 30.0000000  0  7G27G19G16G13G23G 3G 7
  -8607060.662 4  -6706792.986 4  23514830.926    23514830.405    23514829.998
        29.500          28.400
 -13343108.202 6 -10397217.882 6  22066268.132    22066265.495    22066266.494
        39.600          36.300
 -13562328.764 6 -10568030.120 5  21996266.113    21996263.320    21996265.045
        40.200          34.700
 -19650533.329 7 -15312094.795 7  20858886.590    20858885.188    20858886.211
        44.100          43.400
 -16782282.369 7 -13077092.643 6  21470886.246    21470883.327    21470885.644
        42.600          38.100
 -21154386.469 7 -16483921.620 7  20502186.119    20502185.211    20502185.150
        45.600          42.600
  -9768217.772 5  -7611578.341 5  22648578.087    22648577.174    22648577.097
        33.900          32.000
 06  6  7  1 51  0.0000000  0  8G27G19G15G16G13G23G 3G 7
  -8691439.199 4  -6772542.430 4  23498774.205    23498773.615    23498773.481
        29.700          27.900
 -13432267.634 6 -10466692.725 6  22049302.038    22049299.067    22049300.109
        39.800          36.500
    -73094.610 3    -56957.047 1  24623778.561    24623777.843    24623777.258
        21.100           6.500
 -13486784.982 6 -10509164.845 5  22010641.479    22010638.804    22010640.496
        40.000          34.700
 -19637592.812 7 -15302011.270 7  20861349.112    20861347.619    20861348.765
        44.200          43.500
 -16701872.473 7 -13014435.604 6  21486188.147    21486184.820    21486187.206
        42.700          37.600
 -21179282.466 7 -16503321.065 7  20497448.600    20497447.641    20497447.631
        45.900          42.800
  -9701032.801 5  -7559226.413 5  22661363.361    22661361.940    22661362.185
        34.400          31.100
 06  6  7  1 51 30.0000000  0  8G27G19G15G16G13G23G 3G 7
  -8775753.542 5  -6838241.829 4  23482730.339    23482729.238    23482729.429
        30.400          27.600
 -13521074.285 6 -10535892.678 6  22032402.880    22032399.513    22032400.618
        39.500          36.200
   -127467.393 3    -99325.369 1  24613432.014    24613430.707    24613430.601
        19.900           6.500
 -13411058.234 6 -10450156.994 5  22025051.576    22025049.312    22025050.677
        39.800          34.000
 -19624017.315 7 -15291432.957 7  20863932.634    20863930.883    20863932.334
        44.700          43.400
 -16621016.292 7 -12951430.801 6  21501574.837    21501571.210    21501573.700
        42.700          37.600
 -21203568.366 7 -16522245.111 7  20492827.100    20492826.106    20492826.098
        45.600          42.800
  -9633470.600 5  -7506580.530 5  22674219.708    22674218.750    22674218.625
        34.300          31.300
 06  6  7  1 52  0.0000000  0  8G27G19G15G16G13G23G 3G 7
  -8860002.482 5  -6903890.308 4  23466698.461    23466696.884    23466697.341
        31.300          29.000
 -13609525.436 6 -10604815.610 6  22015570.940    22015567.776    22015568.914
        40.000          36.500
   -181453.638 3   -141392.491 1  24603158.100    24603157.643    24603157.242
        20.500           6.500
 -13335149.955 6 -10391007.674 5  22039497.118    22039494.145    22039495.863
        39.900          34.300
 -19609807.154 7 -15280360.101 7  20866636.566    20866635.156    20866636.254
        44.500          43.700
 -16539716.378 7 -12888080.234 6  21517045.315    21517042.040    21517044.568
        42.400          37.500
 -21227243.588 7 -16540693.303 7  20488321.690    20488320.883    20488320.812
        45.900          42.700
  -9565533.378 5  -7453642.393 5  22687147.692    22687146.686    22687146.683
        33.900          30.800
 06  6  7  1 52 30.0000000  0  8G27G19G15G16G13G23G 3G 7
  -8944185.004 5  -6969487.027 4  23450677.732    23450677.410    23450677.213
        30.400          28.100
 -13697618.546 6 -10673459.550 6  21998806.474    21998804.202    21998805.090
        40.000          36.500
   -235050.835 3   -183156.446 2  24592958.395    24592957.664    24592957.236
        19.900          15.100
 -13259061.693 6 -10331718.087 5  22053975.670    22053973.417    22053974.736
        39.800          34.500
 -19594962.639 7 -15268792.947 7  20869461.338    20869459.968    20869461.006
        44.500          43.600
 -16457975.431 7 -12824386.009 6  21532600.363    21532596.868    21532599.395
        42.300          37.400
 -21250307.702 7 -16558665.304 7  20483932.883    20483931.836    20483931.776
        45.800          42.700
  -9497223.248 5  -7400413.693 5  22700146.449    22700145.712    22700145.495
        34.100          31.500
 06  6  7  1 53  0.0000000  0  8G27G19G15G16G13G23G 3G 7
  -9028300.051 5  -7035031.201 4  23434671.641    23434671.113    23434670.677
        30.100          29.000
 -13785350.946 6 -10741822.423 6  21982111.637    21982109.181    21982110.013
        40.000          36.600
   -288256.293 2   -224615.140 1  24582833.375    24582833.140    24582832.362
        16.100          11.000
 -13182795.026 6 -10272289.468 5  22068488.598    22068486.464    22068487.528
        39.500          34.100
 -19579484.146 7 -15256731.776 7  20872406.992    20872405.364    20872406.649
        44.500          43.400
 -16375795.756 7 -12760349.915 6  21548238.621    21548235.133    21548237.696
        42.300          37.400
 -21272759.952 7 -16576160.529 7  20479660.199    20479659.315    20479659.246
        45.600          42.800
  -9428542.247 5  -7346895.981 5  22713215.784    22713215.173    22713214.895
        34.300          31.500
 06  6  7  1 53 30.0000000  0  8G27G19G15G16G13G23G 3G 7
  -9112345.607 4  -7100521.203 4  23418678.350    23418677.765    23418677.447
        29.900          28.800
 -13872720.538 6 -10809902.590 6  21965486.337    21965483.224    21965484.193
        40.000          36.800
   -341067.564 3   -265766.667 1  24572784.717    24572783.447    24572783.367
        19.900          11.000
 -13106351.272 6 -10212722.902 5  22083035.417    22083033.090    22083034.398
        39.400          34.100
 -19563372.178 7 -15244176.995 7  20875472.774    20875471.328    20875472.464
        44.400          43.400
 -16293180.070 7 -12695974.064 6  21563959.793    21563956.306    21563958.830
        42.300          37.600
 -21294599.996 7 -16593178.708 7  20475504.202    20475503.330    20475503.172
        45.900          43.000
  -9359492.523 5  -7293090.948 5  22726355.629    22726354.799    22726354.647
        33.800          31.300
 06  6  7  1 54  0.0000000  0  8G27G19G15G16G13G23G 3G 7
  -9196320.820 5  -7165956.442 4  23402698.752    23402697.543    23402697.810
        30.400          28.600
 -13959724.694 6 -10877697.998 6  21948929.740    21948926.987    21948927.864
        39.900          36.700
   -393482.183 2   -306609.097 1  24562808.655    24562809.269    24562807.774
        17.800          11.000
 -13029731.753 6 -10153019.361 5  22097616.068    22097613.071    22097614.857
        39.400          34.100
 -19546627.050 7 -15231128.838 7  20878659.495    20878657.894    20878659.086
        44.400          43.400
 -16210130.942 7 -12631260.476 6  21579763.844    21579760.239    21579762.796
        42.600          37.900
 -21315827.337 7 -16609719.455 7  20471464.653    20471463.792    20471463.732
        45.800          42.800
  -9290076.180 5  -7239000.245 5  22739565.205    22739564.245    22739564.027
        33.100          31.000
 06  6  7  1 54 30.0000000  0  8G27G19G15G16G13G23G 3G 7
  -9280224.169 5  -7231335.621 4  23386732.427    23386731.237    23386731.220
        30.400          28.800
 -14046361.016 6 -10945206.788 6  21932443.216    21932440.342    21932441.527
        40.500          36.200
   -445497.673 2   -347140.516 2  24552910.033    24552911.258    24552909.201
        17.000          17.000
 -12952937.938 6 -10093180.018 5  22112229.177    22112226.483    22112228.192
        39.400          33.800
 -19529248.991 7 -15217587.487 7  20881966.285    20881964.707    20881965.974
        44.500          43.400
 -16126650.889 6 -12566211.096 6  21595649.407    21595645.947    21595648.244
        41.800          37.700
 -21336441.421 7 -16625782.343 7  20467541.907    20467540.924    20467541.000
        45.800          42.800
  -9220295.373 5  -7184625.586 5  22752844.172    22752842.874    22752843.072
        33.200          30.800
 06  6  7  1 55  0.0000000  0  8G27G19G15G16G13G23G 3G 7
  -9364054.709 5  -7296658.094 4  23370779.419    23370778.797    23370778.663
        31.300          28.800
 -14132627.343 6 -11012427.260 6  21916027.335    21916024.534    21916025.631
        40.600          36.800
   -497111.604 2   -387359.016 2  24543089.108    24543089.093    24543087.617
        15.100          15.100
 -12875971.342 6 -10033206.037 5  22126875.495    22126872.697    22126874.298
        39.100          33.900
 -19511238.586 7 -15203553.401 7  20885393.477    20885392.088    20885393.192
        44.500          43.300
 -16042742.694 7 -12500828.099 6  21611616.478    21611613.163    21611615.502
        42.000          37.600
 -21356441.955 7 -16641367.136 7  20463735.788    20463734.965    20463734.922
        45.900          42.900
  -9150152.184 5  -7129968.508 5  22766191.892    22766190.712    22766190.965
        34.300          31.100
 06  6  7  1 55 30.0000000  0  8G27G19G15G16G13G23G 3G 7
  -9447811.308 5  -7361922.939 4  23354841.324    23354840.367    23354840.630
        31.500          28.600
 -14218520.752 6 -11079357.146 6  21899682.631    21899679.593    21899680.573
        40.500          37.200
   -548321.615 2   -427262.807 2  24533344.961    24533344.180    24533343.690
        17.000          15.100
 -12798833.359 6  -9973098.468 5  22141554.221    22141551.856    22141553.090
        38.600          33.600
 -19492596.571 7 -15189027.147 7  20888940.969    20888939.672    20888940.684
        44.400          43.500
 -15958408.906 6 -12435113.465 6  21627664.457    21627661.107    21627663.595
        41.800          36.900
 -21375828.484 7 -16656473.482 7  20460046.653    20460045.863    20460045.761
        45.800          43.100
  -9079648.956 5  -7075030.895 5  22779608.405    22779606.966    22779607.358
        33.600          30.400
 06  6  7  1 56  0.0000000  0  8G27G19G15G16G13G23G 3G 7
  -9531492.130 5  -7427128.724 4  23338918.153    23338916.721    23338916.827
        30.800          29.700
 -14304039.083 6 -11145994.765 6  21883408.902    21883405.950    21883406.971
        40.400          37.200
   -599125.301 3   -466850.018 1  24523676.700    24523676.088    24523676.092
        19.900           6.500
 -12721525.315 6  -9912858.406 5  22156265.656    22156262.894    22156264.376
        38.800          34.000
 -19473323.390 7 -15174009.081 7  20892608.473    20892607.124    20892608.199
        44.400          43.400
 -15873652.120 6 -12369069.228 6  21643793.262    21643789.697    21643792.269
        41.200          36.500
 -21394600.520 7 -16671101.004 7  20456474.587    20456473.548    20456473.532
        45.900          43.000
  -9008787.434 5  -7019814.122 5  22793092.843    22793091.859    22793091.816
        34.000          31.000
 06  6  7  1 56 30.0000000  0  8G27G19G15G16G13G23G 3G 7
  -9615096.019 5  -7492274.580 4  23323008.658    23323007.085    23323007.498
        31.300          28.600
 -14389179.748 6 -11212338.091 6  21867206.820    21867204.079    21867205.250
        40.600          37.600
   -649520.012 3   -506118.598 1  24514087.308    24514086.111    24514086.464
        20.500          11.000
 -12644048.628 6  -9852486.966 5  22171008.882    22171006.199    22171007.790
        39.100          33.600
 -19453419.510 7 -15158499.564 7  20896396.204    20896394.627    20896395.836
        44.400          43.200
 -15788474.937 6 -12302697.406 6  21660002.030    21659998.487    21660000.977
        41.100          36.900
 -21412757.776 7 -16685249.472 7  20453019.315    20453018.394    20453018.346
        45.800          43.200
  -8937570.076 5  -6964320.043 4  22806644.661    22806643.556    22806643.828
        33.500          29.700
 06  6  7  1 57  0.0000000  0  8G27G19G15G16G13G23G 3G 7
  -9698621.846 5  -7557359.579 4  23307113.694    23307112.750    23307112.927
        32.700          29.200
 -14473940.560 6 -11278385.433 6  21851077.303    21851074.672    21851075.619
        40.800          37.500
   -699503.638 3   -545066.850 1  24504575.560    24504574.923    24504574.713
        19.900          11.000
 -12566404.580 6  -9791985.087 5  22185784.310    22185781.497    22185783.086
        38.600          34.000
 -19432885.508 7 -15142499.034 7  20900303.730    20900302.181    20900303.405
        44.600          43.200
 -15702880.237 6 -12236000.251 6  21676290.339    21676286.514    21676289.274
        41.400          36.200
 -21430299.900 7 -16698918.616 7  20449681.304    20449680.186    20449680.238
        46.000          43.200
  -8865998.860 5  -6908550.234 5  22820264.389    22820263.445    22820263.357
        33.000          30.100
 06  6  7  1 57 30.0000000  0  8G27G19G15G16G13G23G 3G 7
  -9782067.903 5  -7622382.435 4  23291234.511    23291233.339    23291233.518
        32.100          28.400
 -14558318.970 6 -11344134.801 6  21835020.673    21835017.821    21835019.015
        41.100          37.200
   -749073.654 3   -583692.810 1  24495142.945    24495141.537    24495141.790
        20.500          11.000
 -12488594.582 6  -9731353.895 5  22200590.422    22200588.111    22200589.497
        38.500          33.800
 -19411722.020 7 -15126008.003 7  20904330.835    20904329.443    20904330.569
        44.700          43.100
 -15616870.298 6 -12168979.521 5  21692657.278    21692653.691    21692656.354
        41.400          35.900
 -21447226.397 7 -16712108.050 7  20446460.244    20446458.988    20446459.216
        46.100          43.100
  -8794076.185 5  -6852506.602 5  22833951.176    22833949.860    22833950.068
        33.500          30.400
 06  6  7  1 58  0.0000000  0  8G27G19G15G16G13G23G 3G 7
  -9865433.097 5  -7687342.275 4  23275370.243    23275369.358    23275369.444
        32.000          29.200
 -14642312.528 6 -11409584.286 6  21819036.967    21819034.406    21819035.456
        41.200          37.500
   -798227.673 3   -621994.633    24485788.973    24485788.112    24485787.800
        19.900           3.000
 -12410620.138 6  -9670594.579 5  22215428.495    22215426.208    22215427.415
        38.400          33.100
 -19389929.449 7 -15109026.773 7  20908478.192    20908476.319    20908477.802
        44.800          43.000
 -15530448.218 6 -12101637.644 6  21709102.849    21709099.459    21709101.848
        40.600          36.200
 -21463537.101 7 -16724817.650 7  20443356.318    20443355.108    20443355.331
        46.100          42.900
  -8721803.899 5  -6796190.533 5  22847704.201    22847702.735    22847703.157
        33.800          30.600
 06  6  7  1 58 30.0000000  0  8G27G19G15G16G13G23G 3G 7
  -9948716.219 5  -7752238.201 5  23259522.410    23259521.386    23259521.446
        32.100          30.100
 -14725919.039 6 -11474732.175 6  21803127.560    21803124.514    21803125.704
        41.100          37.300
   -846963.328 3   -659970.481    24476515.097    24476513.798    24476513.605
        21.600           3.000
 -12332482.687 6  -9609708.249 5  22230298.060    22230295.287    22230296.842
        38.700          33.800
 -19367508.740 7 -15091556.081 7  20912744.577    20912742.683    20912744.196
        44.700          42.800
 -15443616.538 6 -12033976.608 5  21725626.660    21725622.911    21725625.457
        41.000          35.900
 -21479231.829 7 -16737047.262 7  20440369.702    20440368.567    20440368.730
        46.100          43.000
  -8649184.252 5  -6739603.783 5  22861523.073    22861521.607    22861522.025
        33.100          30.100
 06  6  7  1 59  0.0000000  0  8G27G19G15G16G13G23G 3G 7
 -10031915.602 5  -7817068.859 5  23243689.941    23243688.817    23243688.901
        32.000          30.100
 -14809136.339 6 -11539576.784 6  21787291.659    21787288.849    21787289.856
        41.300          37.700
   -895278.330 3   -697618.506 1  24467319.833    24467319.739    24467319.468
        19.300           6.500
 -12254183.406 6  -9548695.827 5  22245197.579    22245195.138    22245196.590
        38.300          33.100
 -19344460.531 7 -15073596.431 7  20917130.443    20917128.773    20917130.076
        44.700          42.900
 -15356378.006 6 -11965998.532 6  21742227.872    21742224.038    21742226.488
        41.500          36.100
 -21494310.171 7 -16748796.576 7  20437500.112    20437499.208    20437499.203
        46.100          43.100
  -8576219.399 5  -6682748.037 5  22875407.943    22875406.496    22875406.764
        32.800          30.100
 06  6  7  1 59 30.0000000  0  8G27G19G15G16G13G23G 3G 7
 -10115029.879 5  -7881833.174 4  23227873.587    23227872.716    23227872.700
        32.400          29.200
 -14891961.780 6 -11604116.048 6  21771530.334    21771527.583    21771528.685
        41.800          38.100
   -943170.213 3   -734936.800 1  24458207.303    24458206.438    24458206.564
        19.900           9.000
 -12175723.728 6  -9487558.410 5  22260127.474    22260125.453    22260126.750
        38.300          32.600
 -19320785.378 7 -15055148.255 7  20921635.465    20921634.137    20921635.170
        44.600          43.100
 -15268735.160 6 -11897705.411 6  21758905.353    21758901.830    21758904.226
        41.200          36.400
 -21508772.207 7 -16760065.647 7  20434748.200    20434747.138    20434747.209
        46.200          43.300
  -8502911.687 5  -6625625.168 5  22889357.832    22889356.698    22889356.893
        33.000          30.200
 06  6  7  2  0  0.0000000  0  8G27G19G15G16G13G23G 3G 7
 -10198057.601 5  -7946530.083 4  23212074.452    23212073.001    23212073.335
        33.200          29.700
 -14974393.081 6 -11668348.184 6  21755844.203    21755841.400    21755842.530
        41.500          37.700
   -990636.661 3   -771923.559 1  24449174.060    24449173.820    24449173.255
        19.900          11.000
 -12097105.070 6  -9426297.120 5  22275088.461    22275086.165    22275087.496
        38.300          33.200
 -19296484.237 7 -15036212.298 7  20926259.789    20926258.366    20926259.544
        44.500          42.900
 -15180690.760 6 -11829099.396 6  21775659.998    21775656.017    21775658.675
        41.000          36.100
 -21522617.701 7 -16770854.299 7  20432113.469    20432112.433    20432112.493
        46.100          43.200
  -8429263.103 5  -6568236.668 4  22903372.775    22903371.137    22903371.750
        32.400          29.000
 06  6  7  2  0 30.0000000  0  8G27G19G15G16G13G23G 3G 7
 -10280997.644 5  -8011158.651 5  23196290.820    23196290.042    23196289.973
        33.100          30.600
 -15056427.649 6 -11732271.190 6  21740233.922    21740230.707    21740231.903
        41.800          38.000
  -1037675.351 2   -808577.022 2  24440224.288    24440222.377    24440222.754
        17.000          12.600
 -12018328.428 6  -9364912.721 5  22290079.673    22290076.571    22290078.515
        38.100          33.100
 -19271557.142 7 -15016788.585 7  20931003.606    20931001.814    20931003.237
        44.700          42.900
 -15092247.641 6 -11760182.682 5  21792489.861    21792486.153    21792488.748
        40.600          35.700
 -21535846.274 7 -16781162.233 7  20429596.211    20429595.067    20429595.267
        46.000          43.200
  -8355275.762 5  -6510584.188 4  22917452.047    22917450.308    22917451.052
        32.100          28.800
 06  6  7  2  1  0.0000000  0  8G27G19G15G16G13G23G 3G 7
 -10363848.524 5  -8075717.763 5  23180525.361    23180524.182    23180524.244
        32.000          31.800
 -15138063.608 6 -11795883.582 6  21724698.528    21724695.968    21724696.907
        41.300          38.300
  -1084284.130 2   -844895.427 2  24431354.244    24431353.255    24431352.817
        16.100          16.100
 -11939395.488 6  -9303406.540 5  22305099.742    22305097.163    22305098.707
        38.100          32.100
 -19246005.845 7 -14996878.475 7  20935865.861    20935864.111    20935865.465
        44.600          42.900
 -15003408.470 6 -11690957.362 5  21809395.106    21809391.747    21809394.092
        40.200          35.800
 -21548457.765 7 -16790989.328 7  20427196.153    20427195.077    20427195.205
        46.300          43.300
  -8280952.098 5  -6452669.631 4  22931595.123    22931593.718    22931594.190
        32.700          29.900
 06  6  7  2  1 30.0000000  0  8G27G19G15G16G13G23G 3G 7
 -10446609.105 5  -8140206.504 5  23164776.692    23164775.103    23164775.506
        32.600          30.800
 -15219298.318 6 -11859183.312 6  21709240.451    21709237.497    21709238.380
        41.400          38.100
  -1130460.624 2   -880877.023 1  24422567.165    24422565.730    24422565.859
        17.000          11.000
 -11860307.405 6  -9241779.460 5  22320149.645    22320147.182    22320148.624
        37.600          32.700
 -19219830.863 7 -14976482.376 7  20940846.453    20940845.063    20940846.224
        44.400          42.900
 -14914175.934 6 -11621425.519 5  21826375.789    21826372.157    21826374.728
        40.500          35.500
 -21560452.294 7 -16800335.663 7  20424913.612    20424912.571    20424912.676
        46.400          43.400
  -8206293.909 5  -6394494.398 4  22945801.956    22945800.979    22945800.924
        31.600          29.500
 06  6  7  2  2  0.0000000  0  8G27G19G15G16G13G23G 3G 7
 -10529277.746 5  -8204623.557 5  23149044.496    23149043.507    23149043.775
        32.600          30.800
 -15300129.615 7 -11922168.700 6  21693858.949    21693855.839    21693856.961
        42.000          38.400
  -1176202.549 2   -916519.985 2  24413862.009    24413861.432    24413861.189
        17.800          16.100
 -11781065.963 6  -9180032.852 5  22335229.165    22335226.256    22335227.866
        37.900          32.700
 -19193032.973 7 -14955600.897 7  20945946.185    20945944.513    20945945.743
        44.400          42.900
 -14824552.767 6 -11551589.300 5  21843431.028    21843426.943    21843429.600
        40.500          35.700
 -21571829.504 7 -16809200.982 7  20422748.744    20422747.560    20422747.691
        46.400          43.400
  -8131303.696 5  -6336060.477 4  22960072.274    22960070.909    22960071.215
        32.000          29.200
 06  6  7  2  2 30.0000000  0  8G27G19G15G16G13G23G 3G 7
 -10611853.207 5  -8268968.106 5  23133331.317    23133329.947    23133330.127
        33.100          30.400
 -15380555.415 7 -11984838.111 6  21678554.396    21678550.970    21678552.417
        42.000          38.200
  -1221507.564 3   -951822.516 2  24405241.189    24405240.149    24405240.298
        20.500          17.000
 -11701672.072 6  -9118167.463 5  22350336.854    22350334.641    22350335.738
        36.800          32.300
 -19165612.826 7 -14934234.533 7  20951164.010    20951162.403    20951163.699
        44.700          42.800
 -14734541.895 6 -11481450.966 5  21860559.670    21860555.341    21860558.071
        40.000          35.200
 -21582589.484 7 -16817585.330 7  20420701.211    20420699.914    20420700.240
        46.700          43.400
  -8055983.675 5  -6277369.539 4  22974405.166    22974403.953    22974403.956
        31.600          29.200
 06  6  7  2  3  0.0000000  0  8G27G19G15G16G13G23G 3G 7
 -10694333.620 5  -8333238.544 5  23117635.869    23117634.508    23117634.905
        33.100          31.000
 -15460573.095 7 -12047189.515 6  21663327.549    21663324.083    21663325.531
        42.200          38.600
  -1266373.486 2   -986782.893 2  24396703.366    24396702.411    24396701.694
        16.100          16.100
 -11622127.123 6  -9056184.380 5  22365473.742    22365471.338    22365472.799
        37.700          32.000
 -19137571.568 7 -14912384.183 7  20956500.083    20956498.371    20956499.762
        44.600          42.400
 -14644146.042 6 -11411012.657 5  21877760.624    21877757.276    21877759.509
        39.400          35.400
 -21592732.106 7 -16825488.632 7  20418771.007    20418769.805    20418769.995
        46.600          43.400
  -7980335.749 5  -6218423.106 4  22988799.956    22988799.483    22988799.284
        31.800          29.700
 06  6  7  2  3 30.0000000  0  8G27G19G15G16G13G23G 3G 7
 -10776717.987 5  -8397434.141 5  23101958.729    23101957.312    23101957.621
        33.200          30.800
 -15540180.691 7 -12109221.366 6  21648178.036    21648175.069    21648176.488
        42.000          38.400
  -1310798.115 3  -1021399.416 2  24388248.944    24388248.332    24388248.199
        21.100          13.900
 -11542432.493 6  -8994084.664 5  22380639.177    22380636.667    22380638.036
        37.200          32.400
 -19108910.111 7 -14890050.565 7  20961954.001    20961952.399    20961953.658
        44.300          42.400
 -14553368.000 6 -11340276.535 5  21895034.785    21895031.822    21895034.036
        39.700          35.900
 -21602257.420 7 -16832910.909 7  20416958.256    20416957.064    20416957.334
        46.600          43.400
  -7904362.342 5  -6159223.015 4  23003258.049    23003256.639    23003256.941
        32.000          28.800
 06  6  7  2  4  0.0000000  0  8G27G19G15G16G13G23G 3G 7
 -10859004.888 5  -8461553.758 5  23086299.551    23086298.723    23086298.839
        33.200          30.400
 -15619375.829 7 -12170931.828 6  21633107.923    21633104.913    21633106.070
        42.300          38.600
  -1354779.300 3  -1055670.419 2  24379880.365    24379879.308    24379878.903
        19.300          16.100
 -11462589.186 6  -8931869.078 5  22395832.990    22395830.083    22395831.939
        37.100          32.000
 -19079629.534 7 -14867234.521 7  20967526.009    20967524.400    20967525.643
        44.300          42.400
 -14462210.515 6 -11269244.738 5  21912381.413    21912378.478    21912380.650
        39.400          35.300
 -21611165.387 7 -16839852.140 7  20415263.019    20415261.941    20415262.073
        46.600          43.500
  -7828065.683 5  -6099771.052 4  23017776.431    23017775.285    23017775.446
        31.800          29.000
 06  6  7  2  4 30.0000000  0  8G27G19G15G16G13G23G 3G 7
 -10941192.771 5  -8525596.168 5  23070659.559    23070658.709    23070658.913
        33.000          31.000
 -15698156.089 7 -12232319.002 6  21618116.118    21618113.530    21618114.547
        42.300          39.000
  -1398314.850 3  -1089594.194 1  24371595.286    24371594.495    24371594.196
        22.100           6.500
 -11382598.652 6  -8869538.752 5  22411054.937    22411051.969    22411053.933
        37.100          32.300
 -19049730.387 7 -14843936.470 7  20973215.367    20973214.079    20973215.069
        44.200          42.600
 -14370676.116 6 -11197919.247 5  21929799.808    21929797.036    21929799.056
        39.500          35.500
 -21619456.098 7 -16846312.390 7  20413685.425    20413684.115    20413684.469
        46.600          43.400
  -7751447.949 5  -6040068.948 4  23032356.171    23032355.443    23032355.084
        31.500          29.500
 06  6  7  2  5  0.0000000  0  8G27G19G15G16G13G23G 3G 7
 -11023280.314 5  -8589560.506 5  23055038.770    23055037.976    23055038.181
        33.400          31.000
 -15776519.363 7 -12293381.249 6  21603204.179    21603201.441    21603202.472
        42.000          38.600
  -1441402.725 3  -1123169.137 1  24363396.034    24363395.028    24363394.829
        21.100           9.000
 -11302462.364 6  -8807094.879 5  22426304.371    22426301.299    22426303.184
        36.800          32.000
 -19019213.978 7 -14820157.441 7  20979022.743    20979020.988    20979022.393
        44.300          42.400
 -14278768.103 6 -11126302.634 5  21947290.269    21947286.438    21947288.769
        39.400          35.100
 -21627129.664 7 -16852291.752 7  20412225.164    20412223.929    20412224.181
        46.500          43.400
  -7674511.125 5  -5980118.162 4  23046997.270    23046995.635    23046996.165
        32.400          28.400
 06  6  7  2  5 30.0000000  0  8G27G19G15G16G13G23G 3G 7
 -11105265.585 5  -8653445.047 5  23039437.538    23039436.555    23039436.933
        33.800          31.000
 -15854463.370 7 -12354116.799 6  21588371.999    21588369.191    21588370.495
        42.700          38.900
  -1484040.680 3  -1156393.539 1  24355282.080    24355281.174    24355281.043
        19.900           9.000
 -11222181.355 6  -8744538.235 5  22441580.808    22441578.176    22441579.807
        36.500          32.100
 -18988081.416 7 -14795898.291 7  20984946.950    20984945.388    20984946.612
        44.400          42.500
 -14186489.079 6 -11054396.922 5  21964850.500    21964846.414    21964849.161
        39.800          34.700
 -21634186.165 7 -16857790.284 7  20410882.449    20410881.000    20410881.426
        46.600          43.400
  -7597257.527 5  -5919920.529 4  23061698.172    23061696.316    23061697.012
        32.000          28.400
 06  6  7  2  6  0.0000000  0  8G27G19G15G16G13G23G 3G 7
 -11187147.735 5  -8717249.254 5  23023856.413    23023854.796    23023855.439
        34.500          31.100
 -15931986.208 7 -12414524.165 6  21573619.997    21573617.050    21573618.246
        42.400          39.200
  -1526226.486 3  -1189265.628 2  24347255.047    24347254.209    24347253.613
        19.300          12.600
 -11141756.961 6  -8681869.845 5  22456885.482    22456882.656    22456884.156
        36.400          32.000
 -18956333.454 7 -14771159.610 7  20990988.263    20990986.940    20990988.013
        44.300          42.400
 -14093841.966 6 -10982204.368 5  21982479.634    21982476.523    21982479.200
        39.500          34.000
 -21640625.687 7 -16862808.048 7  20409657.069    20409655.604    20409655.991
        46.700          43.500
  -7519689.587 5  -5859477.973 4  23076458.095    23076456.946    23076457.328
        31.800          26.800
 06  6  7  2  6 30.0000000  0  8G27G19G15G16G13G23G 3G 7
 -11268924.815 5  -8780971.663 5  23008294.691    23008293.427    23008293.570
        33.100          31.600
 -16009085.496 7 -12474601.491 6  21558948.649    21558945.465    21558946.855
        42.500          39.300
  -1567957.874 3  -1221783.595 1  24339313.188    24339312.421    24339312.245
        20.500           6.500
 -11061190.584 6  -8619090.849 5  22472216.619    22472213.717    22472215.478
        36.700          31.500
 -18923971.297 7 -14745942.336 7  20997146.811    20997145.081    20997146.464
        44.400          42.100
 -14000829.504 6 -10909727.137 5  22000180.146    22000176.234    22000178.884
        39.100          34.000
 -21646448.218 7 -16867345.045 7  20408549.006    20408547.676    20408547.944
        46.600          43.500
  -7441809.283 5  -5798792.030 4  23091279.039    23091277.304    23091277.795
        32.100          27.100
 06  6  7  2  7  0.0000000  0  8G27G19G15G16G13G23G 3G 7
 -11350595.207 5  -8844610.836 5  22992753.001    22992751.879    22992751.943
        33.900          31.600
 -16085759.018 7 -12534347.050 6  21544357.959    21544355.015    21544356.156
        43.000          39.300
  -1609232.913 3  -1253946.014 1  24331458.561    24331457.989    24331457.752
        18.600           6.500
 -10980483.468 6  -8556202.157 5  22487574.392    22487571.719    22487573.269
        36.200          31.100
 -18890995.974 7 -14720247.264 7  21003421.452    21003419.909    21003421.127
        44.100          42.000
 -13907454.404 6 -10836967.348 5  22017949.633    22017944.922    22017947.758
        39.100          33.900
 -21651654.013 7 -16871401.464 7  20407558.353    20407556.930    20407557.278
        46.500          43.600
  -7363618.982 5  -5737864.489 4  23106157.320    23106156.805    23106156.296
        30.200          28.400
 06  6  7  2  7 30.0000000  0  8G27G19G15G16G13G23G 3G 7
 -11432158.220 5  -8908166.414 5  22977232.168    22977230.793    22977231.113
        33.800          31.000
 -16162004.611 7 -12593759.153 6  21529848.980    21529845.790    21529847.011
        42.500          39.100
  -1650049.532 3  -1285751.250 2  24323692.164    24323690.969    24323690.841
        19.300          12.600
 -10899636.925 6  -8493204.839 5  22502959.453    22502956.604    22502958.203
        36.500          30.600
 -18857408.630 7 -14694075.291 7  21009813.104    21009811.534    21009812.817
        44.300          42.100
 -13813719.810 6 -10763927.425 5  22035785.835    22035782.109    22035784.667
        38.900          34.000
 -21656243.398 7 -16874977.563 7  20406685.036    20406683.561    20406684.006
        46.700          43.600
  -7285120.650 5  -5676696.949 4  23121095.169    23121094.330    23121094.236
        30.200          27.600
 06  6  7  2  8  0.0000000  0  8G27G19G15G16G13G23G 3G 7
 -11513611.716 5  -8971636.637 5  22961732.083    22961730.706    22961730.968
        34.300          31.800
 -16237820.127 7 -12652836.133 6  21515421.656    21515418.550    21515419.778
        42.900          39.400
  -1690405.581 3  -1317197.560 1  24316012.214    24316011.223    24316011.344
        19.300           6.500
 -10818651.957 6  -8430099.663 5  22518370.020    22518367.378    22518369.043
        36.300          31.000
 -18823210.737 7 -14667427.570 7  21016320.685    21016319.247    21016320.380
        44.000          42.100
 -13719628.238 6 -10690609.325 5  22053690.526    22053687.180    22053689.702
        38.900          33.500
 -21660216.449 7 -16878073.402 7  20405928.673    20405927.483    20405927.731
        46.600          43.500
  -7206316.729 5  -5615291.290 4  23136091.069    23136090.086    23136090.195
        30.600          26.500
 06  6  7  2  8 30.0000000  0  8G27G19G15G16G13G23G 3G 7
 -11594954.403 5  -9035020.540 5  22946252.935    22946251.927    22946252.115
        34.700          32.300
 -16313203.218 7 -12711576.157 6  21501076.609    21501073.647    21501074.944
        43.300          39.400
  -1730298.831 2  -1348283.148 2  24308419.799    24308419.868    24308418.995
        13.900          12.600
 -10737529.997 5  -8366887.735 5  22533806.813    22533804.438    22533805.763
        35.800          31.100
 -18788403.174 7 -14640304.784 6  21022944.542    21022942.793    21022944.138
        44.100          41.900
 -13625182.951 6 -10617015.605 5  22071663.162    22071659.602    22071662.072
        39.100          34.500
 -21663573.399 7 -16880689.160 7  20405290.130    20405288.670    20405289.022
        46.800          43.600
  -7127209.454 5  -5553649.241 4  23151144.801    23151143.640    23151144.072
        30.400          27.600
 06  6  7  2  9  0.0000000  0  8G27G19G15G16G13G23G 3G 7
 -11676184.695 5  -9098316.834 5  22930795.393    22930794.423    22930794.499
        34.800          32.700
 -16388152.490 7 -12769978.145 6  21486814.484    21486811.038    21486812.582
        43.300          39.500
  -1769727.387 3  -1379006.608 2  24300917.511    24300916.995    24300916.711
        19.300          12.600
 -10656272.237 5  -8303569.988 5  22549269.843    22549267.476    22549268.623
        35.600          31.300
 -18752987.126 7 -14612707.852 6  21029683.987    21029682.240    21029683.649
        44.200          41.900
 -13530386.478 6 -10543148.239 5  22089702.825    22089698.927    22089701.361
        38.600          34.300
 -21666314.503 7 -16882825.041 7  20404768.361    20404766.943    20404767.341
        46.700          43.400
  -7047800.784 5  -5491772.343 4  23166255.533    23166254.650    23166254.589
        30.100          26.500
 06  6  7  2  9 30.0000000  0  8G27G19G15G16G13G23G 3G 7
 -11757301.015 5  -9161524.348 5  22915359.471    22915358.200    22915358.527
        35.100          32.100
 -16462665.369 7 -12828040.081 6  21472635.166    21472631.868    21472633.195
        43.400          40.000
  -1808689.293 3  -1409366.467 2  24293503.693    24293502.603    24293502.460
        18.600          13.900
 -10574880.096 5  -8240147.515 5  22564758.641    22564755.896    22564757.451
        35.500          31.100
 -18716963.754 7 -14584637.686 6  21036538.783    21036537.206    21036538.478
        44.000          41.900
 -13435241.869 6 -10469009.610 5  22107807.889    22107804.508    22107806.899
        38.600          34.300
 -21668440.189 7 -16884481.377 7  20404363.738    20404362.305    20404362.779
        46.600          43.500
  -6968093.203 5  -5429662.553 4  23181423.706    23181422.607    23181422.463
        30.600          26.800
 06  6  7  2 10  0.0000000  0  8G27G19G15G16G13G23G 3G 7
 -11838301.907 5  -9224641.878 5  22899945.539    22899944.129    22899944.670
        34.800          32.300
 -16536739.656 7 -12885760.264 6  21458538.792    21458535.950    21458537.209
        43.400          39.800
  -1847182.321 3  -1439360.974 2  24286178.608    24286178.001    24286177.829
        22.600          17.000
 -10493354.567 5  -8176621.134 5  22580272.230    22580269.713    22580271.090
        35.400          31.100
 -18680334.547 7 -14556095.438 6  21043509.238    21043507.446    21043508.852
        44.200          41.600
 -13339751.838 6 -10394601.814 5  22125978.378    22125975.562    22125977.694
        37.900          34.000
 -21669950.694 7 -16885658.354 7  20404076.254    20404074.919    20404075.181
        46.700          43.600
  -6888088.978 5  -5367321.572 4  23196647.920    23196646.578    23196646.901
        30.400          26.200
 06  6  7  2 10 30.0000000  0  8G27G19G15G16G13G23G 3G 7
 -11919186.033 5  -9287668.405 5  22884553.768    22884552.214    22884552.917
        34.700          31.800
 -16610373.121 7 -12943136.945 6  21444527.372    21444523.954    21444525.306
        43.300          40.200
  -1885204.533 3  -1468988.594 2  24278943.533    24278942.346    24278942.018
        21.600          17.000
 -10411697.027 5  -8112991.891 5  22595810.863    22595808.389    22595809.779
        35.400          31.000
 -18643100.593 7 -14527081.959 6  21050594.518    21050592.879    21050594.141
        43.900          41.600
 -13243919.222 6 -10319927.074 5  22144216.281    22144211.792    22144214.485
        38.000          33.800
 -21670846.391 7 -16886356.261 7  20403905.657    20403904.478    20403904.693
        46.600          43.700
  -6807790.056 4  -5304751.002 4  23211928.452    23211927.326    23211927.401
        29.700          27.400
 06  6  7  2 11  0.0000000  0  8G27G19G15G16G13G23G 3G 7
 -11999951.813 5  -9350602.800 5  22869184.839    22869182.926    22869183.886
        35.800          31.500
 -16683563.741 7 -13000168.549 6  21430599.000    21430596.238    21430597.464
        43.300          40.200
  -1922753.956 4  -1498247.786 2  24271797.830    24271797.004    24271797.146
        25.600          17.800
 -10329908.544 5  -8049260.609 4  22611374.561    22611372.116    22611373.426
        35.200          29.700
 -18605263.314 7 -14497598.358 6  21057794.662    21057793.059    21057794.384
        44.100          41.400
 -13147747.304 6 -10244987.944 5  22162515.806    22162512.630    22162515.088
        38.100          33.400
 -21671127.531 7 -16886575.291 7  20403852.278    20403851.029    20403851.277
        46.700          43.700
  -6727198.824 4  -5241952.653 4  23227264.232    23227263.402    23227263.218
        28.800          27.400
 06  6  7  2 11 30.0000000  0  8G27G19G15G16G13G23G 3G 7
 -12080597.690 5  -9413443.727 5  22853838.549    22853836.685    22853837.429
        34.900          32.600
 -16756309.851 7 -13056853.789 6  21416756.440    21416753.077    21416754.218
        43.100          40.300
  -1959828.534 4  -1527136.991 3  24264743.393    24264741.924    24264742.173
        24.200          21.100
 -10247990.355 5  -7985428.250 4  22626963.011    22626960.329    22626961.997
        34.600          29.900
 -18566823.866 7 -14467645.533 6  21065109.635    21065107.911    21065109.296
        44.100          41.500
 -13051238.889 6 -10169786.591 5  22180881.311    22180877.670    22180880.054
        37.200          33.600
 -21670794.470 7 -16886315.725 7  20403915.593    20403914.397    20403914.576
        46.700          43.800
  -6646317.662 4  -5178928.400 4  23242654.968    23242654.419    23242654.108
        29.500          26.200
 06  6  7  2 12  0.0000000  0  8G27G19G15G16G13G23G 3G 7
 -12161121.803 5  -9476189.733 5  22838514.741    22838513.790    22838513.660
        35.100          32.800
 -16828609.158 7 -13113190.863 6  21402997.802    21402995.058    21402996.223
        43.400          40.600
  -1996426.408 3  -1555654.672 2  24257778.532    24257777.251    24257777.234
        22.600          17.800
 -10165943.722 5  -7921495.805 4  22642575.959    22642573.513    22642574.768
        34.500          29.900
 -18527783.591 7 -14437224.541 6  21072538.743    21072536.938    21072538.384
        44.000          41.400
 -12954396.644 6 -10094325.144 5  22199310.144    22199306.156    22199308.706
        38.500          33.500
 -21669847.802 7 -16885578.014 7  20404095.686    20404094.412    20404094.682
        46.700          43.800
  -6565148.492 4  -5115679.693 4  23258100.678    23258100.209    23258100.047
        28.800          25.900
 06  6  7  2 12 30.0000000  0  8G27G19G15G16G13G23G 3G 7
 -12241522.851 5  -9538839.813 5  22823214.917    22823213.850    22823213.928
        34.700          33.100
 -16900459.655 7 -13169178.224 6  21389325.487    21389322.160    21389323.540
        43.500          40.500
  -2032545.703 3  -1583799.403 3  24250904.544    24250904.187    24250903.590
        23.000          21.100
 -10083769.699 5  -7857464.083 4  22658213.225    22658210.622    22658212.336
        35.300          28.600
 -18488144.233 7 -14406336.727 6  21080081.708    21080080.023    21080081.344
        43.800          41.300
 -12857223.663 6 -10018605.950 5  22217800.125    22217797.452    22217799.911
        37.700          33.200
 -21668287.599 7 -16884362.228 7  20404392.500    20404391.203    20404391.563
        46.700          43.700
  -6483693.876 4  -5052208.576 4  23273601.879    23273600.754    23273600.796
        29.200          26.200
 06  6  7  2 13  0.0000000  0  8G27G19G15G16G13G23G 3G 7
 -12321799.299 5  -9601392.950 5  22807939.174    22807937.769    22807938.105
        35.800          33.800
 -16971859.344 7 -13224814.293 6  21375738.157    21375735.246    21375736.506
        43.600          40.600
  -2068184.767 3  -1611569.964 3  24244123.357    24244122.165    24244122.011
        21.600          21.600
 -10001469.635 5  -7793334.136 5  22673874.567    22673872.022    22673873.464
        35.300          30.200
 -18447906.840 7 -14374982.915 6  21087738.564    21087737.044    21087738.239
        43.600          41.400
 -12759722.538 6  -9942631.073 5  22236356.252    22236351.233    22236354.192
        37.600          32.400
 -21666114.497 7 -16882668.867 7  20404806.145    20404804.577    20404805.184
        46.800          43.800
  -6401955.797 4  -4988516.581 4  23289155.719    23289154.991    23289154.995
        29.500          26.200
 06  6  7  2 13 30.0000000  0  8G27G19G15G16G13G23G 3G 7
 -12401949.521 5  -9663847.656 5  22792687.003    22792685.447    22792685.893
        35.400          33.100
 -17042805.991 7 -13280097.354 6  21362237.626    21362234.511    21362235.731
        43.300          40.700
  -2103341.324 3  -1638964.603 3  24237432.754    24237431.543    24237431.614
        22.100          19.900
  -9919044.612 5  -7729106.862 5  22689559.207    22689557.004    22689558.190
        34.900          30.200
 -18407072.935 7 -14343164.291 6  21095509.228    21095507.531    21095508.885
        43.900          41.400
 -12661896.683 6  -9866403.166 5  22254970.567    22254967.048    22254969.640
        37.500          32.300
 -21663329.141 7 -16880498.421 7  20405336.143    20405334.631    20405335.290
        47.000          43.700
  -6319936.530 4  -4924605.515 4  23304763.373    23304762.631    23304762.666
        29.500          25.900
 06  6  7  2 14  0.0000000  0  8G27G19G15G16G13G23G 3G 7
 -12481971.909 5  -9726202.695 5  22777459.474    22777457.582    22777458.204
        35.300          33.100
 -17113297.868 7 -13335026.042 6  21348823.331    21348820.345    21348821.556
        43.500          40.800
  -2138013.801 3  -1665982.047 3  24230834.681    24230833.660    24230833.813
        21.100          19.900
  -9836495.857 5  -7664783.142 5  22705268.536    22705265.498    22705267.178
        34.600          30.200
 -18365643.758 7 -14310881.813 6  21103392.840    21103391.167    21103392.482
        43.800          41.200
 -12563748.672 6  -9789924.214 5  22273647.052    22273643.938    22273646.515
        37.200          32.000
 -21659932.007 7 -16877851.258 7  20405982.587    20405981.136    20405981.597
        47.000          43.800
  -6237638.350 5  -4860477.093 4  23320424.848    23320423.347    23320423.968
        30.100          25.300
 06  6  7  2 14 30.0000000  0  8G27G19G15G16G13G23G 3G 7
 -12561865.045 5  -9788457.063 5  22762255.869    22762254.420    22762254.772
        35.500          32.700
 -17183332.801 7 -13389598.677 6  21335496.159    21335492.921    21335494.300
        43.600          40.600
  -2172200.291 3  -1692620.854 3  24224328.937    24224328.424    24224327.852
        19.300          19.300
  -9753824.517 5  -7600363.901 4  22720999.711    22720997.205    22720998.726
        34.500          29.900
 -18323621.057 7 -14278136.850 6  21111389.515    21111387.879    21111389.175
        43.800          41.100
 -12465281.652 6  -9713196.695 5  22292385.885    22292381.609    22292384.375
        37.400          32.100
 -21655923.565 7 -16874727.762 7  20406745.413    20406743.968    20406744.387
        46.800          44.000
  -6155063.600 4  -4796133.164 4  23336138.317    23336137.247    23336137.454
        29.000          26.200
 06  6  7  2 15  0.0000000  0  8G27G19G15G16G13G23G 3G 7
 -12641627.518 6  -9850609.621 5  22747077.849    22747076.339    22747076.630
        36.000          33.800
 -17252909.223 7 -13443814.034 6  21322256.334    21322252.852    21322254.361
        44.000          40.500
  -2205898.890 3  -1718879.446 3  24217916.879    24217915.480    24217915.312
        18.600          19.300
  -9671031.825 5  -7535850.122 4  22736755.005    22736751.975    22736753.778
        33.900          29.500
 -18281006.437 7 -14244930.656 6  21119498.550    21119497.221    21119498.328
        43.900          41.400
 -12366498.584 6  -9636222.906 5  22311182.492    22311179.448    22311181.735
        36.500          32.000
 -21651304.191 7 -16871128.209 7  20407624.317    20407622.854    20407623.349
        46.900          44.000
  -6072214.262 4  -4731575.276 4  23351903.509    23351902.600    23351902.659
        29.000          25.600
 06  6  7  2 15 30.0000000  0  8G27G19G15G16G13G23G 3G 7
 -12721257.292 6  -9912658.780 5  22731924.543    22731922.998    22731923.652
        36.400          33.600
 -17322024.950 7 -13497670.406 6  21309103.946    21309100.588    21309102.198
        44.200          40.900
  -2239107.666 3  -1744756.420 2  24211597.513    24211595.856    24211596.036
        18.600          17.800
  -9588118.832 5  -7471242.599 4  22752532.357    22752529.772    22752531.331
        33.500          29.500
 -18237801.157 7 -14211264.207 6  21127720.581    21127718.566    21127720.162
        43.800          40.700
 -12267402.186 6  -9559004.963 5  22330040.841    22330036.902    22330039.381
        36.700          31.800
 -21646074.634 7 -16867053.181 7  20408619.348    20408617.880    20408618.420
        46.900          43.800
  -5989092.640 4  -4666805.210 4  23367721.844    23367720.338    23367720.737
        29.700          25.300
 06  6  7  2 16  0.0000000  0  8G27G19G15G16G13G23G 3G 7
 -12800753.011 6  -9974603.497 5  22716797.190    22716795.537    22716796.143
        36.500          33.600
 -17390678.015 7 -13551166.265 6  21296039.798    21296036.463    21296037.792
        44.100          41.100
  -2271824.820 3  -1770250.300 2  24205371.394    24205369.754    24205370.444
        20.500          17.800
  -9505086.863 5  -7406542.347 4  22768332.638    22768330.435    22768331.629
        33.800          29.200
 -18194007.030 7 -14177138.913 6  21136054.434    21136052.528    21136054.099
        43.900          41.100
 -12167995.514 6  -9481545.262 5  22348956.668    22348953.482    22348955.775
        36.600          32.000
 -21640235.590 7 -16862503.241 7  20409730.555    20409729.053    20409729.494
        46.900          43.800
  -5905701.150 5  -4601824.844 4  23383590.363    23383589.046    23383589.554
        30.200          25.600
 06  6  7  2 16 30.0000000  0  8G27G19G15G16G13G23G 3G 7
 -12880112.980 6 -10036442.427 5  22701695.704    22701693.585    22701694.519
        36.500          33.500
 -17458866.471 7 -13604300.088 6  21283063.805    21283060.486    21283061.883
        44.000          40.900
  -2304048.652 2  -1795359.847 2  24199238.211    24199237.795    24199236.982
        12.600          17.800
  -9421937.101 5  -7341750.322 4  22784155.594    22784153.255    22784154.491
        33.400          29.000
 -18149625.236 7 -14142555.700 6  21144499.774    21144498.493    21144499.468
        43.800          41.300
 -12068281.591 6  -9403846.125 5  22367932.322    22367928.396    22367931.149
        37.200          32.100
 -21633787.534 7 -16857478.729 7  20410957.449    20410956.045    20410956.553
        47.000          43.900
  -5822041.833 4  -4536635.813 4  23399510.318    23399509.368    23399509.346
        28.100          25.600
 06  6  7  2 17  0.0000000  0  8G27G19G15G16G13G23G 3G 7
 -12959335.507 6 -10098174.237 5  22686619.775    22686617.936    22686618.747
        36.800          33.100
 -17526588.470 7 -13657070.439 6  21270176.542    21270173.392    21270174.719
        44.100          41.200
  -2335777.333 2  -1820083.530 2  24193201.078    24193200.500    24193199.161
        16.100          16.100
  -9338670.374 5  -7276867.155 4  22800001.329    22799998.410    22800000.256
        33.900          29.000
 -18104657.444 7 -14107515.864 6  21153056.924    21153055.366    21153056.610
        43.800          40.900
 -11968263.512 6  -9325910.007 5  22386964.888    22386961.360    22386964.012
        36.800          32.000
 -21626731.061 7 -16851980.131 7  20412300.293    20412298.806    20412299.313
        47.000          44.000
  -5738117.038 4  -4471239.927 4  23415480.529    23415479.448    23415479.722
        28.400          24.900
 06  6  7  2 17 30.0000000  0  8G27G19G15G16G13G23G 3G 7
 -13038419.220 6 -10159797.886 5  22671570.495    22671568.790    22671569.596
        36.600          33.500
 -17593842.197 7 -13709475.904 6  21257378.634    21257375.359    21257376.770
        44.100          41.000
  -2367009.148 2  -1844419.990 2  24187256.891    24187256.780    24187256.044
        17.000          16.100
  -9255287.965 5  -7211893.844 4  22815868.722    22815865.493    22815867.382
        33.500          27.600
 -18059105.408 7 -14072020.772 6  21161725.276    21161723.321    21161724.888
        43.400          40.400
 -11867943.997 6  -9247738.973 5  22406055.449    22406051.403    22406053.981
        36.900          31.300
 -21619066.993 7 -16846008.085 7  20413758.816    20413757.199    20413757.750
        47.100          44.000
  -5653928.809 4  -4405638.746 4  23431501.950    23431500.098    23431500.700
        28.400          24.200
 06  6  7  2 18  0.0000000  0  9G27G19G15G16G 8G13G23G 3G 7
 -13117362.571 6 -10221312.166 5  22656548.085    22656546.610    22656546.971
        36.700          34.400
 -17660625.709 7 -13761514.973 6  21244670.134    21244666.946    21244668.242
        44.000          41.200
  -2397742.620 2  -1868368.142 1  24181410.179    24181408.304    24181408.374
        17.800           9.000
  -9171790.865 5  -7146831.157 4  22831757.811    22831754.363    22831756.552
        34.000          28.600
   -183179.805 2   -142737.185 2  24744753.263    24744753.120    24744752.390
        17.800          12.600
 -18012970.515 7 -14036071.505 6  21170504.507    21170502.745    21170504.058
        43.400          40.700
 -11767325.893 6  -9169335.300 5  22425202.159    22425198.548    22425201.218
        36.900          32.000
 -21610795.991 7 -16839563.103 7  20415332.595    20415331.046    20415331.574
        47.000          43.900
  -5569479.598 4  -4339834.214 4  23447572.113    23447570.439    23447570.762
        27.900          25.600
 06  6  7  2 18 30.0000000  0  9G27G19G15G16G 8G13G23G 3G 7
 -13196163.430 6 -10282715.414 5  22641552.692    22641551.364    22641551.670
        36.600          34.600
 -17726937.151 7 -13813186.191 6  21232051.317    21232048.187    21232049.587
        44.100          41.100
  -2427975.944 2  -1891926.631 2  24175655.399    24175654.960    24175654.666
        17.000          13.900
  -9088180.403 5  -7081680.155 4  22847668.166    22847665.146    22847666.897
        33.500          28.400
   -288869.175 2   -225092.426    24724640.402    24724640.819    24724639.456
        13.900           3.000
 -17966254.751 7 -13999669.614 6  21179394.203    21179392.576    21179393.892
        43.700          40.700
 -11666412.482 6  -9090701.498 5  22444405.534    22444401.863    22444404.402
        36.500          31.500
 -21601918.720 7 -16832645.708 7  20417021.646    20417020.295    20417020.726
        46.800          43.700
  -5484771.653 4  -4273828.094 4  23463690.875    23463690.004    23463689.712
        27.400          24.900
 06  6  7  2 19  0.0000000  0  9G27G19G15G16G 8G13G23G 3G 7
 -13274820.493 6 -10344006.616 5  22626584.819    22626583.509    22626583.784
        37.100          34.400
 -17792774.381 7 -13864487.890 6  21219522.932    21219519.717    21219520.990
        43.800          41.500
  -2457707.274 3  -1915093.987 1  24169998.494    24169996.827    24169997.566
        19.300          11.000
  -9004457.583 5  -7016441.580 4  22863599.617    22863597.251    22863598.539
        33.100          29.200
   -394562.722 3   -307450.887 1  24704529.150    24704527.885    24704527.565
        19.300           6.500
 -17918959.693 7 -13962816.323 6  21188394.005    21188392.345    21188393.696
        43.300          40.500
 -11565206.665 6  -9011839.875 5  22463664.392    22463660.754    22463663.206
        36.500          32.400
 -21592435.900 7 -16825256.455 7  20418826.204    20418824.761    20418825.215
        46.900          43.800
  -5399807.042 4  -4207621.964 4  23479858.728    23479858.157    23479858.148
        28.800          25.900
 06  6  7  2 19 30.0000000  0  9G27G19G15G16G 8G13G23G 3G 7
 -13353331.856 6 -10405184.256 5  22611644.512    22611643.044    22611643.576
        36.700          34.300
 -17858136.268 7 -13915419.203 6  21207084.995    21207081.772    21207083.179
        44.200          41.600
  -2486935.048 2  -1937868.978 2  24164437.355    24164435.255    24164436.238
        17.000          12.600
  -8920623.652 5  -6951116.437 4  22879553.060    22879549.936    22879551.670
        32.800          28.400
   -500259.519 3   -389812.006    24684415.360    24684414.443    24684414.311
        19.300           3.000
 -17871086.895 7 -13925512.846 6  21197504.009    21197502.290    21197503.644
        43.500          40.500
 -11463711.525 5  -8932752.794 5  22482978.314    22482974.639    22482976.919
        35.700          32.100
 -21582348.353 7 -16817395.978 7  20420745.756    20420744.347    20420744.771
        47.000          43.800
  -5314588.104 4  -4141217.642 4  23496075.344    23496074.748    23496074.752
        28.400          24.600
 06  6  7  2 20  0.0000000  0  9G27G19G15G16G 8G13G23G 3G 7
 -13431696.026 6 -10466247.237 5  22596732.982    22596730.472    22596731.636
        36.800          34.100
 -17923020.753 7 -13965978.505 6  21194738.001    21194734.502    21194736.064
        44.200          41.400
  -2515657.438 3  -1960250.132 2  24158971.472    24158970.611    24158970.570
        18.600          13.900
  -8836679.744 5  -6885705.630 4  22895526.581    22895523.794    22895525.585
        33.600          28.100
   -605957.773 3   -472174.141 1  24664301.015    24664300.266    24664299.855
        20.500          11.000
 -17822638.187 7 -13887760.606 6  21206723.373    21206721.957    21206723.062
        43.300          40.700
 -11361929.771 6  -8853442.384 5  22502345.983    22502343.019    22502345.365
        36.000          31.300
 -21571656.857 7 -16809064.891 7  20422780.326    20422778.756    20422779.285
        46.900          44.000
  -5229116.878 4  -4074616.726 3  23512340.318    23512339.250    23512339.260
        28.100          23.000
 06  6  7  2 20 30.0000000  0  9G27G19G15G16G 8G13G23G 3G 7
 -13509911.422 6 -10527194.293 5  22581848.544    22581846.887    22581847.634
        37.200          34.600
 -17987425.794 7 -14016164.211 6  21182482.000    21182478.822    21182480.149
        44.200          41.800
  -2543872.860 3  -1982236.172 1  24153602.569    24153600.975    24153601.369
        19.300          11.000
  -8752626.676 5  -6820209.735 4  22911521.305    22911518.991    22911520.523
        32.700          28.600
   -711656.534 3   -554536.682 2  24644187.659    24644186.347    24644186.529
        22.100          17.000
 -17773615.433 7 -13849561.055 6  21216052.117    21216050.502    21216051.785
        43.100          40.300
 -11259864.623 6  -8773911.125 5  22521768.682    22521765.670    22521767.702
        36.300          31.100
 -21560362.258 7 -16800263.861 7  20424929.629    20424928.046    20424928.634
        47.100          43.900
  -5143395.661 4  -4007821.006 4  23528653.374    23528651.765    23528652.005
        28.400          24.900
 06  6  7  2 21  0.0000000  0  9G27G19G15G16G 8G13G23G 3G 7
 -13587976.071 6 -10588023.832 5  22566993.019    22566991.745    22566992.194
        37.100          34.700
 -18051349.948 7 -14065975.205 6  21170317.578    21170314.361    21170315.929
        44.500          41.700
  -2571579.692 3  -2003825.952 1  24148329.923    24148328.683    24148328.671
        21.100           9.000
  -8668465.726 5  -6754629.766 4  22927537.395    22927534.421    22927536.122
        32.700          28.400
   -817354.206 3   -636898.322 1  24624074.142    24624072.614    24624073.048
        23.000          11.000
 -17724020.282 7 -13810915.481 6  21225489.829    21225488.125    21225489.472
        43.400          40.200
 -11157519.246 5  -8694161.525 5  22541244.906    22541241.206    22541243.598
        35.200          30.400
 -21548465.405 7 -16790993.540 7  20427193.556    20427191.925    20427192.599
        47.000          43.600
  -5057426.793 4  -3940832.326 4  23545012.019    23545011.053    23545010.799
        28.600          24.200
 06  6  7  2 21 30.0000000  0  9G27G19G15G16G 8G13G23G 3G 7
 -13665888.551 6 -10648734.804 5  22552166.749    22552165.371    22552166.063
        37.700          34.900
 -18114791.412 7 -14115410.077 6  21158245.010    21158241.789    21158243.383
        44.600          41.800
  -2598776.517 3  -2025018.371 2  24143154.826    24143153.401    24143153.726
        21.600          13.900
  -8584198.001 5  -6688966.581 4  22943573.101    22943569.811    22943571.774
        32.400          27.600
   -923049.426 3   -719258.118 2  24603960.839    24603959.930    24603959.313
        23.800          16.100
 -17673854.902 7 -13771825.565 6  21235035.721    21235034.448    21235035.408
        43.100          40.300
 -11054896.056 5  -8614195.438 5  22560773.636    22560769.786    22560772.371
        35.300          30.100
 -21535966.922 7 -16781254.419 7  20429571.994    20429570.230    20429570.939
        47.400          44.100
  -4971212.497 4  -3873652.404 3  23561418.357    23561417.207    23561416.961
        27.400          23.800
 06  6  7  2 22  0.0000000  0  9G27G19G15G16G 8G13G23G 3G 7
 -13743647.321 6 -10709326.068 5  22537370.432    22537368.326    22537369.254
        37.800          34.700
 -18177747.778 7 -14164466.948 6  21146265.028    21146261.464    21146263.174
        44.800          41.900
  -2625461.704 3  -2045812.107 3  24138077.396    24138075.621    24138075.852
        21.100          18.600
  -8499824.522 5  -6623221.001 4  22959628.284    22959625.617    22959627.073
        32.800          27.400
  -1028740.895 3   -801614.960 2  24583847.485    24583847.354    24583846.820
        21.100          17.000
 -17623120.094 7 -13732291.957 6  21244690.423    21244688.750    21244690.017
        43.200          40.200
 -10951998.369 5  -8534015.462 4  22580354.090    22580350.309    22580352.991
        34.800          29.500
 -21522867.706 7 -16771047.189 7  20432064.546    20432062.829    20432063.575
        47.400          44.000
  -4884754.943 4  -3806282.911 3  23577870.336    23577869.403    23577869.566
        28.400          23.400
 06  6  7  2 22 30.0000000  0  9G27G19G15G16G 8G13G23G 3G 7
 -13821250.608 6 -10769796.166 5  22522602.942    22522600.730    22522601.795
        38.300          35.100
 -18240218.194 7 -14213145.159 7  21134377.020    21134373.820    21134375.230
        44.700          42.000
  -2651633.683 3  -2066205.963 2  24133096.500    24133095.252    24133095.438
        23.800          17.000
  -8415345.854 5  -6557393.447 4  22975704.007    22975701.196    22975702.926
        32.600          27.400
  -1134427.099 3   -883967.736 2  24563737.145    24563735.652    24563735.615
        21.600          13.900
 -17571818.804 7 -13692316.922 6  21254452.818    21254451.040    21254452.528
        43.100          39.900
 -10848829.146 5  -8453623.900 5  22599986.327    22599983.010    22599985.170
        34.100          30.200
 -21509168.874 7 -16760372.734 7  20434671.335    20434669.650    20434670.309
        47.300          44.000
  -4798056.441 4  -3738725.680 4  23594368.391    23594367.810    23594367.412
        27.100          25.300
 06  6  7  2 23  0.0000000  0  9G27G19G15G16G 8G13G23G 3G 7
 -13898696.435 6 -10830143.513 5  22507865.334    22507863.410    22507864.258
        38.000          35.600
 -18302200.186 7 -14261442.774 7  21122582.267    21122578.924    21122580.449
        44.800          42.100
  -2677290.706 3  -2086198.463 2  24128214.220    24128212.998    24128213.267
        23.000          16.100
  -8330763.830 5  -6491485.387 4  22991799.575    22991796.515    22991798.345
        32.800          27.400
  -1240106.786 3   -966315.471 2  24543626.316    24543624.768    24543625.388
        22.600          13.900
 -17519952.136 7 -13651901.346 6  21264322.859    21264321.009    21264322.411
        42.900          39.900
 -10745391.638 5  -8373023.280 4  22619670.209    22619666.335    22619668.761
        34.700          29.500
 -21494871.217 7 -16749231.661 7  20437391.971    20437390.386    20437391.003
        47.000          43.800
  -4711119.057 4  -3670982.301 4  23610912.555    23610911.699    23610911.335
        27.400          24.200
 06  6  7  2 23 30.0000000  0  9G27G19G15G16G 8G13G23G 3G 7
 -13975983.341 6 -10890367.054 5  22493157.918    22493156.305    22493156.936
        38.100          35.700
 -18363692.747 7 -14309359.022 7  21110880.725    21110877.273    21110878.912
        44.800          42.100
  -2702431.557 3  -2105788.773 2  24123430.479    24123428.748    24123429.475
        23.800          17.800
  -8246079.333 5  -6425497.448 4  23007914.720    23007911.536    23007913.485
        33.000          27.100
  -1345778.434 3  -1048656.959 1  24523517.411    24523515.809    24523516.469
        22.600           9.000
 -17467522.356 7 -13611046.978 6  21274299.897    21274297.954    21274299.506
        43.200          39.400
 -10641688.608 5  -8292215.766 5  22639403.918    22639400.731    22639402.919
        34.900          30.200
 -21479975.858 7 -16737624.852 7  20440226.392    20440224.877    20440225.366
        47.000          44.100
  -4623945.138 4  -3603054.631 4  23627501.342    23627500.015    23627500.222
        27.600          24.200
 06  6  7  2 24  0.0000000  0  9G27G19G15G16G 8G13G23G 3G 7
 -14053109.587 6 -10950465.418 5  22478481.460    22478479.575    22478480.304
        38.400          35.300
 -18424693.627 7 -14356892.139 7  21099272.716    21099269.125    21099270.780
        45.000          42.200
  -2727054.642 3  -2124975.599 2  24118745.111    24118743.628    24118743.953
        22.600          16.100
  -8161293.206 5  -6359430.319 4  23024048.340    23024045.745    23024047.372
        32.700          27.100
  -1451440.268 3  -1130990.775 1  24503410.263    24503409.327    24503409.151
        21.100          11.000
 -17414531.272 7 -13569755.221 6  21284383.492    21284381.776    21284383.163
        43.000          39.500
 -10537722.980 5  -8211203.621 5  22659188.597    22659184.811    22659186.966
        34.300          31.500
 -21464483.685 7 -16725552.985 7  20443174.310    20443172.954    20443173.348
        47.100          44.400
  -4536536.889 4  -3534944.340 3  23644133.988    23644133.363    23644133.319
        27.100          22.600
 06  6  7  2 24 30.0000000  0  9G27G19G15G16G 8G13G23G 3G 7
 -14130073.600 6 -11010437.364 5  22463835.616    22463833.751    22463834.588
        38.400          35.300
 -18485201.533 7 -14404041.119 7  21087758.444    21087754.807    21087756.513
        45.000          42.200
  -2751158.592 4  -2143757.938 2  24114157.972    24114156.466    24114157.035
        24.200          17.800
  -8076406.787 5  -6293285.058 4  23040201.352    23040199.236    23040200.388
        31.000          28.400
  -1557090.770 3  -1213315.781 1  24483305.840    24483305.301    24483304.459
        19.900           6.500
 -17360980.810 7 -13528027.597 6  21294573.736    21294572.217    21294573.520
        43.000          39.500
 -10433498.026 5  -8129989.409 5  22679021.020    22679018.314    22679020.078
        34.300          31.300
 -21448395.726 7 -16713016.880 7  20446235.793    20446234.335    20446234.793
        46.800          44.200
  -4448896.421 4  -3466653.073 3  23660811.229    23660810.735    23660810.693
        25.300          22.100
 06  6  7  2 25  0.0000000  0  9G27G19G15G16G 8G13G23G 3G 7
 -14206873.340 6 -11070281.288 5  22449220.576    22449219.294    22449219.841
        38.100          35.500
 -18545214.790 7 -14450804.657 7  21076338.353    21076334.662    21076336.480
        45.100          42.300
  -2774741.950 4  -2162134.619 3  24109670.761    24109669.567    24109669.420
        24.900          19.900
  -7991420.798 5  -6227062.228 4  23056373.978    23056371.600    23056372.878
        31.300          27.900
  -1662728.575 3  -1295630.980 2  24463204.399    24463202.983    24463203.356
        23.000          13.900
 -17306873.066 7 -13485865.730 6  21304870.218    21304868.608    21304869.912
        42.800          39.600
 -10329016.634 5  -8048575.378 4  22698903.423    22698900.293    22698902.154
        33.500          29.900
 -21431712.736 7 -16700017.126 7  20449410.267    20449408.945    20449409.388
        47.000          44.200
  -4361026.018 4  -3398182.640 3  23677532.445    23677532.030    23677531.727
        27.100          23.400
 06  6  7  2 25 30.0000000  0  9G27G19G15G16G 8G13G23G 3G 7
 -14283507.278 6 -11129996.046 5  22434638.247    22434636.304    22434637.066
        38.000          35.600
 -18604731.965 7 -14497181.637 7  21065012.396    21065008.841    21065010.558
        44.900          42.500
  -2797802.959 4  -2180104.242 3  24105282.066    24105281.070    24105280.959
        25.900          19.900
  -7906336.411 5  -6160762.700 4  23072564.992    23072562.622    23072564.020
        31.800          26.800
  -1768352.369 3  -1377935.220 2  24443103.821    24443103.644    24443102.784
        23.000          17.000
 -17252209.655 7 -13443270.874 6  21315272.181    21315270.670    21315271.917
        42.600          39.500
 -10224281.724 5  -7966963.803 4  22718834.633    22718830.622    22718833.075
        33.200          28.600
 -21414435.903 7 -16686554.632 7  20452698.093    20452696.582    20452697.087
        46.800          43.800
  -4272927.923 4  -3329534.782 3  23694297.410    23694296.978    23694296.608
        26.500          23.400
 06  6  7  2 26  0.0000000  0  9G27G19G15G16G 8G13G23G 3G 7
 -14359973.440 6 -11189580.048 5  22420087.394    22420085.198    22420086.243
        38.700          35.600
 -18663751.254 7 -14543170.665 7  21053781.099    21053777.911    21053779.373
        44.900          42.500
  -2820340.528 4  -2197666.033 2  24100993.178    24100991.919    24100991.916
        24.200          17.800
  -7821154.516 5  -6094387.205 4  23088775.036    23088771.940    23088773.896
        31.300          26.200
  -1873960.471 3  -1460227.207 2  24423008.214    24423006.754    24423006.747
        20.500          12.600
 -17196992.946 7 -13400244.886 6  21325779.760    21325778.157    21325779.419
        42.600          39.600
 -10119296.341 5  -7885157.051 4  22738811.674    22738808.780    22738811.107
        34.800          28.800
 -21396566.313 7 -16672630.247 7  20456098.632    20456096.979    20456097.590
        46.900          44.300
  -4184604.430 4  -3260711.310 3  23711104.258    23711103.898    23711103.723
        26.500          21.100
 06  6  7  2 26 30.0000000  0  9G27G19G15G16G 8G13G23G 3G 7
 -14436270.626 6 -11249032.421 5  22405568.409    22405566.367    22405567.194
        38.300          35.500
 -18722270.902 7 -14588770.356 7  21042645.314    21042641.914    21042643.554
        45.200          42.700
  -2842353.219 3  -2214818.750 3  24096804.409    24096802.690    24096803.258
        22.600          18.600
  -7735876.379 5  -6027936.709 4  23105002.987    23105000.171    23105001.778
        31.800          27.600
  -1979551.478 3  -1542505.892 2  24402914.162    24402913.981    24402913.210
        18.600          16.100
 -17141224.968 7 -13356789.336 6  21336392.081    21336390.352    21336391.818
        42.600          39.100
 -10014063.532 5  -7803157.486 4  22758837.966    22758833.746    22758836.426
        34.500          28.800
 -21378105.153 7 -16658244.910 7  20459611.640    20459609.976    20459610.567
        46.900          44.100
  -4096057.468 4  -3191713.677 3  23727953.995    23727953.854    23727953.346
        24.200          22.600
 06  6  7  2 27  0.0000000  0  9G27G19G15G16G 8G13G23G 3G 7
 -14512396.466 6 -11308351.215 5  22391081.651    22391079.799    22391080.672
        38.300          35.200
 -18780289.581 7 -14633979.686 7  21031604.792    21031601.244    21031602.966
        45.100          42.700
  -2863839.872 3  -2231561.648 2  24092715.097    24092714.143    24092714.180
        21.600          17.800
  -7650502.740 5  -5961411.788 4  23121248.224    23121246.388    23121247.347
        31.100          27.600
  -2085124.004 3  -1624770.179 2  24382824.464    24382823.701    24382823.347
        22.100          15.100
 -17084907.321 7 -13312905.474 6  21347108.825    21347107.062    21347108.592
        42.400          38.400
  -9908586.423 5  -7720967.564 4  22778909.025    22778905.700    22778907.967
        34.900          29.500
 -21359053.221 7 -16643399.224 7  20463236.908    20463235.398    20463235.978
        46.900          44.000
  -4007289.692 4  -3122544.009 3  23744846.816    23744846.090    23744845.921
        27.100          22.600
 06  6  7  2 27 30.0000000  0  9G27G19G15G16G 8G13G23G 3G 7
 -14588349.804 6 -11367535.655 5  22376628.045    22376626.581    22376627.152
        38.400          35.600
 -18837805.777 7 -14678797.466 7  21020659.831    21020656.339    21020658.016
        45.200          42.800
  -2884799.014 3  -2247893.455 2  24088726.135    24088725.707    24088725.358
        23.400          17.800
  -7565034.752 5  -5894813.322 4  23137511.836    23137510.185    23137510.970
        30.600          27.600
  -2190676.022 3  -1707018.390 2  24362739.337    24362737.537    24362738.113
        23.000          16.100
 -17028042.123 7 -13268594.938 6  21357930.072    21357928.326    21357929.765
        42.700          38.600
  -9802868.171 5  -7638589.736 4  22799026.388    22799023.084    22799025.281
        34.100          29.700
 -21339411.991 7 -16628094.347 7  20466974.606    20466972.984    20466973.657
        47.000          43.900
  -3918302.880 4  -3053203.643 3  23761779.683    23761779.713    23761779.310
        26.800          23.000
 06  6  7  2 28  0.0000000  0  9G27G19G15G16G 8G13G23G 3G 7
 -14664128.702 6 -11426584.151 6  22362207.912    22362206.448    22362206.859
        38.600          36.100
 -18894817.847 7 -14723222.428 7  21009810.693    21009807.227    21009808.866
        45.300          42.700
  -2905229.471 3  -2263813.320 2  24084839.160    24084838.257    24084837.803
        23.000          17.000
  -7479473.520 5  -5828142.264 4  23153794.414    23153791.795    23153793.155
        31.000          26.500
  -2296206.101 3  -1789249.485 2  24342656.701    24342655.567    24342655.945
        22.600          17.000
 -16970631.714 7 -13223859.574 6  21368854.980    21368853.299    21368854.609
        42.700          38.700
  -9696911.550 5  -7556026.180 4  22819189.294    22819185.724    22819188.227
        33.400          28.600
 -21319182.460 7 -16612331.076 7  20470824.190    20470822.523    20470823.240
        47.100          43.900
  -3829099.515 4  -2983694.552 4  23778755.262    23778754.751    23778754.234
        25.900          24.200
 06  6  7  2 28 30.0000000  0  9G27G19G15G16G 8G13G23G 3G 7
 -14739731.354 6 -11485495.350 6  22347821.461    22347819.942    22347820.395
        38.900          36.800
 -18951324.079 7 -14767253.226 7  20999057.929    20999054.484    20999056.060
        45.000          42.900
  -2925129.675 3  -2279319.964 2  24081051.535    24081051.288    24081050.957
        22.100          17.000
  -7393820.089 5  -5761399.316 4  23170093.949    23170090.905    23170092.636
        30.800          25.900
  -2401713.184 3  -1871462.698 2  24322579.107    24322578.074    24322578.088
        20.500          17.800
 -16912678.090 7 -13178700.918 6  21379883.104    21379881.193    21379882.824
        42.600          38.100
  -9590719.643 5  -7473279.257 4  22839397.115    22839393.559    22839395.979
        33.400          28.600
 -21298365.872 7 -16596110.338 7  20474785.449    20474783.795    20474784.487
        47.200          43.900
  -3739681.698 4  -2914018.340 3  23795770.369    23795769.985    23795769.683
        24.600          21.100
 06  6  7  2 29  0.0000000  0  9G27G19G15G16G 8G13G23G 3G 7
 -14815155.995 6 -11544267.842 6  22333468.288    22333467.046    22333467.473
        38.500          36.300
 -19007323.373 7 -14810889.006 7  20988401.472    20988397.940    20988399.681
        45.000          42.700
  -2944498.456 3  -2294412.510 3  24077366.613    24077365.972    24077365.129
        19.900          21.100
  -7308075.187 5  -5694585.070 4  23186410.772    23186407.567    23186409.536
        31.100          25.300
  -2507195.591 3  -1953656.649 3  24302507.076    24302505.100    24302506.021
        22.600          19.300
 -16854183.175 7 -13133120.478 6  21391014.358    21391012.589    21391014.001
        42.500          38.300
  -9484295.507 5  -7390351.393 4  22859649.054    22859645.306    22859647.842
        33.100          27.900
 -21276963.371 7 -16579433.066 7  20478858.046    20478856.610    20478857.160
        47.100          44.000
  -3650051.513 4  -2844176.655 3  23812826.903    23812825.706    23812825.818
        26.200          22.100
 06  6  7  2 29 30.0000000  0  9G27G19G15G16G 8G13G23G 3G 7
 -14890400.472 6 -11602899.872 6  22319149.946    22319148.618    22319148.967
        38.600          37.000
 -19062813.994 7 -14854128.422 7  20977842.143    20977838.372    20977840.256
        45.300          42.800
  -2963334.522 3  -2309090.021 3  24073781.924    24073781.124    24073780.904
        23.000          18.600
  -7222240.018 5  -5627700.533 4  23202744.278    23202741.473    23202743.395
        31.800          24.600
  -2612651.401 3  -2035829.928 2  24282438.402    24282437.406    24282437.272
        20.500          17.000
 -16795149.229 7 -13087120.017 6  21402248.272    21402246.661    21402247.984
        42.300          38.500
  -9377642.159 5  -7307244.903 4  22879944.915    22879940.763    22879943.539
        33.000          27.400
 -21254975.928 7 -16562299.983 7  20483042.162    20483040.710    20483041.169
        47.100          44.000
  -3560211.431 4  -2774171.398 3  23829922.348    23829922.259    23829921.638
        26.500          21.600
 06  6  7  2 30  0.0000000  0  9G27G19G15G16G 8G13G23G 3G 7
 -14965463.482 6 -11661390.531 6  22304866.138    22304864.590    22304865.030
        39.200          36.800
 -19117794.453 7 -14896970.306 7  20967379.583    20967376.028    20967377.812
        45.500          43.000
  -2981636.557 3  -2323351.338 3  24070298.412    24070298.758    24070297.501
        19.900          19.300
  -7136315.172 4  -5560746.088 4  23219095.287    23219092.355    23219094.127
        29.700          25.300
  -2718079.342 4  -2117981.445 3  24262376.592    24262375.448    24262375.475
        24.600          19.900
 -16735578.404 7 -13040701.205 6  21413584.320    21413582.520    21413583.946
        42.300          38.600
  -9270762.495 5  -7223962.079 4  22900282.866    22900279.633    22900281.794
        32.700          29.200
 -21232404.771 7 -16544712.047 7  20487337.279    20487335.764    20487336.359
        47.100          43.800
  -3470163.398 4  -2704004.161 3  23847058.416    23847057.710    23847057.122
        24.200          21.600
 06  6  7  2 30 30.0000000  0  9G27G19G15G16G 8G13G23G 3G 7
 -15040343.253 6 -11719738.377 6  22290617.151    22290615.346    22290615.951
        38.900          36.900
 -19172263.410 7 -14939413.614 7  20957014.379    20957010.940    20957012.679
        45.400          43.300
  -2999403.316 3  -2337195.549 3  24066918.035    24066917.800    24066916.586
        20.500          18.600
  -7050301.880 4  -5493722.720 4  23235463.187    23235460.041    23235461.938
        29.000          24.900
  -2823477.801 4  -2200110.009 3  24242320.009    24242319.172    24242319.081
        24.900          19.300
 -16675472.935 6 -12993865.793 6  21425021.636    21425020.244    21425021.336
        41.900          38.500
  -9163659.951 5  -7140505.587 4  22920664.138    22920660.682    22920662.794
        33.100          28.800
 -21209251.249 7 -16526670.321 7  20491743.371    20491741.699    20491742.390
        47.100          43.900
  -3379909.671 4  -2633676.620 3  23864233.377    23864232.086    23864232.462
        24.900          22.100
 06  6  7  2 31  0.0000000  0  9G27G19G15G16G 8G13G23G 3G 7
 -15115037.865 6 -11777941.931 6  22276403.097    22276401.335    22276402.033
        39.400          36.900
 -19226219.336 7 -14981457.163 7  20946747.119    20946743.387    20946745.288
        45.500          43.300
  -3016633.837 3  -2350621.917 3  24063638.930    24063638.711    24063638.153
        19.300          18.600
  -6964201.066 5  -5426631.158 3  23251847.949    23251844.245    23251846.613
        30.800          22.600
  -2928845.197 4  -2282214.400 3  24222268.442    24222268.367    24222267.877
        24.200          21.100
 -16614834.839 7 -12946615.347 6  21436560.907    21436559.378    21436560.544
        42.000          38.500
  -9056337.165 5  -7056877.469 4  22941086.930    22941083.599    22941085.647
        33.100          29.000
 -21185516.754 7 -16508175.875 7  20496260.073    20496258.254    20496259.024
        47.200          43.900
  -3289452.574 4  -2563190.592 3  23881447.295    23881445.685    23881446.253
        25.300          21.600
 06  6  7  2 31 30.0000000  0  9G27G19G15G16G 8G13G23G 3G 7
 -15189545.598 6 -11835999.892 6  22262224.248    22262222.989    22262223.534
        39.400          37.000
 -19279661.203 7 -15023100.146 7  20936577.503    20936573.697    20936575.548
        45.600          43.500
  -3033327.090 3  -2363629.640 3  24060463.352    24060462.264    24060462.004
        19.900          19.900
  -6878013.899 5  -5359472.316 4  23268248.566    23268245.764    23268247.206
        30.200          24.900
  -3034179.737 4  -2364293.261 2  24202223.979    24202223.499    24202223.212
        24.200          17.000
 -16553666.569 6 -12898951.779 6  21448200.877    21448199.310    21448200.539
        41.800          38.100
  -8948797.396 5  -6973080.267 4  22961550.356    22961547.743    22961549.565
        32.400          28.800
 -21161202.566 7 -16489229.748 7  20500886.741    20500885.026    20500885.749
        47.100          43.700
  -3198794.100 4  -2492547.692 3  23898699.006    23898697.569    23898697.614
        25.600          21.600
 06  6  7  2 32  0.0000000  0  9G27G19G15G16G 8G13G23G 3G 7
 -15263864.478 6 -11893910.697 6  22248082.181    22248080.588    22248081.256
        40.000          36.800
 -19332587.000 7 -15064340.998 7  20926505.895    20926502.262    20926504.054
        45.600          43.600
  -3049481.798 3  -2376217.698 3  24057387.521    24057388.352    24057387.011
        23.000          21.600
  -6791740.971 4  -5292246.619 4  23284665.274    23284662.978    23284664.201
        29.500          24.600
  -3139479.829 4  -2446345.233 2  24182186.957    24182185.395    24182185.616
        24.900          12.600
 -16491970.081 6 -12850876.608 6  21459941.220    21459939.647    21459940.930
        41.800          38.100
  -8841043.667 5  -6889116.352 4  22982056.024    22982052.392    22982054.699
        32.600          27.900
 -21136309.756 7 -16469832.747 7  20505623.802    20505621.954    20505622.669
        46.800          43.900
  -3107936.680 4  -2421749.726 3  23915989.008    23915986.727    23915987.965
        24.200          19.300
 06  6  7  2 32 30.0000000  0  9G27G19G15G16G 8G13G23G 3G 7
 -15337992.716 6 -11951672.957 6  22233976.200    22233974.401    22233975.228
        40.100          37.200
 -19384995.510 7 -15105178.765 7  20916532.847    20916529.249    20916531.010
        45.600          43.600
  -3065096.636 3  -2388385.131 3  24054417.094    24054416.849    24054415.723
        20.500          22.100
  -6705383.646 4  -5224955.217 3  23301099.057    23301096.147    23301097.897
        29.700          23.800
  -3244744.008 3  -2528369.254 2  24162155.523    24162154.033    24162154.508
        23.800          16.100
 -16429747.647 6 -12802391.612 6  21471781.915    21471780.537    21471781.471
        41.600          38.600
  -8733078.764 5  -6804987.893 4  23002600.429    23002597.853    23002599.381
        31.100          28.600
 -21110839.988 7 -16449986.160 7  20510470.362    20510468.698    20510469.338
        46.900          43.700
  -3016882.179 4  -2350798.204 3  23933315.313    23933314.194    23933314.064
        24.200          20.500
 06  6  7  2 33  0.0000000  0  9G27G19G15G16G 8G13G23G 3G 7
 -15411928.537 6 -12009285.260 6  22219906.704    22219904.810    22219905.537
        39.800          37.000
 -19436885.648 7 -15145612.608 7  20906658.575    20906654.788    20906656.783
        45.900          43.500
  -3080170.671 3  -2400131.156 3  24051548.784    24051548.071    24051547.195
        19.300          19.300
  -6618942.760 5  -5157598.620 3  23317548.641    23317544.872    23317547.273
        30.200          23.800
  -3349970.381 3  -2610363.852 2  24142132.318    24142130.314    24142130.450
        21.600          13.900
 -16367001.589 6 -12753498.597 6  21483721.779    21483720.582    21483721.609
        41.800          38.100
  -8624905.945 5  -6720697.421 4  23023185.104    23023182.542    23023184.149
        31.600          29.200
 -21084794.466 7 -16429690.937 7  20515426.712    20515424.982    20515425.665
        47.000          44.000
  -2925633.076 4  -2279695.100 3  23950678.496    23950678.467    23950677.963
        24.200          20.500
 06  6  7  2 33 30.0000000  0  9G27G19G15G16G 8G13G23G 3G 7
 -15485670.445 6 -12066746.442 6  22205873.663    22205872.148    22205872.649
        39.400          37.000
 -19488255.867 7 -15185641.322 7  20896883.142    20896879.242    20896881.291
        45.900          43.600
  -3094702.713 3  -2411454.854 2  24048782.353    24048782.666    24048781.584
        19.900          17.800
  -6532419.015 4  -5090177.493 4  23334012.585    23334009.936    23334011.417
        29.200          25.300
  -3455157.478 3  -2692327.840 3  24122114.381    24122114.169    24122113.180
        22.100          19.300
 -16303734.198 6 -12704199.340 6  21495761.202    21495759.781    21495760.913
        41.400          37.500
  -8516528.261 5  -6636247.317 4  23043808.776    23043805.847    23043807.629
        31.600          27.900
 -21058174.386 7 -16408948.004 7  20520492.333    20520490.618    20520491.355
        47.000          43.900
  -2834191.403 4  -2208441.936 3  23968079.953    23968080.001    23968079.114
        24.900          21.600
