     2.10           Observation         G (GPS)             RINEX VERSION / TYPE
teqc  2005Sep1                          01/04/2007 15:37:37 PGM / RUN BY / DATE
ALGO CACS-ACP   883160   ALGONQUIN PARK  ONT  CANADA        MARKER NAME
-Unknown-           GEOD. SURVEY, NATURAL RESOURCES CANADA  OBSERVER / AGENCY
1103                AOA BENCHMARK ACT   3.3.32.2N           REC # / TYPE / VERS
386                 AOAD/M_T        NONE                    ANT # / TYPE
   918129.4000 -4346071.2000  4561977.8000                  APPROX POSITION XYZ
        0.1000        0.0000        0.0000                  ANTENNA: DELTA H/E/N
     1     1                                                WAVELENGTH FACT L1/2
     7    L1    L2    C1    P2    P1    S1    S2            # / TYPES OF OBSERV
    60.000                                                  INTERVAL
  2006     1     1     0     0    0.0000000     GPS         TIME OF FIRST OBS
40104M002                                                   MARKER NUMBER
Linux 2.4.20-8|Pentium IV|gcc|Linux|486/DX+                 COMMENT
L1 PHASE CENTRE  .110m ABOVE ARP                            COMMENT
L2 PHASE CENTRE  .128m ABOVE ARP                            COMMENT
where ARP is the Antenna Reference Point for HI measurement COMMENT
P1 =    P1  TurboRogue; =    Y1  Benchmark                  COMMENT
L1 = L1(CA)                                                 COMMENT
P2 =    P2  TurboRogue; =    Y2  Benchmark                  COMMENT
L2 = L2(P2) TurboRogue; = L2(Y2) Benchmark                  COMMENT
SNR is mapped to RINEX snr flag value [0-9]                 COMMENT
L1 & L2: min(max(int(snr_dBHz/6), 0), 9)                    COMMENT
                                                            END OF HEADER
 06  1  1  0  0  0.0000000  0  6G02G06G10G21G26G29
 -14648524.249 6 -11414415.680 6  22020494.612    22020490.815    22020493.909  
        41.600          36.200  
 -17872031.175 7 -13926243.585 6  21407579.072    21407577.646    21407578.248  
        44.900          40.500  
 -22878236.630 7 -17827175.316 7  20160590.275    20160588.580    20160589.169  
        45.900          46.400  
  -3121997.571 4  -2432722.223 3  24304026.964    24304026.203    24304026.414  
        24.900          21.100  
  -9857646.978 5  -7681275.854 4  22621054.862    22621052.894    22621053.626  
        33.900          29.900  
 -13756450.979 6 -10719302.137 5  21703413.911    21703411.878    21703413.070  
        38.500          34.700  
 06  1  1  0  1  0.0000000  0  6G02G06G10G21G26G29
 -14487690.455 6 -11289090.664 6  22051100.591    22051096.520    22051099.690  
        41.900          36.400  
 -17937852.343 7 -13977532.775 6  21395053.499    21395052.183    21395052.696  
        45.000          40.600  
 -22828113.228 7 -17788118.102 7  20170128.185    20170126.808    20170127.158  
        45.900          46.500  
  -3312682.806 4  -2581307.978 2  24267742.385    24267739.532    24267741.217  
        27.900          17.800  
 -10089330.554 5  -7861808.397 4  22576966.333    22576964.550    22576965.249  
        33.500          29.500  
 -13921563.744 6 -10847961.367 5  21671993.345    21671992.162    21671992.929  
        38.400          35.900  
 06  1  1  0  2  0.0000000  0  6G02G06G10G21G26G29
 -14325811.437 7 -11162951.188 6  22081904.931    22081901.099    22081904.126  
        42.000          36.500  
 -18001542.057 7 -14027161.091 6  21382933.828    21382932.544    21382933.136  
        45.400          40.700  
 -22776278.674 7 -17747727.538 7  20179992.203    20179990.658    20179991.010  
        45.800          46.700  
  -3503317.657 4  -2729854.513 1  24231465.427    24231462.564    24231464.222  
        29.000          11.000  
 -10319940.375 5  -8041504.293 5  22533080.420    22533080.939    22533081.257  
        33.000          30.100  
 -14085014.784 6 -10975325.775 5  21640890.024    21640888.245    21640889.395  
        39.000          35.700  
 06  1  1  0  3  0.0000000  0  6G02G06G10G21G26G29
 -14162893.750 6 -11036002.366 6  22112907.275    22112903.440    22112906.538  
        41.300          36.300  
 -18063089.661 7 -14075120.231 6  21371222.031    21371220.176    21371221.182  
        45.600          40.600  
 -22722744.282 7 -17706012.416 7  20190179.489    20190177.964    20190178.274  
        45.600          46.600  
  -3693894.344 4  -2878355.737 3  24195199.879    24195197.148    24195198.673  
        28.100          20.500  
 -10549449.179 5  -8220342.242 5  22489407.194    22489406.581    22489407.287  
        34.700          30.100  
 -14246784.009 6 -11101379.661 6  21610106.730    21610104.615    21610105.657  
        38.700          36.000  
 06  1  1  0  4  0.0000000  0  6G02G06G10G21G26G29
 -13998943.688 6 -10908249.076 6  22144106.163    22144102.028    22144105.040  
        41.000          36.200  
 -18122485.107 7 -14121402.369 6  21359918.909    21359917.643    21359918.158  
        45.000          40.700  
 -22667522.363 7 -17662982.344 7  20200687.813    20200686.182    20200686.579  
        45.800          46.400  
  -3884405.907 4  -3026806.166 3  24158945.784    24158943.881    24158945.014  
        25.900          22.100  
 -10777830.086 5  -8398301.290 5  22445948.184    22445947.306    22445947.673  
        33.100          30.800  
 -14406851.377 6 -11226107.420 6  21579646.658    21579644.690    21579645.963  
        39.600          36.200  
 06  1  1  0  5  0.0000000  0  6G02G06G10G21G26G29
 -13833968.453 6 -10779696.963 5  22175499.872    22175495.713    22175498.859  
        41.100          35.700  
 -18179718.049 7 -14165999.432 6  21349028.099    21349026.635    21349027.274  
        45.200          40.800  
 -22610624.413 7 -17618646.272 7  20211515.197    20211513.477    20211513.989  
        46.200          46.300  
  -4074844.120 4  -3175199.412 3  24122707.312    24122704.496    24122706.274  
        26.800          23.800  
 -11005056.127 5  -8575360.476 5  22402708.550    22402707.313    22402708.109  
        34.000          30.400  
 -14565196.917 6 -11349493.499 6  21549514.023    21549512.627    21549513.556  
        39.800          36.800  
 06  1  1  0  6  0.0000000  0  6G02G06G10G21G26G29
 -13667974.578 6 -10650351.106 5  22207086.798    22207083.401    22207086.418  
        40.600          35.500  
 -18234779.196 7 -14208904.191 6  21338550.154    21338548.471    21338549.404  
        45.300          40.300  
 -22552062.566 7 -17573013.652 7  20222659.185    20222657.520    20222658.038  
        46.400          46.300  
  -4265201.330 4  -3323529.597 3  24086482.604    24086480.014    24086481.495  
        27.100          20.500  
 -11231100.202 5  -8751498.623 5  22359694.811    22359692.590    22359693.603  
        34.700          30.400  
 -14721801.455 6 -11471522.935 6  21519713.965    21519711.724    21519712.858  
        39.700          36.600  
 06  1  1  0  7  0.0000000  0  6G02G06G10G21G26G29
 -13500969.102 6 -10520217.004 5  22238866.931    22238863.277    22238866.594  
        40.900          34.700  
 -18287659.003 7 -14250109.207 6  21328487.580    21328485.941    21328486.807  
        44.800          40.500  
 -22491848.145 7 -17526093.316 7  20234117.516    20234115.878    20234116.347  
        46.000          46.100  
  -4455469.845 4  -3471790.685 3  24050276.803    24050273.765    24050275.460  
        29.900          19.300  
 -11455935.589 5  -8926694.942 5  22316909.654    22316907.896    22316908.727  
        35.500          31.300  
 -14876645.551 6 -11592180.618 6  21490247.804    21490245.729    21490246.853  
        40.200          36.600  
 06  1  1  0  8  0.0000000  0  6G02G06G10G21G26G29
 -13332959.140 6 -10389300.166 5  22270838.705    22270834.648    22270837.920  
        40.400          35.100  
 -18338348.274 7 -14289607.311 6  21318841.450    21318840.041    21318840.703  
        44.800          40.700  
 -22429993.981 7 -17477895.253 7  20245887.956    20245886.332    20245886.845  
        46.300          46.300  
  -4645641.226 4  -3619976.119 2  24014088.325    24014084.760    24014087.027  
        29.200          17.800  
 -11679535.267 5  -9100928.375 5  22274360.163    22274357.932    22274358.866  
        35.100          31.100  
 -15029709.952 6 -11711451.516 6  21461119.881    21461118.470    21461119.382  
        40.000          37.100  
 06  1  1  0  9  0.0000000  0  6G02G06G10G21G26G29
 -13163951.518 6 -10257605.921 5  22302999.987    22302995.754    22302999.030  
        40.000          34.400  
 -18386838.249 7 -14327391.691 6  21309613.893    21309612.730    21309613.210  
        44.600          40.700  
 -22366511.968 7 -17428428.749 7  20257968.272    20257966.504    20257967.033  
        46.200          46.100  
  -4835707.734 4  -3768079.795 3  23977918.833    23977916.423    23977917.812  
        27.100          19.300  
 -11901872.605 5  -9274178.139 5  22232051.153    22232048.495    22232049.654  
        34.900          32.400  
 -15180975.637 6 -11829320.835 6  21432334.615    21432333.465    21432334.488  
        40.800          36.900  
 06  1  1  0 10  0.0000000  0  7G02G06G10G21G26G27G29
 -12993953.562 6 -10125140.006 5  22335349.660    22335345.135    22335348.658  
        40.000          34.300  
 -18433120.634 7 -14363455.868 6  21300806.975    21300805.416    21300806.136  
        44.800          40.700  
 -22301414.147 7 -17377703.172 7  20270356.053    20270354.310    20270354.796  
        46.300          46.000  
  -5025660.721 4  -3916095.003 3  23941772.318    23941769.191    23941771.240  
        28.600          22.100  
 -12122920.444 6  -9446423.126 5  22189986.655    22189984.242    22189985.599  
        36.700          31.300  
    -35506.228 4    -27666.263 2  25211142.694    25211140.611    25211141.880  
        25.900          17.800  
 -15330424.291 6 -11945774.292 6  21403896.288    21403894.359    21403895.534  
        40.700          37.200  
 06  1  1  0 11  0.0000000  0  7G02G06G10G21G26G27G29
 -12822972.089 6  -9991907.715 5  22367885.292    22367882.031    22367885.074  
        39.400          34.500  
 -18477186.935 7 -14397793.235 6  21292421.266    21292419.826    21292420.429  
        44.500          40.900  
 -22234712.380 7 -17325727.758 7  20283049.000    20283047.206    20283047.800  
        46.600          45.900  
  -5215491.988 4  -4064015.380 3  23905648.370    23905645.503    23905647.104  
        28.800          22.100  
 -12342652.376 5  -9617642.711 5  22148172.922    22148170.780    22148171.807  
        35.900          32.100  
    -74886.450 3    -58352.118 3  25203648.827    25203647.291    25203648.090  
        23.400          18.600  
 -15478037.202 6 -12060797.292 6  21375806.323    21375804.325    21375805.687  
        40.800          37.200  
 06  1  1  0 12  0.0000000  0  7G02G06G10G21G26G27G29
 -12651014.668 6  -9857914.959 5  22400608.368    22400604.818    22400607.540  
        39.200          34.900  
 -18519029.491 7 -14430397.802 6  21284458.827    21284457.412    21284458.137  
        44.900          40.700  
 -22166419.731 7 -17272512.700 7  20296044.500    20296042.794    20296043.363  
        46.900          45.700  
  -5405192.987 4  -4211834.230 4  23869549.369    23869547.383    23869548.269  
        29.500          25.300  
 -12561041.796 6  -9787816.205 5  22106614.534    22106612.621    22106613.512  
        36.300          32.700  
   -112555.597 3    -87704.694 2  25196480.813    25196478.761    25196479.676  
        23.000          17.800  
 -15623796.082 6 -12174375.588 6  21348068.927    21348067.544    21348068.332  
        40.800          38.000  
 06  1  1  0 13  0.0000000  0  7G02G06G10G21G26G27G29
 -12478088.200 6  -9723167.094 5  22433515.580    22433511.345    22433514.499  
        38.900          34.400  
 -18558640.837 7 -14461263.766 6  21276921.041    21276919.766    21276920.371  
        45.100          41.000  
 -22096548.646 7 -17218067.692 7  20309340.587    20309338.816    20309339.408  
        46.900          45.700  
  -5594755.055 4  -4359544.835 3  23833476.892    23833474.489    23833475.756  
        29.500          21.600  
 -12778061.606 6  -9956922.485 5  22065316.159    22065314.960    22065315.719  
        37.100          32.400  
   -148505.285 3   -115717.414 3  25189639.722    25189638.276    25189638.562  
        23.800          19.300  
 -15767683.014 6 -12286495.238 6  21320688.693    21320686.481    21320687.840  
        41.200          37.700  
 06  1  1  0 14  0.0000000  0  7G02G06G10G21G26G27G29
 -12304199.680 6  -9587669.578 5  22466604.788    22466601.485    22466604.322  
        39.200          34.500  
 -18596013.891 7 -14490385.617 6  21269809.566    21269807.709    21269808.796  
        45.200          41.000  
 -22025111.545 7 -17162402.402 7  20322934.587    20322932.773    20322933.387  
        46.600          45.500  
  -5784169.191 5  -4507140.197 3  23797433.125    23797429.968    23797432.138  
        30.800          22.600  
 -12993685.448 6 -10124940.971 5  22024283.650    22024282.962    22024283.879  
        37.500          33.000  
   -182726.467 4   -142383.268 2  25183127.541    25183125.542    25183127.040  
        25.300          13.900  
 -15909680.445 6 -12397142.547 6  21293667.113    21293665.306    21293666.427  
        41.300          38.100  
 06  1  1  0 15  0.0000000  0  7G02G06G10G21G26G27G29
 -12129357.014 6  -9451428.565 5  22499876.332    22499872.723    22499875.749  
        38.600          33.800  
 -18631141.433 7 -14517757.712 6  21263124.572    21263123.296    21263123.838  
        44.800          41.000  
 -21952120.912 7 -17105526.568 7  20336824.252    20336822.428    20336823.049  
        46.800          45.400  
  -5973427.070 5  -4654613.795 3  23761418.080    23761415.578    23761417.038  
        31.300          23.000  
 -13207887.031 6 -10291851.239 5  21983523.252    21983521.837    21983522.850  
        38.400          33.500  
   -215210.984 3   -167695.836 2  25176945.438    25176944.206    25176945.257  
        23.400          17.800  
 -16049770.970 6 -12506303.964 6  21267008.866    21267006.888    21267008.086  
        41.300          37.800  
 06  1  1  0 16  0.0000000  0  7G02G06G10G21G26G27G29
 -11953567.462 6  -9314449.711 5  22533328.294    22533324.394    22533327.412  
        37.800          33.900  
 -18664016.918 7 -14543374.956 6  21256868.671    21256867.080    21256867.865  
        44.900          40.800  
 -21877589.321 7 -17047449.988 7  20351006.961    20351005.387    20351005.806  
        46.900          45.400  
  -6162519.511 5  -4801958.475 3  23725435.318    23725431.588    23725434.171  
        31.300          23.000  
 -13420639.879 6 -10457632.615 5  21943038.164    21943036.349    21943037.208  
        37.700          34.300  
   -245950.196 3   -191648.483 2  25171095.601    25171094.871    25171095.147  
        22.100          16.100  
 -16187937.098 6 -12613965.825 6  21240716.228    21240714.716    21240715.949  
        41.700          37.900  
 06  1  1  0 17  0.0000000  0  7G02G06G10G21G26G27G29
 -11776838.183 6  -9176738.610 5  22566958.483    22566954.755    22566957.893  
        37.900          33.100  
 -18694634.794 7 -14567233.020 6  21251042.211    21251040.867    21251041.419  
        44.800          41.000  
 -21801529.517 7 -16988182.590 7  20365480.795    20365479.021    20365479.627  
        47.000          45.400  
  -6351437.412 4  -4949167.144 3  23689485.477    23689482.163    23689484.083  
        28.800          22.600  
 -13631917.576 6 -10622264.527 5  21902833.418    21902831.290    21902832.450  
        38.100          33.800  
   -274936.146 4   -214234.854 2  25165580.495    25165578.561    25165579.879  
        24.600          17.000  
 -16324161.827 6 -12720114.924 6  21214793.588    21214791.875    21214793.130  
        41.600          38.000  
 06  1  1  0 18  0.0000000  0  7G02G06G10G21G26G27G29
 -11599177.402 6  -9038301.698 5  22600766.764    22600762.638    22600765.767  
        37.200          33.000  
 -18722988.443 7 -14589326.760 6  21245647.056    21245645.396    21245646.302  
        45.100          41.300  
 -21723954.472 7 -16927734.491 7  20380242.748    20380241.004    20380241.538  
        46.900          45.200  
  -6540171.420 5  -5096232.532 3  23653570.565    23653566.879    23653569.307  
        31.800          21.100  
 -13841693.740 6 -10785726.440 5  21862913.419    21862912.169    21862913.075  
        38.500          34.400  
   -302160.502 3   -235448.680 2  25160399.360    25160398.116    25160399.025  
        23.800          17.000  
 -16458428.749 7 -12824738.451 6  21189243.693    21189241.926    21189243.148  
        42.100          38.600  
 06  1  1  0 19  0.0000000  0  7G02G06G10G21G26G27G29
 -11420592.177 6  -8899144.395 5  22634749.634    22634745.921    22634749.210  
        37.000          31.800  
 -18749072.509 7 -14609651.997 6  21240683.184    21240681.593    21240682.386  
        44.900          41.000  
 -21644876.370 7 -16866115.176 7  20395290.985    20395289.098    20395289.742  
        47.000          45.000  
  -6728712.521 5  -5243147.634 3  23617692.034    23617688.843    23617690.919  
        31.600          23.000  
 -14049942.621 6 -10947998.214 5  21823284.445    21823283.674    21823284.558  
        38.600          34.700  
   -327615.514 4   -255283.757 2  25155556.116    25155554.099    25155555.449  
        26.500          17.800  
 -16590721.367 7 -12927823.569 6  21164069.461    21164067.286    21164068.685  
        42.300          38.600  
 06  1  1  0 20  0.0000000  0  7G02G06G10G21G26G27G29
 -11241089.909 6  -8759272.530 5  22668908.224    22668904.553    22668907.523  
        36.500          33.000  
 -18772882.364 7 -14628205.121 6  21236152.391    21236150.796    21236151.579  
        44.600          41.100  
 -21564308.288 7 -16803334.845 7  20410622.519    20410620.709    20410621.346  
        47.200          45.000  
  -6917050.391 5  -5389904.349 4  23581851.517    23581849.493    23581850.901  
        31.500          25.900  
 -14256637.946 6 -11109059.485 5  21783953.088    21783950.911    21783951.893  
        38.600          34.800  
   -351294.512 4   -273734.915 2  25151050.134    25151048.161    25151049.288  
        25.300          17.000  
 -16721023.528 7 -13029357.684 6  21139273.688    21139271.677    21139272.805  
        42.000          38.900  
 06  1  1  0 21  0.0000000  0  7G02G06G10G21G26G27G29
 -11060678.936 6  -8618692.593 5  22703239.003    22703235.611    22703238.413  
        36.500          33.200  
 -18794412.833 7 -14644982.094 6  21232054.956    21232053.751    21232054.220  
        44.500          41.100  
 -21482263.109 7 -16739403.534 7  20426235.174    20426233.331    20426233.950  
        47.100          44.900  
  -7105176.078 5  -5536495.714 4  23546052.934    23546050.552    23546051.859  
        33.100          27.400  
 -14461753.816 6 -11268889.992 5  21744919.786    21744918.507    21744919.390  
        39.300          34.600  
   -373190.745 4   -290796.886 3  25146883.497    25146881.820    25146882.681  
        25.300          19.300  
 -16849319.368 7 -13129328.423 6  21114859.508    21114857.702    21114858.936  
        42.600          39.100  
 06  1  1  0 22  0.0000000  0  7G02G06G10G21G26G27G29
 -10879366.860 6  -8477410.496 5  22737742.516    22737738.234    22737741.381  
        36.500          32.800  
 -18813659.339 7 -14659979.356 6  21228392.642    21228391.246    21228391.880  
        44.600          41.100  
 -21398753.535 7 -16674331.136 7  20442126.326    20442124.710    20442125.174  
        47.000          44.700  
  -7293079.949 5  -5682914.270 4  23510295.722    23510293.381    23510294.660  
        31.300          26.200  
 -14665264.525 6 -11427469.706 5  21706192.846    21706191.484    21706192.414  
        39.200          34.600  
   -393297.033 4   -306464.131 2  25143057.457    25143054.738    25143056.751  
        24.600          12.600  
 -16975593.303 7 -13227723.659 6  21090830.381    21090828.285    21090829.774  
        42.700          38.800  
 06  1  1  0 23  0.0000000  0  7G02G06G10G21G26G27G29
 -10697161.184 6  -8335432.065 5  22772414.575    22772410.411    22772413.883  
        36.500          31.000  
 -18830617.645 7 -14673193.614 6  21225165.521    21225164.092    21225164.777  
        44.800          41.100  
 -21313792.810 7 -16608127.977 7  20458293.853    20458292.172    20458292.685  
        47.000          44.600  
  -7480752.094 5  -5829152.227 4  23474582.812    23474580.449    23474581.883  
        32.100          26.200  
 -14867144.009 6 -11584778.340 5  21667776.800    21667775.205    21667776.160  
        39.600          35.500  
   -411607.074 4   -320731.700 2  25139573.034    25139571.020    25139572.200  
        24.200          17.000  
 -17099830.175 7 -13324531.563 6  21067189.129    21067186.969    21067188.218  
        42.500          39.300  
 06  1  1  0 24  0.0000000  0  7G02G06G10G21G26G27G29
 -10514070.106 5  -8192763.729 5  22807255.414    22807252.003    22807254.682  
        35.300          31.500  
 -18845284.462 7 -14684622.294 6  21222374.520    21222373.003    21222373.841  
        44.700          40.900  
 -21227393.410 7 -16540803.765 7  20474735.230    20474733.412    20474734.041  
        47.000          44.400  
  -7668182.308 5  -5975201.685 4  23438916.523    23438913.456    23438915.515  
        33.200          24.900  
 -15067367.082 6 -11740796.259 5  21629675.018    21629673.891    21629674.775  
        39.500          35.500  
   -428115.077 3   -333595.088 3  25136431.147    25136429.988    25136430.615  
        23.000          18.600  
 -17222014.816 7 -13419740.334 6  21043938.034    21043936.089    21043937.254  
        43.000          39.800  
 06  1  1  0 25  0.0000000  0  7G02G06G10G21G26G27G29
 -10330101.132 5  -8049411.323 5  22842263.644    22842260.181    22842263.203  
        35.900          31.800  
 -18857655.929 7 -14694262.387 6  21220020.402    21220018.893    21220019.601  
        44.500          41.000  
 -21139568.322 7 -16472368.631 7  20491447.821    20491445.926    20491446.622  
        47.000          44.400  
  -7855360.296 5  -6121054.618 4  23403298.126    23403294.828    23403296.927  
        33.500          25.300  
 -15265908.232 6 -11895503.601 6  21591894.621    21591892.915    21591893.858  
        40.200          36.200  
   -442814.934 3   -345049.513 3  25133634.019    25133632.713    25133633.365  
        23.800          19.300  
 -17342132.800 7 -13513338.729 6  21021080.087    21021078.323    21021079.477  
        42.900          40.000  
 06  1  1  0 26  0.0000000  0  7G02G06G10G21G26G27G29
 -10145262.499 5  -7905381.237 5  22877438.410    22877433.708    22877437.151  
        35.300          31.100  
 -18867729.482 7 -14702111.896 6  21218103.319    21218101.854    21218102.637  
        44.600          40.900  
 -21050330.846 7 -16402832.934 7  20508429.126    20508427.329    20508427.964  
        47.100          44.400  
  -8042276.395 5  -6266703.453 4  23367728.574    23367725.617    23367727.566  
        33.900          25.900  
 -15462742.130 6 -12048880.608 5  21554438.105    21554436.397    21554437.586  
        40.400          35.600  
   -455701.003 4   -355090.585 2  25131182.629    25131180.354    25131181.922  
        26.200          17.000  
 -17460169.583 7 -13605315.403 6  20998618.858    20998616.650    20998617.957  
        43.000          40.000  
 06  1  1  0 27  0.0000000  0  8G02G06G08G10G21G26G27G29
  -9959562.222 5  -7760679.757 5  22912774.925    22912771.315    22912774.403  
        34.300          31.100  
 -18875501.945 7 -14708168.352 6  21216624.356    21216622.694    21216623.610  
        44.400          40.700  
   -196059.505 4   -152773.453 2  24814686.762    24814685.302    24814685.957  
        26.200          16.100  
 -20959693.712 7 -16332206.590 7  20525676.808    20525674.900    20525675.660  
        47.300          44.200  
  -8228919.939 5  -6412139.922 4  23332211.617    23332208.471    23332210.534  
        32.700          27.400  
 -15657843.800 6 -12200907.855 6  21517311.187    21517310.101    21517310.964  
        41.000          36.400  
   -466767.883 3   -363714.125 2  25129076.459    25129074.445    25129075.472  
        23.400          17.800  
 -17576111.032 7 -13695659.360 6  20976555.318    20976553.615    20976554.762  
        43.000          40.100  
 06  1  1  0 28  0.0000000  0  8G02G06G08G10G21G26G27G29
  -9773008.359 5  -7615313.141 5  22948275.489    22948271.312    22948274.587  
        34.400          30.400  
 -18880971.100 7 -14712430.016 6  21215583.659    21215582.100    21215582.841  
        44.100          41.000  
   -319388.452 3   -248873.818 2  24791217.721    24791216.551    24791216.321  
        22.600          15.100  
 -20867669.796 7 -16260499.643 7  20543188.502    20543186.493    20543187.273  
        47.100          44.100  
  -8415280.357 5  -6557355.743 4  23296748.084    23296745.400    23296747.007  
        34.100          27.400  
 -15851187.910 6 -12351565.554 6  21480519.799    21480517.804    21480518.900  
        40.800          37.000  
   -476011.082 4   -370916.653 2  25127317.969    25127314.911    25127316.965  
        24.600          16.100  
 -17689943.518 7 -13784359.955 6  20954894.062    20954891.823    20954893.193  
        42.800          39.900  
 06  1  1  0 29  0.0000000  0  8G02G06G08G10G21G26G27G29
  -9585609.062 5  -7469287.754 5  22983936.188    22983932.553    22983935.416  
        34.000          31.100  
 -18884135.142 7 -14714895.484 6  21214981.549    21214979.781    21214980.738  
        44.300          40.600  
   -441277.243 3   -343852.011 2  24768022.633    24768021.683    24768021.364  
        19.300          17.800  
 -20774272.216 7 -16187722.307 7  20560961.332    20560959.579    20560960.103  
        47.000          44.100  
  -8601347.543 5  -6702343.077 4  23261341.159    23261337.650    23261339.853  
        33.800          26.800  
 -16042750.096 6 -12500834.761 6  21444065.900    21444064.727    21444065.584  
        41.200          36.500  
   -483425.958 3   -376694.486 2  25125906.363    25125903.994    25125905.251  
        22.100          17.000  
 -17801653.509 7 -13871406.669 6  20933636.137    20933634.180    20933635.451  
        43.100          40.300  
 06  1  1  0 30  0.0000000  0  8G02G06G08G10G21G26G27G29
  -9397372.710 5  -7322610.123 4  23019755.209    23019752.275    23019755.355  
        34.700          28.800  
 -18884992.149 7 -14715563.270 6  21214818.525    21214816.747    21214817.795  
        44.500          40.600  
   -561703.907 4   -437690.847 2  24745106.462    24745105.026    24745105.474  
        24.200          17.800  
 -20679514.177 7 -16113884.869 7  20578992.852    20578991.507    20578991.777  
        46.700          44.300  
  -8787110.383 5  -6847093.286 4  23225991.326    23225988.427    23225990.245  
        34.500          27.600  
 -16232505.303 6 -12648695.921 6  21407956.556    21407955.464    21407956.361  
        41.500          37.200  
   -489007.516 3   -381043.759 2  25124844.658    25124842.208    25124843.626  
        23.800          17.800  
 -17911227.947 7 -13956789.302 6  20912785.115    20912782.830    20912784.216  
        43.300          40.400  
 06  1  1  0 31  0.0000000  0  8G02G06G08G10G21G26G27G29
  -9208307.516 5  -7175286.620 4  23055734.409    23055730.476    23055733.820  
        34.700          29.500  
 -18883541.097 7 -14714432.569 6  21215094.484    21215093.002    21215093.729  
        44.200          40.900  
   -680646.581 4   -530373.402 3  24722472.453    24722470.842    24722471.404  
        24.600          18.600  
 -20583407.971 7 -16038996.913 7  20597281.528    20597279.871    20597280.298  
        46.700          44.000  
  -8972558.183 5  -6991597.982 4  23190701.807    23190698.827    23190700.492  
        33.900          27.900  
 -16420429.179 6 -12795130.075 6  21372196.543    21372194.679    21372195.649  
        41.400          37.600  
   -492752.236 3   -383961.706 2  25124131.281    25124129.600    25124130.422  
        22.100          17.800  
 -18018654.061 7 -14040497.921 6  20892342.542    20892340.297    20892341.812  
        43.600          40.600  
 06  1  1  0 32  0.0000000  0  8G02G06G08G10G21G26G27G29
  -9018421.531 5  -7027323.548 4  23091868.768    23091864.437    23091867.684  
        34.300          29.200  
 -18879781.456 7 -14711502.966 6  21215809.660    21215808.446    21215808.873  
        43.700          40.900  
   -798084.315 3   -621883.240 3  24700124.377    24700123.476    24700123.320  
        23.400          22.100  
 -20485967.202 7 -15963069.038 7  20615823.786    20615822.170    20615822.630  
        46.900          43.600  
  -9157679.868 5  -7135848.600 4  23155474.556    23155470.538    23155473.215  
        34.100          26.800  
 -16606497.382 6 -12940118.250 6  21336788.549    21336787.056    21336788.049  
        41.900          37.600  
   -494656.277 3   -385445.383 2  25123769.619    25123766.829    25123768.759  
        23.400          16.100  
 -18123919.260 7 -14122522.722 6  20872311.184    20872309.018    20872310.377  
        43.400          40.800  
 06  1  1  0 33  0.0000000  0  8G02G06G08G10G21G26G27G29
  -8827722.903 5  -6878727.195 4  23128156.250    23128152.953    23128156.253  
        33.200          28.800  
 -18873712.593 7 -14706773.977 6  21216964.580    21216963.293    21216963.870  
        43.800          40.800  
   -913995.467 4   -712203.524 2  24678067.947    24678065.780    24678066.714  
        26.500          17.800  
 -20387204.513 7 -15886111.097 7  20634617.772    20634616.009    20634616.615  
        47.000          43.600  
  -9342464.235 5  -7279836.382 4  23120311.385    23120307.750    23120310.115  
        35.500          28.400  
 -16790685.894 6 -13083641.723 6  21301738.224    21301737.077    21301738.011  
        41.900          37.700  
   -494715.872 4   -385491.818 3  25123757.910    25123756.268    25123756.742  
        24.200          19.900  
 -18227011.573 7 -14202854.356 6  20852693.220    20852691.058    20852692.487  
        43.600          40.700  
 06  1  1  0 34  0.0000000  0  8G02G06G08G10G21G26G27G29
  -8636220.672 5  -6729504.688 4  23164598.848    23164595.259    23164597.630  
        32.100          28.800  
 -18865333.880 7 -14700245.104 6  21218559.341    21218557.867    21218558.433  
        43.800          41.000  
  -1028358.203 4   -801317.318 3  24656304.569    24656303.565    24656303.745  
        25.300          19.300  
 -20287133.253 7 -15808133.484 7  20653660.848    20653659.028    20653659.666  
        47.300          43.400  
  -9526900.283 5  -7423552.731 4  23085213.679    23085210.699    23085212.487  
        35.100          27.900  
 -16972970.659 7 -13225681.744 6  21267050.869    21267049.310    21267050.412  
        42.400          37.500  
   -492928.131 3   -384098.792 3  25124098.220    25124096.201    25124097.114  
        22.600          19.300  
 -18327919.169 7 -14281483.620 6  20833490.987    20833488.958    20833490.292  
        43.400          40.900  
 06  1  1  0 35  0.0000000  0  8G02G06G08G10G21G26G27G29
  -8443923.238 5  -6579662.560 4  23201192.151    23201187.944    23201190.978  
        31.600          28.800  
 -18854645.815 7 -14691916.732 6  21220593.021    21220591.548    21220592.217  
        43.800          40.700  
  -1141152.331 4   -889208.739 2  24634841.320    24634839.067    24634840.187  
        28.100          16.100  
 -20185765.750 7 -15729145.812 7  20672950.221    20672948.604    20672949.153  
        47.400          43.100  
  -9710976.688 5  -7566988.833 4  23050184.398    23050181.587    23050183.565  
        35.400          26.800  
 -17153327.998 7 -13366219.874 6  21232730.096    21232728.338    21232729.363  
        42.100          37.900  
   -489289.986 3   -381263.907 3  25124790.639    25124788.705    25124789.368  
        22.100          21.600  
 -18426630.342 7 -14358401.376 6  20814707.030    20814704.967    20814706.261  
        43.600          41.400  
 06  1  1  0 36  0.0000000  0  8G02G06G08G10G21G26G27G29
  -8250838.999 5  -6429207.316 4  23237933.959    23237930.709    23237933.615  
        32.400          28.600  
 -18841649.306 7 -14681789.579 6  21223066.214    21223064.761    21223065.507  
        44.000          40.700  
  -1252356.540 4   -975861.335 2  24613679.793    24613677.547    24613678.611  
        26.500          15.100  
 -20083115.454 7 -15649158.564 7  20692484.040    20692482.154    20692482.862  
        47.000          42.900  
  -9894681.570 6  -7710135.461 4  23015227.345    23015223.758    23015226.306  
        36.500          27.900  
 -17331734.571 7 -13505237.930 6  21198780.506    21198778.723    21198779.673  
        42.200          38.400  
   -483798.800 4   -376985.097 3  25125835.259    25125833.770    25125834.384  
        24.600          21.100  
 -18523134.335 7 -14433599.262 6  20796342.944    20796340.720    20796342.202  
        43.700          41.200  
 06  1  1  0 37  0.0000000  0  8G02G06G08G10G21G26G27G29
  -8056976.258 5  -6278145.445 4  23274825.165    23274821.478    23274824.338  
        32.100          27.400  
 -18826344.985 7 -14669864.128 6  21225978.675    21225977.079    21225977.884  
        44.200          40.700  
  -1361950.420 4  -1061259.102 2  24592824.627    24592822.751    24592823.670  
        26.500          17.800  
 -19979195.361 7 -15568181.862 7  20712259.398    20712257.590    20712258.181  
        47.000          42.800  
 -10078003.374 6  -7852983.577 4  22980342.167    22980339.093    22980341.188  
        36.700          29.700  
 -17508166.797 7 -13642717.544 6  21165206.305    21165204.498    21165205.714  
        42.700          37.900  
   -476452.171 4   -371260.453 3  25127233.750    25127231.703    25127232.785  
        24.900          18.600  
 -18617420.255 7 -14507068.780 6  20778400.336    20778398.751    20778399.809  
        43.600          41.300  
 06  1  1  0 38  0.0000000  0  8G02G06G08G10G21G26G27G29
  -7862343.528 5  -6126483.569 4  23311863.136    23311859.022    23311862.279  
        32.000          28.800  
 -18808734.898 7 -14656141.979 6  21229329.825    21229328.136    21229328.990  
        44.100          40.900  
  -1469912.591 4  -1145385.402 2  24572279.266    24572278.421    24572278.611  
        24.200          17.800  
 -19874018.442 7 -15486225.817 7  20732273.863    20732272.074    20732272.646  
        46.700          42.800  
 -10260930.557 6  -7995524.183 4  22945532.063    22945529.155    22945531.193  
        36.500          29.500  
 -17682601.790 7 -13778640.870 6  21132012.380    21132010.892    21132011.834  
        42.700          38.600  
   -467248.450 3   -364088.723 3  25128984.766    25128983.361    25128984.057  
        23.400          18.600  
 -18709477.413 7 -14578801.603 6  20760882.753    20760880.729    20760882.185  
        43.900          41.500  
 06  1  1  0 39  0.0000000  0  8G02G06G08G10G21G26G27G29
  -7666950.362 5  -5974229.209 4  23349045.123    23349041.158    23349044.149  
        30.200          27.900  
 -18788819.631 7 -14640623.582 6  21233119.459    21233117.971    21233118.669  
        44.000          40.700  
  -1576223.236 3  -1228224.805 2  24552049.484    24552047.722    24552048.274  
        23.400          13.900  
 -19767597.143 7 -15403300.132 7  20752524.916    20752523.339    20752523.866  
        47.000          42.800  
 -10443451.416 6  -8137748.199 4  22910800.080    22910796.528    22910798.677  
        36.600          29.700  
 -17855016.612 7 -13912990.010 6  21099202.700    21099201.350    21099202.291  
        43.100          38.900  
   -456185.928 3   -355468.598 2  25131090.371    25131088.058    25131089.295  
        23.400          15.100  
 -18799295.994 7 -14648790.084 6  20743790.760    20743788.812    20743790.164  
        44.000          41.600  
 06  1  1  0 40  0.0000000  0  8G02G06G08G10G21G26G27G29
  -7470804.551 5  -5821388.330 4  23386370.640    23386366.045    23386369.509  
        30.400          25.900  
 -18766603.064 7 -14623311.971 6  21237347.198    21237345.553    21237346.413  
        44.000          40.700  
  -1680862.842 4  -1309762.068 2  24532137.638    24532135.248    24532136.820  
        25.300          16.100  
 -19659944.415 7 -15319414.888 7  20773010.911    20773009.039    20773009.684  
        47.000          42.700  
 -10625553.531 6  -8279645.903 4  22876147.004    22876143.162    22876145.876  
        37.100          27.900  
 -18025388.546 7 -14045747.296 6  21066782.042    21066780.553    21066781.466  
        43.000          39.100  
   -443262.209 3   -345398.203 2  25133548.942    25133546.786    25133548.033  
        19.900          16.100  
 -18886866.149 7 -14717026.543 6  20727126.874    20727124.767    20727126.149  
        43.800          41.600  
 06  1  1  0 41  0.0000000  0  8G02G06G08G10G21G26G27G29
  -7273915.740 5  -5667968.529 4  23423836.425    23423833.488    23423835.778  
        31.600          28.100  
 -18742086.488 7 -14604208.145 6  21242012.524    21242010.913    21242011.731  
        43.900          40.400  
  -1783811.298 4  -1389981.587 3  24512546.570    24512545.441    24512545.594  
        26.800          21.100  
 -19551073.484 7 -15234580.399 7  20793728.293    20793726.416    20793727.097  
        47.000          42.500  
 -10807225.202 6  -8421208.214 5  22841575.895    22841572.651    22841574.715  
        36.400          30.800  
 -18193695.565 7 -14176895.568 6  21034754.087    21034752.811    21034753.666  
        43.100          39.200  
   -428477.033 3   -333877.298 3  25136362.654    25136361.192    25136361.559  
        19.300          19.300  
 -18972178.593 7 -14783503.746 6  20710892.585    20710890.285    20710891.789  
        43.900          41.900  
 06  1  1  0 42  0.0000000  0  8G02G06G08G10G21G26G27G29
  -7076292.431 5  -5513976.345 4  23461443.729    23461439.492    23461442.604  
        30.200          27.100  
 -18715272.378 7 -14583314.027 6  21247114.898    21247113.433    21247114.059  
        43.300          40.400  
  -1885049.265 4  -1468868.249 3  24493281.761    24493280.262    24493280.749  
        27.400          23.800  
 -19440996.889 7 -15148806.430 7  20814675.300    20814673.337    20814674.027  
        46.900          42.500  
 -10988454.200 6  -8562425.570 5  22807089.146    22807085.613    22807087.992  
        37.500          30.200  
 -18359915.370 7 -14306417.450 6  21003123.485    21003122.081    21003123.167  
        43.900          39.300  
   -411829.469 3   -320905.176 2  25139530.467    25139528.907    25139529.749  
        21.600          17.000  
 -19055224.429 7 -14848214.758 7  20695089.375    20695087.085    20695088.633  
        44.000          42.000  
 06  1  1  0 43  0.0000000  0  8G02G06G08G10G21G26G27G29
  -6877943.196 5  -5359418.559 4  23499188.368    23499184.447    23499187.330  
        31.500          27.600  
 -18686164.871 7 -14560632.849 6  21252653.803    21252652.409    21252652.996  
        43.300          40.500  
  -1984556.521 4  -1546406.301 3  24474345.966    24474344.007    24474344.845  
        24.200          19.300  
 -19329727.559 7 -15062103.056 7  20835848.941    20835847.145    20835847.724  
        46.600          42.200  
 -11169227.147 6  -8703287.579 5  22772689.003    22772685.712    22772687.880  
        37.300          30.800  
 -18524025.801 7 -14434295.659 6  20971894.051    20971892.874    20971893.861  
        43.800          39.300  
   -393319.198 3   -306481.617 3  25143052.824    25143051.383    25143051.997  
        23.000          21.600  
 -19135994.719 7 -14911152.624 7  20679719.055    20679717.151    20679718.438  
        44.200          42.200  
 06  1  1  0 44  0.0000000  0  8G02G06G08G10G21G26G27G29
  -6678877.642 5  -5204302.597 4  23537069.167    23537065.326    23537068.250  
        30.400          26.800  
 -18654767.347 7 -14536167.244 6  21258628.591    21258626.950    21258627.874  
        43.600          40.100  
  -2082314.227 4  -1622581.076 2  24455742.713    24455741.028    24455741.731  
        25.300          15.100  
 -19217277.882 7 -14974479.940 7  20857247.233    20857245.658    20857246.179  
        46.600          42.000  
 -11349533.230 6  -8843785.786 5  22738377.543    22738374.694    22738376.502  
        36.700          30.400  
 -18686005.486 7 -14560513.551 6  20941070.862    20941069.116    20941070.188  
        43.900          39.200  
   -372945.600 3   -290606.121 2  25146930.713    25146927.947    25146929.613  
        20.500          13.900  
 -19214481.277 7 -14972310.950 7  20664783.755    20664781.563    20664783.073  
        44.600          42.300  
 06  1  1  0 45  0.0000000  0  8G02G06G08G10G21G26G27G29
  -6479104.236 4  -5048635.057 4  23575083.985    23575080.947    23575083.488  
        29.200          25.900  
 -18621083.483 7 -14509920.080 6  21265038.589    21265036.969    21265037.805  
        43.500          40.000  
  -2178303.158 4  -1697377.597 2  24437477.621    24437475.483    24437475.982  
        24.600          17.000  
 -19103661.066 7 -14885947.361 6  20878868.001    20878866.137    20878866.736  
        46.800          41.900  
 -11529358.488 6  -8983909.342 5  22704157.590    22704154.829    22704156.961  
        38.000          30.200  
 -18845833.182 7 -14685054.564 6  20910656.731    20910654.728    20910656.020  
        44.000          39.500  
   -350708.954 3   -273278.912 2  25151161.544    25151159.524    25151160.608  
        19.900          15.100  
 -19290676.500 7 -15031683.830 7  20650284.285    20650281.917    20650283.577  
        44.300          42.500  
 06  1  1  0 46  0.0000000  0  8G02G06G08G10G21G26G27G29
  -6278632.105 4  -4892422.989 4  23613232.180    23613229.791    23613232.181  
        28.400          27.100  
 -18585117.580 7 -14481894.698 6  21271882.738    21271881.008    21271881.954  
        43.700          39.900  
  -2272505.548 4  -1770782.024 3  24419550.547    24419549.401    24419549.843  
        25.300          19.900  
 -18988889.388 7 -14796514.882 6  20900708.397    20900706.521    20900707.276  
        47.000          41.800  
 -11708691.048 6  -9123648.993 4  22670032.114    22670028.867    22670031.191  
        38.400          29.700  
 -19003487.839 7 -14807902.310 6  20880655.924    20880654.098    20880655.405  
        44.400          39.900  
   -326609.266 3   -254499.989 2  25155748.294    25155745.516    25155747.398  
        23.400          17.000  
 -19364572.495 7 -15089265.097 7  20636222.320    20636220.146    20636221.594  
        44.200          42.700  
 06  1  1  0 47  0.0000000  0  8G02G06G08G10G21G26G27G29
  -6077470.466 4  -4735673.721 4  23651511.329    23651509.179    23651512.023  
        29.000          24.900  
 -18546874.480 7 -14452094.881 6  21279159.836    21279158.627    21279159.140  
        43.300          40.300  
  -2364902.081 4  -1842779.287 2  24401968.364    24401966.104    24401967.552  
        26.500          15.100  
 -18872975.608 7 -14706192.462 6  20922766.271    20922764.130    20922765.046  
        46.800          41.500  
 -11887517.483 6  -9262994.232 5  22636003.152    22635999.650    22636001.901  
        38.400          31.600  
 -19158948.707 7 -14929040.615 6  20851072.613    20851070.792    20851071.960  
        44.000          39.800  
   -300647.844 3   -234270.289 2  25160688.197    25160685.797    25160687.350  
        21.600          13.900  
 -19436162.283 7 -15145049.323 7  20622598.992    20622597.027    20622598.433  
        44.300          42.700  
 06  1  1  0 48  0.0000000  0  8G02G06G08G10G21G26G27G29
  -5875628.969 4  -4578394.666 4  23689921.001    23689918.803    23689920.939  
        28.600          26.200  
 -18506359.872 7 -14420525.052 6  21286869.587    21286868.164    21286868.841  
        43.200          40.200  
  -2455473.085 4  -1913354.034 3  24384733.098    24384731.844    24384732.268  
        26.500          19.900  
 -18755932.540 7 -14614990.069 6  20945038.691    20945036.726    20945037.483  
        46.600          41.300  
 -12065824.674 6  -9401934.883 5  22602072.237    22602068.819    22602071.028  
        38.900          32.100  
 -19312195.196 7 -15048453.419 6  20821910.845    20821908.903    20821910.304  
        44.700          40.200  
   -272825.015 3   -212590.183 2  25165982.713    25165981.135    25165981.611  
        22.600          16.100  
 -19505438.868 7 -15199031.053 7  20609416.181    20609414.090    20609415.560  
        44.300          42.800  
 06  1  1  0 49  0.0000000  0  8G02G06G08G10G21G26G27G29
  -5673116.116 4  -4420592.464 3  23728458.977    23728455.376    23728458.540  
        28.600          22.600  
 -18463578.807 7 -14387189.162 6  21295010.822    21295009.168    21295010.000  
        43.400          39.900  
  -2544203.709 4  -1982494.749 3  24367848.500    24367847.341    24367847.535  
        27.100          20.500  
 -18637772.616 7 -14522917.401 6  20967523.867    20967521.853    20967522.685  
        46.600          41.200  
 -12243600.191 6  -9540461.239 5  22568242.393    22568239.163    22568241.502  
        38.800          31.100  
 -19463207.188 7 -15166125.061 6  20793174.050    20793172.332    20793173.514  
        44.800          40.800  
   -243141.995 4   -189460.551 2  25171631.543    25171629.224    25171630.564  
        26.200          16.100  
 -19572396.180 7 -15251205.559 7  20596674.674    20596672.475    20596673.964  
        44.300          42.800  
 06  1  1  0 50  0.0000000  0  8G02G06G08G10G21G26G27G29
  -5469941.465 4  -4262274.615 4  23767123.138    23767118.282    23767121.819  
        27.400          25.600  
 -18418536.852 7 -14352091.533 6  21303581.976    21303580.090    21303581.153  
        43.100          39.600  
  -2631075.208 3  -2050186.744 2  24351317.051    24351315.566    24351316.059  
        23.800          17.800  
 -18518508.383 7 -14429984.237 6  20990218.794    20990216.972    20990217.675  
        46.100          40.900  
 -12420830.068 6  -9678562.434 5  22534517.167    22534513.596    22534515.933  
        39.300          32.000  
 -19611964.793 7 -15282040.042 6  20764866.721    20764864.731    20764866.038  
        44.700          40.900  
   -211601.003 3   -164883.201 2  25177633.001    25177631.311    25177631.882  
        22.600          16.100  
 -19637027.987 7 -15301567.989 7  20584375.749    20584373.447    20584374.958  
        44.400          43.200  
 06  1  1  0 51  0.0000000  0  8G02G06G08G10G21G26G27G29
  -5266114.161 4  -4103448.194 4  23805909.776    23805906.143    23805908.594  
        28.400          27.100  
 -18371240.912 7 -14315237.561 6  21312581.847    21312580.472    21312581.126  
        43.200          39.700  
  -2716069.526 4  -2116416.073 2  24335143.288    24335140.608    24335142.160  
        24.900          15.100  
 -18398152.051 7 -14336200.080 6  21013121.873    21013120.129    21013120.697  
        46.300          40.700  
 -12597501.699 6  -9816228.614 5  22500896.918    22500893.973    22500896.039  
        39.300          32.300  
 -19758448.379 7 -15396183.069 6  20736991.286    20736989.667    20736990.930  
        45.200          40.800  
   -178203.032 3   -138858.848 2  25183988.566    25183987.023    25183987.518  
        21.100          17.800  
 -19699328.520 7 -15350113.838 7  20572520.469    20572518.069    20572519.729  
        44.600          43.100  
 06  1  1  0 52  0.0000000  0  8G02G06G08G10G21G26G27G29
  -5061643.533 4  -3944120.460 4  23844819.656    23844815.209    23844818.102  
        27.400          25.300  
 -18321697.386 7 -14276632.223 6  21322009.921    21322008.153    21322009.103  
        43.000          39.300  
  -2799169.495 4  -2181169.229 2  24319330.067    24319327.071    24319329.169  
        26.200          15.100  
 -18276716.057 7 -14241574.630 6  21036230.489    21036228.624    21036229.308  
        46.300          40.600  
 -12773600.668 6  -9953448.579 5  22467386.592    22467383.117    22467385.429  
        39.400          31.500  
 -19902638.589 7 -15508539.048 6  20709552.827    20709551.294    20709552.373  
        44.900          41.100  
   -142950.861 3   -111389.669 2  25190696.646    25190695.319    25190695.772  
        22.100          16.100  
 -19759292.477 7 -15396838.982 7  20561109.767    20561107.314    20561108.980  
        44.400          43.200  
 06  1  1  0 53  0.0000000  0  8G02G06G08G10G21G26G27G29
  -4856539.105 4  -3784298.917 3  23883849.780    23883844.748    23883848.336  
        26.200          22.600  
 -18269912.942 7 -14236280.713 6  21331864.077    21331862.429    21331863.369  
        42.900          39.200  
  -2880358.313 4  -2244433.225 2  24303880.609    24303878.367    24303879.359  
        27.400          16.100  
 -18154212.901 7 -14146117.626 6  21059542.037    21059540.284    21059540.888  
        46.200          41.100  
 -12949114.252 6 -10090212.398 5  22433987.651    22433984.250    22433986.430  
        39.600          32.800  
 -20044516.671 7 -15619093.375 6  20682554.419    20682552.693    20682554.008  
        45.200          41.100  
   -105846.753 3    -82477.432 2  25197757.498    25197755.406    25197756.594  
        23.000          17.000  
 -19816915.113 7 -15441739.722 7  20550144.452    20550142.059    20550143.646  
        44.400          43.400  
 06  1  1  0 54  0.0000000  0  8G02G06G08G10G21G26G27G29
  -4650810.602 4  -3623991.048 3  23922998.622    23922994.198    23922997.179  
        25.900          23.400  
 -18215894.674 7 -14194188.565 6  21342143.287    21342141.817    21342142.547  
        42.700          39.400  
  -2959619.098 4  -2306194.826 3  24288797.558    24288796.067    24288796.711  
        28.400          20.500  
 -18030654.406 7 -14049838.279 6  21083054.618    21083052.599    21083053.381  
        46.500          40.700  
 -13124028.308 6 -10226509.023 5  22400702.116    22400699.370    22400701.268  
        40.000          33.200  
 -20184063.821 7 -15727831.389 6  20655999.702    20655997.556    20655999.065  
        45.400          40.800  
    -66893.736 4    -52124.468 2  25205170.794    25205168.384    25205170.060  
        25.300          17.800  
 -19872192.197 7 -15484812.755 7  20539625.479    20539623.076    20539624.728  
        44.200          43.400  
 06  1  1  0 55  0.0000000  0  8G02G06G08G10G21G26G27G29
  -4444467.615 4  -3463204.360 3  23962262.571    23962259.493    23962261.973  
        24.600          19.900  
 -18159650.203 7 -14150361.716 6  21352846.248    21352844.660    21352845.561  
        42.900          38.700  
  -3036935.910 4  -2366441.656 3  24274084.355    24274082.769    24274083.330  
        27.400          22.100  
 -17906053.408 7 -13952746.585 6  21106765.248    21106763.449    21106764.067  
        46.200          40.600  
 -13298329.128 6 -10362327.837 5  22367534.160    22367530.673    22367533.191  
        41.000          32.600  
 -20321261.982 7 -15834739.021 6  20629891.696    20629889.706    20629891.077  
        45.200          41.300  
    -26094.393 3    -20332.815 2  25212934.083    25212932.366    25212933.062  
        20.500          17.800  
 -19925118.932 7 -15526054.353 7  20529553.463    20529551.619    20529552.823  
        44.100          43.800  
 06  1  1  0 56  0.0000000  0  9G02G06G08G10G15G21G26G27G29
  -4237519.187 4  -3301945.933 3  24001645.512    24001640.577    24001644.380  
        29.700          21.100  
 -18101188.029 7 -14104806.784 6  21363971.280    21363969.814    21363970.488  
        42.700          39.200  
  -3112292.502 4  -2425161.053 3  24259744.378    24259742.587    24259743.516  
        26.500          19.300  
 -17780421.690 7 -13854851.742 6  21130672.015    21130670.517    21130670.896  
        46.000          40.700  
   -222917.379 2   -173701.538 3  24539122.212    24539121.706    24539121.300  
        17.800          23.000  
 -13472002.347 6 -10497657.612 5  22334485.135    22334481.747    22334484.166  
        40.500          32.600  
 -20456093.128 7 -15939802.211 6  20604234.188    20604232.014    20604233.507  
        45.300          41.200  
     16548.272 3     12895.162 2  25221049.072    25221047.213    25221047.929  
        23.000          13.900  
 -19975692.024 7 -15565461.943 7  20519929.919    20519927.786    20519929.185  
        44.100          43.600  
 06  1  1  0 57  0.0000000  0  9G02G06G08G10G15G21G26G27G29
  -4029975.276 4  -3140223.425 3  24041139.425    24041135.158    24041138.300  
        26.500          23.400  
 -18040516.320 7 -14057530.137 6  21375516.875    21375515.301    21375516.098  
        42.800          39.100  
  -3185672.952 4  -2482340.587 3  24245780.961    24245778.911    24245779.775  
        25.300          20.500  
 -17653771.416 7 -13756163.213 6  21154772.920    21154771.043    21154771.692  
        45.700          40.200  
   -431915.321 3   -336556.975 4  24499351.236    24499351.221    24499350.603  
        23.000          26.500  
 -13645034.700 6 -10632487.991 5  22301558.489    22301554.841    22301557.295  
        40.800          33.400  
 -20588539.715 7 -16043007.307 6  20579030.184    20579028.331    20579029.786  
        45.800          41.300  
     61030.160 3     47556.342 2  25229513.996    25229511.753    25229512.649  
        21.600          12.600  
 -20023907.976 7 -15603032.808 7  20510754.638    20510752.573    20510753.922  
        44.200          43.700  
 06  1  1  0 58  0.0000000  0  9G02G06G08G10G15G21G26G27G29
  -3821845.162 4  -2978044.163 3  24080743.857    24080740.946    24080743.357  
        25.300          19.300  
 -17977643.457 7 -14008538.307 6  21387481.095    21387479.654    21387480.315  
        42.500          38.900  
  -3257061.810 3  -2537968.237 2  24232194.880    24232193.576    24232194.103  
        23.400          17.800  
 -17526114.566 7 -13656690.346 6  21179065.350    21179063.352    21179064.056  
        45.600          40.000  
   -640915.655 4   -499414.278 3  24459580.893    24459578.620    24459579.841  
        24.600          21.100  
 -13817411.353 6 -10766807.442 5  22268756.146    22268752.545    22268755.165  
        41.400          33.500  
 -20718584.654 7 -16144340.994 6  20554283.360    20554281.729    20554282.834  
        45.500          41.700  
    107347.816 4     83647.948 2  25238327.198    25238325.810    25238326.299  
        24.600          16.100  
 -20069763.782 7 -15638764.592 7  20502028.919    20502026.529    20502028.139  
        44.600          43.800  
 06  1  1  0 59  0.0000000  0  8G02G06G08G10G15G21G26G29
  -3613139.206 3  -2815416.159 3  24120458.018    24120456.555    24120458.485  
        23.800          20.500  
 -17912579.301 7 -13957838.975 6  21399862.409    21399860.795    21399861.639  
        42.600          38.600  
  -3326443.988 3  -2592032.220 3  24218992.385    24218991.424    24218991.058  
        23.400          22.100  
 -17397463.257 7 -13556442.567 6  21203546.590    21203544.893    21203545.337  
        45.600          39.800  
   -849907.761 3   -662265.224 3  24419809.808    24419809.119    24419808.989  
        23.000          22.100  
 -13989118.122 6 -10900604.889 5  22236081.494    22236077.899    22236080.289  
        41.500          34.100  
 -20846210.769 7 -16243789.886 6  20529996.996    20529995.129    20529996.460  
        45.700          41.700  
 -20113257.015 7 -15672655.416 7  20493752.188    20493749.929    20493751.523  
        44.600          43.700  
 06  1  1  1  0  0.0000000  0  8G02G06G08G10G15G21G26G29
  -3403866.995 4  -2652346.955 4  24160283.252    24160280.172    24160282.628  
        27.400          24.900  
 -17845332.544 7 -13905438.910 6  21412658.970    21412657.239    21412658.192  
        42.200          38.300  
  -3393804.839 4  -2644521.107 3  24206173.650    24206172.442    24206172.774  
        24.900          21.600  
 -17267828.876 7 -13455428.757 6  21228215.130    21228213.440    21228214.037  
        45.400          39.700  
  -1058881.584 3   -825101.895 3  24380043.747    24380042.748    24380042.926  
        23.400          22.100  
 -14160140.275 6 -11033868.895 5  22203536.819    22203533.332    22203535.814  
        41.800          33.500  
 -20971401.841 7 -16341341.338 7  20506174.028    20506172.017    20506173.437  
        45.600          42.100  
 -20154385.288 7 -15704703.411 7  20485925.648    20485923.533    20485925.026  
        44.400          43.800  
 06  1  1  1  1  0.0000000  0  8G02G06G08G10G15G21G26G29
  -3194037.553 4  -2488843.585 4  24200213.287    24200209.557    24200212.374  
        26.800          25.300  
 -17775913.213 7 -13851345.935 6  21425868.994    21425867.759    21425868.244  
        42.100          38.900  
  -3459129.182 4  -2695423.192 3  24193742.945    24193741.711    24193742.398  
        26.200          19.900  
 -17137223.619 7 -13353658.423 6  21253068.637    21253066.861    21253067.437  
        45.400          39.700  
  -1267826.251 3   -987915.891 2  24340282.449    24340280.911    24340281.344  
        23.400          16.100  
 -14330464.193 6 -11166588.805 5  22171125.208    22171121.880    22171124.190  
        41.800          34.000  
 -21094141.797 7 -16436982.836 6  20482817.201    20482815.311    20482816.607  
        45.600          41.900  
 -20193146.620 7 -15734907.034 7  20478549.834    20478547.492    20478549.041  
        44.700          43.900  
 06  1  1  1  2  0.0000000  0  8G02G06G08G10G15G21G26G29
  -2983661.547 3  -2324914.257 3  24240247.288    24240242.063    24240245.890  
        23.000          21.100  
 -17704331.629 7 -13795568.096 6  21439490.907    21439488.839    21439490.041  
        42.400          38.300  
  -3522403.050 4  -2744727.468 3  24181703.296    24181700.481    24181701.684  
        26.200          19.300  
 -17005658.802 7 -13251140.381 6  21278104.807    21278102.686    21278103.467  
        45.200          39.400  
  -1476731.067 3  -1150698.796 3  24300529.197    24300528.266    24300528.089  
        22.600          23.400  
 -14500074.476 7 -11298752.630 5  22138849.691    22138846.349    22138848.484  
        42.000          34.700  
 -21214414.786 7 -16530702.015 7  20459929.860    20459928.224    20459929.446  
        45.800          42.300  
 -20229539.768 7 -15763265.323 7  20471624.394    20471622.050    20471623.595  
        44.400          43.900  
 06  1  1  1  3  0.0000000  0  8G02G06G08G10G15G21G26G29
  -2772748.796 3  -2160566.744 3  24280380.649    24280377.851    24280379.901  
        23.000          22.600  
 -17630597.847 7 -13738113.211 6  21453521.824    21453519.831    21453521.125  
        42.400          38.000  
  -3583612.777 4  -2792423.319 3  24170054.676    24170052.901    24170053.586  
        25.900          18.600  
 -16873146.563 7 -13147884.085 6  21303320.888    21303319.165    21303319.647  
        45.100          39.400  
  -1685585.544 3  -1313442.501 2  24260785.413    24260784.164    24260784.188  
        22.100          15.100  
 -14668956.371 7 -11430348.894 5  22106712.380    22106709.111    22106711.361  
        42.600          34.800  
 -21332205.421 7 -16622486.904 7  20437515.081    20437513.195    20437514.543  
        45.600          42.100  
 -20263563.714 7 -15789777.479 7  20465149.737    20465147.590    20465149.049  
        44.400          44.100  
 06  1  1  1  4  0.0000000  0  8G02G06G08G10G15G21G26G29
  -2561308.600 4  -1995808.203 2  24320617.124    24320613.189    24320615.886  
        26.500          13.900  
 -17554722.369 7 -13678989.468 6  21467960.502    21467958.913    21467959.678  
        42.400          38.200  
  -3642744.445 4  -2838499.915 3  24158803.140    24158800.200    24158802.077  
        27.100          19.300  
 -16739698.345 7 -13043898.454 6  21328715.106    21328713.429    21328713.928  
        44.900          39.300  
  -1894378.178 4  -1476138.096 3  24221053.517    24221052.638    24221052.638  
        24.600          20.500  
 -14837095.246 7 -11561366.177 5  22074716.364    22074713.395    22074715.452  
        42.700          35.400  
 -21447498.965 7 -16712326.003 7  20415575.635    20415573.741    20415575.021  
        45.800          42.400  
 -20295217.731 7 -15814442.944 7  20459126.339    20459123.951    20459125.529  
        44.600          44.100  
 06  1  1  1  5  0.0000000  0  8G02G06G08G10G15G21G26G29
  -2349351.696 4  -1830646.991 2  24360952.372    24360947.339    24360951.195  
        26.500          16.100  
 -17476717.035 6 -13618206.098 6  21482804.249    21482802.493    21482803.398  
        41.500          37.700  
  -3699784.457 4  -2882946.662 3  24147948.469    24147946.210    24147947.387  
        27.100          21.100  
 -16605325.915 7 -12939192.654 6  21354285.228    21354283.684    21354284.065  
        44.600          39.100  
  -2103097.430 4  -1638776.400 4  24181336.723    24181334.777    24181335.757  
        27.600          25.600  
 -15004476.177 7 -11691792.856 5  22042865.149    22042861.561    22042863.918  
        42.400          34.900  
 -21560280.769 7 -16800207.903 7  20394113.917    20394112.113    20394113.306  
        46.000          42.700  
 -20324501.583 7 -15837261.525 7  20453553.655    20453551.417    20453552.965  
        44.700          44.200  
 06  1  1  1  6  0.0000000  0  8G02G06G08G10G15G21G26G29
  -2136888.175 4  -1665091.092 4  24401381.895    24401378.763    24401380.643  
        24.600          24.900  
 -17396592.947 6 -13555771.762 6  21498051.279    21498049.785    21498050.540  
        41.900          38.100  
  -3754720.735 4  -2925754.114 3  24137494.049    24137491.548    24137493.230  
        28.800          18.600  
 -16470040.660 7 -12833775.562 6  21380029.131    21380027.447    21380027.981  
        44.800          38.600  
  -2311731.985 4  -1801348.793 4  24141633.737    24141632.628    24141632.557  
        24.200          24.600  
 -15171084.030 7 -11821617.149 5  22011160.501    22011157.163    22011159.472  
        42.900          35.500  
 -21670536.517 7 -16886121.447 7  20373133.017    20373131.023    20373132.425  
        46.300          42.700  
 -20351415.421 7 -15858233.344 7  20448432.236    20448429.884    20448431.417  
        44.500          44.300  
 06  1  1  1  7  0.0000000  0  8G02G06G08G10G15G21G26G29
  -1923927.347 3  -1499147.644 2  24441907.327    24441902.869    24441906.310  
        22.100          13.900  
 -17314361.878 6 -13491695.611 6  21513699.685    21513698.009    21513698.918  
        41.800          37.900  
  -3807540.538 4  -2966912.419 3  24127443.178    24127440.620    24127442.172  
        26.800          19.300  
 -16333853.472 7 -12727655.658 6  21405945.156    21405942.962    21405943.882  
        44.700          38.400  
  -2520270.727 3  -1963846.446 4  24101950.341    24101948.940    24101949.234  
        23.000          24.900  
 -15336903.586 7 -11950827.178 5  21979606.195    21979602.670    21979605.037  
        43.100          35.500  
 -21778252.466 7 -16970055.926 7  20352635.054    20352633.329    20352634.554  
        46.000          42.900  
 -20375959.514 7 -15877358.609 7  20443761.405    20443759.208    20443760.606  
        44.200          44.400  
 06  1  1  1  8  0.0000000  0  8G02G06G08G10G15G21G26G29
  -1710479.615 3  -1332824.834 3  24482524.173    24482520.973    24482523.387  
        23.000          19.300  
 -17230036.009 6 -13425987.160 6  21529746.170    21529744.665    21529745.369  
        41.500          37.800  
  -3858231.011 4  -3006411.472 3  24117796.340    24117795.006    24117795.713  
        28.800          21.600  
 -16196776.062 7 -12620842.084 6  21432029.518    21432027.987    21432028.375  
        44.300          38.200  
  -2728702.278 4  -2126260.574 3  24062288.061    24062285.171    24062286.953  
        24.600          22.600  
 -15501919.727 7 -12079411.181 5  21948204.673    21948201.199    21948203.602  
        43.400          35.300  
 -21883415.446 7 -17052001.089 7  20332623.105    20332621.456    20332622.633  
        45.800          43.000  
 -20398135.003 7 -15894638.205 7  20439541.757    20439539.543    20439540.968  
        44.600          44.600  
 06  1  1  1  9  0.0000000  0  8G02G06G08G10G15G21G26G29
  -1496555.665 4  -1166130.948 3  24523234.070    24523229.652    24523232.590  
        27.400          18.600  
 -17143627.933 6 -13358656.193 6  21546188.919    21546187.434    21546188.223  
        41.200          37.400  
  -3906780.243 4  -3044241.992 3  24108558.668    24108556.610    24108557.562  
        28.600          19.300  
 -16058819.807 7 -12513343.687 6  21458282.227    21458280.207    21458280.911  
        44.500          38.500  
  -2937014.056 4  -2288581.401 3  24022647.075    24022645.015    24022645.884  
        26.200          20.500  
 -15666117.112 7 -12207357.186 6  21916958.630    21916955.624    21916957.518  
        42.700          36.200  
 -21986012.599 7 -17131946.902 7  20313099.513    20313097.810    20313099.054  
        45.900          43.100  
 -20417942.843 7 -15910072.884 7  20435772.308    20435770.068    20435771.690  
        44.800          44.600  
 06  1  1  1 10  0.0000000  0  8G02G06G08G10G15G21G26G29
  -1282165.272 3   -999073.520 3  24564031.154    24564026.771    24564029.183  
        18.600          23.000  
 -17055149.861 6 -13289712.265 6  21563025.971    21563024.420    21563025.155  
        41.700          37.400  
  -3953177.324 4  -3080395.561 3  24099728.983    24099727.168    24099727.924  
        25.600          20.500  
 -15919995.870 7 -12405169.178 6  21484699.177    21484697.441    21484698.063  
        44.400          37.900  
  -3145194.852 4  -2450800.167 3  23983031.609    23983029.667    23983030.339  
        27.400          21.100  
 -15829479.550 7 -12334652.581 6  21885872.054    21885868.579    21885870.939  
        43.400          36.100  
 -22086031.319 7 -17209883.548 7  20294066.649    20294064.811    20294066.071  
        46.000          43.200  
 -20435384.800 7 -15923664.015 7  20432453.286    20432450.954    20432452.636  
        44.900          44.500  
 06  1  1  1 11  0.0000000  0  8G02G06G08G10G15G21G26G29
  -1067318.463 3   -831660.596 3  24604914.961    24604910.862    24604913.429  
        21.100          22.600  
 -16964615.082 6 -13219165.689 6  21580254.041    21580252.236    21580253.306  
        41.200          36.800  
  -3997410.836 4  -3114863.226 3  24091311.886    24091309.753    24091310.959  
        27.100          21.100  
 -15780315.278 7 -12296327.140 6  21511279.812    21511277.718    21511278.599  
        44.000          38.000  
  -3353232.164 4  -2612907.156 3  23943442.125    23943441.591    23943441.414  
        28.800          22.100  
 -15991992.379 7 -12461285.947 5  21854946.876    21854943.435    21854945.804  
        43.600          35.900  
 -22183459.460 7 -17285801.563 7  20275526.798    20275524.860    20275526.218  
        46.100          43.300  
 -20450462.829 7 -15935413.124 7  20429583.895    20429581.801    20429583.362  
        44.700          44.800  
 06  1  1  1 12  0.0000000  0  7G06G08G10G15G21G26G29
 -16872036.891 6 -13147026.850 6  21597871.127    21597869.671    21597870.401  
        41.200          37.000  
  -4039469.373 4  -3147636.071 3  24083308.921    24083306.524    24083307.654  
        26.800          23.000  
 -15639788.806 7 -12186825.979 6  21538020.733    21538019.042    21538019.620  
        43.800          37.700  
  -3561114.216 3  -2774893.121 4  23903884.797    23903883.073    23903883.537  
        23.000          26.500  
 -16153639.909 7 -12587245.058 6  21824186.111    21824183.035    21824185.363  
        44.100          36.500  
 -22278285.429 7 -17359691.918 7  20257482.154    20257480.258    20257481.602  
        46.300          43.800  
 -20463179.220 7 -15945321.996 7  20427164.192    20427161.948    20427163.460  
        44.600          44.800  
 06  1  1  1 13  0.0000000  0  8G06G08G10G15G18G21G26G29
 -16777429.144 6 -13073306.542 6  21615874.897    21615872.925    21615874.090  
        41.800          37.300  
  -4079342.718 4  -3178706.188 3  24075721.704    24075719.081    24075720.204  
        29.500          22.100  
 -15498427.123 7 -12076674.004 6  21564921.196    21564919.048    21564920.009  
        44.200          37.200  
  -3768828.706 4  -2936748.496 4  23864357.198    23864356.840    23864355.817  
        24.900          28.400  
   -164690.873 2   -128330.434 9  23647918.868    23647917.361    23647917.633  
        13.900          -3.000  
 -16314405.665 7 -12712517.068 6  21793593.576    21793590.219    21793592.574  
        44.100          36.700  
 -22370497.982 7 -17431545.834 7  20239934.522    20239932.661    20239933.940  
        46.100          43.800  
 -20473536.964 7 -15953392.961 7  20425193.162    20425190.937    20425192.464  
        44.400          44.800  
 06  1  1  1 14  0.0000000  0  8G06G08G10G15G18G21G26G29
 -16680805.610 6 -12998015.498 6  21634261.514    21634260.066    21634260.752  
        41.200          37.700  
  -4117020.638 4  -3208065.602 3  24068550.674    24068549.041    24068549.640  
        27.400          21.600  
 -15356241.166 7 -11965879.739 6  21591978.001    21591976.533    21591977.036  
        43.700          37.600  
  -3976362.803 4  -3098463.323 4  23824865.614    23824864.048    23824864.594  
        28.100          27.600  
   -334517.237 3   -260662.626    23615602.095    23615600.416    23615601.177  
        18.600           3.000  
 -16474274.298 7 -12837090.012 6  21763171.719    21763168.213    21763170.806  
        44.600          36.700  
 -22460086.484 7 -17501355.037 7  20222886.437    20222884.501    20222885.910  
        46.200          43.800  
 -20481539.068 7 -15959628.367 7  20423670.385    20423668.102    20423669.673  
        44.500          44.700  
 06  1  1  1 15  0.0000000  0  8G06G08G10G15G18G21G26G29
 -16582180.409 6 -12921164.708 6  21653028.693    21653027.590    21653027.997  
        40.400          36.800  
  -4152493.812 4  -3235707.009 3  24061800.600    24061798.530    24061799.270  
        27.600          21.100  
 -15213241.852 7 -11854451.697 6  21619189.906    21619188.171    21619188.792  
        43.600          37.200  
  -4183704.074 4  -3260027.904 4  23785409.418    23785408.205    23785408.329  
        26.500          26.200  
   -503788.334 3   -392562.155 2  23583391.055    23583388.716    23583389.799  
        20.500          15.100  
 -16633229.400 7 -12960951.124 6  21732923.524    21732920.039    21732922.452  
        44.500          36.500  
 -22547040.590 7 -17569111.474 7  20206339.515    20206337.626    20206339.055  
        46.400          43.700  
 -20487188.937 7 -15964030.852 7  20422595.221    20422592.937    20422594.393  
        44.400          44.800  
 06  1  1  1 16  0.0000000  0  8G06G08G10G15G18G21G26G29
 -16481568.310 6 -12842765.690 6  21672175.190    21672173.439    21672174.406  
        40.800          37.100  
  -4185752.404 4  -3261622.762 3  24055471.961    24055469.574    24055470.712  
        28.400          21.600  
 -15069439.962 7 -11742398.266 6  21646554.533    21646552.743    21646553.473  
        43.400          36.700  
  -4390839.469 4  -3421432.116 2  23745992.295    23745990.584    23745991.328  
        28.400          17.000  
   -672499.946 4   -524025.692 3  23551286.294    23551283.415    23551285.250  
        25.900          19.300  
 -16791255.515 7 -13084088.348 6  21702852.102    21702848.902    21702851.086  
        44.800          37.500  
 -22631350.598 7 -17634807.569 7  20190295.850    20190293.920    20190295.366  
        46.400          43.900  
 -20490490.436 7 -15966603.440 7  20421966.886    20421964.817    20421966.154  
        44.500          44.800  
 06  1  1  1 17  0.0000000  0  8G06G08G10G15G18G21G26G29
 -16378983.909 6 -12762829.818 6  21691695.840    21691694.420    21691695.145  
        40.000          36.100  
  -4216787.277 4  -3285805.803 3  24049565.829    24049563.545    24049564.826  
        28.100          19.900  
 -14924845.761 7 -11629727.456 6  21674070.019    21674068.118    21674068.897  
        43.200          36.600  
  -4597755.963 4  -3582665.789 3  23706618.417    23706615.705    23706617.656  
        28.400          20.500  
   -840647.771 4   -655049.939 3  23519288.018    23519286.110    23519287.491  
        27.600          21.100  
 -16948336.523 7 -13206489.119 6  21672960.338    21672957.214    21672959.454  
        44.800          37.600  
 -22713006.946 7 -17698435.878 7  20174757.076    20174755.246    20174756.613  
        46.200          44.000  
 -20491447.602 7 -15967349.280 7  20421784.819    20421782.646    20421784.091  
        44.700          44.800  
 06  1  1  1 18  0.0000000  0  8G06G08G10G15G18G21G26G29
 -16274442.489 6 -12681368.991 6  21711589.291    21711588.273    21711588.528  
        39.600          36.800  
  -4245590.494 4  -3308249.844 3  24044084.413    24044082.102    24044083.422  
        27.100          20.500  
 -14779469.927 7 -11516447.579 6  21701734.101    21701732.155    21701732.978  
        43.000          36.400  
  -4804441.133 4  -3743719.180 3  23667285.546    23667285.735    23667284.892  
        24.600          23.800  
  -1008227.527 5   -785631.514 4  23487399.138    23487396.801    23487398.407  
        32.300          25.600  
 -17104455.922 7 -13328140.588 6  21643252.268    21643248.584    21643251.150  
        45.000          37.800  
 -22792000.345 7 -17759989.160 7  20159725.374    20159723.359    20159724.765  
        46.300          44.200  
 -20490065.460 7 -15966272.278 7  20422047.947    20422045.591    20422047.291  
        44.900          44.900  
 06  1  1  1 19  0.0000000  0  8G06G08G10G15G18G21G26G29
 -16167959.287 6 -12598395.086 5  21731852.951    21731851.024    21731852.157  
        40.200          35.700  
  -4272152.846 4  -3328947.782 3  24039030.315    24039027.886    24039029.159  
        27.600          21.100  
 -14633322.634 7 -11402566.568 6  21729545.185    21729543.098    21729543.960  
        42.700          36.300  
  -5010881.240 4  -3904581.617 4  23628002.257    23628001.392    23628001.432  
        26.800          25.300  
  -1175235.406 5   -915767.495 4  23455618.584    23455615.784    23455617.661  
        32.300          26.500  
 -17259597.483 7 -13449030.103 6  21613729.595    21613726.165    21613728.609  
        45.300          37.800  
 -22868322.719 7 -17819461.130 7  20145201.446    20145199.640    20145200.849  
        46.100          44.300  
 -20486348.454 7 -15963375.904 7  20422755.153    20422752.934    20422754.423  
        44.700          45.100  
 06  1  1  1 20  0.0000000  0  8G06G08G10G15G18G21G26G29
 -16059550.136 6 -12513920.442 6  21752482.488    21752480.946    21752481.683  
        40.400          36.500  
  -4296466.802 4  -3347893.725 3  24034403.348    24034401.784    24034402.258  
        25.900          21.100  
 -14486414.174 7 -11288092.437 6  21757500.745    21757498.775    21757499.600  
        42.700          36.100  
  -5217062.765 4  -4065242.537 5  23588767.752    23588767.069    23588766.574  
        27.900          31.300  
  -1341666.870 5  -1045454.315 4  23423948.053    23423945.098    23423947.153  
        32.800          26.500  
 -17413744.387 7 -13569144.572 6  21584396.516    21584393.016    21584395.414  
        45.400          38.000  
 -22941965.919 7 -17876845.427 7  20131187.605    20131185.952    20131187.063  
        46.000          44.700  
 -20480302.205 7 -15958664.536 7  20423905.734    20423903.468    20423904.986  
        44.800          44.800  
 06  1  1  1 21  0.0000000  0  8G06G08G10G15G18G21G26G29
 -15949231.174 6 -12427957.638 6  21773475.269    21773473.973    21773474.567  
        39.700          36.000  
  -4318524.864 4  -3365081.814 3  24030205.469    24030204.201    24030204.649  
        28.100          23.000  
 -14338754.844 7 -11173033.211 5  21785599.528    21785597.310    21785598.325  
        42.500          35.800  
  -5422972.229 4  -4225691.431 4  23549584.084    23549582.699    23549583.045  
        28.400          27.900  
  -1507518.096 4  -1174688.978 4  23392387.533    23392384.730    23392386.269  
        28.600          25.600  
 -17566881.113 7 -13688471.877 6  21555255.458    21555252.222    21555254.472  
        45.800          38.800  
 -23012922.391 7 -17932136.174 7  20117684.915    20117683.289    20117684.500  
        46.300          44.600  
 -20471932.364 7 -15952142.579 7  20425498.315    20425496.128    20425497.640  
        44.900          44.700  
 06  1  1  1 22  0.0000000  0  8G06G08G10G15G18G21G26G29
 -15837017.931 6 -12340518.778 6  21794828.922    21794827.572    21794828.221  
        39.700          36.300  
  -4338319.317 4  -3380506.052 3  24026438.963    24026437.050    24026437.932  
        28.100          19.900  
 -14190354.530 7 -11057396.594 6  21813839.084    21813837.212    21813837.998  
        42.400          36.000  
  -5628596.411 4  -4385918.077 4  23510455.840    23510454.281    23510454.590  
        28.800          28.100  
  -1672784.642 5  -1303468.081 3  23360938.182    23360935.006    23360937.163  
        30.200          21.600  
 -17718990.755 7 -13806998.863 6  21526309.954    21526306.449    21526308.936  
        45.600          38.500  
 -23081185.000 7 -17985327.802 7  20104695.192    20104693.274    20104694.723  
        46.400          44.700  
 -20461244.798 7 -15943814.597 7  20427532.204    20427529.910    20427531.529  
        44.900          44.800  
 06  1  1  1 23  0.0000000  0  8G06G08G10G15G18G21G26G29
 -15722927.550 6 -12251617.190 5  21816539.819    21816537.946    21816538.905  
        39.300          35.200  
  -4355844.584 4  -3394162.083 3  24023104.051    24023102.286    24023103.101  
        27.900          19.300  
 -14041223.414 7 -10941190.517 5  21842217.732    21842215.841    21842216.622  
        42.200          35.800  
  -5833921.330 4  -4545911.521 4  23471382.981    23471381.763    23471382.137  
        29.200          26.200  
  -1837462.186 5  -1431788.214 4  23329601.160    23329598.468    23329600.249  
        33.100          25.300  
 -17870056.902 7 -13924712.737 6  21497563.081    21497559.556    21497562.114  
        46.000          38.600  
 -23146747.085 7 -18036415.135 7  20092219.302    20092217.241    20092218.705  
        46.600          44.800  
 -20448245.854 7 -15933685.549 7  20430006.042    20430003.519    20430005.236  
        45.100          44.800  
 06  1  1  1 24  0.0000000  0  8G06G08G10G15G18G21G26G29
 -15606976.453 6 -12161265.717 5  21838604.523    21838602.875    21838603.657  
        39.300          35.900  
  -4371093.202 4  -3406044.113 3  24020202.041    24020200.200    24020201.242  
        27.600          22.100  
 -13891371.549 6 -10824422.823 5  21870733.827    21870731.146    21870732.636  
        41.800          34.700  
  -6038932.520 5  -4705660.500 4  23432371.560    23432369.485    23432370.399  
        30.100          27.100  
  -2001547.113 5  -1559646.605 4  23298376.812    23298373.731    23298375.683  
        32.800          26.200  
 -18020062.615 7 -14041600.302 6  21469017.927    21469014.563    21469016.930  
        46.000          38.900  
 -23209602.517 7 -18085393.391 7  20080258.243    20080256.129    20080257.716  
        46.600          44.700  
 -20432942.277 7 -15921760.676 7  20432918.181    20432915.698    20432917.384  
        45.200          44.800  
 06  1  1  1 25  0.0000000  0  8G06G08G10G15G18G21G26G29
 -15489181.568 6 -12069477.523 5  21861019.706    21861018.247    21861018.936  
        38.700          34.500  
  -4384059.805 4  -3416147.960 3  24017734.846    24017733.191    24017734.033  
        29.200          21.100  
 -13740808.158 6 -10707100.698 5  21899384.712    21899382.870    21899383.675  
        41.600          34.900  
  -6243616.307 4  -4865154.328 4  23393421.453    23393419.224    23393420.368  
        26.500          25.600  
  -2165035.285 5  -1687039.925 4  23267266.359    23267263.631    23267265.380  
        31.800          29.500  
 -18168991.333 7 -14157648.648 6  21440677.614    21440674.364    21440676.723  
        46.100          39.100  
 -23269745.464 7 -18132258.016 7  20068813.413    20068811.351    20068812.842  
        46.800          44.900  
 -20415340.924 7 -15908045.334 7  20436267.462    20436265.149    20436266.733  
        45.100          45.100  
 06  1  1  1 26  0.0000000  0  8G06G08G10G15G18G21G26G29
 -15369560.348 6 -11976266.215 6  21883783.185    21883781.909    21883782.484  
        39.100          36.000  
  -4394737.996 4  -3424468.607 3  24015702.646    24015700.895    24015701.930  
        27.900          19.300  
 -13589543.686 6 -10589232.261 5  21928169.367    21928167.698    21928168.166  
        41.500          35.300  
  -6447958.387 4  -5024381.888 4  23354535.438    23354534.320    23354534.268  
        28.400          25.300  
  -2327922.744 5  -1813965.187 4  23236269.683    23236266.259    23236268.610  
        32.800          24.600  
 -18316826.792 7 -14272845.109 6  21412545.352    21412542.177    21412544.379  
        46.200          39.300  
 -23327170.853 7 -18177005.063 7  20057885.662    20057883.722    20057885.166  
        46.800          44.900  
 -20395449.484 7 -15892545.512 7  20440052.705    20440050.371    20440051.980  
        45.300          44.900  
 06  1  1  1 27  0.0000000  0  8G06G08G10G15G18G21G26G29
 -15248129.957 6 -11881645.165 5  21906890.739    21906888.946    21906889.946  
        38.800          34.400  
  -4403122.782 4  -3431002.232 3  24014107.430    24014105.224    24014106.452  
        27.400          21.100  
 -13437587.384 6 -10470824.737 5  21957085.774    21957083.955    21957084.544  
        41.200          35.200  
  -6651944.410 5  -5183332.024 4  23315718.895    23315716.991    23315717.958  
        30.400          25.300  
  -2490205.100 5  -1940418.985 4  23205388.011    23205385.534    23205387.174  
        31.600          27.600  
 -18463551.074 7 -14387175.712 6  21384624.862    21384621.537    21384623.926  
        46.600          39.700  
 -23381873.856 7 -18219630.767 7  20047476.233    20047474.033    20047475.590  
        46.800          45.000  
 -20373275.513 7 -15875267.089 7  20444272.111    20444269.993    20444271.447  
        45.000          45.100  
 06  1  1  1 28  0.0000000  0  8G06G08G10G15G18G21G26G29
 -15124908.289 6 -11785628.305 5  21930338.907    21930337.352    21930338.033  
        38.100          34.100  
  -4409210.407 4  -3435745.809 3  24012949.347    24012947.311    24012948.356  
        28.800          22.600  
 -13284948.629 6 -10351885.437 5  21986131.812    21986129.867    21986130.727  
        41.200          34.400  
  -6855559.793 5  -5341993.322 4  23276972.507    23276970.773    23276971.285  
        31.500          29.200  
  -2651878.341 5  -2066398.070 4  23174622.625    23174619.898    23174621.740  
        33.200          27.900  
 -18609147.476 7 -14500627.448 6  21356918.727    21356915.376    21356917.573  
        46.100          39.800  
 -23433850.277 7 -18260131.861 7  20037585.104    20037583.227    20037584.553  
        46.600          44.900  
 -20348826.911 7 -15856216.225 7  20448924.613    20448922.376    20448923.894  
        45.300          44.900  
 06  1  1  1 29  0.0000000  0  8G06G08G10G15G18G21G26G29
 -14999913.138 6 -11688229.520 5  21954124.633    21954123.337    21954123.815  
        38.300          34.800  
  -4412995.782 4  -3438695.479 3  24012228.935    24012227.098    24012227.564  
        26.200          23.800  
 -13131637.081 6 -10232421.876 5  22015306.039    22015304.212    22015304.956  
        41.100          34.700  
  -7058789.612 5  -5500354.171 5  23238298.762    23238297.138    23238297.701  
        30.800          31.600  
  -2812938.707 5  -2191899.673 4  23143973.887    23143971.149    23143972.869  
        32.800          26.500  
 -18753600.108 7 -14613187.926 6  21329430.324    21329426.929    21329429.259  
        46.500          40.000  
 -23483096.131 7 -18298505.242 7  20028214.047    20028211.946    20028213.606  
        46.900          44.800  
 -20322112.117 7 -15835399.497 7  20454008.399    20454006.061    20454007.581  
        45.200          45.200  
 06  1  1  1 30  0.0000000  0  8G06G08G10G15G18G21G26G29
 -14873162.507 6 -11589462.822 5  21978244.627    21978243.190    21978243.849  
        38.200          34.500  
  -4414474.712 4  -3439847.877 3  24011946.841    24011944.825    24011945.499  
        24.200          19.300  
 -12977662.438 6 -10112441.633 5  22044606.487    22044604.699    22044605.323  
        40.600          34.500  
  -7261619.302 5  -5658403.230 5  23199702.375    23199700.079    23199700.897  
        30.600          30.400  
  -2973381.447 5  -2316919.940 4  23113442.551    23113440.000    23113441.499  
        32.400          28.600  
 -18896891.345 7 -14724843.423 6  21302163.032    21302159.512    21302161.907  
        46.400          39.800  
 -23529608.517 7 -18334748.647 7  20019362.990    20019361.064    20019362.594  
        46.900          45.100  
 -20293139.691 7 -15812823.579 7  20459521.703    20459519.254    20459520.878  
        45.200          45.000  
 06  1  1  1 31  0.0000000  0  8G06G08G10G15G18G21G26G29
 -14744675.125 6 -11489342.812 5  22002694.822    22002693.373    22002694.090  
        37.900          33.900  
  -4413643.656 4  -3439200.308 3  24012105.171    24012103.404    24012104.301  
        26.200          23.400  
 -12823034.223 6  -9991952.100 5  22074031.168    22074029.450    22074030.078  
        40.500          34.500  
  -7464033.977 4  -5816128.913 4  23161183.555    23161181.379    23161182.120  
        29.700          27.400  
  -3133203.736 5  -2441456.777 4  23083029.510    23083026.646    23083028.802  
        33.500          27.600  
 -19039004.294 7 -14835580.770 6  21275119.682    21275116.288    21275118.616  
        46.700          40.000  
 -23573384.282 7 -18368859.629 7  20011032.618    20011030.813    20011032.247  
        47.000          45.500  
 -20261918.630 7 -15788495.474 7  20465462.483    20465460.505    20465461.857  
        45.200          45.100  
 06  1  1  1 32  0.0000000  0  8G06G08G10G15G18G21G26G29
 -14614469.303 6 -11387883.768 5  22027472.232    22027470.745    22027471.501  
        37.200          33.400  
  -4410499.379 4  -3436750.261 3  24012703.329    24012701.456    24012702.350  
        27.100          20.500  
 -12667761.063 6  -9870960.008 5  22103578.856    22103576.683    22103577.759  
        40.600          34.100  
  -7666018.289 5  -5973519.282 4  23122747.224    23122745.008    23122746.013  
        33.800          27.400  
  -3292400.808 5  -2565506.415 4  23052734.818    23052732.360    23052734.095  
        33.900          27.600  
 -19179921.860 7 -14945386.650 6  21248303.608    21248300.483    21248302.692  
        46.400          40.100  
 -23614421.074 7 -18400836.340 7  20003223.685    20003221.805    20003223.106  
        46.700          45.600  
 -20228458.266 7 -15762422.458 7  20471830.047    20471827.826    20471829.298  
        45.300          45.000  
 06  1  1  1 33  0.0000000  0  8G06G08G10G15G18G21G26G29
 -14482564.034 6 -11285100.468 5  22052572.954    22052571.556    22052572.223  
        38.300          33.400  
  -4405038.630 4  -3432495.084 3  24013742.017    24013740.437    24013741.191  
        27.100          19.900  
 -12511851.927 6  -9749472.350 5  22133247.675    22133245.486    22133246.452  
        40.500          33.900  
  -7867557.225 5  -6130562.592 4  23084395.502    23084393.729    23084394.410  
        32.300          29.900  
  -3450968.960 5  -2689066.018 4  23022560.555    23022557.531    23022559.659  
        33.600          26.800  
 -19319626.221 7 -15054247.169 6  21221718.965    21221715.689    21221717.941  
        46.600          40.700  
 -23652717.123 7 -18430677.410 7  19995936.110    19995934.197    19995935.677  
        46.900          45.600  
 -20192768.420 7 -15734612.185 7  20478621.405    20478619.357    20478620.636  
        45.200          44.900  
 06  1  1  1 34  0.0000000  0  8G06G08G10G15G18G21G26G29
 -14348978.068 6 -11181007.538 5  22077994.118    22077992.363    22077993.238  
        37.700          33.600  
  -4397259.480 4  -3426433.395 3  24015222.257    24015221.483    24015221.413  
        26.500          22.100  
 -12355316.483 6  -9627496.662 5  22163034.466    22163033.021    22163033.507  
        39.900          33.500  
  -8068635.317 5  -6287246.809 4  23046131.239    23046129.500    23046129.986  
        31.600          29.200  
  -3608903.908 5  -2812132.172 5  22992506.701    22992504.454    22992505.782  
        34.900          31.000  
 -19458101.693 7 -15162150.116 6  21195368.075    21195364.494    21195366.920  
        46.800          40.600  
 -23688271.220 7 -18458381.897 7  19989170.246    19989168.479    19989169.852  
        46.600          45.600  
 -20154858.794 7 -15705072.213 7  20485835.322    20485833.229    20485834.670  
        45.500          44.800  
 06  1  1  1 35  0.0000000  0  8G06G08G10G15G18G21G26G29
 -14213730.833 6 -11075620.114 5  22103730.424    22103729.140    22103729.630  
        37.200          33.900  
  -4387159.966 4  -3418563.656 3  24017145.600    24017142.786    24017144.548  
        28.600          19.900  
 -12198163.120 6  -9505039.488 5  22192940.201    22192938.397    22192938.963  
        39.600          33.200  
  -8269237.181 5  -6443559.931 5  23007957.557    23007956.527    23007956.866  
        32.600          30.600  
  -3766202.448 5  -2934702.443 4  22962573.340    22962570.267    22962572.498  
        34.100          26.800  
 -19595329.752 7 -15269081.053 6  21169254.598    21169250.907    21169253.471  
        47.000          40.900  
 -23721082.223 7 -18483948.911 7  19982926.815    19982924.860    19982926.371  
        47.000          45.900  
 -20114739.504 7 -15673810.421 7  20493469.839    20493467.712    20493469.198  
        45.600          44.700  
 06  1  1  1 36  0.0000000  0  8G06G08G10G15G18G21G26G29
 -14076841.814 6 -10968953.377 5  22129779.437    22129778.224    22129778.719  
        36.500          33.900  
  -4374738.278 4  -3408884.415 3  24019508.703    24019506.605    24019507.674  
        28.100          18.600  
 -12040400.583 6  -9382107.625 5  22222961.445    22222959.449    22222960.288  
        39.500          32.600  
  -8469347.020 5  -6599489.667 5  22969878.557    22969876.732    22969877.413  
        32.700          30.800  
  -3922859.568 5  -3056772.921 5  22932763.567    22932760.441    22932762.353  
        34.800          30.100  
 -19731294.244 7 -15375027.391 6  21143381.219    21143377.751    21143380.208  
        46.900          41.000  
 -23751149.783 7 -18507378.174 7  19977205.221    19977203.176    19977204.684  
        47.000          46.000  
 -20072421.369 7 -15640835.242 7  20501523.001    20501520.604    20501522.243  
        45.600          44.800  
 06  1  1  1 37  0.0000000  0  8G06G08G10G15G18G21G26G29
 -13938330.394 6 -10861022.440 5  22156137.702    22156136.018    22156136.851  
        37.200          32.800  
  -4359993.524 4  -3397395.006 3  24022314.698    24022312.714    24022313.283  
        27.100          21.600  
 -11882038.005 6  -9258708.198 5  22253096.773    22253094.992    22253095.617  
        38.900          33.100  
  -8668948.893 5  -6755023.599 4  22931895.413    22931893.490    22931894.383  
        32.600          29.700  
  -4078871.933 5  -3178340.956 4  22903074.189    22903071.103    22903073.343  
        34.300          26.200  
 -19865977.247 7 -15479975.167 6  21117751.852    21117748.380    21117750.760  
        46.800          41.100  
 -23778473.949 7 -18528669.732 7  19972005.518    19972003.499    19972004.939  
        46.800          46.100  
 -20027914.960 7 -15606154.918 7  20509992.224    20509989.808    20509991.385  
        45.400          44.700  
 06  1  1  1 38  0.0000000  0  8G06G08G10G15G18G21G26G29
 -13798216.918 6 -10751843.131 5  22182800.454    22182798.651    22182799.569  
        36.700          32.400  
  -4342924.573 4  -3384094.517 3  24025563.150    24025560.189    24025562.093  
        28.600          19.900  
 -11723083.921 6  -9134847.861 5  22283344.726    22283342.733    22283343.555  
        38.700          32.000  
  -8868027.069 5  -6910149.438 5  22894011.757    22894010.403    22894010.758  
        33.500          30.100  
  -4234235.927 5  -3299403.807 5  22873509.688    22873507.517    22873508.807  
        35.400          30.400  
 -19999361.889 7 -15583911.237 6  21092369.582    21092366.111    21092368.544  
        47.100          41.400  
 -23803055.488 7 -18547824.167 7  19967327.782    19967325.862    19967327.259  
        46.900          46.100  
 -19981231.431 7 -15569778.134 7  20518875.625    20518873.304    20518874.927  
        45.700          44.500  
 06  1  1  1 39  0.0000000  0  8G06G08G10G15G18G21G26G29
 -13656520.775 6 -10641430.581 5  22209764.706    22209762.531    22209763.826  
        37.500          32.400  
  -4323531.441 4  -3368982.982 3  24029253.521    24029251.043    24029252.468  
        28.600          20.500  
 -11563546.752 6  -9010533.165 5  22313703.896    22313701.959    22313702.765  
        39.100          32.800  
  -9066565.542 5  -7064854.734 5  22856231.448    22856229.601    22856230.423  
        33.600          30.400  
  -4388946.832 5  -3419957.726 4  22844069.123    22844065.932    22844068.448  
        35.900          27.100  
 -20131430.568 7 -15686821.878 6  21067237.921    21067234.281    21067236.779  
        47.100          41.300  
 -23824895.167 7 -18564842.094 7  19963171.699    19963169.831    19963171.243  
        46.600          46.100  
 -19932381.819 7 -15531713.491 7  20528171.473    20528169.050    20528170.745  
        45.700          44.500  
 06  1  1  1 40  0.0000000  0  8G06G08G10G15G18G21G26G29
 -13513262.339 5 -10529800.669 5  22237025.085    22237024.106    22237024.392  
        35.800          32.800  
  -4301813.584 4  -3352059.957 2  24033386.003    24033383.422    24033385.075  
        28.400          16.100  
 -11403434.780 6  -8885770.583 5  22344171.844    22344170.071    22344170.901  
        38.800          32.100  
  -9264547.655 5  -7219126.491 5  22818556.762    22818555.167    22818555.677  
        34.000          32.000  
  -4543001.293 5  -3540000.131 5  22814753.537    22814751.352    22814752.685  
        35.400          31.100  
 -20262166.192 7 -15788693.779 6  21042359.427    21042356.060    21042358.464  
        47.100          41.600  
 -23843994.558 7 -18579724.727 7  19959537.230    19959535.402    19959536.675  
        46.600          46.100  
 -19881378.320 7 -15491970.502 7  20537877.080    20537874.736    20537876.384  
        46.100          44.400  
 06  1  1  1 41  0.0000000  0  8G06G08G10G15G18G21G26G29
 -13368461.928 6 -10416969.211 5  22264579.842    22264578.580    22264579.226  
        36.700          32.400  
  -4277771.153 4  -3333325.601 3  24037960.804    24037958.385    24037959.761  
        25.900          18.600  
 -11242756.757 6  -8760566.924 5  22374747.980    22374746.147    22374746.898  
        38.600          32.600  
  -9461957.103 5  -7372951.997 5  22780990.529    22780989.583    22780989.730  
        34.300          32.600  
  -4696394.886 6  -3659527.594 4  22785564.080    22785560.812    22785563.167  
        36.900          29.900  
 -20391551.309 7 -15889513.336 6  21017738.175    21017734.954    21017737.109  
        46.800          41.800  
 -23860355.601 7 -18592473.589 7  19956424.006    19956421.960    19956423.432  
        46.800          46.200  
 -19828232.380 7 -15450558.074 7  20547990.399    20547988.083    20547989.745  
        45.900          44.400  
 06  1  1  1 42  0.0000000  0  8G06G08G10G15G18G21G26G29
 -13222140.073 5 -10302952.216 5  22292424.097    22292422.667    22292423.388  
        35.900          31.800  
  -4251405.359 4  -3312780.801 3  24042977.411    24042976.091    24042976.478  
        24.200          21.600  
 -11081520.858 6  -8634928.532 5  22405430.105    22405428.410    22405428.924  
        38.000          31.800  
  -9658777.398 5  -7526318.439 5  22743537.118    22743535.616    22743536.131  
        34.600          31.300  
  -4849123.975 6  -3778537.249 5  22756500.395    22756498.489    22756499.649  
        36.700          32.700  
 -20519569.131 7 -15989267.467 6  20993377.469    20993373.821    20993376.350  
        46.800          41.800  
 -23873980.882 7 -18603090.677 7  19953831.018    19953829.094    19953830.558  
        46.700          46.300  
 -19772956.458 7 -15407485.924 7  20558509.151    20558506.835    20558508.474  
        46.000          44.500  
 06  1  1  1 43  0.0000000  0  8G06G08G10G15G18G21G26G29
 -13074317.296 5 -10187765.664 5  22320553.895    22320552.532    22320553.061  
        35.600          32.000  
  -4222717.408 4  -3290426.611 3  24048436.928    24048435.343    24048436.195  
        28.100          23.000  
 -10919735.654 6  -8508862.121 5  22436216.850    22436214.966    22436215.833  
        38.400          32.000  
  -9854992.562 5  -7679213.357 5  22706198.789    22706197.139    22706197.681  
        34.400          31.300  
  -5001184.884 5  -3897026.243 4  22727563.909    22727560.843    22727563.057  
        35.900          29.200  
 -20646202.037 7 -16087942.447 6  20969280.031    20969276.376    20969279.080  
        47.500          41.900  
 -23884873.229 7 -18611578.214 7  19951758.113    19951756.371    19951757.665  
        46.500          46.300  
 -19715562.772 7 -15362763.564 7  20569430.805    20569428.479    20569430.020  
        45.700          44.500  
 06  1  1  1 44  0.0000000  0  8G06G08G10G15G18G21G26G29
 -12925014.540 5 -10071425.894 5  22348965.198    22348963.763    22348964.442  
        35.500          31.600  
  -4191708.962 4  -3266264.185 3  24054338.084    24054335.750    24054336.987  
        26.800          20.500  
 -10757408.750 6  -8382373.609 5  22467106.862    22467104.948    22467105.683  
        37.800          32.300  
 -10050585.491 5  -7831623.395 5  22668978.177    22668977.101    22668977.319  
        34.400          32.700  
  -5152573.085 5  -4014991.043 5  22698755.324    22698753.901    22698754.647  
        35.800          32.100  
 -20771432.289 7 -16185524.454 7  20945449.284    20945445.975    20945448.219  
        47.100          42.200  
 -23893036.035 7 -18617938.829 7  19950204.865    19950203.054    19950204.437  
        46.700          46.200  
 -19656064.001 7 -15316400.877 7  20580753.134    20580750.713    20580752.301  
        45.600          44.500  
 06  1  1  1 45  0.0000000  0  8G06G08G10G15G18G21G26G29
 -12774252.844 5  -9953949.269 5  22377654.104    22377652.885    22377653.515  
        35.500          31.500  
  -4158382.252 4  -3240295.326 3  24060680.006    24060677.985    24060679.004  
        27.600          21.600  
 -10594547.834 6  -8255468.987 5  22498097.646    22498095.940    22498096.652  
        37.100          31.100  
 -10245539.699 5  -7983535.736 5  22631879.867    22631878.230    22631878.928  
        35.400          31.800  
  -5303284.791 6  -4132428.709 4  22670077.077    22670073.167    22670076.199  
        38.100          29.700  
 -20895243.251 7 -16282000.513 7  20921888.897    20921885.522    20921887.925  
        47.300          42.500  
 -23898473.210 7 -18622175.586 7  19949170.262    19949168.407    19949169.681  
        46.600          46.400  
 -19594473.412 7 -15268408.207 7  20592473.011    20592471.091    20592472.283  
        45.400          44.500  
 06  1  1  1 46  0.0000000  0  8G06G08G10G15G18G21G26G29
 -12622053.483 5  -9835352.398 5  22406616.758    22406615.328    22406616.070  
        35.100          31.000  
  -4122739.409 4  -3212521.707 3  24067462.719    24067460.125    24067461.342  
        25.600          19.300  
 -10431161.027 6  -8128154.571 5  22529189.029    22529187.427    22529187.962  
        37.200          31.000  
 -10439837.970 5  -8134936.957 5  22594906.373    22594904.777    22594905.213  
        35.300          33.100  
  -5453316.593 6  -4249336.577 5  22641525.880    22641523.938    22641525.003  
        36.100          31.600  
 -21017617.705 7 -16377357.224 7  20898601.790    20898598.328    20898600.834  
        47.500          42.400  
 -23901189.016 7 -18624291.795 7  19948653.567    19948651.526    19948652.904  
        46.800          46.500  
 -19530803.791 7 -15218795.514 7  20604589.137    20604586.943    20604588.372  
        45.500          44.200  
 06  1  1  1 47  0.0000000  0  8G06G08G10G15G18G21G26G29
 -12468437.401 5  -9715651.577 5  22435848.678    22435847.431    22435848.117  
        34.100          31.000  
  -4084782.335 4  -3182944.770 2  24074685.391    24074683.570    24074684.510  
        26.800          17.800  
 -10267256.281 6  -8000436.570 5  22560379.197    22560377.499    22560378.159  
        37.000          31.000  
 -10633463.213 6  -8285813.757 5  22558060.459    22558059.190    22558059.457  
        36.100          33.200  
  -5602664.314 6  -4365711.418 4  22613106.683    22613102.807    22613105.679  
        37.700          29.000  
 -21138538.022 7 -16471580.832 7  20875591.376    20875587.942    20875590.290  
        47.100          42.700  
 -23901188.343 7 -18624291.258 7  19948653.630    19948651.670    19948653.090  
        46.900          46.300  
 -19465068.799 7 -15167573.433 7  20617098.244    20617095.812    20617097.489  
        45.900          44.200  
 06  1  1  1 48  0.0000000  0  8G06G08G10G15G18G21G26G29
 -12313426.045 5  -9594863.552 5  22465346.943    22465345.499    22465346.226  
        35.600          31.300  
  -4044515.114 4  -3151567.711 3  24082348.220    24082346.124    24082347.236  
        27.600          19.300  
 -10102841.088 6  -7872320.829 5  22591666.704    22591664.889    22591665.723  
        37.000          30.600  
 -10826398.087 6  -8436152.580 5  22521346.368    22521344.939    22521345.364  
        36.500          34.100  
  -5751323.532 6  -4481549.730 5  22584817.698    22584815.187    22584816.970  
        38.700          32.600  
 -21257987.125 7 -16564658.044 7  20852860.883    20852857.530    20852859.938  
        47.400          42.800  
 -23898476.405 7 -18622178.054 7  19949169.611    19949167.889    19949169.121  
        46.800          46.600  
 -19397281.986 7 -15114752.532 7  20629997.702    20629995.316    20629996.890  
        46.100          44.100  
 06  1  1  1 49  0.0000000  0  8G06G08G10G15G18G21G26G29
 -12157041.183 5  -9473005.232 5  22495105.976    22495104.300    22495105.235  
        35.100          30.200  
  -4001941.799 4  -3118393.711 2  24090449.137    24090447.114    24090448.444  
        26.200          17.800  
  -9937923.406 6  -7743813.535 4  22623049.655    22623047.154    22623048.555  
        36.600          29.700  
 -11018624.924 6  -8585939.708 5  22484766.927    22484765.003    22484765.818  
        36.600          33.600  
  -5899290.667 6  -4596848.766 5  22556660.157    22556657.078    22556659.218  
        37.900          31.000  
 -21375947.565 7 -16656575.250 7  20830413.783    20830410.376    20830412.759  
        47.300          43.100  
 -23893058.545 7 -18617956.335 7  19950200.686    19950198.773    19950200.117  
        46.700          46.500  
 -19327457.121 7 -15060343.535 7  20643284.691    20643282.485    20643283.989  
        46.100          44.100  
 06  1  1  1 50  0.0000000  0  8G06G08G10G15G18G21G26G29
 -11999304.225 5  -9350093.353 5  22525122.267    22525120.997    22525121.368  
        34.600          30.800  
  -3957065.668 4  -3083425.306 3  24098988.821    24098986.482    24098987.779  
        25.600          18.600  
  -9772510.432 6  -7614920.297 5  22654526.016    22654524.661    22654525.065  
        36.400          30.400  
 -11210126.317 6  -8735161.546 5  22448325.463    22448323.710    22448324.335  
        36.700          34.400  
  -6046561.735 6  -4711605.425 5  22528635.713    22528632.802    22528634.780  
        38.600          32.400  
 -21492402.710 7 -16747319.502 7  20808253.203    20808249.762    20808252.167  
        47.300          43.400  
 -23884941.488 7 -18611631.350 7  19951745.227    19951743.284    19951744.666  
        46.800          46.300  
 -19255608.348 7 -15004357.471 7  20656957.172    20656954.961    20656956.433  
        46.000          44.100  
 06  1  1  1 51  0.0000000  0  8G06G08G10G15G18G21G26G29
 -11840237.084 5  -9226144.975 4  22555391.315    22555390.311    22555390.503  
        32.700          29.700  
  -3909891.034 4  -3046665.851 2  24107966.272    24107963.556    24107965.166  
        27.600          15.100  
  -9606610.108 6  -7485647.320 5  22686096.709    22686094.201    22686095.477  
        36.600          30.200  
 -11400884.656 6  -8883804.380 5  22412024.917    22412023.609    22412023.921  
        36.100          34.500  
  -6193132.653 6  -4825816.504 5  22500744.219    22500740.450    22500743.353  
        39.500          30.400  
 -21607334.915 7 -16836877.055 7  20786382.457    20786378.863    20786381.420  
        47.300          43.500  
 -23874131.599 7 -18603208.048 7  19953802.388    19953800.428    19953801.867  
        47.000          46.400  
 -19181750.184 7 -14946805.651 7  20671011.817    20671009.664    20671011.123  
        45.800          44.100  
 06  1  1  1 52  0.0000000  0  8G06G08G10G15G18G21G26G29
 -11679861.834 5  -9101177.278 4  22585910.272    22585908.850    22585909.547  
        33.900          29.900  
  -3860422.371 4  -3008118.853 3  24117379.969    24117377.788    24117379.020  
        28.400          21.100  
  -9440229.643 6  -7356000.198 4  22717757.707    22717755.392    22717756.527  
        36.800          29.500  
 -11590882.535 6  -9031854.650 5  22375869.200    22375867.764    22375868.469  
        37.300          33.400  
  -6338999.263 6  -4939478.781 5  22472986.008    22472984.339    22472984.961  
        37.200          34.000  
 -21720727.372 7 -16925234.802 7  20764804.428    20764801.003    20764803.393  
        47.100          43.600  
 -23860635.960 7 -18592691.952 7  19956370.689    19956368.569    19956370.072  
        47.200          46.400  
 -19105896.839 7 -14887699.147 7  20685446.157    20685444.015    20685445.486  
        46.000          44.000  
 06  1  1  1 53  0.0000000  0  8G06G08G10G15G18G21G26G29
 -11518200.343 5  -8975207.316 5  22616673.169    22616672.160    22616672.474  
        33.100          30.100  
  -3808664.758 4  -2967788.258 3  24127228.667    24127227.349    24127228.011  
        27.400          20.500  
  -9273376.099 6  -7225984.452 4  22749508.560    22749506.575    22749507.548  
        36.500          29.500  
 -11780101.999 6  -9179298.380 5  22339862.089    22339860.780    22339861.176  
        37.200          34.900  
  -6484157.966 6  -5052589.451 5  22445363.896    22445360.118    22445363.046  
        39.500          31.100  
 -21832562.736 7 -17012379.230 7  20743522.884    20743519.430    20743521.820  
        47.300          43.800  
 -23844461.898 7 -18580088.781 7  19959448.000    19959446.312    19959447.537  
        46.900          46.400  
 -19028063.183 7 -14827049.544 7  20700257.564    20700255.221    20700256.778  
        46.100          44.000  
 06  1  1  1 54  0.0000000  0  8G06G08G10G15G18G21G26G29
 -11355274.635 5  -8848252.254 4  22647676.854    22647675.699    22647676.308  
        32.800          29.000  
  -3754624.098 3  -2925678.659 3  24137512.311    24137510.721    24137511.314  
        23.800          19.300  
  -9106056.589 5  -7095605.611 5  22781348.017    22781346.618    22781346.996  
        35.100          30.400  
 -11968524.928 6  -9326121.407 5  22304006.533    22304004.957    22304005.398  
        37.000          34.500  
  -6628604.368 6  -5165145.056 5  22417876.941    22417873.748    22417876.023  
        40.300          32.700  
 -21942824.165 7 -17098297.222 7  20722540.795    20722537.274    20722539.752  
        47.300          43.900  
 -23825617.740 7 -18565405.010 7  19963034.203    19963032.135    19963033.660  
        47.200          46.100  
 -18948264.142 7 -14764868.466 7  20715442.808    20715440.484    20715442.043  
        46.100          43.700  
 06  1  1  1 55  0.0000000  0  8G06G08G10G15G18G21G26G29
 -11191107.135 5  -8720329.555 4  22678917.254    22678915.860    22678916.318  
        32.300          29.200  
  -3698306.540 4  -2881794.856 3  24148229.231    24148227.580    24148228.523  
        27.600          19.900  
  -8938278.797 5  -6964869.676 4  22813275.078    22813273.581    22813274.102  
        35.200          28.600  
 -12156133.411 6  -9472309.815 5  22268306.071    22268304.222    22268304.815  
        37.600          34.600  
  -6772335.251 6  -5277143.153 5  22390525.380    22390522.477    22390524.386  
        38.900          33.200  
 -22051494.414 7 -17182975.321 7  20701861.252    20701858.071    20701860.335  
        46.900          43.900  
 -23804111.502 7 -18548646.896 7  19967126.671    19967124.701    19967126.162  
        47.300          46.100  
 -18866514.806 7 -14701167.680 7  20730999.215    20730996.765    20730998.453  
        46.300          43.700  
 06  1  1  1 56  0.0000000  0  8G06G08G10G15G18G21G26G29
 -11025720.180 5  -8591456.650 4  22710389.333    22710388.003    22710388.695  
        33.100          28.600  
  -3639718.453 4  -2836141.831 2  24159379.220    24159376.268    24159377.949  
        27.900          16.100  
  -8770049.741 5  -6833782.093 4  22845288.210    22845286.542    22845287.120  
        35.400          28.800  
 -12342909.143 6  -9617849.325 5  22232763.780    22232762.006    22232762.545  
        37.700          34.800  
  -6915345.843 6  -5388579.947 5  22363311.297    22363308.334    22363310.404  
        39.600          33.500  
 -22158557.043 7 -17266400.742 7  20681488.171    20681484.664    20681487.084  
        46.900          44.100  
 -23779952.067 7 -18529821.357 7  19971724.239    19971722.078    19971723.723  
        47.500          46.200  
 -18782830.528 7 -14635959.147 7  20746923.678    20746921.493    20746922.923  
        45.900          43.800  
 06  1  1  1 57  0.0000000  0  8G06G08G10G15G18G21G26G29
 -10859136.285 5  -8461651.049 4  22742089.945    22742088.035    22742088.878  
        31.800          29.500  
  -3578865.614 4  -2788724.031 2  24170958.277    24170955.903    24170957.167  
        24.900          17.000  
  -8601375.662 5  -6702347.754 4  22877385.630    22877383.863    22877384.572  
        34.500          28.800  
 -12528833.770 6  -9762725.630 5  22197383.888    22197381.755    22197382.609  
        38.600          35.900  
  -7057632.519 6  -5499452.676 5  22336235.077    22336232.256    22336234.223  
        40.200          33.100  
 -22263995.217 7 -17348560.348 7  20661424.028    20661420.400    20661422.983  
        46.800          44.200  
 -23753148.652 7 -18508935.572 7  19976824.678    19976822.597    19976824.146  
        47.400          46.100  
 -18697226.694 7 -14569254.857 7  20763213.531    20763211.433    20763212.790  
        46.000          43.700  
 06  1  1  1 58  0.0000000  0  8G06G08G10G15G18G21G26G29
 -10691377.649 5  -8330930.100 4  22774012.701    22774011.329    22774012.021  
        33.000          28.800  
  -3515755.565 4  -2739547.376 2  24182968.091    24182965.327    24182966.973  
        27.100          15.100  
  -8432264.375 5  -6570572.738 4  22909566.257    22909564.842    22909565.301  
        34.700          28.800  
 -12713888.983 6  -9906924.485 5  22162168.416    22162167.063    22162167.433  
        38.800          35.800  
  -7199190.903 6  -5609757.907 5  22309297.207    22309294.300    22309296.401  
        39.700          32.600  
 -22367791.746 7 -17429440.753 7  20641672.062    20641668.572    20641671.016  
        46.900          44.300  
 -23723710.861 7 -18485997.033 7  19982426.384    19982424.548    19982425.912  
        47.600          46.400  
 -18609719.035 7 -14501067.065 7  20779865.653    20779863.549    20779864.938  
        45.900          43.800  
 06  1  1  1 59  0.0000000  0  8G06G08G10G15G18G21G26G29
 -10522467.359 5  -8199311.715 4  22806155.483    22806153.612    22806154.639  
        32.000          26.800  
  -3450395.416 4  -2688617.436 3  24195405.259    24195403.762    24195404.156  
        25.900          18.600  
  -8262722.178 5  -6438461.937 4  22941829.753    22941827.614    22941828.737  
        34.700          28.400  
 -12898056.428 6 -10050431.571 5  22127122.467    22127120.933    22127121.588  
        38.600          35.700  
  -7340017.372 6  -5719492.811 5  22282499.054    22282496.189    22282498.182  
        40.400          33.900  
 -22469930.291 7 -17509029.232 7  20622235.823    20622232.164    20622234.811  
        46.900          44.300  
 -23691648.949 7 -18461013.720 7  19988527.709    19988525.657    19988527.196  
        47.400          46.100  
 -18520323.522 7 -14431408.213 7  20796877.044    20796874.891    20796876.362  
        46.000          43.600  
 06  1  1  2  0  0.0000000  0  8G06G08G10G15G18G21G26G29
 -10352427.838 5  -8066813.432 4  22838512.580    22838511.658    22838511.907  
        31.500          28.600  
  -3382793.379 4  -2635940.514 3  24208268.907    24208267.908    24208268.112  
        24.900          20.500  
  -8092755.612 5  -6306020.468 4  22974172.902    22974171.331    22974171.821  
        34.300          28.400  
 -13081317.539 6 -10193232.394 5  22092249.530    22092247.490    22092248.486  
        39.300          35.300  
  -7480107.711 6  -5828654.102 5  22255840.692    22255837.795    22255839.690  
        40.200          33.900  
 -22570394.121 7 -17587312.728 7  20603118.263    20603114.669    20603117.174  
        46.900          44.700  
 -23656973.156 7 -18433993.622 7  19995126.274    19995124.166    19995125.722  
        47.700          46.000  
 -18429056.000 7 -14360290.654 7  20814244.469    20814242.550    20814243.819  
        45.900          43.600  
 06  1  1  2  1  0.0000000  0  8G06G08G10G15G18G21G26G29
 -10181281.848 5  -7933452.993 4  22871080.784    22871079.171    22871079.971  
        30.200          27.600  
  -3312957.110 4  -2581522.691 3  24221559.687    24221557.428    24221558.595  
        27.600          19.300  
  -7922371.819 5  -6173253.876 4  23006596.684    23006593.990    23006595.382  
        34.100          27.400  
 -13263653.467 6 -10335312.322 6  22057552.157    22057550.185    22057551.045  
        39.600          36.100  
  -7619457.408 6  -5937238.269 5  22229322.955    22229320.099    22229322.217  
        40.300          33.400  
 -22669166.645 7 -17664278.326 7  20584322.384    20584318.898    20584321.470  
        46.900          44.900  
 -23619694.317 7 -18404945.176 7  20002220.103    20002218.156    20002219.577  
        47.700          46.100  
 -18335932.511 7 -14287726.886 7  20831965.549    20831963.388    20831964.790  
        45.900          43.500  
 06  1  1  2  2  0.0000000  0  8G06G08G10G15G18G21G26G29
 -10009052.346 5  -7799248.240 4  22903855.354    22903853.643    22903854.337  
        30.800          25.900  
  -3240895.311 4  -2525370.664 2  24235272.195    24235269.800    24235270.974  
        24.600          17.800  
  -7751577.046 5  -6040167.054 4  23039096.576    23039095.335    23039095.789  
        33.000          27.600  
 -13445045.443 6 -10476656.690 6  22023033.921    22023032.684    22023032.799  
        38.900          36.900  
  -7758062.302 6  -6045242.066 5  22202947.818    22202945.058    22202946.879  
        40.800          34.800  
 -22766231.472 7 -17739913.257 7  20565851.458    20565848.057    20565850.401  
        46.400          44.800  
 -23579823.564 7 -18373877.054 7  20009807.199    20009805.266    20009806.630  
        47.600          46.000  
 -18240969.598 7 -14213729.800 7  20850036.448    20850034.123    20850035.725  
        46.000          43.300  
 06  1  1  2  3  0.0000000  0  8G06G08G10G15G18G21G26G29
  -9835762.135 5  -7664216.937 4  22936831.408    22936829.582    22936830.556  
        30.800          26.800  
  -3166616.394 4  -2467491.020 2  24249406.406    24249404.829    24249405.383  
        25.300          12.600  
  -7580377.484 5  -5906764.812 4  23071675.912    23071674.046    23071674.711  
        33.900          28.400  
 -13625474.616 6 -10617250.817 6  21988699.537    21988697.928    21988698.420  
        39.400          37.200  
  -7895918.984 6  -6152662.838 5  22176714.556    22176711.246    22176713.573  
        41.100          33.900  
 -22861571.975 7 -17814204.551 7  20547708.615    20547705.332    20547707.593  
        46.300          45.100  
 -23537372.897 7 -18340798.607 7  20017885.528    20017883.364    20017884.978  
        47.900          45.900  
 -18144183.789 7 -14138312.276 7  20868454.009    20868451.893    20868453.279  
        45.800          43.400  
 06  1  1  2  4  0.0000000  0  8G06G08G10G15G18G21G26G29
  -9661434.140 5  -7528377.007 4  22970004.252    22970003.144    22970003.718  
        30.100          25.900  
  -3090129.531 4  -2407890.911 2  24263961.942    24263959.477    24263960.921  
        26.800          15.100  
  -7408779.814 5  -5773052.356 4  23104329.220    23104327.500    23104328.215  
        33.000          26.800  
 -13804922.213 6 -10757080.095 6  21954551.950    21954549.851    21954550.722  
        39.800          36.500  
  -8033023.130 6  -6259497.222 5  22150624.326    22150621.425    22150623.499  
        41.300          34.000  
 -22955172.176 7 -17887139.775 7  20529897.467    20529893.820    20529896.390  
        46.400          45.200  
 -23492354.002 7 -18305718.945 7  20026452.266    20026450.198    20026451.666  
        47.800          45.900  
 -18045591.551 7 -14061487.144 7  20887215.477    20887213.379    20887214.755  
        45.700          43.100  
 06  1  1  2  5  0.0000000  0  8G06G08G10G15G18G21G26G29
  -9486091.734 4  -7391746.593 4  23003370.889    23003369.601    23003370.157  
        29.900          24.900  
  -3011444.937 4  -2346578.262 3  24278935.533    24278933.223    24278934.729  
        28.600          19.900  
  -7236790.199 5  -5639034.472 4  23137057.998    23137056.241    23137056.844  
        33.200          27.900  
 -13983368.964 6 -10896129.473 6  21920594.747    21920592.853    21920593.442  
        40.200          37.200  
  -8169369.890 6  -6365741.435 5  22124678.554    22124675.572    22124677.639  
        41.200          35.100  
 -23047016.121 7 -17958706.480 7  20512420.195    20512416.490    20512419.137  
        46.400          45.400  
 -23444779.593 7 -18268647.976 7  20035505.420    20035503.269    20035504.896  
        47.900          45.900  
 -17945209.561 7 -13983267.395 7  20906317.676    20906315.397    20906316.899  
        45.800          43.100  
 06  1  1  2  6  0.0000000  0  8G06G08G10G15G18G21G26G29
  -9309757.818 4  -7254343.612 4  23036925.763    23036925.141    23036925.221  
        28.100          26.200  
  -2930571.617 4  -2283560.107 3  24294324.599    24294322.629    24294323.569  
        25.300          19.300  
  -7064415.114 5  -5504716.255 4  23169859.577    23169858.578    23169858.791  
        32.400          28.100  
 -14160795.727 6 -11034384.077 6  21886831.523    21886829.398    21886830.407  
        40.900          36.500  
  -8304955.936 6  -6471392.884 5  22098877.383    22098874.527    22098876.447  
        41.600          35.400  
 -23137087.340 7 -18028891.851 7  20495279.942    20495276.502    20495278.964  
        46.300          45.400  
 -23394662.347 7 -18229595.573 7  20045042.085    20045040.352    20045041.658  
        47.700          45.900  
 -17843054.837 7 -13903666.299 7  20925757.059    20925754.754    20925756.354  
        46.100          43.000  
 06  1  1  2  7  0.0000000  0  9G06G08G09G10G15G18G21G26G29
  -9132455.395 5  -7116185.943 4  23070665.859    23070664.330    23070665.048  
        30.200          25.300  
  -2847520.781 4  -2218845.194 2  24310127.978    24310126.955    24310126.965  
        24.200          15.100  
   -272086.093 3   -212015.477 9  24620340.343    24620340.010    24620339.826  
        20.500          -3.000  
  -6891660.778 5  -5370102.512 4  23202734.415    23202732.508    23202733.237  
        33.000          28.100  
 -14337183.525 6 -11171829.101 6  21853265.892    21853264.206    21853264.729  
        40.600          37.700  
  -8439776.656 6  -6576447.967 5  22073221.596    22073218.812    22073220.749  
        41.900          35.500  
 -23225370.273 7 -18097683.747 7  20478480.314    20478476.773    20478479.215  
        45.900          45.300  
 -23342015.284 7 -18188571.885 7  20055060.548    20055058.760    20055060.065  
        47.600          45.900  
 -17739144.262 7 -13822697.000 7  20945530.407    20945528.251    20945529.718  
        45.900          42.600  
 06  1  1  2  8  0.0000000  0  9G06G08G09G10G15G18G21G26G29
  -8954207.975 4  -6977291.874 4  23104585.434    23104584.068    23104584.630  
        29.700          26.200  
  -2762302.124 4  -2152441.056 3  24326345.428    24326343.502    24326344.405  
        25.300          20.500  
   -505391.589 3   -393811.967 1  24575944.261    24575944.030    24575943.237  
        23.000          11.000  
  -6718533.150 5  -5235197.895 4  23235678.971    23235677.210    23235677.900  
        32.600          26.800  
 -14512512.848 6 -11308449.328 6  21819901.598    21819900.156    21819900.537  
        40.500          38.300  
  -8573828.040 7  -6680903.584 5  22047712.610    22047709.576    22047711.646  
        42.000          35.500  
 -23311848.793 7 -18165069.615 7  20462024.117    20462020.469    20462023.033  
        45.800          45.500  
 -23286851.955 7 -18145587.465 7  20065557.857    20065555.853    20065557.299  
        47.600          45.600  
 -17633495.140 7 -13740372.989 7  20965634.964    20965632.549    20965634.183  
        45.700          42.400  
 06  1  1  2  9  0.0000000  0  9G06G08G09G10G15G18G21G26G29
  -8775038.585 4  -6837679.427 4  23138680.197    23138679.196    23138679.308  
        27.900          27.100  
  -2674926.870 4  -2084356.529 2  24342972.141    24342970.190    24342971.131  
        24.900          16.100  
   -738753.540 3   -575652.365 2  24531538.307    24531536.371    24531536.833  
        18.600          17.000  
  -6545038.543 5  -5100007.296 4  23268694.234    23268692.060    23268692.889  
        32.000          26.500  
 -14686764.524 6 -11444229.841 6  21786742.877    21786740.954    21786741.705  
        41.000          38.200  
  -8707105.351 6  -6784756.018 6  22022350.423    22022347.838    22022349.518  
        41.400          36.100  
 -23396507.592 7 -18231037.514 7  20445913.773    20445910.384    20445912.846  
        45.800          45.500  
 -23229186.149 7 -18100653.059 7  20076531.061    20076529.234    20076530.566  
        47.400          45.600  
 -17526124.407 7 -13656707.464 7  20986066.918    20986064.489    20986066.161  
        45.800          42.500  
 06  1  1  2 10  0.0000000  0  9G06G08G09G10G15G18G21G26G29
  -8594970.604 4  -6697366.776 4  23172945.929    23172945.259    23172945.373  
        29.000          26.200  
  -2585406.951 4  -2014600.772 2  24360007.322    24360005.742    24360006.320  
        24.900          17.000  
   -972147.559 3   -757517.719 3  24487124.623    24487122.911    24487122.902  
        18.600          18.600  
  -6371182.280 5  -4964534.901 4  23301777.458    23301776.223    23301776.372  
        32.300          25.600  
 -14859919.022 6 -11579155.417 6  21753792.392    21753790.530    21753791.333  
        41.200          37.800  
  -8839604.664 7  -6888002.219 6  21997136.710    21997134.013    21997135.962  
        42.200          36.000  
 -23479330.414 7 -18295574.792 7  20430153.413    20430149.792    20430152.360  
        45.800          45.800  
 -23169032.113 7 -18053779.777 7  20087978.120    20087976.233    20087977.547  
        47.200          45.600  
 -17417049.458 7 -13571713.979 7  21006822.955    21006820.848    21006822.293  
        45.600          42.400  
 06  1  1  2 11  0.0000000  0  9G06G08G09G10G15G18G21G26G29
  -8414027.167 4  -6556371.976 4  23207378.290    23207377.168    23207377.355  
        26.200          24.200  
  -2493753.275 4  -1943182.362 2  24377448.842    24377447.277    24377448.017  
        26.200          17.000  
  -1205549.287 3   -939389.110 3  24442709.033    24442708.545    24442707.127  
        21.600          19.300  
  -6196970.674 5  -4828785.622 4  23334929.131    23334927.495    23334927.925  
        31.600          25.300  
 -15031956.773 6 -11713210.805 6  21721054.849    21721053.009    21721053.809  
        41.800          37.900  
  -8971322.010 7  -6990639.101 5  21972071.748    21972068.944    21972070.938  
        42.300          35.800  
 -23560302.751 7 -18358670.126 7  20414744.857    20414741.336    20414743.792  
        45.900          46.000  
 -23106404.448 7 -18004978.989 7  20099895.703    20099893.916    20099895.121  
        47.300          45.200  
 -17306287.980 7 -13485406.315 7  21027900.310    21027898.003    21027899.566  
        45.600          42.300  
 06  1  1  2 12  0.0000000  0  9G06G08G09G10G15G18G21G26G29
  -8232231.724 4  -6414713.240 4  23241973.464    23241971.990    23241972.454  
        27.900          24.900  
  -2399977.166 4  -1870110.083 3  24395293.227    24395292.105    24395292.535  
        26.200          19.300  
  -1438934.478 3  -1121247.630 3  24398297.798    24398296.234    24398296.015  
        19.300          21.100  
  -6022409.696 5  -4692764.081 4  23368146.790    23368145.573    23368145.676  
        31.000          25.900  
 -15202858.197 6 -11846380.743 6  21688533.421    21688531.771    21688532.301  
        41.500          38.800  
  -9102252.856 7  -7092663.123 6  21947156.670    21947153.802    21947155.726  
        42.600          36.600  
 -23639408.654 7 -18420311.086 7  20399691.356    20399688.090    20399690.430  
        45.700          46.200  
 -23041317.910 7 -17954262.195 7  20112281.442    20112279.332    20112280.811  
        47.400          45.100  
 -17193857.212 7 -13397797.912 7  21049295.043    21049292.920    21049294.295  
        45.500          42.100  
 06  1  1  2 13  0.0000000  0  9G06G08G09G10G15G18G21G26G29
  -8049607.834 4  -6272408.954 3  23276725.319    23276724.034    23276724.399  
        28.100          22.100  
  -2304091.296 3  -1795393.855 3  24413539.392    24413538.511    24413538.267  
        21.600          19.300  
  -1672278.053 3  -1303073.660 3  24353892.904    24353892.870    24353891.606  
        18.600          21.100  
  -5847504.532 5  -4556474.363 4  23401430.396    23401428.704    23401429.470  
        31.000          25.300  
 -15372603.913 7 -11978650.119 6  21656231.942    21656230.000    21656230.828  
        42.000          38.700  
  -9232392.779 7  -7194070.837 6  21922391.916    21922388.882    21922391.040  
        43.000          36.500  
 -23716633.459 7 -18480486.261 7  20384995.908    20384992.615    20384994.962  
        45.700          46.100  
 -22973787.701 7 -17901641.241 7  20125132.011    20125129.955    20125131.515  
        47.900          45.100  
 -17079775.319 7 -13308902.907 6  21071004.027    21071001.877    21071003.316  
        45.500          41.700  
 06  1  1  2 14  0.0000000  0  9G06G08G09G10G15G18G21G26G29
  -7866178.680 4  -6129477.209 4  23311630.488    23311629.576    23311629.810  
        27.900          24.200  
  -2206108.433 4  -1719043.647 3  24432186.257    24432184.222    24432185.100  
        24.900          18.600  
  -1905555.109 3  -1484847.921 2  24309503.568    24309500.887    24309501.330  
        18.600          15.100  
  -5672260.815 4  -4419920.843 4  23434777.760    23434776.505    23434776.794  
        29.900          25.600  
 -15541174.368 7 -12110003.714 6  21624154.129    21624151.962    21624153.046  
        42.300          38.400  
  -9361737.014 7  -7294858.557 6  21897778.274    21897775.471    21897777.458  
        43.100          36.500  
 -23791961.492 7 -18539183.429 7  20370661.709    20370658.118    20370660.658  
        45.600          46.300  
 -22903829.575 7 -17847128.403 7  20138444.662    20138442.621    20138444.155  
        47.900          45.300  
 -16964059.387 7 -13218734.625 6  21093024.205    21093021.823    21093023.439  
        45.300          41.500  
 06  1  1  2 15  0.0000000  0  9G06G08G09G10G15G18G21G26G29
  -7681967.728 4  -5985936.257 4  23346685.392    23346683.886    23346684.587  
        28.400          24.200  
  -2106040.829 4  -1641068.938 2  24451227.571    24451226.322    24451226.608  
        24.600          17.000  
  -2138740.178 4  -1666550.515 2  24265128.785    24265127.619    24265127.711  
        26.800          15.100  
  -5496684.451 5  -4283108.138 4  23468189.704    23468187.436    23468188.330  
        30.400          24.600  
 -15708549.521 7 -12240425.904 6  21592303.686    21592301.745    21592302.547  
        42.200          39.100  
  -9490281.579 7  -7395023.142 6  21873316.971    21873314.157    21873316.049  
        42.400          36.900  
 -23865378.775 7 -18596391.701 7  20356690.823    20356687.260    20356689.759  
        45.400          46.400  
 -22831459.204 7 -17790735.892 7  20152216.164    20152214.204    20152215.617  
        47.600          45.200  
 -16846727.892 7 -13127307.462 6  21115351.751    21115349.166    21115350.966  
        45.300          41.200  
 06  1  1  2 16  0.0000000  0  9G06G08G09G10G15G18G21G26G29
  -7496998.243 4  -5841804.261 3  23381883.207    23381882.407    23381882.626  
        26.200          23.400  
  -2003901.923 3  -1561480.235 2  24470663.859    24470662.902    24470663.106  
        20.500          15.100  
  -2371808.437 3  -1848162.106 3  24220778.058    24220776.239    24220776.371  
        23.000          19.300  
  -5320780.496 4  -4146040.148 4  23501662.571    23501661.230    23501661.342  
        29.200          24.600  
 -15874709.701 7 -12369901.350 6  21560684.052    21560682.376    21560683.020  
        42.200          39.200  
  -9618021.863 7  -7494561.019 6  21849008.811    21849005.969    21849008.070  
        43.100          36.900  
 -23936869.682 7 -18652098.889 7  20343086.465    20343082.964    20343085.482  
        45.500          46.600  
 -22756692.783 7 -17732476.331 7  20166443.668    20166441.738    20166443.149  
        47.500          45.000  
 -16727798.325 7 -13034635.051 6  21137983.170    21137980.756    21137982.395  
        45.500          41.500  
 06  1  1  2 17  0.0000000  0  9G06G08G09G10G15G18G21G26G29
  -7311293.980 4  -5697099.710 4  23417221.798    23417221.050    23417220.807  
        25.900          24.900  
  -1899704.952 3  -1480287.852 2  24490492.570    24490490.302    24490491.140  
        23.800          12.600  
  -2604735.079 3  -2029663.263 3  24176451.989    24176451.747    24176451.071  
        22.600          22.600  
  -5144554.904 5  -4008721.529 4  23535197.163    23535196.139    23535196.232  
        30.400          24.900  
 -16039634.751 7 -12498414.366 6  21529299.690    21529298.189    21529298.806  
        42.600          39.300  
  -9744954.063 7  -7593469.226 6  21824854.641    21824851.727    21824853.731  
        43.400          37.100  
 -24006420.322 7 -18706294.182 7  20329851.470    20329847.889    20329850.454  
        45.400          46.700  
 -22679546.631 7 -17672362.437 7  20181124.037    20181122.230    20181123.562  
        47.500          45.100  
 -16607288.400 7 -12940731.198 6  21160915.368    21160913.136    21160914.652  
        45.500          41.400  
 06  1  1  2 18  0.0000000  0 10G06G08G09G10G15G18G21G22G26G29
  -7124878.000 4  -5551840.563 3  23452695.829    23452694.569    23452695.128  
        27.400          22.600  
  -1793464.569 4  -1397503.184 2  24510709.115    24510707.438    24510708.080  
        24.900          17.000  
  -2837494.536 4  -2211034.146 3  24132158.825    24132158.680    24132158.489  
        24.200          21.600  
  -4968013.154 4  -3871156.560 4  23568792.309    23568790.586    23568791.019  
        29.500          24.200  
 -16203305.187 7 -12625949.760 6  21498154.364    21498152.677    21498153.284  
        42.400          39.300  
  -9871073.369 7  -7691744.006 6  21800854.908    21800852.035    21800854.089  
        43.800          37.700  
 -24074016.039 7 -18758966.165 7  20316988.619    20316984.911    20316987.492  
        45.200          46.800  
   -206339.189 4   -160783.743 1  24679148.871    24679143.835    24679148.101  
        26.800          11.000  
 -22600037.393 7 -17610407.172 7  20196254.509    20196252.308    20196253.832  
        47.600          44.900  
 -16485216.649 7 -12845610.329 6  21184144.783    21184142.525    21184144.132  
        45.400          41.100  
 06  1  1  2 19  0.0000000  0 10G06G08G09G10G15G18G21G22G26G29
  -6937774.129 4  -5406045.381 3  23488300.360    23488299.321    23488299.560  
        27.100          23.000  
  -1685193.449 4  -1313136.188 2  24531312.812    24531311.263    24531312.065  
        24.600          15.100  
  -3070061.374 3  -2392254.971 2  24087899.405    24087901.959    24087902.238  
        22.100          16.100  
  -4791160.445 4  -3733349.277 3  23602445.855    23602444.188    23602444.735  
        28.400          23.800  
 -16365700.928 7 -12752491.872 6  21467251.620    21467250.139    21467250.502  
        42.700          40.300  
  -9996374.740 7  -7789381.428 6  21777010.784    21777007.860    21777009.982  
        44.000          37.300  
 -24139643.835 7 -18810104.695 7  20304499.489    20304496.328    20304498.638  
        45.200          46.800  
   -382946.864 3   -298400.123 2  24645540.916    24645536.649    24645540.442  
        21.600          17.800  
 -22518182.064 8 -17546623.784 7  20211830.761    20211828.706    20211830.282  
        48.000          44.700  
 -16361600.917 7 -12749286.363 6  21207668.065    21207665.806    21207667.420  
        45.300          41.000  
 06  1  1  2 20  0.0000000  0 10G06G08G09G10G15G18G21G22G26G29
  -6750005.823 4  -5259732.482 3  23524031.832    23524030.596    23524031.193  
        27.600          23.400  
  -1574906.377 3  -1227198.195 2  24552299.932    24552298.634    24552298.722  
        23.800          17.000  
  -3302410.173 4  -2573305.927 3  24043686.972    24043688.395    24043687.497  
        24.600          21.600  
  -4614002.032 4  -3595303.801 4  23636158.083    23636156.648    23636157.170  
        29.500          24.600  
 -16526802.034 7 -12878025.179 6  21436595.111    21436593.372    21436593.980  
        42.800          39.800  
 -10120854.132 7  -7886378.363 6  21753323.190    21753320.196    21753322.453  
        44.300          37.700  
 -24203288.519 7 -18859697.947 7  20292388.852    20292385.246    20292387.790  
        45.200          47.000  
   -559316.675 2   -435831.085 3  24611978.437    24611975.381    24611977.950  
        13.900          23.800  
 -22433998.100 7 -17481025.868 7  20227850.503    20227848.333    20227849.937  
        47.800          44.500  
 -16236459.552 7 -12651773.599 6  21231481.694    21231479.346    21231480.998  
        45.100          40.900  
 06  1  1  2 21  0.0000000  0 10G06G08G09G10G15G18G21G22G26G29
  -6561596.016 4  -5112919.711 4  23559884.906    23559884.036    23559884.373  
        28.800          24.900  
  -1462618.337 3  -1139701.140 2  24573666.875    24573666.090    24573666.328  
        22.600          17.800  
  -3534514.815 3  -2754166.555 3  23999520.703    23999519.553    23999519.574  
        23.400          21.100  
  -4436542.957 5  -3457024.039 4  23669928.191    23669926.287    23669926.880  
        30.400          25.300  
 -16686588.660 7 -13002534.222 6  21406188.982    21406186.784    21406187.797  
        43.500          39.700  
 -10244506.255 7  -7982730.651 6  21729792.905    21729790.023    21729792.015  
        43.800          38.000  
 -24264936.845 7 -18907735.606 7  20280657.495    20280653.800    20280656.377  
        45.000          47.000  
   -735444.793 2   -573073.656 4  24578462.693    24578458.875    24578462.182  
        17.800          24.600  
 -22347502.894 7 -17413626.991 7  20244309.884    20244307.954    20244309.346  
        47.500          44.700  
 -16109810.514 7 -12553086.024 6  21255582.114    21255579.860    21255581.476  
        44.900          40.600  
 06  1  1  2 22  0.0000000  0 10G06G08G09G10G15G18G21G22G26G29
  -6372568.582 4  -4965625.711 3  23595855.379    23595855.015    23595854.559  
        25.600          20.500  
  -1348343.363 3  -1050655.768 2  24595413.327    24595412.237    24595412.183  
        21.600          17.000  
  -3766349.204 3  -2934816.594 3  23955403.910    23955403.354    23955402.913  
        21.600          18.600  
  -4258788.153 5  -3318513.836 3  23703754.187    23703751.716    23703752.744  
        30.400          23.800  
 -16845040.633 7 -13126003.288 6  21376036.155    21376034.523    21376035.089  
        43.400          39.900  
 -10367327.746 7  -8078435.701 6  21706420.766    21706417.920    21706419.948  
        44.200          38.100  
 -24324575.250 7 -18954207.079 7  20269308.769    20269305.028    20269307.653  
        44.900          47.000  
   -911328.377 4   -710125.785 3  24544993.241    24544989.265    24544992.868  
        24.900          23.800  
 -22258714.397 7 -17344441.138 7  20261205.691    20261203.849    20261205.155  
        47.400          44.700  
 -15981672.003 7 -12453237.814 6  21279966.123    21279963.707    21279965.405  
        44.800          40.300  
 06  1  1  2 23  0.0000000  0 10G06G08G09G10G15G18G21G22G26G29
  -6182947.140 4  -4817868.769 2  23631938.550    23631938.147    23631938.022  
        24.600          16.100  
  -1232097.185 3   -960074.365 1  24617534.511    24617532.209    24617533.606  
        22.100           6.500  
  -3997887.252 4  -3115235.794 3  23911344.933    23911342.451    23911343.594  
        27.900          21.600  
  -4080742.909 4  -3179777.315 4  23737634.676    23737632.959    23737633.300  
        28.100          24.600  
 -17002137.574 7 -13248416.476 6  21346141.575    21346139.894    21346140.512  
        43.600          40.200  
 -10489313.443 7  -8173489.480 6  21683207.805    21683204.760    21683206.808  
        44.100          38.200  
 -24382190.560 7 -18999102.125 7  20258344.727    20258341.256    20258343.633  
        44.700          47.100  
  -1086963.319 4   -846984.169 3  24511571.165    24511566.930    24511570.398  
        25.900          21.100  
 -22167650.573 7 -17273482.300 7  20278534.594    20278532.726    20278534.055  
        47.500          44.700  
 -15852062.477 7 -12352243.366 6  21304629.964    21304627.603    21304629.252  
        44.800          40.300  
 06  1  1  2 24  0.0000000  0  9G06G09G10G15G18G21G22G26G29
  -5992754.870 4  -4669667.045 3  23668132.183    23668130.460    23668131.244  
        25.300          19.900  
  -4229104.206 3  -3295404.780 2  23867344.514    23867343.053    23867343.252  
        23.400          17.800  
  -3902412.516 5  -3040818.628 3  23771569.242    23771567.729    23771568.231  
        30.200          23.800  
 -17157860.315 7 -13369758.852 6  21316508.608    21316506.864    21316507.418  
        43.300          40.600  
 -10610458.502 7  -8267888.210 6  21660154.635    21660151.620    21660153.691  
        44.300          38.500  
 -24437769.505 7 -19042410.384 7  20247768.354    20247764.836    20247767.444  
        44.800          47.100  
  -1262346.304 4   -983646.246 3  24478197.153    24478192.550    24478196.441  
        25.900          20.500  
 -22074329.682 7 -17200764.707 7  20296293.188    20296291.036    20296292.538  
        47.500          44.400  
 -15721000.272 7 -12250116.955 6  21329570.228    21329567.810    21329569.578  
        44.900          40.000  
 06  1  1  2 25  0.0000000  0  9G06G09G10G15G18G21G22G26G29
  -5802015.079 4  -4521038.715 3  23704428.680    23704427.755    23704427.909  
        25.900          23.000  
  -4459973.131 4  -3475302.551 3  23823411.503    23823411.285    23823410.619  
        24.900          22.600  
  -3723801.877 4  -2901641.562 3  23805557.017    23805556.295    23805556.397  
        27.400          22.100  
 -17312188.269 7 -13490014.381 6  21287140.646    21287139.183    21287139.775  
        43.800          40.500  
 -10730758.361 7  -8361628.353 6  21637262.115    21637259.263    21637261.272  
        44.300          38.600  
 -24491298.070 7 -19084120.952 7  20237582.339    20237578.716    20237581.284  
        44.600          47.200  
  -1437474.062 4  -1120109.405 3  24444870.689    24444867.109    24444870.198  
        25.300          22.600  
 -21978770.386 7 -17126302.911 7  20314477.408    20314475.296    20314476.851  
        47.700          44.100  
 -15588503.629 7 -12146872.801 6  21354783.614    21354781.145    21354782.962  
        44.900          39.800  
 06  1  1  2 26  0.0000000  0  9G06G09G10G15G18G21G22G26G29
  -5610751.235 4  -4372002.031 3  23740824.670    23740824.040    23740824.322  
        24.600          22.600  
  -4690467.771 3  -3654908.684 3  23779547.699    23779548.759    23779548.443  
        22.600          20.500  
  -3544915.555 4  -2762249.648 3  23839597.245    23839597.954    23839597.100  
        27.900          21.600  
 -17465100.995 7 -13609167.142 6  21258042.724    21258040.897    21258041.569  
        44.100          40.700  
 -10850208.258 7  -8454706.177 6  21614531.758    21614528.695    21614530.935  
        45.100          38.900  
 -24542765.575 7 -19124225.497 7  20227788.265    20227784.772    20227787.235  
        44.400          47.400  
  -1612342.618 3  -1256370.604 3  24411593.358    24411590.787    24411593.304  
        22.100          21.100  
 -21880991.348 7 -17050111.432 7  20333084.351    20333081.961    20333083.667  
        47.600          43.900  
 -15454590.958 7 -12042525.249 6  21380266.310    21380263.891    21380265.585  
        44.300          39.700  
 06  1  1  2 27  0.0000000  0  9G06G09G10G15G18G21G22G26G29
  -5418986.491 3  -4222575.084 2  23777315.848    23777315.597    23777315.417  
        22.100          17.000  
  -4920561.816 4  -3834202.603 3  23735763.740    23735763.060    23735763.195  
        25.600          23.400  
  -3365758.587 4  -2622646.818 3  23873690.587    23873689.711    23873689.848  
        27.600          20.500  
 -17616579.047 7 -13727201.975 6  21229217.514    21229215.683    21229216.378  
        44.400          41.200  
 -10968803.443 7  -8547118.005 6  21591963.735    21591960.554    21591962.853  
        44.800          38.400  
 -24592157.705 7 -19162712.861 7  20218389.298    20218385.707    20218388.273  
        44.400          47.400  
  -1786948.759 4  -1392427.298 3  24378367.978    24378364.047    24378367.380  
        25.300          19.900  
 -21781011.420 7 -16972204.977 7  20352109.640    20352107.563    20352109.070  
        47.500          43.800  
 -15319280.611 7 -11937088.606 6  21406014.977    21406012.626    21406014.237  
        44.200          39.700  
 06  1  1  2 28  0.0000000  0  9G06G09G10G15G18G21G22G26G29
  -5226744.481 4  -4072776.119 3  23813899.303    23813898.177    23813898.556  
        25.300          18.600  
  -5150228.792 4  -4013163.780 3  23692061.353    23692059.128    23692059.767  
        25.300          22.600  
  -3186336.010 3  -2482837.056 3  23907833.086    23907832.216    23907832.810  
        23.400          19.900  
 -17766602.641 7 -13844103.486 6  21200668.870    21200667.034    21200667.824  
        44.500          41.200  
 -11086539.038 7  -8638860.013 6  21569559.376    21569556.693    21569558.536  
        44.800          39.700  
 -24639462.561 7 -19199573.784 7  20209387.351    20209383.896    20209386.389  
        44.100          47.400  
  -1961288.696 3  -1528276.556 3  24345191.480    24345188.021    24345190.972  
        22.600          21.100  
 -21678850.046 7 -16892598.696 7  20371550.246    20371548.282    20371549.723  
        47.600          44.000  
 -15182591.158 7 -11830577.328 6  21432026.278    21432023.749    21432025.497  
        44.600          39.500  
 06  1  1  2 29  0.0000000  0  9G06G09G10G15G18G21G22G26G29
  -5034048.436 4  -3922623.416 3  23850568.063    23850566.493    23850567.565  
        25.900          18.600  
  -5379442.654 4  -4191771.858 3  23648443.621    23648440.958    23648441.585  
        25.600          23.000  
  -3006652.588 4  -2342824.037 3  23942026.888    23942024.955    23942025.878  
        28.100          21.100  
 -17915151.169 7 -13959855.595 6  21172400.987    21172399.270    21172399.893  
        44.500          41.500  
 -11203410.066 7  -8729928.333 6  21547319.559    21547316.573    21547318.653  
        45.000          39.300  
 -24684669.062 7 -19234799.623 7  20200784.814    20200781.456    20200783.868  
        44.000          47.600  
  -2135358.710 4  -1663915.469 3  24312067.924    24312064.048    24312067.367  
        26.200          19.900  
 -21574526.542 7 -16811307.640 7  20391402.253    20391400.402    20391401.764  
        47.500          43.800  
 -15044540.930 7 -11723005.703 6  21458296.304    21458293.905    21458295.517  
        44.300          39.400  
 06  1  1  2 30  0.0000000  0  9G06G09G10G15G18G21G22G26G29
  -4840921.590 4  -3772135.028 2  23887319.136    23887318.136    23887318.088  
        25.600          17.000  
  -5608176.057 4  -4370005.580 4  23604915.495    23604914.514    23604914.788  
        28.400          24.200  
  -2826712.260 4  -2202610.827 3  23976268.184    23976267.216    23976267.355  
        27.400          22.100  
 -18062204.906 7 -14074442.921 6  21144417.615    21144415.892    21144416.548  
        44.600          41.400  
 -11319412.140 7  -8820319.561 6  21525245.528    21525242.176    21525244.561  
        45.600          39.500  
 -24727763.922 7 -19268380.029 7  20192584.215    20192580.781    20192583.220  
        43.800          47.600  
  -2309155.581 4  -1799341.582 3  24278994.918    24278991.150    24278994.611  
        25.600          21.100  
 -21468060.425 7 -16728347.012 7  20411661.922    20411660.126    20411661.500  
        47.500          43.800  
 -14905148.467 7 -11614388.183 6  21484821.589    21484819.267    21484820.902  
        43.600          39.100  
 06  1  1  2 31  0.0000000  0 10G03G06G09G10G15G18G21G22G26G29
    -70366.104 3    -54830.771 3  24576796.904    24576795.430    24576796.047  
        21.100          21.100  
  -4647387.078 3  -3621328.958 2  23924147.226    23924146.056    23924146.541  
        23.000          12.600  
  -5836403.512 4  -4547845.101 3  23561484.565    23561483.738    23561484.178  
        27.100          23.000  
  -2646520.109 4  -2062201.419 3  24010556.938    24010556.060    24010556.663  
        27.100          19.900  
 -18207744.069 7 -14187850.062 6  21116722.568    21116720.617    21116721.414  
        45.000          41.800  
 -11434540.338 7  -8910029.841 6  21503337.113    21503333.945    21503336.110  
        45.000          39.500  
 -24768736.737 7 -19300306.894 7  20184787.417    20184783.822    20184786.342  
        43.800          47.600  
  -2482675.371 4  -1934551.747 3  24245975.458    24245971.769    24245974.765  
        25.300          23.800  
 -21359471.647 7 -16643732.360 7  20432325.936    20432323.879    20432325.405  
        47.600          43.700  
 -14764432.329 7 -11504739.229 6  21511598.872    21511596.715    21511598.209  
        43.600          39.100  
 06  1  1  2 32  0.0000000  0 10G03G06G09G10G15G18G21G22G26G29
   -160381.547 2   -124972.671 3  24559666.953    24559665.466    24559665.913  
        16.100          21.100  
  -4453468.331 3  -3470223.517 4  23961048.391    23961048.208    23961048.066  
        22.600          24.600  
  -6064097.512 4  -4725268.862 3  23518156.434    23518155.078    23518155.747  
        26.200          23.800  
  -2466080.804 4  -1921599.389 3  24044893.512    24044892.816    24044892.983  
        26.200          19.900  
 -18351748.447 7 -14300061.264 7  21089319.429    21089317.500    21089318.348  
        45.200          42.000  
 -11548788.699 7  -8999054.531 6  21481596.181    21481593.341    21481595.357  
        45.400          40.000  
 -24807576.376 7 -19330571.540 7  20177396.440    20177393.016    20177395.378  
        43.700          47.800  
  -2655914.191 4  -2069542.987 4  24213009.117    24213005.776    24213008.603  
        26.500          24.600  
 -21248780.096 7 -16557479.184 7  20453389.761    20453387.836    20453389.234  
        47.500          43.500  
 -14622410.871 7 -11394073.144 6  21538624.785    21538622.512    21538623.990  
        43.600          38.800  
 06  1  1  2 33  0.0000000  0 10G03G06G09G10G15G18G21G22G26G29
   -248387.817 3   -193548.922 3  24542920.395    24542918.557    24542919.429  
        23.000          21.100  
  -4259188.125 3  -3318836.469 3  23998018.824    23998018.545    23998018.091  
        22.600          23.000  
  -6291230.036 4  -4902255.202 3  23474935.137    23474933.178    23474933.389  
        26.200          22.100  
  -2285398.753 4  -1780808.196 3  24079275.866    24079275.621    24079275.469  
        24.900          19.300  
 -18494197.977 7 -14411060.891 7  21062212.118    21062210.301    21062210.982  
        45.100          42.200  
 -11662153.677 7  -9087390.885 6  21460023.704    21460020.558    21460022.806  
        45.500          39.900  
 -24844270.707 7 -19359164.519 7  20170413.827    20170410.240    20170412.770  
        43.500          47.800  
  -2828868.438 4  -2204312.488 4  24180097.214    24180092.895    24180096.466  
        25.600          24.900  
 -21136006.075 7 -16469603.308 7  20474850.031    20474847.958    20474849.491  
        47.600          43.300  
 -14479102.352 7 -11282404.163 6  21565895.690    21565893.102    21565894.843  
        43.600          39.000  
 06  1  1  2 34  0.0000000  0 10G03G06G09G10G15G18G21G22G26G29
   -334374.483 3   -260551.424 3  24526557.859    24526555.770    24526556.849  
        22.600          22.600  
  -4064569.837 4  -3167185.999 3  24035053.854    24035053.863    24035053.297  
        24.900          22.100  
  -6517776.367 4  -5078784.684 4  23431823.475    23431822.762    23431823.135  
        28.100          24.900  
  -2104478.359 4  -1639831.342 3  24113705.219    24113704.219    24113704.481  
        24.600          22.100  
 -18635072.320 7 -14520833.098 7  21035404.680    21035402.781    21035403.582  
        45.300          42.300  
 -11774629.728 7  -9175034.559 6  21438620.299    21438617.200    21438619.331  
        45.600          40.300  
 -24878809.612 7 -19386077.938 7  20163841.028    20163837.673    20163840.064  
        43.400          47.800  
  -3001534.838 4  -2338857.697 3  24147239.737    24147236.119    24147239.173  
        25.600          23.400  
 -21021169.612 7 -16380120.322 7  20496702.486    20496700.554    20496701.969  
        47.200          43.000  
 -14334525.477 7 -11169746.845 6  21593407.582    21593405.064    21593406.916  
        44.000          38.400  
 06  1  1  2 35  0.0000000  0 10G03G06G09G10G15G18G21G22G26G29
   -418330.889 3   -325971.983 3  24510581.018    24510579.253    24510580.207  
        23.800          23.000  
  -3869636.479 4  -3015289.956 3  24072149.142    24072147.917    24072148.379  
        27.400          18.600  
  -6743708.078 4  -5254835.242 4  23388828.926    23388829.147    23388829.588  
        27.400          26.500  
  -1923324.419 4  -1498672.455 3  24148177.891    24148175.678    24148176.162  
        25.300          20.500  
 -18774352.053 7 -14629362.748 7  21008900.377    21008898.805    21008899.327  
        45.400          42.500  
 -11886211.584 7  -9261981.454 6  21417386.697    21417383.604    21417385.798  
        45.600          40.100  
 -24911182.680 7 -19411303.694 7  20157680.646    20157677.248    20157679.685  
        43.000          47.800  
  -3173909.481 4  -2473175.527 4  24114437.867    24114434.083    24114437.241  
        25.300          24.200  
 -20904291.339 7 -16289046.326 7  20518943.638    20518941.715    20518943.156  
        47.200          42.900  
 -14188698.266 7 -11056115.237 6  21621157.738    21621155.179    21621156.969  
        43.500          38.300  
 06  1  1  2 36  0.0000000  0 10G03G06G09G10G15G18G21G22G26G29
   -500247.379 3   -389802.965 3  24494992.573    24494991.174    24494991.516  
        22.600          21.600  
  -3674410.997 4  -2863166.218 1  24109299.022    24109297.312    24109298.300  
        24.600           9.000  
  -6968998.471 4  -5430386.080 4  23345960.335    23345958.144    23345958.804  
        29.200          28.400  
  -1741940.967 4  -1357334.737 3  24182694.113    24182692.303    24182692.767  
        26.200          20.500  
 -18912017.591 7 -14736634.571 7  20982703.428    20982701.773    20982702.336  
        45.300          42.300  
 -11996894.098 7  -9348227.567 6  21396324.577    21396321.509    21396323.661  
        45.600          40.100  
 -24941379.164 7 -19434833.413 7  20151934.401    20151930.996    20151933.419  
        43.000          47.700  
  -3345988.149 4  -2607262.762 3  24081692.302    24081688.202    24081691.494  
        28.600          23.400  
 -20785391.874 7 -16196397.370 7  20541569.681    20541567.411    20541569.109  
        47.100          42.700  
 -14041639.449 7 -10941523.944 6  21649141.824    21649139.577    21649141.146  
        43.200          38.400  
 06  1  1  2 37  0.0000000  0 10G03G06G09G10G15G18G21G22G26G29
   -580114.588 3   -452037.144 4  24479794.806    24479793.026    24479793.621  
        21.100          26.500  
  -3478916.455 3  -2710832.892 2  24146499.216    24146499.758    24146498.750  
        20.500          16.100  
  -7193620.083 4  -5605415.801 3  23303215.385    23303213.402    23303213.788  
        27.900          23.800  
  -1560332.355 4  -1215821.528 3  24217252.122    24217251.305    24217251.461  
        25.300          18.600  
 -19048048.924 7 -14842632.999 7  20956817.642    20956815.937    20956816.540  
        45.500          42.600  
 -12106672.512 7  -9433769.181 6  21375434.422    21375431.415    21375433.559  
        45.800          40.300  
 -24969389.085 7 -19456659.325 7  20146604.502    20146600.995    20146603.472  
        43.200          47.900  
  -3517767.194 4  -2741116.552 2  24049003.618    24048999.180    24049003.227  
        27.400          17.800  
 -20664492.245 7 -16102189.855 7  20564575.924    20564573.773    20564575.386  
        47.000          42.400  
 -13893367.532 7 -10825987.378 6  21677357.136    21677354.679    21677356.346  
        42.900          37.900  
 06  1  1  2 38  0.0000000  0 10G03G06G09G10G15G18G21G22G26G29
   -657922.619 4   -512666.755 3  24464988.308    24464986.286    24464987.449  
        24.900          23.400  
  -3283175.710 2  -2558307.687 2  24183748.695    24183748.432    24183748.305  
        17.800          12.600  
  -7417545.727 4  -5779903.244 4  23260602.766    23260601.238    23260602.450  
        29.500          24.200  
  -1378503.314 4  -1074136.584 2  24251854.127    24251851.637    24251853.106  
        27.600          13.900  
 -19182426.088 7 -14947342.467 7  20931246.376    20931244.709    20931245.291  
        45.400          42.300  
 -12215541.600 7  -9518602.228 6  21354717.364    21354714.450    21354716.411  
        45.700          40.700  
 -24995203.582 7 -19476774.514 7  20141692.241    20141688.602    20141691.146  
        43.100          47.900  
  -3689242.848 4  -2874733.923 3  24016373.426    24016368.795    24016372.735  
        27.900          21.600  
 -20541613.000 7 -16006439.772 7  20587959.149    20587956.950    20587958.608  
        47.300          42.200  
 -13743900.603 7 -10709519.637 6  21705799.775    21705797.200    21705799.048  
        43.100          37.400  
 06  1  1  2 39  0.0000000  0 10G03G06G09G10G15G18G21G22G26G29
   -733662.469 4   -571684.797 3  24450575.983    24450573.358    24450574.942  
        27.400          23.000  
  -3087211.536 3  -2405608.495 2  24221040.059    24221039.256    24221039.315  
        19.900          15.100  
  -7640748.899 4  -5953827.701 4  23218128.726    23218127.671    23218128.239  
        29.000          25.900  
  -1196457.886 4   -932283.016 3  24286495.044    24286494.997    24286494.066  
        24.600          20.500  
 -19315129.702 7 -15050747.860 7  20905993.712    20905992.030    20905992.718  
        45.500          42.600  
 -12323495.658 7  -9602722.262 6  21334174.348    21334171.385    21334173.470  
        45.800          41.000  
 -25018811.867 7 -19495170.573 8  20137199.608    20137196.154    20137198.629  
        42.800          48.000  
  -3860410.938 4  -3008111.622 4  23983800.431    23983796.891    23983799.933  
        26.500          24.600  
 -20416775.374 7 -15909163.682 7  20611714.986    20611712.877    20611714.440  
        47.300          42.600  
 -13593257.086 7 -10592135.062 6  21734466.324    21734463.664    21734465.626  
        43.000          37.200  
 06  1  1  2 40  0.0000000  0 10G03G06G09G10G15G18G21G22G26G29
   -807325.853 4   -629084.813 3  24436557.880    24436555.662    24436556.768  
        24.200          19.300  
  -2891046.807 3  -2252752.899 3  24258368.649    24258367.710    24258367.869  
        23.400          20.500  
  -7863201.546 4  -6127167.318 4  23175798.770    23175796.311    23175796.868  
        28.600          26.200  
  -1014200.234 4   -790264.112 2  24321178.409    24321177.326    24321177.412  
        24.900          17.800  
 -19446140.091 7 -15152833.866 7  20881063.436    20881061.592    20881062.354  
        45.800          43.000  
 -12430530.020 7  -9686125.650 6  21313806.512    21313803.531    21313805.592  
        45.900          41.400  
 -25040205.191 7 -19511840.690 7  20133128.684    20133125.100    20133127.545  
        42.600          47.900  
  -4031268.159 4  -3141247.052 4  23951287.821    23951283.982    23951287.302  
        27.900          26.200  
 -20290000.680 7 -15810378.193 7  20635839.476    20635837.197    20635838.882  
        47.200          42.300  
 -13441455.255 7 -10473847.915 6  21763353.209    21763350.743    21763352.626  
        42.800          37.200  
 06  1  1  2 41  0.0000000  0 10G03G06G09G10G15G18G21G22G26G29
   -878903.635 3   -684859.633 3  24422936.762    24422934.727    24422935.722  
        22.600          19.300  
  -2694704.204 3  -2099758.739 3  24295731.293    24295730.270    24295730.421  
        23.800          18.600  
  -8084876.797 4  -6299901.181 4  23133613.966    23133613.068    23133613.131  
        29.500          26.800  
   -831734.435 4   -648083.023 2  24355900.273    24355898.211    24355899.124  
        24.200          17.800  
 -19575437.620 7 -15253585.175 7  20856459.089    20856457.083    20856457.976  
        46.100          43.100  
 -12536639.318 7  -9768808.216 6  21293614.509    21293611.473    21293613.553  
        45.800          41.100  
 -25059375.278 7 -19526778.415 8  20129480.737    20129477.167    20129479.602  
        42.400          48.000  
  -4201809.945 4  -3274136.745 4  23918835.247    23918830.865    23918834.606  
        29.200          25.900  
 -20161310.113 7 -15710099.812 6  20660328.567    20660326.226    20660327.880  
        47.100          41.800  
 -13288513.229 7 -10354672.303 6  21792457.548    21792454.638    21792456.624  
        42.700          37.300  
 06  1  1  2 42  0.0000000  0 10G03G06G09G10G15G18G21G22G26G29
   -948388.858 2   -739003.995 2  24409713.440    24409712.370    24409712.536  
        17.800          13.900  
  -2498206.190 3  -1946643.559 3  24333124.099    24333123.438    24333122.865  
        22.100          18.600  
  -8305746.878 5  -6472007.603 4  23091583.849    23091582.716    23091583.125  
        31.300          27.400  
   -649064.436 3   -505742.763 2  24390662.272    24390659.217    24390660.593  
        23.800          15.100  
 -19703003.083 7 -15352986.819 7  20832184.061    20832182.042    20832182.935  
        45.900          43.000  
 -12641818.442 7  -9850765.961 6  21273599.626    21273596.501    21273598.747  
        46.100          41.400  
 -25076313.718 7 -19539977.192 7  20126257.353    20126253.838    20126256.223  
        42.300          47.900  
  -4372032.695 4  -3406777.829 4  23886442.879    23886438.558    23886442.007  
        28.600          25.300  
 -20030724.963 7 -15608345.133 6  20685177.743    20685175.738    20685177.207  
        46.700          41.500  
 -13134449.671 7 -10234622.769 6  21821774.617    21821771.942    21821773.760  
        42.700          36.900  
 06  1  1  2 43  0.0000000  0 10G03G06G09G10G15G18G21G22G26G29
  -1015772.916 3   -791510.996 2  24396891.495    24396889.624    24396890.599  
        20.500          13.900  
  -2301575.649 3  -1793424.987 2  24370542.515    24370540.481    24370541.537  
        22.600          15.100  
  -8525784.555 5  -6643465.440 4  23049712.504    23049710.346    23049711.248  
        30.400          26.800  
   -466194.501 4   -363246.773 3  24425460.803    24425459.192    24425459.702  
        24.600          19.300  
 -19828817.093 7 -15451023.690 7  20808242.481    20808240.454    20808241.381  
        46.100          43.200  
 -12746061.849 7  -9931994.577 6  21253762.536    21253759.590    21253761.746  
        46.300          41.500  
 -25091011.386 7 -19551429.917 7  20123460.233    20123457.005    20123459.222  
        42.200          47.900  
  -4541932.263 4  -3539167.069 4  23854111.549    23854107.778    23854110.993  
        26.800          25.300  
 -19898266.888 7 -15505131.028 6  20710383.835    20710381.674    20710383.222  
        46.600          41.400  
 -12979282.352 7 -10113713.168 6  21851301.606    21851299.228    21851301.005  
        42.200          36.500  
 06  1  1  2 44  0.0000000  0 10G03G06G09G10G15G18G21G22G26G29
  -1081048.436 3   -842375.014 2  24384469.940    24384468.203    24384468.861  
        21.600          17.000  
  -2104834.872 2  -1640120.639 2  24407978.972    24407978.829    24407978.122  
        17.800          17.000  
  -8744962.299 4  -6814253.185 4  23008003.265    23008002.387    23008002.951  
        29.900          27.100  
   -283128.880 3   -220598.347 3  24460295.208    24460295.227    24460294.220  
        19.900          19.300  
 -19952859.838 7 -15547680.349 7  20784637.813    20784635.789    20784636.747  
        46.200          43.200  
 -12849364.085 7 -10012489.810 6  21234104.898    21234101.872    21234103.969  
        46.100          41.800  
 -25103461.100 7 -19561130.988 8  20121091.008    20121087.922    20121090.053  
        42.300          48.000  
  -4711504.303 4  -3671301.117 3  23821843.232    23821839.037    23821842.487  
        27.900          23.400  
 -19763957.381 7 -15400474.257 6  20735941.924    20735939.965    20735941.453  
        46.800          41.300  
 -12823029.709 7  -9991957.855 6  21881035.555    21881033.179    21881034.870  
        42.100          36.600  
 06  1  1  2 45  0.0000000  0 10G03G06G09G10G15G18G21G22G26G29
  -1144208.704 3   -891590.843 9  24372451.318    24372448.984    24372450.296  
        22.100          -3.000  
  -1908006.340 3  -1486747.874 1  24445434.458    24445434.593    24445433.970  
        19.900           6.500  
  -8963251.955 4  -6984348.932 4  22966465.681    22966463.223    22966463.999  
        29.900          28.100  
    -99871.572 3    -77800.512 3  24495170.934    24495167.722    24495169.273  
        22.600          19.300  
 -20075112.628 7 -15642942.238 7  20761373.820    20761371.955    20761372.640  
        45.900          43.300  
 -12951719.712 7 -10092247.427 6  21214627.172    21214624.192    21214626.311  
        46.100          41.800  
 -25113653.883 7 -19569073.412 7  20119151.864    20119148.273    20119150.812  
        42.500          47.900  
  -4880745.007 4  -3803176.966 4  23789637.630    23789633.702    23789636.915  
        29.700          27.100  
 -19627818.053 7 -15294391.649 6  20761848.338    20761846.415    20761847.904  
        46.800          41.200  
 -12665709.579 6  -9869370.735 6  21910972.586    21910970.222    21910971.870  
        41.800          36.200  
 06  1  1  2 46  0.0000000  0 10G03G06G09G10G15G18G21G22G26G29
  -1205246.664 4   -939152.885 1  24360835.724    24360833.358    24360834.836  
        25.900          11.000  
  -1711112.495 3  -1333324.111 1  24482903.059    24482902.499    24482901.989  
        19.300           6.500  
  -9180625.645 5  -7153730.960 4  22925100.248    22925098.036    22925099.133  
        31.600          27.600  
     83573.075 3     65143.292 3  24530076.895    24530076.700    24530076.842  
        22.600          18.600  
 -20195556.175 7 -15736794.315 7  20738454.073    20738452.298    20738452.991  
        46.100          43.600  
 -13053122.863 7 -10171262.855 7  21195330.914    21195327.906    21195329.961  
        46.200          42.000  
 -25121583.322 7 -19575252.198 7  20117642.816    20117639.333    20117641.807  
        42.500          47.900  
  -5049650.114 4  -3934791.317 4  23757496.634    23757492.145    23757495.657  
        29.700          27.100  
 -19489871.040 7 -15186900.452 6  20788098.934    20788096.787    20788098.458  
        46.900          41.100  
 -12507340.116 6  -9745965.954 6  21941109.285    21941106.894    21941108.595  
        41.500          36.200  
 06  1  1  2 47  0.0000000  0 10G03G06G09G10G15G18G21G22G26G29
  -1264155.952 4   -985056.246 2  24349625.474    24349623.138    24349624.439  
        24.600          12.600  
  -1514175.570 3  -1179866.962 1  24520378.578    24520378.274    24520377.023  
        18.600           9.000  
  -9397057.069 5  -7322378.705 4  22883912.981    22883912.687    22883913.047  
        32.000          27.400  
    267201.415 3    208230.296 1  24565020.898    24565019.014    24565019.733  
        22.100           9.000  
 -20314171.562 7 -15829221.869 7  20715882.335    20715880.534    20715881.212  
        46.200          43.600  
 -13153569.086 7 -10249532.618 7  21176216.612    21176213.482    21176215.684  
        46.100          42.000  
 -25127241.697 7 -19579661.319 7  20116566.040    20116562.578    20116565.027  
        42.300          47.700  
  -5218215.546 5  -4066140.999 4  23725419.251    23725415.250    23725418.649  
        31.000          28.600  
 -19350137.865 7 -15078017.442 6  20814689.237    20814687.029    20814688.700  
        46.500          41.000  
 -12347939.347 6  -9621757.560 6  21971442.073    21971439.848    21971441.342  
        41.300          36.000  
 06  1  1  2 48  0.0000000  0  9G03G09G10G15G18G21G22G26G29
  -1320931.053 4  -1029296.605 2  24338821.642    24338819.568    24338820.655  
        26.200          16.100  
  -9612518.954 5  -7490271.000 4  22842913.016    22842911.583    22842911.955  
        31.300          29.000  
    451009.764 4    351457.458 2  24599998.947    24599996.847    24599997.971  
        24.200          13.900  
 -20430939.918 7 -15920210.183 7  20693662.274    20693660.251    20693661.202  
        46.600          43.900  
 -13253052.198 7 -10327051.922 7  21157285.586    21157282.552    21157284.660  
        46.200          42.400  
 -25130623.152 7 -19582296.218 7  20115922.656    20115919.058    20115921.662  
        42.400          47.600  
  -5386436.974 4  -4197222.633 4  23693407.511    23693403.304    23693406.831  
        28.600          24.900  
 -19208640.556 7 -14967759.789 6  20841615.263    20841613.116    20841614.651  
        46.100          40.600  
 -12187525.199 6  -9496759.523 5  22001967.939    22001965.516    22001967.271  
        41.300          35.600  
 06  1  1  2 49  0.0000000  0  9G03G09G10G15G18G21G22G26G29
  -1375565.507 4  -1071868.885 3  24328425.427    24328423.299    24328424.637  
        26.500          19.900  
  -9826983.025 5  -7657385.850 4  22802102.087    22802100.040    22802101.337  
        33.400          27.900  
    634993.865 4    494821.713 2  24635010.402    24635008.352    24635008.774  
        25.600          12.600  
 -20545842.732 7 -16009744.827 7  20671796.793    20671794.979    20671795.742  
        46.600          44.200  
 -13351565.979 7 -10403815.893 7  21138539.141    21138535.948    21138538.182  
        46.300          42.400  
 -25131721.766 7 -19583152.282 7  20115713.495    20115710.048    20115712.450  
        42.500          47.600  
  -5554309.961 4  -4328032.741 4  23661462.199    23661458.284    23661461.730  
        28.600          25.600  
 -19065401.070 7 -14856144.594 6  20868872.826    20868870.599    20868872.264  
        46.000          40.300  
 -12026115.635 6  -9370985.837 5  22032683.127    22032680.948    22032682.524  
        41.000          35.700  
 06  1  1  2 50  0.0000000  0  9G03G09G10G15G18G21G22G26G29
  -1428054.844 4  -1112769.665 4  24318437.073    24318435.111    24318436.220  
        25.900          25.900  
 -10040421.045 5  -7823701.126 4  22761486.243    22761484.381    22761485.145  
        32.100          29.500  
    819150.303 2    638320.147 1  24670054.043    24670052.218    24670053.033  
        17.800          11.000  
 -20658861.160 7 -16097811.118 7  20650290.363    20650288.180    20650289.222  
        46.800          44.000  
 -13449105.741 7 -10479820.882 7  21119977.947    21119974.814    21119976.985  
        46.100          42.700  
 -25130530.893 7 -19582224.328 7  20115940.096    20115936.591    20115939.159  
        42.500          47.600  
  -5721830.149 5  -4458567.949 4  23629584.288    23629580.082    23629583.759  
        31.500          27.600  
 -18920441.480 7 -14743189.064 6  20896457.780    20896455.581    20896457.209  
        46.100          40.600  
 -11863727.895 6  -9244449.943 5  22063585.147    22063582.301    22063584.084  
        40.800          35.700  
 06  1  1  2 51  0.0000000  0  9G03G09G10G15G18G21G22G26G29
  -1478393.794 4  -1151994.755 4  24308857.827    24308855.828    24308857.046  
        27.600          25.600  
 -10252805.721 5  -7989195.564 5  22721069.749    22721068.718    22721069.454  
        32.100          30.600  
   1003475.123 3    781949.834 2  24705129.810    24705128.649    24705128.502  
        20.500          15.100  
 -20769976.831 7 -16184394.748 7  20629145.696    20629143.588    20629144.589  
        46.800          44.200  
 -13545665.961 7 -10555062.588 7  21101603.086    21101599.908    21101602.183  
        46.400          42.700  
 -25127044.108 7 -19579507.350 7  20116603.336    20116600.277    20116602.456  
        42.300          47.600  
  -5888993.269 5  -4588824.904 4  23597774.769    23597770.563    23597774.149  
        31.500          28.100  
 -18773783.792 7 -14628910.345 6  20924365.755    20924363.503    20924365.234  
        46.200          40.200  
 -11700380.357 6  -9117166.142 5  22094668.495    22094666.274    22094667.902  
        40.500          34.900  
 06  1  1  2 52  0.0000000  0  9G03G09G10G15G18G21G22G26G29
  -1526576.838 4  -1189540.014 4  24299689.008    24299686.860    24299688.118  
        29.000          25.900  
 -10464109.503 5  -8153847.784 4  22680861.219    22680858.833    22680859.796  
        33.500          28.800  
   1187964.257 3    925707.518 1  24740236.841    24740235.434    24740235.844  
        19.300          11.000  
 -20879171.109 7 -16269481.179 7  20608366.222    20608364.600    20608365.198  
        46.500          44.100  
 -13641240.534 7 -10629536.264 7  21083415.682    21083412.789    21083414.882  
        46.200          43.000  
 -25121256.464 7 -19574997.499 7  20117704.916    20117701.566    20117703.945  
        42.400          47.700  
  -6055795.250 5  -4718800.477 4  23566033.499    23566029.097    23566032.884  
        31.600          28.100  
 -18625450.108 7 -14513325.647 6  20952592.723    20952590.525    20952592.193  
        46.100          40.000  
 -11536090.521 6  -8989148.084 5  22125932.093    22125929.725    22125931.299  
        40.300          34.700  
 06  1  1  2 53  0.0000000  0  9G03G09G10G15G18G21G22G26G29
  -1572600.270 4  -1225402.374 3  24290930.910    24290928.569    24290929.918  
        26.200          23.800  
 -10674305.038 5  -8317636.463 4  22640861.534    22640859.501    22640860.909  
        33.900          28.400  
   1372614.028 3   1069590.398 3  24775374.918    24775373.562    24775373.723  
        19.900          20.500  
 -20986426.223 7 -16353056.579 7  20587956.293    20587954.642    20587955.266  
        46.600          44.300  
 -13735823.206 7 -10703237.040 7  21065417.192    21065414.014    21065416.308  
        46.300          42.700  
 -25113162.737 7 -19568690.696 7  20119245.210    20119241.738    20119244.184  
        42.300          47.500  
  -6222231.046 5  -4848490.689 4  23534361.417    23534357.263    23534360.829  
        30.100          27.400  
 -18475462.639 7 -14396452.294 6  20981134.184    20981132.319    20981133.698  
        45.700          40.000  
 -11370875.729 6  -8860409.286 5  22157371.703    22157368.882    22157370.717  
        40.000          34.900  
 06  1  1  2 54  0.0000000  0  9G03G09G10G15G18G21G22G26G29
  -1616460.011 3  -1259578.795 4  24282584.856    24282582.626    24282583.633  
        23.800          26.800  
 -10883364.288 5  -8480539.703 4  22601079.158    22601076.988    22601078.306  
        34.100          29.900  
   1557420.881 3   1213595.581 1  24810542.569    24810541.017    24810541.405  
        21.600           9.000  
 -21091724.023 7 -16435106.804 7  20567918.965    20567916.942    20567917.842  
        46.500          44.200  
 -13829409.140 7 -10776161.122 7  21047608.251    21047605.372    21047607.372  
        46.100          43.200  
 -25102758.315 7 -19560583.356 7  20121225.140    20121221.568    20121224.115  
        42.800          47.400  
  -6388296.407 5  -4977892.265 4  23502760.056    23502756.222    23502759.406  
        30.200          27.100  
 -18323843.608 7 -14278307.596 6  21009986.578    21009984.515    21009985.991  
        45.500          40.200  
 -11204753.485 6  -8730963.391 5  22188983.416    22188981.223    22188982.666  
        40.300          34.900  
 06  1  1  2 55  0.0000000  0  8G03G09G15G18G21G22G26G29
  -1658152.888 4  -1292066.730 4  24274650.614    24274648.839    24274649.885  
        24.600          28.600  
 -11091259.862 5  -8642536.197 5  22561516.552    22561515.930    22561516.687  
        34.100          31.000  
 -21195046.669 7 -16515617.953 7  20548257.294    20548255.372    20548256.206  
        46.600          44.700  
 -13921991.974 7 -10848303.572 7  21029990.434    21029987.446    21029989.478  
        46.100          43.400  
 -25090038.839 7 -19550672.076 7  20123645.272    20123642.031    20123644.317  
        42.600          47.200  
  -6553987.070 5  -5107001.881 4  23471230.305    23471226.495    23471229.735  
        32.400          29.500  
 -18170615.233 7 -14158908.858 6  21039144.877    21039142.765    21039144.423  
        45.600          39.600  
 -11037741.490 6  -8600824.174 5  22220764.775    22220762.424    22220764.054  
        40.300          34.600  
 06  1  1  2 56  0.0000000  0  8G03G09G15G18G21G22G26G29
  -1697675.546 3  -1322863.591 4  24267129.632    24267127.637    24267128.740  
        22.600          25.900  
 -11297963.857 5  -8803604.202 4  22522183.343    22522181.163    22522182.178  
        34.100          29.900  
 -21296376.101 7 -16594575.939 7  20528975.045    20528973.066    20528973.973  
        47.000          44.700  
 -14013566.675 7 -10919660.471 7  21012564.301    21012561.240    21012563.417  
        46.100          43.300  
 -25075000.238 7 -19538953.682 7  20126507.155    20126503.606    20126506.110  
        42.500          47.000  
  -6719297.987 5  -5235815.563 5  23439772.574    23439768.733    23439771.982  
        32.700          30.400  
 -18015799.605 7 -14038273.306 6  21068605.234    21068603.129    21068604.696  
        45.200          39.500  
 -10869856.846 6  -8470004.970 5  22252712.400    22252709.961    22252711.400  
        39.800          34.800  
 06  1  1  2 57  0.0000000  0  8G03G09G15G18G21G22G26G29
  -1735024.918 3  -1351966.973 3  24260022.220    24260020.309    24260021.325  
        21.100          23.800  
 -11503448.846 5  -8963722.314 5  22483080.309    22483078.810    22483079.505  
        35.100          31.100  
 -21395695.318 7 -16671967.537 7  20510075.353    20510073.220    20510074.142  
        46.700          44.600  
 -14104126.640 7 -10990226.674 7  20995331.452    20995328.293    20995330.472  
        46.100          43.500  
 -25057638.377 7 -19525424.960 7  20129811.211    20129807.652    20129810.142  
        42.800          47.100  
  -6884224.772 5  -5364329.921 5  23408388.452    23408384.374    23408387.705  
        33.000          30.400  
 -17859419.035 7 -13916418.314 6  21098363.349    21098361.310    21098362.908  
        45.200          39.100  
 -10701116.936 6  -8338519.337 5  22284822.279    22284820.044    22284821.465  
        39.300          34.700  
 06  1  1  2 58  0.0000000  0  8G03G09G15G18G21G22G26G29
  -1770198.068 4  -1379374.568 3  24253328.912    24253326.963    24253328.036  
        24.600          23.800  
 -11707687.593 5  -9122869.326 5  22444214.211    22444213.464    22444214.015  
        34.800          31.100  
 -21492986.582 7 -16747778.904 7  20491561.116    20491559.357    20491560.041  
        46.900          44.800  
 -14193665.747 7 -11059997.400 7  20978292.585    20978289.614    20978291.730  
        46.300          43.800  
 -25037950.344 7 -19510083.635 7  20133557.511    20133554.158    20133556.576  
        42.900          47.100  
  -7048762.539 5  -5492541.153 5  23377078.044    23377074.009    23377077.397  
        33.000          30.600  
 -17701495.752 7 -13793361.212 6  21128415.401    21128413.173    21128414.817  
        44.900          39.000  
 -10531538.976 6  -8206380.684 5  22317091.481    22317089.312    22317090.934  
        38.800          33.900  
 06  1  1  2 59  0.0000000  0  8G03G09G15G18G21G22G26G29
  -1803193.639 3  -1405085.442 3  24247050.057    24247048.263    24247049.020  
        22.100          22.600  
 -11910652.338 5  -9281023.608 5  22405591.376    22405590.196    22405590.810  
        34.100          30.800  
 -21588233.051 7 -16821996.937 7  20473436.562    20473434.553    20473435.435  
        47.000          44.700  
 -14282178.745 7 -11128968.566 7  20961449.241    20961446.063    20961448.322  
        46.300          43.900  
 -25015932.608 7 -19492926.955 7  20137747.280    20137744.067    20137746.335  
        42.900          47.200  
  -7212906.498 5  -5620445.535 4  23345841.919    23345837.471    23345841.330  
        32.600          26.500  
 -17542052.009 7 -13669119.340 6  21158756.544    21158754.313    21158755.905  
        44.700          38.900  
 -10361139.863 6  -8073602.153 5  22349517.312    22349515.604    22349516.836  
        38.900          34.300  
 06  1  1  3  0  0.0000000  0  8G03G09G15G18G21G22G26G29
  -1834009.943 3  -1429098.117 3  24241185.986    24241183.870    24241185.280  
        23.800          23.400  
 -12112315.723 5  -9438163.846 5  22367217.263    22367215.377    22367216.156  
        35.300          32.400  
 -21681417.529 7 -16894608.214 7  20455704.046    20455702.220    20455702.957  
        46.800          45.000  
 -14369658.856 7 -11197134.871 7  20944801.991    20944799.309    20944801.131  
        45.900          44.100  
 -24991583.553 7 -19473953.666 7  20142380.995    20142377.523    20142379.900  
        43.200          47.100  
  -7376651.718 5  -5748039.232 4  23314682.153    23314677.936    23314681.670  
        33.500          26.800  
 -17381109.933 7 -13543709.932 6  21189382.835    21189380.745    21189382.249  
        44.900          38.900  
 -10189936.738 6  -7940197.124 5  22382096.331    22382094.344    22382095.693  
        39.100          33.100  
 06  1  1  3  1  0.0000000  0  8G03G09G15G18G21G22G26G29
  -1862644.736 3  -1451410.932 3  24235736.289    24235735.217    24235735.214  
        19.300          22.100  
 -12312649.721 5  -9594268.227 5  22329094.113    22329092.726    22329093.568  
        35.300          31.500  
 -21772522.858 7 -16965599.376 7  20438367.255    20438365.340    20438366.175  
        46.800          44.900  
 -14456100.515 7 -11264491.990 7  20928352.680    20928349.775    20928351.875  
        45.800          44.200  
 -24964899.547 7 -19453160.934 7  20147458.786    20147455.215    20147457.769  
        43.200          46.800  
  -7539993.651 5  -5875318.643 5  23283599.453    23283595.667    23283598.809  
        33.400          31.100  
 -17218691.957 7 -13417150.470 6  21220289.977    21220287.721    21220289.395  
        45.100          38.500  
 -10017946.533 6  -7806178.773 5  22414824.981    22414822.808    22414824.302  
        38.500          33.400  
 06  1  1  3  2  0.0000000  0  8G03G09G15G18G21G22G26G29
  -1889097.130 3  -1472023.226 3  24230703.351    24230701.355    24230702.691  
        23.800          22.600  
 -12511627.542 6  -9749315.855 5  22291230.402    22291228.584    22291229.519  
        36.100          32.600  
 -21861533.164 7 -17034958.053 7  20421429.147    20421427.375    20421428.039  
        47.000          45.400  
 -14541497.588 7 -11331035.135 7  20912102.340    20912099.159    20912101.468  
        46.100          44.200  
 -24935879.454 7 -19430547.875 7  20152981.156    20152977.432    20152980.124  
        43.200          46.600  
  -7702927.200 5  -6002279.855 5  23252593.902    23252590.200    23252593.345  
        33.900          30.800  
 -17054820.095 7 -13289458.101 6  21251473.664    21251471.580    21251473.128  
        44.600          38.600  
  -9845185.885 6  -7671560.098 5  22447700.409    22447698.131    22447699.750  
        38.200          33.000  
 06  1  1  3  3  0.0000000  0  8G03G09G15G18G21G22G26G29
  -1913366.733 3  -1490934.562 4  24226084.317    24226083.180    24226083.575  
        19.300          24.200  
 -12709220.876 6  -9903284.645 5  22253629.874    22253627.741    22253628.883  
        36.700          33.200  
 -21948431.653 7 -17102671.155 7  20404893.099    20404891.048    20404891.904  
        46.800          45.400  
 -14625844.670 7 -11396760.134 7  20896051.518    20896048.560    20896050.702  
        45.900          44.300  
 -24904521.519 7 -19406113.120 7  20158948.189    20158944.805    20158947.184  
        43.100          46.600  
  -7865447.187 5  -6128918.774 5  23221667.318    23221663.570    23221666.780  
        33.400          30.200  
 -16889516.508 7 -13160650.118 6  21282929.790    21282927.669    21282929.233  
        44.300          38.100  
  -9671671.525 6  -7536354.104 5  22480719.016    22480716.959    22480718.447  
        38.400          32.700  
 06  1  1  3  4  0.0000000  0  8G03G09G15G18G21G22G26G29
  -1935452.882 3  -1508144.586 4  24221882.428    24221880.392    24221881.379  
        23.400          24.900  
 -12905403.651 6 -10056154.306 5  22216297.320    22216295.445    22216296.440  
        36.800          32.100  
 -22033202.305 7 -17168726.195 7  20388761.627    20388759.796    20388760.557  
        46.800          45.600  
 -14709135.153 7 -11461661.783 7  20880201.896    20880198.978    20880201.008  
        46.000          44.700  
 -24870824.136 7 -19379855.419 7  20165360.679    20165357.152    20165359.678  
        43.400          46.500  
  -8027548.507 5  -6255231.482 5  23190820.735    23190816.743    23190820.295  
        35.200          30.600  
 -16722803.636 7 -13030743.985 6  21314654.313    21314652.074    21314653.748  
        44.000          37.600  
  -9497420.118 6  -7400573.783 5  22513878.455    22513875.731    22513877.503  
        37.700          32.600  
 06  1  1  3  5  0.0000000  0  8G03G09G15G18G21G22G26G29
  -1955355.818 4  -1523653.349 3  24218094.785    24218092.725    24218093.971  
        24.200          22.100  
 -13100148.675 6 -10207903.638 5  22179238.292    22179236.834    22179237.474  
        36.800          33.000  
 -22115828.916 7 -17233110.554 7  20373038.173    20373036.457    20373037.054  
        46.700          45.600  
 -14791361.985 7 -11525734.623 7  20864554.563    20864551.595    20864553.712  
        45.900          44.600  
 -24834786.701 7 -19351774.301 7  20172218.546    20172214.936    20172217.433  
        43.300          46.400  
  -8189226.887 5  -6381214.615 5  23160054.439    23160050.287    23160053.720  
        33.900          30.800  
 -16554703.457 7 -12899756.834 6  21346642.745    21346640.412    21346642.172  
        44.100          37.300  
  -9322447.912 6  -7264231.817 5  22547174.020    22547171.741    22547173.404  
        37.800          31.800  
 06  1  1  3  6  0.0000000  0  8G03G09G15G18G21G22G26G29
  -1973075.562 4  -1537460.977 4  24214722.344    24214721.090    24214721.557  
        24.200          24.600  
 -13293428.687 6 -10358511.425 5  22142458.084    22142456.178    22142457.536  
        36.500          31.600  
 -22196295.541 7 -17295811.805 7  20357725.939    20357724.150    20357724.877  
        46.700          45.600  
 -14872519.644 7 -11588974.339 7  20849110.905    20849107.925    20849109.948  
        45.800          45.000  
 -24796408.233 7 -19321869.005 7  20179521.436    20179518.118    20179520.431  
        43.300          46.300  
  -8350475.713 5  -6506863.020 5  23129369.633    23129365.491    23129369.168  
        34.600          30.800  
 -16385237.939 7 -12767705.781 6  21378890.689    21378888.699    21378890.245  
        43.800          37.300  
  -9146771.458 6  -7127341.070 5  22580603.979    22580601.923    22580603.436  
        37.200          32.000  
 06  1  1  3  7  0.0000000  0  8G03G09G15G18G21G22G26G29
  -1988613.576 3  -1549568.537 4  24211765.267    24211764.214    24211764.217  
        21.600          24.600  
 -13485216.390 6 -10507956.365 5  22105961.992    22105960.786    22105961.584  
        36.900          33.200  
 -22274586.954 7 -17356818.097 7  20342827.660    20342825.659    20342826.479  
        46.800          45.500  
 -14952601.446 7 -11651375.711 7  20833872.107    20833868.781    20833871.036  
        45.800          45.000  
 -24755689.447 7 -19290140.081 7  20187269.891    20187266.602    20187268.922  
        43.400          46.100  
  -8511290.961 5  -6632173.576 5  23098768.240    23098763.564    23098767.545  
        35.900          30.600  
 -16214429.267 7 -12634608.118 6  21411394.947    21411392.580    21411394.350  
        43.900          37.200  
  -8970407.211 6  -6989914.382 5  22614165.267    22614163.119    22614164.632  
        37.200          32.000  
 06  1  1  3  8  0.0000000  0  8G03G09G15G18G21G22G26G29
  -2001970.630 2  -1559976.640 3  24209223.360    24209222.590    24209222.677  
        17.800          23.800  
 -13675484.833 6 -10656217.446 5  22069756.393    22069753.820    22069755.045  
        37.500          33.800  
 -22350688.145 7 -17416117.718 7  20328346.172    20328344.113    20328345.084  
        46.900          45.600  
 -15031602.193 7 -11712934.707 7  20818838.351    20818835.382    20818837.529  
        45.700          45.100  
 -24712629.672 7 -19256587.019 7  20195463.858    20195460.606    20195462.921  
        43.100          45.900  
  -8671666.707 5  -6757141.688 5  23068248.969    23068245.090    23068248.413  
        35.800          31.600  
 -16042299.168 7 -12500480.767 6  21444149.977    21444147.874    21444149.497  
        43.600          37.100  
  -8793371.205 6  -6851964.254 5  22647854.685    22647851.742    22647853.849  
        37.200          31.600  
 06  1  1  3  9  0.0000000  0  8G03G09G15G18G21G22G26G29
  -2013148.321 3  -1568686.541 3  24207097.698    24207095.174    24207096.561  
        22.600          22.600  
 -13864206.195 6 -10803273.027 5  22033843.470    22033841.227    22033842.043  
        36.800          33.500  
 -22424584.528 7 -17473699.313 7  20314283.930    20314282.279    20314282.864  
        46.800          45.800  
 -15109514.664 7 -11773645.685 7  20804011.926    20804009.107    20804011.086  
        45.700          45.300  
 -24667229.957 7 -19221210.621 7  20204103.121    20204099.781    20204102.135  
        43.400          45.500  
  -8831597.966 5  -6881763.401 5  23037815.005    23037811.005    23037814.491  
        34.700          31.600  
 -15868869.810 7 -12365341.009 6  21477152.509    21477150.476    21477152.036  
        43.500          37.200  
  -8615679.556 6  -6713503.221 5  22681667.745    22681665.553    22681666.972  
        36.900          31.100  
 06  1  1  3 10  0.0000000  0  8G03G09G15G18G21G22G26G29
  -2022148.922 4  -1575700.044 3  24205384.304    24205382.036    24205383.145  
        25.300          18.600  
 -14051354.674 6 -10949102.986 5  21998229.778    21998228.166    21998229.064  
        38.400          34.800  
 -22496260.823 7 -17529550.952 7  20300644.649    20300642.536    20300643.459  
        46.800          45.600  
 -15186333.413 7 -11833504.404 7  20789393.938    20789390.914    20789393.046  
        45.500          45.400  
 -24619491.090 7 -19184011.506 7  20213187.641    20213184.314    20213186.624  
        43.300          45.500  
  -8991079.580 5  -7006034.768 5  23007466.395    23007462.632    23007465.943  
        35.200          30.800  
 -15694163.040 7 -12229205.871 6  21510397.972    21510396.004    21510397.578  
        43.200          36.300  
  -8437348.082 6  -6574543.642 5  22715602.976    22715600.807    22715602.433  
        36.400          31.100  
 06  1  1  3 11  0.0000000  0  8G03G09G15G18G21G22G26G29
  -2028974.682 3  -1581018.836 3  24204085.574    24204083.605    24204084.653  
        23.400          21.100  
 -14236903.876 6 -11093686.759 5  21962920.315    21962919.172    21962919.925  
        38.400          34.500  
 -22565702.624 7 -17583661.430 7  20287430.066    20287428.145    20287429.069  
        47.000          45.600  
 -15262051.782 7 -11892505.715 7  20774985.341    20774982.210    20774984.383  
        45.600          45.600  
 -24569414.425 7 -19144990.722 7  20222716.832    20222713.609    20222715.792  
        43.400          45.500  
  -9150105.472 5  -7129951.039 5  22977205.013    22977201.271    22977204.443  
        35.300          32.100  
 -15518200.727 7 -12092092.376 6  21543882.653    21543880.509    21543882.161  
        42.800          36.400  
  -8258392.697 6  -6435097.880 5  22749657.104    22749654.854    22749656.521  
        36.100          30.800  
 06  1  1  3 12  0.0000000  0  8G03G09G15G18G21G22G26G29
  -2033627.470 4  -1584644.369 3  24203200.490    24203198.549    24203199.559  
        24.200          22.100  
 -14420827.161 6 -11237003.578 5  21927920.656    21927920.046    21927920.406  
        38.800          35.600  
 -22632895.615 7 -17636019.597 7  20274643.773    20274641.758    20274642.649  
        47.000          45.800  
 -15336662.923 7 -11950644.253 7  20760787.102    20760784.132    20760786.278  
        45.600          45.600  
 -24517001.633 7 -19104149.587 7  20232690.735    20232687.277    20232689.745  
        43.700          45.200  
  -9308670.184 5  -7253507.932 5  22947030.990    22947027.253    22947030.501  
        35.500          32.800  
 -15341004.542 7 -11954017.429 6  21577601.822    21577599.780    21577601.340  
        42.600          36.200  
  -8078829.118 5  -6295178.217 5  22783826.840    22783824.421    22783826.069  
        35.600          30.200  
 06  1  1  3 13  0.0000000  0  8G03G09G15G18G21G22G26G29
  -2036110.697 3  -1586579.386 3  24202727.175    24202725.737    24202726.244  
        21.100          21.100  
 -14603097.116 6 -11379032.089 5  21893235.942    21893234.742    21893235.579  
        38.600          34.000  
 -22697825.946 7 -17686614.648 7  20262287.803    20262285.918    20262286.688  
        46.600          45.700  
 -15410161.027 7 -12007915.472 7  20746800.764    20746797.919    20746799.979  
        45.600          45.700  
 -24462254.549 7 -19061489.524 7  20243109.035    20243105.393    20243107.872  
        43.800          45.000  
  -9466768.576 6  -7376701.448 5  22916946.127    22916942.382    22916945.417  
        36.000          34.100  
 -15162596.202 7 -11814997.941 6  21611551.862    21611549.616    21611551.266  
        42.400          36.000  
  -7898673.035 5  -6154796.851 4  22818109.651    22818107.040    22818108.865  
        35.400          29.500  
 06  1  1  3 14  0.0000000  0  8G03G09G15G18G21G22G26G29
  -2036427.630 3  -1586826.421 3  24202667.410    24202665.382    24202666.647  
        23.400          23.000  
 -14783688.785 6 -11519752.872 5  21858871.129    21858869.540    21858870.361  
        38.900          35.400  
 -22760480.078 7 -17735436.043 7  20250365.011    20250363.259    20250363.945  
        46.700          45.700  
 -15482539.495 7 -12064314.275 7  20733027.808    20733024.722    20733026.947  
        45.600          45.900  
 -24405175.720 7 -19017012.517 7  20253970.473    20253967.093    20253969.582  
        44.000          44.800  
  -9624394.417 6  -7499526.774 5  22886951.032    22886946.792    22886950.410  
        36.900          32.300  
 -14982997.208 7 -11675050.674 5  21645728.429    21645726.262    21645727.844  
        42.200          35.900  
  -7717939.779 5  -6013965.752 5  22852501.469    22852499.319    22852501.043  
        35.400          30.200  
 06  1  1  3 15  0.0000000  0  8G03G09G15G18G21G22G26G29
  -2034582.342 4  -1585388.566 2  24203018.846    24203015.764    24203017.759  
        25.300          17.800  
 -14962575.449 6 -11659145.059 5  21824830.616    21824828.398    21824829.429  
        39.300          35.100  
 -22820844.891 7 -17782473.553 7  20238878.374    20238876.247    20238877.170  
        46.800          45.900  
 -15553791.673 7 -12119835.437 7  20719469.010    20719465.861    20719468.105  
        45.400          46.000  
 -24345767.672 7 -18970720.536 7  20265275.407    20265272.190    20265274.577  
        44.100          44.800  
  -9781542.233 6  -7621979.608 5  22857046.348    22857042.804    22857045.865  
        36.400          33.000  
 -14802229.201 7 -11534192.487 6  21680127.505    21680125.366    21680126.885  
        42.000          36.000  
  -7536645.041 5  -5872697.124 5  22887001.268    22886998.990    22887000.338  
        35.100          30.400  
 06  1  1  3 16  0.0000000  0  8G03G09G15G18G21G22G26G29
  -2030578.443 3  -1582268.673 3  24203780.497    24203778.639    24203779.327  
        23.800          21.600  
 -15139731.357 6 -11797188.638 5  21791118.987    21791116.717    21791117.847  
        39.800          35.600  
 -22878906.978 7 -17827716.726 7  20227829.354    20227827.424    20227828.297  
        46.900          45.900  
 -15623910.995 7 -12174473.850 7  20706125.440    20706122.631    20706124.619  
        45.100          46.000  
 -24284033.868 7 -18922616.276 7  20277023.123    20277019.618    20277022.117  
        44.000          44.500  
  -9938206.197 6  -7744055.410 5  22827234.342    22827230.421    22827233.839  
        36.500          33.400  
 -14620313.503 6 -11392440.004 5  21714744.875    21714742.811    21714744.241  
        41.600          35.400  
  -7354803.837 5  -5731002.705 4  22921604.536    22921601.926    22921603.872  
        34.000          29.700  
 06  1  1  3 17  0.0000000  0  8G03G09G15G18G21G22G26G29
  -2024420.456 3  -1577470.269 3  24204951.766    24204950.020    24204950.916  
        19.900          20.500  
 -15315130.447 6 -11933863.222 5  21757740.880    21757739.635    21757740.313  
        40.000          35.900  
 -22934653.661 7 -17871155.695 7  20217221.184    20217219.021    20217220.028  
        46.600          45.800  
 -15692891.066 7 -12228224.531 7  20692999.094    20692996.093    20692998.218  
        45.200          46.100  
 -24219977.285 7 -18872702.059 7  20289212.459    20289209.141    20289211.568  
        43.800          44.300  
 -10094380.357 6  -7865749.535 5  22797515.277    22797511.593    22797514.755  
        36.400          34.100  
 -14437271.677 6 -11249810.010 5  21749576.597    21749574.473    21749575.939  
        41.300          34.900  
  -7172431.318 5  -5588894.243 4  22956308.531    22956306.796    22956307.844  
        34.100          29.900  
 06  1  1  3 18  0.0000000  0  8G03G09G15G18G21G22G26G29
  -2016112.845 3  -1570996.859 3  24206533.027    24206531.500    24206532.115  
        23.000          22.600  
 -15488746.497 6 -12069148.433 6  21724703.051    21724701.296    21724702.191  
        40.100          36.300  
 -22988072.257 7 -17912780.564 7  20207055.688    20207053.858    20207054.688  
        46.400          45.800  
 -15760725.320 7 -12281082.381 7  20680090.797    20680087.701    20680089.928  
        45.200          46.200  
 -24153602.111 7 -18820981.153 7  20301843.363    20301840.028    20301842.357  
        43.900          44.300  
 -10250058.899 6  -7987057.467 5  22767891.214    22767886.978    22767890.549  
        38.200          33.800  
 -14253124.885 6 -11106319.007 5  21784618.610    21784616.393    21784617.911  
        40.800          34.700  
  -6989542.533 5  -5446383.498 4  22991111.081    22991109.320    22991110.664  
        34.600          29.200  
 06  1  1  3 19  0.0000000  0  8G03G09G15G18G21G22G26G29
  -2005661.463 3  -1562852.995 3  24208521.563    24208520.640    24208520.679  
        22.600          23.400  
 -15660554.787 6 -12203024.993 6  21692009.068    21692007.369    21692008.206  
        40.300          36.000  
 -23039150.781 7 -17952582.001 7  20197335.663    20197333.804    20197334.594  
        46.300          45.700  
 -15827407.734 7 -12333042.692 7  20667401.475    20667398.422    20667400.545  
        45.300          46.400  
 -24084912.593 7 -18767456.863 7  20314914.575    20314911.185    20314913.484  
        44.100          44.100  
 -10405235.661 6  -8107974.412 5  22738361.959    22738357.772    22738361.331  
        38.100          33.900  
 -14067894.226 6 -10961983.430 5  21819866.796    21819864.692    21819866.277  
        41.200          34.800  
  -6806152.430 5  -5303482.140 4  23026008.658    23026007.289    23026008.174  
        33.600          29.200  
 06  1  1  3 20  0.0000000  0  8G03G09G15G18G21G22G26G29
  -1993071.578 3  -1553042.714 3  24210917.709    24210915.884    24210916.634  
        23.000          19.900  
 -15830529.174 6 -12335472.548 6  21659664.319    21659662.449    21659663.249  
        40.700          36.200  
 -23087877.396 7 -17990550.775 7  20188063.235    20188061.494    20188062.231  
        46.300          45.800  
 -15892930.862 7 -12384099.635 7  20654932.848    20654929.702    20654931.911  
        45.300          46.500  
 -24013913.235 7 -18712132.692 7  20328425.571    20328421.968    20328424.434  
        44.300          44.000  
 -10559905.041 6  -8228495.978 5  22708929.440    22708924.686    22708928.728  
        37.700          32.700  
 -13881600.721 6 -10816819.664 5  21855317.163    21855315.077    21855316.806  
        41.300          34.300  
  -6622275.714 5  -5160201.574 4  23060999.641    23060997.595    23060998.799  
        33.100          28.100  
 06  1  1  3 21  0.0000000  0  8G03G09G15G18G21G22G26G29
  -1978349.255 3  -1541570.824 3  24213719.536    24213717.606    24213718.496  
        23.400          21.100  
 -15998644.527 6 -12466471.455 6  21627672.577    21627670.921    21627671.700  
        41.400          36.000  
 -23134240.250 7 -18026677.660 7  20179240.594    20179239.001    20179239.545  
        46.100          45.900  
 -15957288.732 7 -12434248.623 7  20642686.092    20642682.819    20642685.199  
        45.400          46.600  
 -23940609.449 7 -18655012.868 7  20342374.560    20342371.184    20342373.508  
        44.400          43.700  
 -10714059.759 6  -8348616.532 5  22679594.475    22679590.234    22679593.827  
        38.100          33.200  
 -13694265.542 6 -10670844.202 5  21890966.064    21890963.807    21890965.513  
        40.900          34.300  
  -6437926.883 5  -5016553.148 4  23096080.712    23096077.798    23096079.791  
        33.100          27.400  
 06  1  1  3 22  0.0000000  0  8G03G09G15G18G21G22G26G29
  -1961500.579 4  -1528442.101 3  24216926.061    24216923.003    24216925.096  
        25.300          19.300  
 -16164876.297 6 -12596002.651 6  21596039.301    21596037.826    21596038.826  
        41.900          36.200  
 -23178228.117 7 -18060953.906 7  20170870.304    20170868.368    20170869.246  
        46.400          45.900  
 -16020474.514 7 -12483484.277 7  20630662.066    20630658.950    20630661.187  
        45.200          46.600  
 -23865005.625 7 -18596100.803 7  20356761.418    20356758.097    20356760.558  
        44.800          43.600  
 -10867694.812 6  -8468332.144 5  22650358.652    22650354.645    22650358.078  
        38.900          34.300  
 -13505909.538 6 -10524073.291 5  21926808.663    21926806.960    21926808.271  
        40.700          34.500  
  -6253120.454 5  -4872548.136 4  23131247.812    23131245.780    23131247.053  
        33.100          28.400  
 06  1  1  3 23  0.0000000  0  8G03G09G15G18G21G22G26G29
  -1942532.109 3  -1513661.533 3  24220535.363    24220533.668    24220534.453  
        23.400          21.600  
 -16329199.330 7 -12724046.542 6  21564769.896    21564768.274    21564769.299  
        42.500          36.800  
 -23219830.518 7 -18093371.351 7  20162953.599    20162951.732    20162952.515  
        46.200          45.900  
 -16082481.697 7 -12531801.558 7  20618862.618    20618859.356    20618861.629  
        44.900          46.800  
 -23787107.776 7 -18535401.189 7  20371585.252    20371581.597    20371584.130  
        45.000          43.400  
 -11020803.658 6  -8587637.724 5  22621223.325    22621219.025    22621222.527  
        38.600          34.900  
 -13316553.343 6 -10376523.012 5  21962842.524    21962840.263    21962841.801  
        40.000          34.300  
  -6067871.029 5  -4728197.952 4  23166499.500    23166497.485    23166499.050  
        33.200          27.900  
 06  1  1  3 24  0.0000000  0  8G03G09G15G18G21G22G26G29
  -1921450.418 3  -1497234.269 3  24224547.338    24224545.106    24224546.368  
        22.600          19.300  
 -16491589.534 7 -12850584.340 6  21533868.180    21533866.358    21533867.392  
        42.300          36.900  
 -23259036.887 7 -18123921.763 7  20155492.896    20155490.996    20155491.871  
        46.400          46.000  
 -16143303.664 7 -12579195.281 7  20607288.495    20607285.249    20607287.599  
        44.900          46.800  
 -23706922.109 7 -18472918.864 7  20386843.799    20386840.400    20386842.963  
        45.100          43.300  
 -11173379.517 6  -8706527.992 5  22592188.903    22592184.389    22592188.269  
        39.100          33.800  
 -13126217.628 6 -10228209.479 5  21999062.003    21999060.049    21999061.500  
        40.000          34.400  
  -5882192.721 5  -4583513.555 4  23201832.698    23201830.622    23201831.956  
        32.100          26.200  
 06  1  1  3 25  0.0000000  0  8G03G09G15G18G21G22G26G29
  -1898263.013 3  -1479166.248 3  24228959.971    24228957.702    24228959.039  
        23.000          21.600  
 -16652021.968 7 -12975596.595 6  21503339.270    21503337.225    21503338.238  
        42.500          37.400  
 -23295837.223 7 -18152597.339 7  20148489.743    20148488.064    20148488.704  
        46.100          46.100  
 -16202933.607 7 -12625660.161 7  20595941.238    20595938.173    20595940.390  
        44.900          47.100  
 -23624454.749 7 -18408658.593 7  20402537.195    20402533.436    20402535.994  
        44.900          42.900  
 -11325415.885 6  -8824997.885 5  22563257.085    22563252.748    22563256.545  
        39.100          34.500  
 -12934922.909 6 -10079148.661 5  22035464.042    22035462.153    22035463.429  
        39.400          33.500  
  -5696099.620 5  -4438505.957 4  23237245.863    23237242.973    23237244.859  
        31.000          27.900  
 06  1  1  3 26  0.0000000  0  8G03G09G15G18G21G22G26G29
  -1872977.992 3  -1459463.729 3  24233771.216    24233769.339    24233770.164  
        21.600          22.600  
 -16810471.803 7 -13099063.964 6  21473187.413    21473185.021    21473186.275  
        42.600          37.600  
 -23330221.283 7 -18179390.103 7  20141947.021    20141944.985    20141945.937  
        46.100          46.100  
 -16261364.586 7 -12671190.781 7  20584822.220    20584818.946    20584821.287  
        44.600          46.900  
 -23539712.776 7 -18342625.906 7  20418662.826    20418659.363    20418661.842  
        44.900          42.800  
 -11476906.589 6  -8943042.582 5  22534429.282    22534425.121    22534428.712  
        38.800          34.700  
 -12742689.650 6  -9929356.518 5  22072044.736    22072042.819    22072044.201  
        39.400          32.800  
  -5509605.712 5  -4293186.040 4  23272733.814    23272731.954    23272733.341  
        32.400          26.800  
 06  1  1  3 27  0.0000000  0  8G03G09G15G18G21G22G26G29
  -1845603.413 3  -1438132.960 3  24238980.307    24238978.505    24238979.491  
        23.000          22.100  
 -16966916.417 7 -13220968.822 6  21443416.500    21443414.767    21443415.683  
        42.900          38.100  
 -23362179.297 7 -18204292.449 7  20135865.507    20135863.623    20135864.397  
        46.100          45.900  
 -16318590.365 7 -12715782.272 7  20573932.360    20573929.301    20573931.513  
        44.600          47.100  
 -23452702.869 7 -18274825.987 7  20435220.259    20435216.796    20435219.259  
        45.200          42.600  
 -11627845.018 6  -9060656.913 5  22505707.149    22505702.691    22505706.511  
        40.100          35.600  
 -12549538.312 6  -9778848.978 5  22108800.201    22108798.260    22108799.772  
        39.300          32.700  
  -5322724.920 5  -4147564.639 4  23308296.199    23308294.125    23308295.637  
        32.100          26.500  
 06  1  1  3 28  0.0000000  0  8G03G09G15G18G21G22G26G29
  -1816147.492 3  -1415180.385 3  24244586.284    24244584.292    24244585.105  
        23.800          21.600  
 -17121331.278 7 -13341292.044 6  21414032.154    21414030.391    21414031.466  
        43.000          37.600  
 -23391702.570 7 -18227297.590 7  20130247.317    20130245.502    20130246.227  
        45.900          46.000  
 -16374604.350 7 -12759429.519 7  20563273.426    20563270.157    20563272.471  
        44.400          47.300  
 -23363432.720 7 -18205264.855 7  20452208.063    20452204.429    20452206.850  
        45.200          42.700  
 -11778224.612 6  -9177835.808 5  22477090.445    22477086.164    22477089.880  
        39.400          35.200  
 -12355488.983 6  -9627641.719 5  22145726.699    22145724.613    22145726.082  
        39.000          32.600  
  -5135471.160 5  -4001652.618 4  23343929.559    23343927.027    23343928.813  
        31.600          24.900  
 06  1  1  3 29  0.0000000  0  8G03G09G15G18G21G22G26G29
  -1784618.291 4  -1390612.226 4  24250585.478    24250584.344    24250584.779  
        24.900          24.200  
 -17273692.373 7 -13460014.938 6  21385038.840    21385036.995    21385038.214  
        43.800          37.300  
 -23418782.046 7 -18248398.481 7  20125094.278    20125092.388    20125093.177  
        46.100          45.800  
 -16429399.365 7 -12802126.912 7  20552846.134    20552842.995    20552845.219  
        44.100          47.300  
 -23271910.249 7 -18133948.643 7  20469624.088    20469620.469    20469623.061  
        45.400          42.400  
 -11928038.586 6  -9294573.936 6  22448582.108    22448577.775    22448581.339  
        39.800          36.300  
 -12160561.608 6  -9475750.257 5  22182820.012    22182817.934    22182819.580  
        38.600          31.800  
  -4947857.694 5  -3855460.306 4  23379631.135    23379628.842    23379630.507  
        32.300          25.900  
 06  1  1  3 30  0.0000000  0  8G03G09G15G18G21G22G26G29
  -1751025.132 3  -1364435.822 3  24256978.639    24256976.809    24256977.601  
        23.800          23.000  
 -17423976.791 7 -13577119.637 6  21356440.657    21356438.807    21356439.921  
        44.100          37.400  
 -23443409.234 7 -18267588.498 7  20120408.113    20120405.969    20120406.938  
        45.800          45.900  
 -16482968.913 7 -12843869.394 7  20542652.206    20542649.061    20542651.246  
        44.100          47.300  
 -23178143.216 7 -18060883.446 7  20487467.194    20487463.917    20487466.287  
        45.500          42.300  
 -12077279.683 6  -9410865.662 5  22420182.315    22420177.905    22420181.633  
        40.400          35.900  
 -11964776.079 6  -9323190.111 5  22220076.733    22220074.842    22220076.102  
        37.900          32.600  
  -4759898.253 5  -3708998.418 4  23415398.875    23415396.719    23415398.012  
        30.800          27.100  
 06  1  1  3 31  0.0000000  0  8G03G09G15G18G21G22G26G29
  -1715377.224 4  -1336658.338 3  24263762.711    24263760.635    24263761.490  
        25.900          23.800  
 -17572162.042 7 -13692588.651 6  21328242.151    21328240.112    21328241.243  
        44.000          37.400  
 -23465575.916 7 -18284861.233 7  20116189.658    20116187.841    20116188.542  
        45.700          45.800  
 -16535306.304 7 -12884651.775 7  20532692.467    20532689.486    20532691.640  
        43.700          47.500  
 -23082140.497 7 -17986076.140 6  20505736.080    20505732.557    20505734.927  
        45.200          41.900  
 -12225941.597 6  -9526706.068 6  22391892.626    22391888.752    22391892.106  
        40.200          36.500  
 -11768152.353 6  -9169976.833 5  22257492.938    22257490.922    22257492.401  
        38.100          32.300  
  -4571606.153 4  -3562277.315 4  23451229.225    23451227.370    23451228.525  
        29.700          25.900  
 06  1  1  3 32  0.0000000  0  8G03G09G15G18G21G22G26G29
  -1677684.542 4  -1307287.483 3  24270935.379    24270933.077    24270934.283  
        27.600          23.400  
 -17718224.736 7 -13806403.695 6  21300446.841    21300445.157    21300446.434  
        44.800          37.200  
 -23485274.824 7 -18300211.031 7  20112441.042    20112439.106    20112439.891  
        45.500          45.600  
 -16586404.704 7 -12924468.704 7  20522968.835    20522965.923    20522968.041  
        43.800          47.700  
 -22983910.664 7 -17909533.434 6  20524428.115    20524425.006    20524427.343  
        45.400          41.800  
 -12374016.939 6  -9642089.390 6  22363714.791    22363710.620    22363714.151  
        40.200          36.000  
 -11570709.936 6  -9016125.601 5  22295065.526    22295063.205    22295064.856  
        37.700          32.100  
  -4382994.490 4  -3415307.204 3  23487120.379    23487118.446    23487119.947  
        29.900          23.800  
 06  1  1  3 33  0.0000000  0  8G03G09G15G18G21G22G26G29
  -1637957.365 4  -1276331.348 3  24278494.532    24278493.319    24278493.478  
        25.300          23.400  
 -17862142.111 7 -13918547.066 6  21273060.466    21273058.606    21273059.667  
        44.400          37.400  
 -23502498.869 7 -18313632.361 7  20109163.534    20109161.429    20109162.480  
        45.700          45.600  
 -16636257.268 7 -12963314.845 7  20513482.408    20513479.282    20513481.409  
        43.700          47.800  
 -22883462.530 7 -17831262.173 6  20543543.328    20543539.603    20543542.223  
        45.500          41.200  
 -12521499.093 6  -9757010.502 6  22335649.986    22335645.768    22335649.279  
        40.400          36.300  
 -11372468.496 6  -8861651.753 5  22332789.135    22332787.327    22332788.552  
        37.300          31.800  
  -4194076.177 5  -3268098.099 3  23523071.058    23523068.474    23523070.377  
        31.500          22.600  
 06  1  1  3 34  0.0000000  0  8G03G09G15G18G21G22G26G29
  -1596205.676 4  -1243797.662 3  24286440.063    24286438.182    24286439.185  
        26.800          22.100  
 -18003892.356 7 -14029001.774 6  21246086.642    21246084.302    21246085.689  
        44.700          37.400  
 -23517240.810 7 -18325119.581 7  20106358.292    20106356.341    20106357.209  
        45.800          46.000  
 -16684857.627 7 -13001185.252 8  20504233.945    20504230.924    20504233.097  
        43.800          48.000  
 -22780806.380 7 -17751270.394 6  20563077.767    20563074.502    20563076.903  
        45.400          41.200  
 -12668381.030 6  -9871463.903 6  22307699.354    22307695.139    22307698.772  
        41.400          36.800  
 -11173447.314 6  -8706570.312 5  22370662.044    22370659.745    22370661.468  
        37.700          31.000  
  -4004864.387 4  -3120660.360 4  23559076.371    23559074.511    23559075.509  
        29.000          24.600  
 06  1  1  3 35  0.0000000  0  8G03G09G15G18G21G22G26G29
  -1552439.957 4  -1209694.539 4  24294768.557    24294767.122    24294767.641  
        28.400          24.900  
 -18143453.388 7 -14137750.591 6  21219528.655    21219526.882    21219527.916  
        44.900          38.100  
 -23529493.877 7 -18334667.424 7  20104026.738    20104024.768    20104025.550  
        45.600          46.100  
 -16732198.547 7 -13038074.277 7  20495225.252    20495222.239    20495224.378  
        43.400          47.900  
 -22675951.465 7 -17669565.272 6  20583031.448    20583027.758    20583030.322  
        45.500          41.200  
 -12814654.622 6  -9985443.270 6  22279864.607    22279860.091    22279863.961  
        41.500          37.000  
 -10973665.864 6  -8550896.465 5  22408679.087    22408676.853    22408678.506  
        37.400          31.000  
  -3815371.801 4  -2973003.810 3  23595136.163    23595133.235    23595135.196  
        29.700          23.000  
 06  1  1  3 36  0.0000000  0  9G03G09G14G15G18G21G22G26G29
  -1506671.463 4  -1174030.864 3  24303477.313    24303475.879    24303476.114  
        25.300          21.100  
 -18280803.621 7 -14244776.704 6  21193391.864    21193389.886    21193391.019  
        44.800          38.000  
   -315454.536 3   -245808.574 2  24648329.984    24648327.872    24648328.674  
        21.100          12.600  
 -23539251.453 7 -18342270.722 7  20102169.599    20102167.920    20102168.568  
        45.900          45.900  
 -16778273.936 7 -13073977.177 8  20486457.516    20486454.382    20486456.493  
        43.300          48.100  
 -22568908.334 7 -17586155.057 6  20603400.824    20603397.416    20603399.910  
        45.600          40.900  
 -12960313.743 6 -10098943.827 6  22252145.903    22252142.113    22252145.375  
        41.000          37.400  
 -10773143.198 6  -8394645.045 5  22446837.417    22446834.844    22446836.813  
        37.400          30.200  
  -3625611.052 4  -2825138.289 3  23631246.522    23631243.573    23631245.625  
        28.800          23.000  
 06  1  1  3 37  0.0000000  0  9G03G09G14G15G18G21G22G26G29
  -1458911.333 4  -1136815.241 2  24312566.327    24312564.074    24312565.454  
        24.200          15.100  
 -18415921.671 7 -14350063.460 6  21167679.623    21167677.774    21167679.104  
        45.200          38.100  
   -516157.888 3   -402200.737 2  24610137.717    24610134.930    24610136.401  
        20.500          17.000  
 -23546508.366 7 -18347925.452 7  20100788.731    20100786.911    20100787.675  
        45.700          46.000  
 -16823076.620 7 -13108888.360 8  20477931.625    20477928.784    20477930.788  
        43.500          48.200  
 -22459687.049 7 -17501047.575 6  20624184.952    20624181.662    20624183.900  
        45.400          40.700  
 -13105350.752 6 -10211959.640 6  22224546.811    22224542.106    22224546.042  
        41.900          36.400  
 -10571897.997 6  -8237830.601 5  22485133.146    22485130.616    22485132.042  
        36.100          30.200  
  -3435594.910 4  -2677073.744 4  23667405.373    23667403.329    23667404.607  
        28.600          25.600  
 06  1  1  3 38  0.0000000  0  9G03G09G14G15G18G21G22G26G29
  -1409171.620 3  -1098057.058 3  24322031.704    24322029.759    24322030.534  
        23.400          20.500  
 -18548786.086 7 -14453594.154 6  21142396.675    21142394.467    21142395.655  
        45.000          38.700  
   -716343.723 2   -558189.627 2  24572042.708    24572040.674    24572041.714  
        17.000          17.000  
 -23551259.106 7 -18351627.316 7  20099884.684    20099882.837    20099883.567  
        45.400          45.900  
 -16866600.242 7 -13142802.871 8  20469649.698    20469646.452    20469648.693  
        43.300          48.200  
 -22348298.925 7 -17414251.653 6  20645381.748    20645378.072    20645380.563  
        45.400          40.600  
 -13249757.943 6 -10324484.678 6  22197066.886    22197062.649    22197066.187  
        41.600          37.300  
 -10369949.251 5  -8080467.943 4  22523562.267    22523560.314    22523561.513  
        35.900          29.200  
  -3245335.480 4  -2528819.680 4  23703609.644    23703608.419    23703609.037  
        27.400          24.600  
 06  1  1  3 39  0.0000000  0  9G03G09G14G15G18G21G22G26G29
  -1357463.867 4  -1057765.290 3  24331871.182    24331869.764    24331870.403  
        26.500          19.300  
 -18679375.954 7 -14555352.462 6  21117546.307    21117543.935    21117545.387  
        45.400          38.900  
   -916003.009 3   -713768.281 1  24534049.452    24534046.830    24534048.381  
        23.400          11.000  
 -23553498.703 7 -18353372.450 7  20099458.842    20099456.655    20099457.682  
        45.800          46.000  
 -16908837.490 7 -13175715.013 8  20461611.948    20461608.995    20461611.091  
        43.200          48.200  
 -22234755.029 7 -17325775.903 6  20666987.666    20666984.781    20666986.960  
        45.600          40.500  
 -13393527.850 6 -10436513.129 6  22169708.163    22169703.891    22169707.544  
        41.900          37.700  
 -10167315.578 6  -7922571.582 4  22562122.760    22562120.158    22562121.976  
        36.100          29.900  
  -3054845.294 4  -2380385.787 4  23739859.934    23739857.672    23739858.909  
        29.200          24.900  
 06  1  1  3 40  0.0000000  0  9G03G09G14G15G18G21G22G26G29
  -1303800.623 4  -1015949.802 2  24342082.961    24342081.320    24342082.072  
        24.900          15.100  
 -18807671.845 7 -14655323.257 6  21093132.147    21093130.216    21093131.217  
        45.100          39.200  
  -1115126.847 3   -868929.706 2  24496157.063    24496155.006    24496155.910  
        21.100          15.100  
 -23553222.642 7 -18353157.334 7  20099511.155    20099509.207    20099510.023  
        45.700          45.900  
 -16949781.985 7 -13207619.815 8  20453820.546    20453817.516    20453819.683  
        43.100          48.300  
 -22119066.394 7 -17235628.943 6  20689002.587    20688999.733    20689001.870  
        45.600          40.600  
 -13536653.203 7 -10548039.339 6  22142472.561    22142467.956    22142471.929  
        42.100          37.100  
  -9964015.599 5  -7764156.014 4  22600808.686    22600807.031    22600808.496  
        35.400          29.200  
  -2864135.893 4  -2231781.079 3  23776149.591    23776147.774    23776148.859  
        28.600          22.600  
 06  1  1  3 41  0.0000000  0  9G03G09G14G15G18G21G22G26G29
  -1248194.197 3   -972620.118 2  24352664.634    24352662.632    24352663.463  
        23.400          13.900  
 -18933652.282 7 -14753489.801 6  21069158.882    21069156.781    21069158.020  
        44.900          38.900  
  -1313706.495 2  -1023667.027 2  24458368.229    24458366.263    24458367.635  
        17.000          13.900  
 -23550426.665 7 -18350978.644 7  20100043.137    20100041.172    20100042.037  
        45.600          45.900  
 -16989427.042 7 -13238512.066 8  20446276.267    20446273.301    20446275.401  
        42.800          48.400  
 -22001245.452 7 -17143820.441 6  20711423.585    20711420.330    20711422.648  
        45.900          40.200  
 -13679126.460 7 -10659057.416 6  22115360.493    22115356.268    22115359.901  
        42.300          37.900  
  -9760067.694 5  -7605235.572 4  22639619.133    22639616.796    22639618.549  
        35.700          28.800  
  -2673219.823 4  -2083015.285 3  23812479.870    23812477.987    23812479.242  
        26.800          22.600  
 06  1  1  3 42  0.0000000  0  9G03G09G14G15G18G21G22G26G29
  -1190657.200 4   -927786.086 2  24363613.888    24363611.165    24363612.758  
        24.600          13.900  
 -19057297.606 7 -14849836.777 6  21045629.882    21045627.883    21045629.003  
        44.400          39.300  
  -1511733.218 3  -1177973.529 9  24420685.215    24420683.546    24420684.499  
        20.500          -3.000  
 -23545106.958 7 -18346833.416 7  20101055.538    20101053.628    20101054.440  
        45.600          45.900  
 -17027765.586 7 -13268386.257 8  20438980.747    20438977.737    20438979.866  
        43.000          48.400  
 -21881303.685 7 -17050359.319 6  20734248.144    20734244.273    20734246.879  
        45.700          39.800  
 -13820939.629 7 -10769561.145 6  22088374.296    22088369.982    22088373.642  
        42.200          38.000  
  -9555490.199 5  -7445824.549 4  22678549.083    22678546.678    22678548.538  
        35.300          29.500  
  -2482108.944 4  -1934097.753 3  23848847.087    23848845.408    23848846.603  
        27.900          23.000  
 06  1  1  3 43  0.0000000  0  9G03G09G14G15G18G21G22G26G29
  -1131203.237 3   -881458.356 3  24374926.326    24374925.456    24374925.771  
        23.400          19.300  
 -19178588.179 7 -14944348.875 6  21022548.820    21022546.827    21022547.952  
        44.200          39.100  
  -1709198.726 3  -1331842.719 1  24383108.400    24383107.096    24383107.865  
        19.300           6.500  
 -23537260.232 7 -18340719.086 7  20102548.522    20102546.810    20102547.469  
        45.500          45.900  
 -17064791.443 7 -13297237.576 8  20431934.894    20431931.898    20431934.000  
        42.900          48.500  
 -21759253.576 7 -16955255.362 6  20757473.229    20757469.782    20757472.093  
        45.500          39.600  
 -13962084.849 7 -10879544.406 6  22061515.116    22061510.914    22061514.662  
        42.500          38.100  
  -9350301.073 5  -7285936.921 4  22717595.339    22717592.856    22717594.802  
        35.700          28.400  
  -2290814.656 4  -1785037.270 3  23885249.804    23885246.710    23885249.546  
        29.200          20.500  
 06  1  1  3 44  0.0000000  0  9G03G09G14G15G18G21G22G26G29
  -1069845.528 4   -833647.152 2  24386603.277    24386601.454    24386602.312  
        25.600          17.000  
 -19297505.458 7 -15037011.668 6  20999919.649    20999917.688    20999918.860  
        44.800          39.500  
  -1906093.891 2  -1485267.455 1  24345640.838    24345638.857    24345639.979  
        17.000          11.000  
 -23526883.418 7 -18332633.257 7  20104523.443    20104521.453    20104522.295  
        45.600          46.000  
 -17100497.583 7 -13325060.538 8  20425140.268    20425137.301    20425139.396  
        42.600          48.600  
 -21635108.548 7 -16858519.014 6  20781096.933    20781093.880    20781096.162  
        45.600          39.500  
 -14102554.273 7 -10989001.061 6  22034784.808    22034780.436    22034784.132  
        42.300          38.300  
  -9144518.340 5  -7125586.742 4  22756754.079    22756752.325    22756753.455  
        34.300          28.800  
  -2099348.581 4  -1635842.956 3  23921684.156    23921682.390    23921683.545  
        26.800          20.500  
 06  1  1  3 45  0.0000000  0  9G03G09G14G15G18G21G22G26G29
  -1006597.772 4   -784363.194 2  24398639.158    24398637.209    24398637.873  
        24.900          17.000  
 -19414030.159 7 -15127810.120 6  20977745.762    20977743.821    20977745.037  
        45.400          39.500  
  -2102410.719 2  -1638241.556 9  24308282.956    24308281.560    24308282.163  
        17.800          -3.000  
 -23513973.969 7 -18322573.949 7  20106979.823    20106977.854    20106978.739  
        45.600          45.500  
 -17134877.417 7 -13351850.019 8  20418598.085    20418595.054    20418597.154  
        42.700          48.700  
 -21508881.031 7 -16760159.946 6  20805117.353    20805114.115    20805116.567  
        45.600          39.000  
 -14242339.981 7 -11097924.945 6  22008184.530    22008180.208    22008183.941  
        42.800          38.400  
  -8938159.455 5  -6964787.616 4  22796022.424    22796020.635    22796022.040  
        34.000          28.400  
  -1907722.473 4  -1486523.878 3  23958149.436    23958147.344    23958148.897  
        27.100          22.100  
 06  1  1  3 46  0.0000000  0  9G03G09G14G15G18G21G22G26G29
   -941474.353 4   -733617.691 3  24411031.516    24411029.684    24411030.523  
        24.900          21.100  
 -19528144.535 7 -15216730.362 6  20956030.897    20956028.567    20956030.023  
        45.900          39.700  
  -2298140.436 2  -1790758.194 1  24271036.938    24271035.705    24271035.284  
        13.900           9.000  
 -23498530.012 7 -18310539.698 7  20109918.819    20109916.916    20109917.772  
        45.600          45.600  
 -17167924.327 7 -13377600.858 8  20412309.600    20412306.360    20412308.584  
        42.800          48.600  
 -21380584.514 7 -16660188.661 6  20829531.390    20829528.259    20829530.580  
        45.500          39.000  
 -14381434.243 7 -11206310.046 6  21981715.597    21981711.446    21981715.036  
        43.100          38.700  
  -8731242.256 5  -6803553.452 4  22835397.442    22835395.783    22835397.291  
        33.500          26.200  
  -1715947.173 4  -1337088.591 4  23994643.864    23994641.529    23994643.258  
        27.400          24.200  
 06  1  1  3 47  0.0000000  0  9G03G09G14G15G18G21G22G26G29
   -874489.333 3   -681421.574 3  24423778.307    24423776.546    24423777.315  
        23.000          19.300  
 -19639830.712 7 -15303758.518 6  20934777.321    20934775.316    20934776.596  
        45.600          39.700  
  -2493275.003 2  -1942811.039 1  24233904.072    24233902.562    24233902.991  
        17.000           6.500  
 -23480549.513 7 -18296528.922 7  20113340.358    20113338.442    20113339.214  
        45.500          45.600  
 -17199631.972 7 -13402308.108 8  20406275.534    20406272.652    20406274.702  
        42.500          48.700  
 -21250232.444 7 -16558615.650 6  20854337.133    20854333.322    20854335.940  
        45.400          38.900  
 -14519828.663 7 -11314149.834 6  21955380.038    21955375.653    21955379.445  
        43.200          38.500  
  -8523784.347 5  -6641897.928 4  22874875.815    22874873.953    22874875.307  
        34.300          26.500  
  -1524034.269 4  -1187546.089 3  24031163.352    24031161.206    24031162.725  
        25.300          23.000  
 06  1  1  3 48  0.0000000  0  9G03G09G14G15G18G21G22G26G29
   -805657.120 3   -627786.090 3  24436876.625    24436875.076    24436875.778  
        23.800          19.900  
 -19749069.639 7 -15388879.734 6  20913989.576    20913987.862    20913989.016  
        45.700          39.700  
  -2687806.016 2  -2094393.615 9  24196885.524    24196884.254    24196884.905  
        12.600          -3.000  
 -23460031.220 7 -18280540.641 7  20117244.940    20117243.006    20117243.822  
        45.600          45.700  
 -17229993.183 7 -13425966.202 8  20400498.138    20400495.070    20400497.260  
        42.500          48.500  
 -21117838.738 7 -16455451.753 6  20879530.854    20879527.108    20879529.514  
        45.200          38.900  
 -14657515.404 7 -11421438.182 6  21929179.364    21929174.954    21929178.693  
        43.700          39.000  
  -8315802.770 5  -6479834.367 4  22914453.113    22914451.670    22914452.641  
        33.400          27.900  
  -1331994.522 4  -1037904.747 3  24067707.453    24067705.270    24067706.719  
        28.800          18.600  
 06  1  1  3 49  0.0000000  0  9G03G09G14G15G18G21G22G26G29
   -734992.937 3   -572723.102 2  24450323.040    24450321.529    24450322.026  
        21.600          16.100  
 -19855844.399 7 -15472080.830 6  20893671.497    20893669.383    20893670.664  
        45.900          39.800  
  -2881724.747 2  -2245499.131 9  24159984.452    24159982.166    24159982.683  
        12.600          -3.000  
 -23436974.269 7 -18262574.189 7  20121632.321    20121630.567    20121631.219  
        45.300          45.500  
 -17259001.686 7 -13448570.227 8  20394977.977    20394974.845    20394977.132  
        42.800          48.500  
 -20983417.899 7 -16350708.283 6  20905110.078    20905106.567    20905108.928  
        45.100          38.200  
 -14794485.878 7 -11528168.405 6  21903114.398    21903110.367    21903113.811  
        43.700          39.500  
  -8107314.850 5  -6317376.266 4  22954127.684    22954125.478    22954127.167  
        33.000          27.400  
  -1139839.010 4   -888173.153 3  24104273.213    24104271.059    24104272.245  
        24.900          21.600  
 06  1  1  3 50  0.0000000  0  9G03G09G14G15G18G21G22G26G29
   -662511.472 3   -516244.042 3  24464116.909    24464114.901    24464115.558  
        21.600          19.900  
 -19960138.408 7 -15553348.865 6  20873824.766    20873822.722    20873824.024  
        45.500          39.800  
  -3075023.284 2         0.000    24123201.222           0.000    24123200.377  
        12.600           0.000  
 -23411377.932 7 -18242628.986 7  20126503.026    20126501.249    20126502.006  
        45.300          45.300  
 -17286651.419 7 -13470115.476 8  20389716.432    20389713.338    20389715.537  
        42.900          48.600  
 -20846984.185 7 -16244396.330 6  20931072.926    20931069.127    20931071.651  
        45.100          38.100  
 -14930732.054 7 -11634334.220 6  21877187.784    21877183.313    21877187.160  
        43.900          38.700  
  -7898337.131 5  -6154536.489 4  22993893.833    22993892.399    22993893.458  
        32.600          26.200  
   -947578.253 4   -738359.621 3  24140859.702    24140857.272    24140858.863  
        26.500          20.500  
 06  1  1  3 51  0.0000000  0  9G03G09G14G15G18G21G22G26G29
   -588228.240 2   -458361.110 2  24478251.659    24478250.355    24478250.362  
        17.000          15.100  
 -20061935.560 7 -15632671.300 6  20854453.500    20854451.365    20854452.611  
        45.300          40.000  
  -3267693.850 2  -2546254.177 9  24086536.766    24086535.984    24086536.862  
        13.900          -3.000  
 -23383242.390 7 -18220705.188 7  20131857.163    20131855.336    20131856.063  
        45.200          45.200  
 -17312934.852 7 -13490596.072 8  20384714.824    20384711.760    20384713.924  
        42.700          48.700  
 -20708552.573 7 -16136527.568 6  20957415.326    20957411.787    20957414.063  
        44.700          38.000  
 -15066245.199 7 -11739928.860 6  21851400.758    21851396.045    21851400.012  
        44.100          39.500  
  -7688886.983 5  -5991328.589 4  23033751.199    23033749.431    23033750.718  
        33.600          25.900  
   -755223.291 3   -588472.644 3  24177463.009    24177460.989    24177462.096  
        23.800          22.100  
 06  1  1  3 52  0.0000000  0  9G03G09G14G15G18G21G22G26G29
   -512159.023 3   -399086.397 3  24492727.622    24492725.723    24492726.584  
        20.500          21.100  
 -20161218.729 7 -15710034.781 6  20835560.213    20835558.285    20835559.554  
        45.400          39.900  
  -3459728.426 2  -2695891.495 9  24049993.651    24049991.496    24049992.358  
        15.100          -3.000  
 -23352568.043 7 -18196803.104 7  20137694.426    20137692.450    20137693.345  
        45.500          45.400  
 -17337845.999 7 -13510007.353 8  20379974.398    20379971.303    20379973.486  
        42.600          48.500  
 -20568137.494 7 -16027113.250 6  20984135.096    20984131.942    20984134.064  
        44.600          37.800  
 -15201016.696 7 -11844945.566 6  21825754.176    21825750.047    21825753.551  
        44.000          39.900  
  -7478980.927 5  -5827765.445 4  23073695.691    23073693.551    23073695.018  
        31.500          27.400  
   -562784.105 3   -438520.033 3  24214082.910    24214080.794    24214082.193  
        23.800          22.100  
 06  1  1  3 53  0.0000000  0  9G03G09G14G15G18G21G22G26G29
   -434319.363 3   -338432.114 2  24507539.759    24507538.417    24507538.990  
        19.900          12.600  
 -20257972.233 7 -15785427.102 6  20817148.801    20817146.792    20817147.959  
        45.700          40.200  
  -3651118.663 1         0.000    24013573.827           0.000    24013571.789  
         6.500           0.000  
 -23319355.655 7 -18170923.329 7  20144014.507    20144012.640    20144013.412  
        45.300          45.400  
 -17361377.982 7 -13528343.967 8  20375496.497    20375493.339    20375495.582  
        42.600          48.600  
 -20425754.952 7 -15916165.869 6  21011229.791    21011226.608    21011228.743  
        44.800          37.800  
 -15335038.351 7 -11949377.981 6  21800250.726    21800246.238    21800250.004  
        44.100          39.600  
  -7268635.344 5  -5663859.789 4  23113723.175    23113720.612    23113722.541  
        32.000          25.600  
   -370271.191 4   -288510.007 3  24250717.420    24250714.535    24250716.621  
        27.100          18.600  
 06  1  1  3 54  0.0000000  0  9G03G09G14G15G18G21G22G26G29
   -354726.019 3   -276411.336    24522686.066    24522683.979    24522684.975  
        21.600           3.000  
 -20352180.957 7 -15858836.480 6  20799221.451    20799219.525    20799220.723  
        45.800          40.700  
  -3841856.935    -2993653.945 9  23977277.394    23977274.335    23977276.722  
         3.000          -3.000  
 -23283606.353 7 -18143066.733 7  20150817.567    20150815.521    20150816.482  
        45.600          45.400  
 -17383525.302 7 -13545601.621 8  20371282.068    20371278.869    20371281.136  
        42.600          48.700  
 -20281419.967 7 -15803697.082 6  21038695.749    21038692.595    21038694.709  
        44.600          37.600  
 -15468301.483 7 -12053219.344 6  21774891.438    21774887.237    21774890.860  
        44.200          39.700  
  -7057866.515 5  -5499624.356 4  23153831.542    23153828.955    23153830.704  
        31.800          25.600  
   -177695.156 3   -138450.722 2  24287362.620    24287360.495    24287361.693  
        22.600          17.000  
 06  1  1  3 55  0.0000000  0  9G03G09G14G15G18G21G22G26G29
   -273395.178 3   -213036.609 2  24538162.586    24538160.913    24538161.643  
        23.400          17.000  
 -20443829.955 7 -15930251.270 6  20781780.902    20781779.279    20781780.261  
        45.900          40.700  
  -4031935.859 2  -3141767.291 9  23941104.479    23941104.794    23941106.090  
        12.600          -3.000  
 -23245321.709 7 -18113234.550 7  20158102.815    20158100.787    20158101.694  
        45.400          45.200  
 -17404280.709 7 -13561774.669 8  20367332.378    20367329.144    20367331.496  
        42.600          48.500  
 -20135148.738 7 -15689719.535 6  21066530.417    21066527.296    21066529.237  
        44.500          37.300  
 -15600797.524 7 -12156462.990 6  21749678.304    21749673.746    21749677.755  
        44.600          39.500  
  -6846690.588 5  -5335071.684 4  23194016.282    23194014.442    23194015.770  
        30.600          25.900  
     14934.374 3     11650.179 3  24324019.490    24324016.989    24324018.540  
        23.800          19.900  
 06  1  1  3 56  0.0000000  0  9G03G09G14G15G18G21G22G26G29
   -190343.147 4   -148320.773 2  24553966.962    24553965.428    24553966.175  
        26.200          17.800  
 -20532904.881 7 -15999660.292 6  20764830.831    20764828.715    20764829.987  
        46.100          41.100  
  -4221347.106           0.000    23905062.787           0.000    23905061.488  
         3.000           0.000  
 -23204503.991 7 -18081428.539 7  20165870.160    20165868.223    20165869.103  
        45.500          45.200  
 -17423638.001 7 -13576858.275 8  20363648.764    20363645.619    20363647.843  
        42.600          48.500  
 -19986957.059 7 -15574245.518 6  21094730.996    21094727.129    21094729.514  
        44.500          37.100  
 -15732517.351 7 -12259101.800 6  21724612.878    21724608.768    21724612.281  
        44.700          40.700  
  -6635123.557 5  -5170214.261 4  23234275.934    23234273.771    23234275.621  
        30.400          24.600  
    207607.250 3    161784.888 3  24360683.856    24360681.241    24360682.627  
        21.600          18.600  
 06  1  1  3 57  0.0000000  0  8G03G09G15G18G21G22G26G29
   -105587.165 4    -82277.187 3  24570095.553    24570093.939    24570094.569  
        24.600          22.600  
 -20619391.038 7 -16067052.088 6  20748373.057    20748371.043    20748372.357  
        46.700          41.000  
 -23161155.590 7 -18047650.570 7  20174118.921    20174117.112    20174117.821  
        45.500          45.200  
 -17441590.988 7 -13590847.618 8  20360232.427    20360229.306    20360231.508  
        42.600          48.400  
 -19836862.250 7 -15457288.561 6  21123293.028    21123289.184    21123291.604  
        44.100          36.900  
 -15863452.560 7 -12361129.214 6  21699697.150    21699692.272    21699696.374  
        44.600          40.000  
  -6423181.290 5  -5005064.461 4  23274607.005    23274605.046    23274606.296  
        30.800          25.600  
    400313.756 3    311945.800 3  24397354.455    24397352.185    24397353.472  
        22.600          19.300  
 06  1  1  3 58  0.0000000  0  9G03G09G14G15G18G21G22G26G29
    -19144.838 4    -14919.519 3  24586545.213    24586543.224    24586544.337  
        25.600          20.500  
 -20703274.376 7 -16132415.719 6  20732410.465    20732408.751    20732409.714  
        46.400          41.900  
   -106479.274 1         0.000    23833362.517           0.000    23833361.894  
         9.000           0.000  
 -23115279.390 7 -18011902.892 7  20182849.115    20182847.120    20182848.085  
        45.600          45.100  
 -17458133.477 7 -13603737.874 8  20357084.567    20357081.356    20357083.637  
        42.700          48.600  
 -19684879.629 7 -15338860.599 6  21152213.799    21152210.455    21152212.700  
        44.100          36.300  
 -15993593.586 7 -12462537.790 6  21674931.799    21674927.329    21674931.187  
        44.800          40.400  
  -6210879.574 5  -4839634.551 3  23315006.617    23315005.090    23315006.405  
        30.600          23.400  
    593044.053 3    462125.220 3  24434030.031    24434027.427    24434029.112  
        23.400          19.300  
 06  1  1  3 59  0.0000000  0  8G03G09G15G18G21G22G26G29
     68967.274 4     53739.224 3  24603312.183    24603310.274    24603311.587  
        24.200          19.300  
 -20784542.828 7 -16195741.772 6  20716945.634    20716943.652    20716944.828  
        46.400          41.500  
 -23066878.537 7 -17974187.947 7  20192059.406    20192057.517    20192058.361  
        45.500          45.100  
 -17473259.004 7 -13615523.997 8  20354206.243    20354203.079    20354205.322  
        42.800          48.500  
 -19531026.497 7 -15218975.081 6  21181490.911    21181487.801    21181490.167  
        44.300          36.200  
 -16122932.213 7 -12563321.119 6  21650319.674    21650314.953    21650318.959  
        45.100          40.300  
  -5998233.773 5  -4673936.523 4  23355472.726    23355470.277    23355472.135  
        31.100          24.900  
    785788.726 3    612315.808 2  24470707.806    24470704.982    24470707.103  
        22.100          13.900  
 06  1  1  4  0  0.0000000  0  8G03G09G15G18G21G22G26G29
    158731.209 3    123685.129 3  24620393.744    24620391.981    24620392.551  
        21.600          19.900  
 -20863182.530 7 -16257019.455 6  20701981.055    20701978.890    20701980.211  
        46.800          41.800  
 -23015956.727 7 -17934508.625 7  20201749.416    20201747.576    20201748.365  
        45.500          44.900  
 -17486961.545 7 -13626201.309 8  20351598.841    20351595.593    20351597.963  
        43.000          48.700  
 -19375319.181 7 -15097644.754 6  21211121.003    21211117.998    21211120.286  
        44.200          36.200  
 -16251459.192 7 -12663472.006 6  21625861.132    21625857.121    21625860.752  
        45.200          40.600  
  -5785259.312 5  -4507982.389 3  23395999.537    23395997.598    23395999.287  
        30.800          23.800  
    978538.352 3    762510.330 2  24507386.584    24507384.571    24507386.088  
        23.800          17.800  
 06  1  1  4  1  0.0000000  0  8G03G09G15G18G21G22G26G29
    250129.398 3    194904.487 2  24637785.977    24637784.603    24637784.764  
        19.300          17.000  
 -20939182.249 7 -16316240.003 6  20687519.057    20687516.607    20687518.122  
        47.400          41.900  
 -22962518.614 7 -17892868.548 7  20211918.535    20211916.429    20211917.472  
        45.500          44.700  
 -17499234.928 7 -13635764.983 8  20349263.166    20349260.027    20349262.324  
        43.000          48.600  
 -19217775.572 7 -14974883.541 6  21241100.495    21241097.699    21241099.791  
        44.000          36.300  
 -16379164.920 7 -12762982.950 6  21601559.860    21601555.499    21601559.206  
        45.000          40.700  
  -5571971.335 4  -4341783.978 3  23436586.893    23436585.536    23436586.647  
        29.000          23.400  
   1171283.536 3    912701.343 2  24544065.248    24544062.481    24544064.492  
        23.000          17.800  
 06  1  1  4  2  0.0000000  0  9G03G09G14G15G18G21G22G26G29
    343144.074 3    267383.430 2  24655486.361    24655484.609    24655485.688  
        19.300          15.100  
 -21012528.593 7 -16373392.983 7  20673561.346    20673559.301    20673560.505  
        47.300          42.000  
   -271942.990 9         0.000    23691547.602           0.000    23691547.286  
        -3.000           0.000  
 -22906568.117 7 -17849270.760 7  20222565.428    20222563.471    20222564.364  
        45.500          44.600  
 -17510072.934 7 -13644210.177 8  20347200.797    20347197.586    20347199.897  
        42.700          48.500  
 -19058414.219 7 -14850705.907 6  21271426.819    21271423.105    21271425.536  
        43.500          36.000  
 -16506040.751 7 -12861847.220 6  21577416.297    21577411.630    21577415.618  
        45.200          40.600  
  -5358384.902 4  -4175352.989 4  23477231.172    23477229.979    23477230.779  
        29.500          25.300  
   1364015.292 3   1062881.894 3  24580740.635    24580739.179    24580740.194  
        22.600          21.100  
 06  1  1  4  3  0.0000000  0  9G03G09G14G15G18G21G22G26G29
    437756.834 3    341107.650 3  24673490.029    24673489.593    24673489.423  
        18.600          19.900  
 -21083211.164 7 -16428470.296 6  20660111.234    20660108.773    20660110.316  
        47.800          41.800  
   -456472.360 2   -355691.663    23656432.717    23656430.367    23656431.555  
        12.600           3.000  
 -22848111.003 7 -17803719.779 7  20233689.302    20233687.655    20233688.237  
        45.300          44.600  
 -17519469.355 7 -13651532.070 8  20345412.799    20345409.571    20345411.823  
        42.500          48.600  
 -18897251.306 7 -14725124.447 5  21302095.065    21302091.482    21302093.797  
        43.400          35.900  
 -16632076.867 7 -12960057.170 6  21553432.374    21553427.929    21553431.819  
        45.400          41.000  
  -5144514.654 4  -4008700.866 3  23517929.537    23517927.234    23517929.034  
        29.500          23.000  
   1556724.606 3   1213044.987 2  24617412.196    24617409.582    24617411.812  
        21.600          12.600  
 06  1  1  4  4  0.0000000  0  9G03G09G14G15G18G21G22G26G29
    533948.957 2    416062.537 2  24691794.722    24691793.927    24691794.016  
        17.800          17.800  
 -21151218.455 7 -16481462.987 6  20647169.687    20647167.446    20647168.821  
        47.800          41.900  
   -640275.039 2   -498914.504 9  23621455.879    23621454.492    23621454.665  
        15.100          -3.000  
 -22787152.365 7 -17756219.558 7  20245289.711    20245287.657    20245288.548  
        45.200          44.600  
 -17527418.769 7 -13657726.402 8  20343900.046    20343896.793    20343899.088  
        42.700          48.600  
 -18734305.839 7 -14598153.979 5  21333102.208    21333098.811    21333101.315  
        43.600          34.800  
 -16757264.457 7 -13057605.939 6  21529609.968    21529605.462    21529609.379  
        45.200          41.000  
  -4930375.613 4  -3841839.298 3  23558679.214    23558676.849    23558678.527  
        28.800          22.600  
   1749402.421 2   1363183.554 1  24654076.887    24654074.950    24654076.020  
        15.100           6.500  
 06  1  1  4  5  0.0000000  0  9G03G09G14G15G18G21G22G26G29
    631702.465 2    492234.064 2  24710396.497    24710395.156    24710396.092  
        17.800          15.100  
 -21216539.798 8 -16532362.734 7  20634739.492    20634737.228    20634738.596  
        48.100          42.000  
   -823344.156 1   -641565.694 9  23586618.830    23586617.109    23586618.815  
         9.000          -3.000  
 -22723697.597 7 -17706774.290 7  20257364.772    20257362.690    20257363.630  
        45.500          44.400  
 -17533914.420 7 -13662787.948 8  20342663.805    20342660.777    20342662.922  
        42.600          48.700  
 -18569595.647 7 -14469808.397 5  21364444.976    21364442.341    21364444.452  
        43.400          35.100  
 -16881593.681 7 -13154485.837 6  21505950.895    21505946.480    21505950.309  
        45.500          41.300  
  -4715981.908 4  -3674779.269 3  23599476.148    23599474.465    23599475.790  
        28.400          21.100  
   1942039.933 3   1513290.699 2  24690736.140    24690732.458    24690735.407  
        21.600          15.100  
 06  1  1  4  6  0.0000000  0  9G03G09G14G15G18G21G22G26G29
    730998.022 3    569607.225 2  24729292.538    24729291.215    24729291.840  
        20.500          17.000  
 -21279166.324 8 -16581162.607 7  20622821.902    20622819.909    20622821.141  
        48.200          42.200  
  -1005672.900 2   -783639.993 2  23551923.359    23551920.991    23551922.585  
        13.900          13.900  
 -22657753.682 7 -17655389.434 7  20269913.229    20269911.457    20269912.128  
        45.200          44.500  
 -17538951.270 7 -13666712.782 8  20341705.546    20341702.310    20341704.521  
        42.600          48.500  
 -18403139.097 7 -14340102.029 5  21396121.406    21396117.985    21396120.239  
        42.700          34.900  
 -17005055.430 7 -13250689.800 6  21482457.009    21482452.221    21482456.433  
        46.000          41.100  
  -4501348.003 4  -3507532.077 3  23640320.080    23640318.763    23640319.770  
        27.400          23.800  
   2134628.595 3   1663359.728 2  24727384.067    24727381.463    24727383.353  
        22.100          16.100  
 06  1  1  4  7  0.0000000  0  9G03G09G14G15G18G21G22G26G29
    831816.468 3    648167.019 2  24748477.602    24748475.832    24748476.278  
        21.600          16.100  
 -21339087.677 8 -16627854.564 7  20611419.377    20611417.131    20611418.550  
        48.300          42.400  
  -1187254.241 2   -925131.905 1  23517368.988    23517366.665    23517367.710  
        17.800           9.000  
 -22589327.282 7 -17602070.175 7  20282934.408    20282932.473    20282933.334  
        45.100          44.200  
 -17542522.723 7 -13669495.726 8  20341026.027    20341022.600    20341024.999  
        42.600          48.500  
 -18234954.943 7 -14209049.477 5  21428125.889    21428122.236    21428124.767  
        42.600          34.100  
 -17127639.709 7 -13346210.011 6  21459130.118    21459125.384    21459129.443  
        46.100          41.800  
  -4286488.246 4  -3340108.914 3  23681206.683    23681204.259    23681206.170  
        28.800          22.100  
   2327159.997 3   1813384.146 1  24764022.213    24764018.774    24764020.995  
        22.600          11.000  
 06  1  1  4  8  0.0000000  0  9G03G09G14G15G18G21G22G26G29
    934139.131 3    727898.967 2  24767949.320    24767947.403    24767948.103  
        22.600          15.100  
 -21396294.627 8 -16672431.406 7  20600533.341    20600531.026    20600532.357  
        48.200          42.700  
  -1368081.405 3  -1066036.134 2  23482958.787    23482956.560    23482958.017  
        20.500          13.900  
 -22518425.288 7 -17546821.887 7  20296426.645    20296424.690    20296425.625  
        45.500          44.100  
 -17544623.906 7 -13671133.016 8  20340625.942    20340622.810    20340625.025  
        42.500          48.600  
 -18065061.671 7 -14076665.150 5  21460454.829    21460452.083    21460454.121  
        42.400          34.500  
 -17249337.482 7 -13441039.442 6  21435971.767    21435967.079    21435971.026  
        45.800          41.600  
  -4071416.341 4  -3172520.414 3  23722133.930    23722131.081    23722133.391  
        26.800          21.100  
   2519625.633 3   1963357.354 2  24800646.239    24800644.078    24800645.299  
        22.100          16.100  
 06  1  1  4  9  0.0000000  0  8G09G14G15G18G21G22G26G29
 -21450778.039 8 -16714886.002 7  20590165.376    20590163.262    20590164.542  
        48.400          43.000  
  -1548147.633 3  -1206347.453 2  23448693.018    23448691.170    23448692.235  
        21.100          12.600  
 -22445054.944 7 -17489650.201 7  20310388.612    20310386.791    20310387.561  
        45.600          44.400  
 -17545247.983 7 -13671619.314 8  20340507.339    20340504.092    20340506.340  
        42.700          48.500  
 -17893478.256 6 -13942963.832 5  21493106.481    21493103.286    21493105.382  
        41.700          33.600  
 -17370138.620 7 -13535170.192 6  21412983.995    21412979.412    21412983.326  
        45.700          41.900  
  -3856146.229 4  -3004777.485 3  23763097.859    23763096.013    23763097.541  
        27.900          20.500  
   2712017.349 4   2113272.870 2  24837257.621    24837254.442    24837257.058  
        24.900          13.900  
 06  1  1  4 10  0.0000000  0  7G09G14G15G18G21G22G26
 -21502530.185 8 -16755212.341 7  20580317.289    20580315.043    20580316.473  
        48.400          42.800  
  -1727446.096 3  -1346060.502 2  23414574.538    23414571.846    23414573.213  
        22.600          17.000  
 -22369224.217 7 -17430561.339 7  20324818.905    20324816.776    20324817.758  
        45.300          44.000  
 -17544390.430 7 -13670951.081 8  20340670.528    20340667.233    20340669.551  
        43.000          48.400  
 -17720224.300 6 -13807960.801 5  21526074.810    21526072.594    21526074.370  
        41.300          33.900  
 -17490033.690 7 -13628594.914 6  21390168.864    21390163.979    21390168.068  
        45.700          41.600  
  -3640691.700 4  -2836890.825 2  23804097.256    23804095.453    23804096.756  
        28.100          17.800  
 06  1  1  4 11  0.0000000  0  7G09G14G15G18G21G22G26
 -21551542.922 8 -16793404.077 7  20570990.623    20570988.236    20570989.683  
        48.500          42.900  
  -1905970.212 3  -1485170.183 3  23380601.890    23380599.606    23380601.162  
        23.000          18.600  
 -22290941.639 7 -17369561.951 7  20339715.670    20339713.623    20339714.471  
        45.600          43.900  
 -17542045.580 7 -13669123.938 8  20341116.666    20341113.371    20341115.786  
        42.800          48.300  
 -17545318.906 6 -13671670.927 5  21559359.409    21559356.014    21559358.041  
        41.000          33.500  
 -17609012.763 7 -13721305.884 7  21367527.672    21367523.119    21367527.040  
        46.100          42.100  
  -3425066.084 4  -2668870.909 3  23845128.905    23845128.145    23845128.764  
        24.600          21.600  
 06  1  1  4 12  0.0000000  0  7G09G14G15G18G21G22G26
 -21597810.067 8 -16829456.387 7  20562185.970    20562183.762    20562185.189  
        48.400          42.600  
  -2083713.668 4  -1623671.544 3  23346778.474    23346776.129    23346777.495  
        27.100          19.900  
 -22210215.890 7 -17306658.787 7  20355077.172    20355075.137    20355075.997  
        45.300          43.700  
 -17538207.305 7 -13666133.071 8  20341847.102    20341843.853    20341846.222  
        43.100          48.500  
 -17368781.774 6 -13534109.571 5  21592952.473    21592949.866    21592951.789  
        41.200          33.100  
 -17727065.913 7 -13813295.342 7  21345062.969    21345058.320    21345062.328  
        46.100          42.100  
  -3209282.948 4  -2500728.210 3  23886192.037    23886190.142    23886192.030  
        26.800          21.600  
 06  1  1  4 13  0.0000000  0  7G09G14G15G18G21G22G26
 -21641324.324 8 -16863363.592 7  20553905.840    20553903.356    20553904.867  
        48.600          42.400  
  -2260669.460 4  -1761559.153 3  23313105.124    23313102.442    23313103.948  
        28.400          21.600  
 -22127055.948 7 -17241858.846 7  20370901.482    20370899.861    20370900.489  
        45.200          43.600  
 -17532870.645 7 -13661974.634 8  20342862.734    20342859.404    20342861.777  
        43.100          48.400  
 -17190632.535 6 -13395292.014 5  21626854.239    21626850.471    21626852.783  
        40.700          33.000  
 -17844183.418 7 -13904555.741 7  21322776.133    21322771.573    21322775.456  
        46.000          42.200  
  -2993355.271 4  -2332472.891 3  23927281.596    23927279.119    23927281.208  
        27.100          18.600  
 06  1  1  4 14  0.0000000  0  7G09G14G15G18G21G22G26
 -21682078.463 8 -16895120.054 7  20546150.167    20546148.121    20546149.461  
        48.600          42.200  
  -2436832.424 4  -1898828.958 3  23279581.695    23279579.762    23279580.969  
        28.400          23.800  
 -22041471.717 7 -17175169.848 7  20387187.954    20387186.036    20387186.973  
        45.200          43.500  
 -17526029.647 7 -13656643.978 8  20344164.375    20344161.114    20344163.481  
        43.000          48.200  
 -17010891.136 6 -13255233.804 5  21661057.175    21661054.226    21661056.301  
        40.500          32.400  
 -17960354.943 7 -13995079.002 7  21300669.604    21300664.960    21300668.948  
        46.400          42.600  
  -2777296.033 4  -2164115.039 3  23968396.303    23968394.873    23968396.013  
        24.200          23.400  
 06  1  1  4 15  0.0000000  0  7G09G14G15G18G21G22G26
 -21720068.495 8 -16924722.674 7  20538921.129    20538918.798    20538920.254  
        48.800          42.300  
  -2612195.117 5  -2035475.161 4  23246211.841    23246209.113    23246210.792  
        30.600          24.600  
 -21953472.625 7 -17106599.147 7  20403933.864    20403931.836    20403932.636  
        45.400          43.600  
 -17517679.485 7 -13650137.361 8  20345753.275    20345750.051    20345752.333  
        43.000          48.100  
 -16829577.845 6 -13113950.774 5  21695559.961    21695556.902    21695558.844  
        39.400          31.800  
 -18075570.905 7 -14084857.677 7  21278744.490    21278740.095    21278743.911  
        46.200          42.600  
  -2561118.138 4  -1995664.768 3  24009534.002    24009531.838    24009533.373  
        26.500          21.600  
 06  1  1  4 16  0.0000000  0  7G09G14G15G18G21G22G26
 -21755288.249 8 -16952166.629 7  20532219.074    20532216.797    20532218.158  
        48.600          42.400  
  -2786751.195 5  -2171492.854 4  23212994.806    23212992.283    23212994.024  
        31.000          25.300  
 -21863069.116 7 -17036154.878 7  20421136.916    20421135.087    20421135.784  
        45.100          43.500  
 -17507815.417 7 -13642451.076 8  20347630.459    20347627.101    20347629.493  
        43.000          48.100  
 -16646712.519 6 -12971458.347 5  21730357.882    21730354.978    21730357.010  
        39.600          32.100  
 -18189820.705 7 -14173883.490 7  21257003.661    21256998.970    21257003.026  
        46.400          42.600  
  -2344834.275 4  -1827131.902 3  24050690.103    24050689.113    24050689.563  
        24.600          21.600  
 06  1  1  4 17  0.0000000  0  7G09G14G15G18G21G22G26
 -21787733.395 8 -16977448.554 7  20526044.825    20526042.634    20526044.057  
        48.600          42.200  
  -2960495.629 5  -2306878.091 4  23179932.221    23179929.893    23179931.288  
        30.400          26.800  
 -21770271.282 7 -16963844.892 7  20438795.727    20438793.903    20438794.701  
        45.200          43.300  
 -17496432.110 7 -13633580.977 8  20349796.690    20349793.427    20349795.698  
        42.800          48.100  
 -16462316.059 6 -12827772.870 5  21765447.909    21765444.407    21765446.871  
        39.500          31.300  
 -18303094.766 7 -14262148.990 7  21235448.183    21235443.658    21235447.508  
        45.900          42.900  
  -2128457.093 4  -1658526.378 3  24091866.000    24091864.567    24091865.608  
        26.500          21.600  
 06  1  1  4 18  0.0000000  0  7G09G14G15G18G21G22G26
 -21817398.881 8 -17000564.512 7  20520399.787    20520397.611    20520398.916  
        48.700          42.400  
  -3133421.483 5  -2441625.467 4  23147025.429    23147023.127    23147024.687  
        30.100          27.100  
 -21675090.415 7 -16889678.003 7  20456908.013    20456906.228    20456906.991  
        45.200          43.400  
 -17483524.339 7 -13623522.970 8  20352252.991    20352249.653    20352252.026  
        43.000          48.100  
 -16276408.320 6 -12682909.726 5  21800825.283    21800821.783    21800824.017  
        39.500          31.100  
 -18415382.593 7 -14349645.991 7  21214080.502    21214076.021    21214079.860  
        46.200          43.100  
  -1911998.784 4  -1489857.548 2  24133056.712    24133054.881    24133056.200  
        25.600          12.600  
 06  1  1  4 19  0.0000000  0  7G09G14G15G18G21G22G26
 -21844281.067 8 -17021511.665 7  20515284.159    20515281.993    20515283.426  
        48.500          42.600  
  -3305522.986 4  -2575730.505 4  23114275.838    23114273.385    23114275.078  
        29.500          27.600  
 -21577538.430 7 -16813663.498 7  20475471.666    20475469.701    20475470.539  
        44.800          42.900  
 -17469086.904 7 -13612273.022 8  20355000.309    20354996.959    20354999.307  
        43.100          48.100  
 -16089010.319 6 -12536885.368 5  21836484.864    21836482.514    21836484.456  
        39.100          31.500  
 -18526674.000 7 -14436366.568 7  21192902.496    21192897.934    21192901.933  
        46.400          43.000  
  -1695471.546 4  -1321135.032 2  24174260.770    24174257.664    24174260.247  
        25.600          13.900  
 06  1  1  4 20  0.0000000  0  7G09G14G15G18G21G22G26
 -21868377.474 8 -17040288.074 7  20510698.669    20510696.675    20510697.832  
        48.000          42.700  
  -3476794.037 4  -2709188.417 4  23081683.660    23081681.750    23081683.182  
        28.800          27.600  
 -21477626.802 7 -16735810.307 7  20494484.339    20494482.477    20494483.142  
        45.000          43.200  
 -17453115.238 7 -13599827.575 8  20358039.655    20358036.331    20358038.681  
        43.200          48.000  
 -15900142.888 6 -12389715.990 5  21872426.754    21872422.610    21872425.252  
        38.600          30.800  
 -18636958.527 7 -14522302.563 7  21171915.969    21171911.556    21171915.228  
        45.900          43.100  
  -1478887.423 4  -1152368.217 2  24215475.796    24215473.454    24215475.101  
        24.600          17.000  
 06  1  1  4 21  0.0000000  0  7G09G14G15G18G21G22G26
 -21889685.131 7 -17056891.436 7  20506644.116    20506641.857    20506643.268  
        47.900          42.500  
  -3647229.267 4  -2841995.029 4  23049251.211    23049248.770    23049250.304  
        27.400          25.900  
 -21375367.830 7 -16656128.002 7  20513943.508    20513941.617    20513942.463  
        45.200          42.800  
 -17435604.975 7 -13586183.216 7  20361371.602    20361368.365    20361370.601  
        43.000          47.900  
 -15709827.269 6 -12241418.121 5  21908642.660    21908638.721    21908641.158  
        38.100          30.600  
 -18746226.266 7 -14607446.250 7  21151122.853    21151118.505    21151122.300  
        46.100          43.200  
  -1262258.338 4   -983566.332 2  24256699.273    24256695.707    24256698.643  
        27.100          15.100  
 06  1  1  4 22  0.0000000  0  7G09G14G15G18G21G22G26
 -21908201.644 7 -17071319.886 7  20503120.559    20503118.331    20503119.652  
        47.800          42.900  
  -3816822.284 4  -2974145.391 4  23016978.758    23016976.214    23016977.736  
        29.900          24.200  
 -21270774.122 7 -16574626.440 7  20533846.793    20533845.223    20533845.829  
        45.200          42.700  
 -17416551.341 7 -13571336.224 7  20364997.363    20364994.202    20364996.464  
        43.400          47.800  
 -15518084.205 6 -12092007.993 4  21945128.921    21945126.070    21945128.173  
        37.800          29.900  
 -18854466.145 7 -14691789.007 7  21130525.786    21130521.065    21130525.011  
        46.300          43.300  
  -1045596.074 4   -814738.579 3  24297928.613    24297926.461    24297928.000  
        25.900          20.500  
 06  1  1  4 23  0.0000000  0  7G09G14G15G18G21G22G26
 -21923925.521 7 -17083572.259 7  20500128.386    20500126.117    20500127.561  
        47.700          42.800  
  -3985567.906 5  -3105635.471 3  22984867.519    22984864.628    22984866.646  
        31.600          22.100  
 -21163858.386 7 -16491315.497 7  20554192.345    20554190.581    20554191.224  
        45.000          42.700  
 -17395948.963 7 -13555282.426 8  20368917.885    20368914.790    20368916.941  
        43.200          48.000  
 -15324935.116 6 -11941502.271 4  21981883.493    21981881.215    21981883.294  
        38.100          29.200  
 -18961668.100 7 -14775322.996 7  21110125.654    21110121.306    21110125.126  
        46.300          43.600  
   -828911.908 3   -645893.882 2  24339161.979    24339159.766    24339161.403  
        23.000          16.100  
 06  1  1  4 24  0.0000000  0  7G09G14G15G18G21G22G26
 -21936855.482 7 -17093647.550 7  20497667.656    20497665.748    20497666.954  
        47.400          42.900  
  -4153460.171 5  -3236460.599 4  22952918.764    22952915.761    22952917.943  
        32.300          24.600  
 -21054633.936 7 -16406205.567 7  20574977.111    20574975.299    20574976.047  
        44.900          42.400  
 -17373794.072 7 -13538018.881 7  20373133.815    20373130.634    20373132.858  
        43.400          47.900  
 -15130401.308 6 -11789917.550 5  22018903.517    22018899.913    22018902.237  
        37.700          30.100  
 -19067821.913 7 -14858040.250 7  21089925.460    21089920.872    21089924.829  
        46.500          43.700  
   -612217.332 3   -477040.968 2  24380396.899    24380395.024    24380397.021  
        22.100          15.100  
 06  1  1  4 25  0.0000000  0  7G09G14G15G18G21G22G26
 -21946990.022 7 -17101544.595 7  20495739.133    20495737.108    20495738.351  
        47.200          42.700  
  -4320493.366 5  -3366616.308 4  22921132.969    22921130.565    22921132.130  
        31.800          26.200  
 -20943114.171 7 -16319307.092 7  20596198.735    20596196.837    20596197.647  
        44.900          42.200  
 -17350082.482 7 -13519542.320 7  20377645.921    20377642.796    20377644.990  
        43.400          47.600  
 -14934503.887 6 -11637270.267 4  22056181.859    22056178.058    22056180.385  
        36.900          28.600  
 -19172916.753 7 -14939932.329 7  21069926.788    21069922.111    21069926.075  
        46.700          44.000  
   -395523.682 4   -308188.783 2  24421632.939    24421629.991    24421632.467  
        25.300          17.800  
 06  1  1  4 26  0.0000000  0  7G09G14G15G18G21G22G26
 -21954329.799 7 -17107263.900 7  20494342.454    20494340.374    20494341.691  
        47.400          42.800  
  -4486662.153 4  -3496098.401 4  22889512.104    22889509.680    22889511.126  
        29.200          28.800  
 -20829313.271 7 -16230631.090 6  20617854.064    20617852.490    20617853.065  
        44.700          41.900  
 -17324809.711 7 -13499849.250 7  20382455.449    20382452.070    20382454.491  
        43.600          47.600  
 -14737264.773 6 -11483577.493 4  22093714.819    22093711.349    22093713.762  
        37.100          28.400  
 -19276942.113 7 -15020991.050 7  21050131.306    21050126.705    21050130.536  
        46.600          44.000  
   -178841.780 4   -139345.797 3  24462865.266    24462864.420    24462865.121  
        24.900          19.300  
 06  1  1  4 27  0.0000000  0  7G09G14G15G18G21G22G26
 -21958875.104 7 -17110805.696 7  20493477.453    20493475.430    20493476.635  
        47.100          42.700  
  -4651961.201 5  -3624902.793 4  22858056.984    22858054.343    22858055.911  
        32.100          27.400  
 -20713245.754 7 -16140188.892 6  20639941.295    20639939.331    20639940.160  
        44.700          41.900  
 -17297971.928 7 -13478936.699 7  20387562.245    20387559.130    20387561.394  
        43.600          47.500  
 -14538705.983 5 -11328856.413 4  22131498.390    22131495.972    22131498.022  
        35.900          29.900  
 -19379887.641 7 -15101208.343 7  21030541.442    21030536.747    21030540.808  
        47.000          44.100  
     37817.261 4     29479.384 2  24504095.530    24504093.124    24504095.219  
        27.400          13.900  
 06  1  1  4 28  0.0000000  0  7G09G14G15G18G21G22G26
 -21960626.219 7 -17112170.198 7  20493144.249    20493142.087    20493143.438  
        47.200          42.300  
  -4816384.976 5  -3753025.179 4  22826767.645    22826765.485    22826766.837  
        32.000          26.500  
 -20594926.090 7 -16047991.775 7  20662456.761    20662454.993    20662455.613  
        44.300          42.000  
 -17269564.385 7 -13456800.953 7  20392968.228    20392964.883    20392967.285  
        44.000          47.400  
 -14338849.378 6 -11173124.045 4  22169529.313    22169527.268    22169529.295  
        36.200          28.400  
 -19481742.040 7 -15180575.405 7  21011159.265    21011154.654    21011158.589  
        47.000          44.600  
    254442.652 3    198278.358 9  24545317.090    24545315.522    24545316.524  
        19.900          -3.000  
 06  1  1  4 29  0.0000000  0  7G09G14G15G18G21G22G26
 -21959584.790 7 -17111358.688 7  20493342.411    20493340.269    20493341.589  
        47.300          42.300  
  -4979928.633 5  -3880461.749 4  22795646.770    22795644.173    22795645.688  
        31.500          28.400  
 -20474368.993 7 -15954051.221 6  20685397.842    20685396.147    20685396.828  
        44.300          41.600  
 -17239583.620 7 -13433439.321 7  20398673.242    20398669.980    20398672.298  
        43.800          47.100  
 -14137716.561 6 -11016397.224 4  22207803.671    22207802.031    22207803.863  
        36.100          28.600  
 -19582495.116 7 -15259084.296 7  20991986.532    20991981.883    20991985.900  
        46.600          44.400  
    471023.855 3    367042.939 2  24586531.824    24586529.915    24586531.121  
        23.000          12.600  
 06  1  1  4 30  0.0000000  0  7G09G14G15G18G21G22G26
 -21955752.055 7 -17108372.138 7  20494072.145    20494069.775    20494071.211  
        47.700          42.500  
  -5142586.288 5  -4007207.913 4  22764694.052    22764691.468    22764692.947  
        32.100          28.400  
 -20351589.888 7 -15858379.219 6  20708762.496    20708760.346    20708761.142  
        44.400          41.500  
 -17208026.083 7 -13408849.030 7  20404678.546    20404675.227    20404677.642  
        44.100          47.000  
 -13935328.938 6 -10858692.631 4  22246317.205    22246315.045    22246317.086  
        36.400          27.900  
 -19682135.847 7 -15336726.417 7  20973025.427    20973020.832    20973024.851  
        46.800          44.600  
    687550.367 3    535764.886 1  24627735.295    24627732.725    24627734.532  
        22.600          11.000  
 06  1  1  4 31  0.0000000  0  7G09G14G15G18G21G22G26
 -21949131.438 7 -17103213.206 7  20495331.691    20495329.440    20495330.806  
        47.600          42.600  
  -5304353.124 5  -4133259.950 4  22733910.648    22733907.963    22733909.802  
        33.500          26.200  
 -20226604.474 7 -15760988.015 6  20732545.560    20732544.222    20732544.739  
        44.300          41.200  
 -17174887.554 7 -13383026.810 7  20410984.577    20410981.228    20410983.606  
        44.300          46.800  
 -13731709.576 5 -10700028.239 4  22285064.959    22285062.492    22285064.550  
        35.400          26.800  
 -19780653.988 7 -15413493.797 7  20954277.918    20954273.471    20954277.343  
        46.800          44.700  
    904012.244 3    704436.438 1  24668926.700    24668924.764    24668926.155  
        21.100           9.000  
 06  1  1  4 32  0.0000000  0  7G09G14G15G18G21G22G26
 -21939724.555 7 -17095883.161 7  20497121.705    20497119.588    20497120.931  
        47.800          42.400  
  -5465224.492 5  -4258614.235 4  22703297.527    22703294.964    22703296.684  
        32.000          26.800  
 -20099428.886 7 -15661890.182 6  20756746.733    20756744.968    20756745.696  
        44.100          41.200  
 -17140164.403 7 -13355969.803 7  20417592.287    20417588.859    20417591.387  
        44.700          46.700  
 -13526880.055 5 -10540420.892 4  22324042.229    22324040.565    22324042.018  
        34.600          28.600  
 -19878038.335 7 -15489377.700 7  20935746.467    20935741.857    20935745.712  
        46.700          45.000  
   1120399.000 3    873049.454 1  24710103.662    24710101.350    24710103.027  
        23.000          11.000  
 06  1  1  4 33  0.0000000  0  6G09G14G15G18G21G22
 -21927534.883 7 -17086384.708 7  20499441.768    20499439.094    20499440.786  
        47.900          42.000  
  -5625194.544 5  -4383266.165 4  22672856.676    22672853.776    22672855.761  
        33.800          28.800  
 -19970078.806 7 -15561097.946 6  20781361.743    20781359.556    20781360.424  
        44.000          41.200  
 -17103853.032 7 -13327675.227 7  20424502.137    20424498.593    20424501.140  
        44.600          46.500  
 -13320862.819 5 -10379888.039 4  22363246.296    22363244.199    22363246.066  
        34.900          26.200  
 -19974278.427 7 -15564369.976 7  20917432.485    20917428.035    20917431.863  
        46.700          45.200  
 06  1  1  4 34  0.0000000  0  6G09G14G15G18G21G22
 -21912566.699 8 -17074721.180 7  20502290.134    20502287.463    20502289.232  
        48.100          42.100  
  -5784258.985 5  -4507212.426 4  22642587.264    22642585.010    22642586.243  
        32.700          29.000  
 -19838571.016 7 -15458624.364 6  20806386.129    20806384.685    20806385.274  
        44.000          41.100  
 -17065950.852 7 -13298141.059 7  20431714.698    20431711.131    20431713.715  
        44.700          46.400  
 -13113680.321 5 -10218447.189 4  22402671.874    22402669.622    22402671.336  
        33.500          25.900  
 -20069363.028 7 -15638461.864 7  20899338.684    20899334.018    20899338.011  
        46.900          45.300  
 06  1  1  4 35  0.0000000  0  6G09G14G15G18G21G22
 -21894823.897 7 -17060895.609 7  20505666.117    20505663.914    20505665.323  
        47.900          42.100  
  -5942412.942 5  -4630449.217 5  22612492.278    22612489.233    22612491.246  
        34.800          30.100  
 -19704922.757 7 -15354482.893 6  20831819.364    20831816.973    20831817.967  
        43.700          40.600  
 -17026454.077 7 -13267364.352 7  20439230.416    20439227.232    20439229.614  
        44.600          46.400  
 -12905355.125 5 -10056115.954 4  22442314.726    22442312.846    22442314.364  
        33.100          26.200  
 -20163281.515 7 -15711645.100 7  20881466.362    20881461.829    20881465.757  
        46.800          45.300  
 06  1  1  4 36  0.0000000  0  6G09G14G15G18G21G22
 -21874311.259 7 -17044911.727 6  20509569.489    20509567.118    20509568.747  
        47.900          41.900  
  -6099651.192 5  -4752972.466 4  22582570.108    22582567.777    22582569.209  
        33.200          29.700  
 -19569151.333 7 -15248687.005 6  20857654.763    20857653.568    20857654.069  
        44.000          40.600  
 -16985360.180 7 -13235343.137 7  20447050.355    20447047.094    20447049.392  
        44.800          46.400  
 -12695909.481 5  -9892911.600 4  22482171.153    22482169.063    22482170.763  
        33.000          27.100  
 -20256023.321 7 -15783911.439 7  20863818.138    20863813.643    20863817.616  
        46.900          45.400  
 06  1  1  4 37  0.0000000  0  6G09G14G15G18G21G22
 -21851034.179 7 -17026773.735 7  20513999.004    20513996.732    20513998.192  
        47.600          42.000  
  -6255968.877 5  -4874778.425 4  22552824.181    22552821.366    22552823.142  
        34.400          29.700  
 -19431273.978 7 -15141250.162 6  20883893.031    20883890.857    20883891.728  
        43.500          40.500  
 -16942665.083 7 -13202074.235 7  20455175.070    20455171.776    20455174.234  
        44.900          46.200  
 -12485365.769 5  -9728851.645 4  22522237.225    22522234.395    22522236.328  
        33.900          26.200  
 -20347576.841 7 -15855251.843 7  20846396.025    20846391.644    20846395.418  
        46.600          45.700  
 06  1  1  4 38  0.0000000  0  6G09G14G15G18G21G22
 -21824997.487 7 -17006485.394 7  20518953.728    20518951.290    20518952.874  
        47.600          42.000  
  -6411362.143 5  -4995864.024 5  22523253.962    22523251.034    22523253.025  
        34.300          30.400  
 -19291308.313 7 -15032186.042 6  20910526.811    20910525.500    20910525.986  
        43.500          40.500  
 -16898366.612 7 -13167555.956 7  20463604.756    20463601.485    20463603.797  
        44.900          46.200  
 -12273746.784 5  -9563953.799 4  22562508.252    22562503.778    22562506.458  
        32.300          24.200  
 -20437931.802 7 -15925658.299 7  20829202.157    20829197.508    20829201.558  
        46.700          45.500  
 06  1  1  4 39  0.0000000  0  6G09G14G15G18G21G22
 -21796208.196 7 -16984052.179 7  20524432.030    20524429.787    20524431.248  
        47.800          42.100  
  -6565826.005 5  -5116225.424 4  22493859.560    22493857.064    22493858.583  
        33.200          29.000  
 -19149272.663 7 -14921508.942 6  20937556.232    20937553.941    20937554.909  
        43.600          39.800  
 -16852462.452 7 -13131786.481 7  20472339.935    20472336.774    20472339.033  
        45.100          46.100  
 -12061075.179 5  -9398235.759 4  22602977.754    22602974.165    22602976.306  
        32.400          24.600  
 -20527077.013 7 -15995122.101 7  20812238.568    20812233.861    20812237.890  
        46.900          45.700  
 06  1  1  4 40  0.0000000  0  6G09G14G15G18G21G22
 -21764673.879 7 -16959479.975 6  20530432.822    20530430.655    20530432.052  
        47.900          41.900  
  -6719355.962 5  -5235859.136 5  22464644.180    22464641.705    22464643.309  
        34.700          30.200  
 -19005184.814 7 -14809232.752 6  20964974.874    20964972.992    20964973.755  
        43.600          39.800  
 -16804948.663 7 -13094762.750 7  20481381.584    20481378.276    20481380.708  
        45.000          45.700  
 -11847373.096 5  -9231714.680 4  22643642.821    22643640.212    22643642.220  
        32.300          24.200  
 -20615001.584 7 -16063634.755 7  20795507.000    20795502.260    20795506.321  
        46.700          45.900  
 06  1  1  4 41  0.0000000  0  6G09G14G15G18G21G22
 -21730399.380 7 -16932772.569 7  20536955.163    20536952.736    20536954.231  
        47.700          42.000  
  -6871946.926 5  -5354761.130 4  22435607.095    22435604.242    22435606.187  
        34.400          29.900  
 -18859063.773 7 -14695372.258 6  20992780.319    20992778.940    20992779.483  
        43.100          39.700  
 -16755823.819 7 -13056483.656 7  20490729.896    20490726.411    20490728.937  
        45.200          45.400  
 -11632663.952 5  -9064408.879 4  22684501.247    22684498.419    22684500.130  
        32.100          25.600  
 -20701694.555 7 -16131187.712 7  20779009.723    20779005.237    20779009.151  
        46.700          46.000  
 06  1  1  4 42  0.0000000  0  6G09G14G15G18G21G22
 -21693393.622 7 -16903936.905 7  20543997.035    20543994.909    20543996.139  
        47.400          42.100  
  -7023595.271 5  -5472928.634 5  22406748.894    22406746.781    22406748.130  
        34.700          30.800  
 -18710928.228 7 -14579941.984 6  21020970.475    21020968.338    21020969.079  
        43.100          40.000  
 -16705085.857 7 -13016947.585 7  20500384.859    20500381.571    20500383.953  
        45.200          45.400  
 -11416971.217 5  -8896336.671 4  22725546.389    22725543.395    22725545.171  
        31.000          25.600  
 -20787144.922 7 -16197772.411 7  20762749.030    20762744.518    20762748.425  
        46.600          46.100  
 06  1  1  4 43  0.0000000  0  6G09G14G15G18G21G22
 -21653664.353 7 -16872979.034 6  20551557.193    20551554.944    20551556.381  
        47.600          41.900  
  -7174296.549 6  -5590358.169 5  22378072.022    22378069.020    22378071.226  
        36.300          30.800  
 -18560797.508 7 -14462957.073 6  21049538.540    21049537.381    21049537.679  
        42.600          39.300  
 -16652731.956 7 -12976152.347 7  20510347.665    20510344.121    20510346.719  
        45.300          45.100  
 -11200316.792 5  -8727515.120 4  22766774.914    22766771.165    22766773.668  
        30.800          24.200  
 -20871341.773 7 -16263380.344 7  20746726.975    20746722.475    20746726.331  
        46.700          46.400  
 06  1  1  4 44  0.0000000  0  6G09G14G15G18G21G22
 -21611220.281 7 -16839905.724 6  20559634.089    20559631.766    20559633.210  
        47.500          41.800  
  -7324045.634 6  -5707045.720 5  22349575.636    22349572.528    22349574.656  
        36.300          30.400  
 -18408690.833 7 -14344432.454 6  21078483.383    21078482.409    21078482.614  
        42.700          39.600  
 -16598759.999 7 -12934096.276 7  20520617.988    20520614.651    20520617.133  
        45.600          44.900  
 -10982723.721 5  -8557962.146 3  22808180.374    22808177.877    22808179.609  
        31.300          23.400  
 -20954274.362 7 -16328003.139 7  20730945.476    20730940.801    20730944.817  
        46.700          46.400  
 06  1  1  4 45  0.0000000  0  6G09G14G15G18G21G22
 -21566069.823 7 -16804723.548 6  20568225.959    20568223.638    20568225.051  
        47.600          41.800  
  -7472839.544 5  -5822988.990 5  22321260.867    22321258.274    22321259.756  
        35.600          31.800  
 -18254627.659 7 -14224383.262 6  21107800.528    21107799.560    21107799.993  
        42.700          38.900  
 -16543168.292 7 -12890778.065 7  20531196.839    20531193.391    20531195.909  
        45.500          44.900  
 -10764215.528 4  -8387696.042 3  22849761.881    22849758.290    22849760.665  
        29.500          20.500  
 -21035931.784 7 -16391632.294 7  20715406.729    20715401.966    20715406.073  
        47.000          46.500  
 06  1  1  4 46  0.0000000  0  7G05G09G14G15G18G21G22
   -198246.502 2   -154477.710 2  24430938.533    24430940.214    24430938.755  
        12.600          16.100  
 -21518223.216 7 -16767440.468 6  20577330.921    20577328.453    20577330.043  
        47.600          41.500  
  -7620673.520 5  -5938184.263 5  22293129.088    22293126.216    22293128.144  
        35.800          31.100  
 -18098627.658 7 -14102824.855 6  21137486.761    21137485.276    21137485.769  
        42.200          38.600  
 -16485954.627 7 -12846195.995 7  20542084.192    20542080.838    20542083.327  
        45.700          44.800  
 -10544814.056 5  -8216733.919 3  22891512.252    22891509.025    22891511.327  
        30.200          22.100  
 -21116302.562 7 -16454258.872 7  20700112.480    20700107.889    20700111.786  
        46.500          46.600  
 06  1  1  4 47  0.0000000  0  7G05G09G14G15G18G21G22
   -383751.051 4   -299026.593 2  24395640.961    24395640.307    24395639.966  
        24.200          17.000  
 -21467690.040 7 -16728063.968 6  20586946.965    20586944.565    20586946.124  
        47.600          41.300  
  -7767543.477 6  -6052628.330 5  22265180.607    22265177.656    22265179.616  
        36.400          31.100  
 -17940711.479 7 -13979773.280 6  21167537.814    21167535.697    21167536.534  
        42.300          38.400  
 -16427117.562 7 -12800348.934 7  20553280.589    20553277.187    20553279.612  
        45.600          44.600  
 -10324543.926 4  -8045094.870 3  22933428.628    22933425.732    22933427.432  
        28.100          23.800  
 -21195376.110 7 -16515874.628 7  20685065.243    20685060.693    20685064.644  
        46.700          46.700  
 06  1  1  4 48  0.0000000  0  7G05G09G14G15G18G21G22
   -568890.817 3   -443291.304 2  24360409.094    24360409.060    24360408.359  
        21.100          15.100  
 -21414479.901 7 -16686601.516 6  20597072.539    20597070.131    20597071.690  
        47.600          41.100  
  -7913445.155 6  -6166317.910 5  22237416.308    22237413.666    22237415.335  
        36.500          32.100  
 -17780899.428 6 -13855244.458 6  21197949.110    21197947.074    21197947.686  
        41.800          38.600  
 -16366656.888 7 -12753236.720 7  20564785.837    20564782.342    20564784.888  
        45.500          44.300  
 -10103426.950 4  -7872796.035 4  22975506.411    22975502.669    22975504.754  
        29.200          24.900  
 -21273141.705 7 -16576471.192 7  20670266.848    20670262.431    20670266.234  
        46.700          47.000  
 06  1  1  4 49  0.0000000  0  7G05G09G14G15G18G21G22
   -753640.821 2   -587252.175 2  24325252.629    24325251.504    24325251.696  
        17.000          12.600  
 -21358604.431 7 -16643062.179 6  20607705.390    20607702.852    20607704.519  
        47.600          41.000  
  -8058374.963 6  -6279250.183 5  22209837.311    22209834.316    22209836.214  
        36.500          32.100  
 -17619211.834 6 -13729254.153 6  21228717.661    21228715.196    21228716.151  
        41.900          38.400  
 -16304569.464 7 -12704856.914 7  20576600.718    20576597.408    20576599.688  
        45.600          44.400  
  -9881486.428 4  -7699855.440 3  23017739.189    23017736.854    23017738.489  
        29.700          23.400  
 -21349587.923 7 -16636039.668 7  20655719.748    20655715.190    20655719.153  
        46.700          47.200  
 06  1  1  4 50  0.0000000  0  7G05G09G14G15G18G21G22
   -937976.035 3   -730889.872 3  24290175.460    24290174.188    24290173.597  
        21.100          22.100  
 -21300074.049 7 -16597454.083 6  20618843.104    20618840.876    20618842.326  
        47.500          41.100  
  -8202328.818 6  -6391421.987 5  22182443.482    22182440.546    22182442.552  
        36.600          31.800  
 -17455669.260 6 -13601818.427 6  21259838.222    21259836.359    21259836.867  
        41.500          38.000  
 -16240854.381 7 -12655208.801 7  20588725.444    20588721.927    20588724.372  
        45.600          44.400  
  -9658745.535 4  -7526291.181 3  23060125.692    23060122.675    23060124.507  
        28.100          21.100  
 -21424704.461 7 -16694572.034 7  20641425.466    20641420.975    20641424.867  
        46.800          47.200  
 06  1  1  4 51  0.0000000  0  7G05G09G14G15G18G21G22
  -1121871.401 3   -874184.830    24255180.529    24255179.420    24255179.540  
        20.500           3.000  
 -21238901.045 7 -16549786.806 6  20630484.079    20630481.782    20630483.257  
        47.600          41.200  
  -8345303.163 6  -6502830.522 5  22155236.594    22155233.696    22155235.567  
        37.500          32.300  
 -17290292.841 6 -13472953.720 6  21291308.575    21291306.566    21291307.180  
        41.300          38.000  
 -16175511.173 7 -12604292.022 7  20601159.653    20601156.297    20601158.665  
        45.600          44.000  
  -9435227.143 4  -7352121.067 3  23102659.592    23102656.990    23102658.449  
        26.800          22.100  
 -21498480.014 7 -16752059.473 7  20627386.486    20627382.066    20627385.888  
        46.900          47.300  
 06  1  1  4 52  0.0000000  0  7G05G09G14G15G18G21G22
  -1305301.629 3  -1017117.392    24220274.304    24220273.255    24220273.473  
        23.800           3.000  
 -21175096.874 7 -16500069.265 6  20642625.531    20642623.373    20642624.713  
        47.600          41.300  
  -8487293.682 6  -6613472.444 5  22128216.280    22128213.642    22128215.433  
        37.600          33.000  
 -17123103.821 6 -13342676.585 6  21323123.626    21323121.647    21323122.228  
        41.100          37.800  
 -16108538.847 7 -12552105.798 7  20613904.013    20613900.663    20613903.081  
        45.700          43.900  
  -9210953.998 4  -7177362.838 2  23145336.993    23145334.682    23145336.886  
        29.000          17.800  
 -21570903.614 7 -16808493.451 7  20613604.826    20613600.101    20613604.213  
        47.100          47.300  
 06  1  1  4 53  0.0000000  0  7G05G09G14G15G18G21G22
  -1488241.684 3  -1159668.018 2  24185461.566    24185461.593    24185460.968  
        23.800          17.800  
 -21108673.942 7 -16448311.133 6  20655265.411    20655263.148    20655264.639  
        47.500          41.200  
  -8628296.962 6  -6723345.087 5  22101384.611    22101381.586    22101383.631  
        37.700          32.400  
 -16954123.532 6 -13211003.703 6  21355279.259    21355277.520    21355277.991  
        40.900          37.200  
 -16039936.384 7 -12498649.339 7  20626958.523    20626955.427    20626957.603  
        45.500          44.000  
  -8985949.725 4  -7002034.867 2  23188155.499    23188151.696    23188153.996  
        27.900          16.100  
 -21641964.586 7 -16863865.633 7  20600082.464    20600077.707    20600081.793  
        47.300          47.500  
 06  1  1  4 54  0.0000000  0  7G05G09G14G15G18G21G22
  -1670666.222 3  -1301816.908 3  24150747.634    24150747.070    24150746.841  
        21.100          19.900  
 -21039645.189 7 -16394522.494 6  20668401.234    20668398.879    20668400.347  
        47.300          41.000  
  -8768309.578 6  -6832445.797 5  22074741.005    22074738.166    22074740.006  
        37.700          33.200  
 -16783373.580 6 -13077951.796 6  21387771.729    21387770.245    21387770.577  
        40.700          37.600  
 -15969703.307 7 -12443922.278 7  20640323.881    20640320.342    20640322.735  
        45.600          43.800  
  -8760237.283 4  -6826155.158 3  23231105.920    23231103.786    23231105.420  
        27.100          21.600  
 -21711652.168 7 -16918167.646 7  20586821.362    20586816.693    20586820.696  
        47.300          47.800  
 06  1  1  4 55  0.0000000  0  7G05G09G14G15G18G21G22
  -1852549.907 3  -1443544.399 3  24116136.673    24116135.378    24116135.406  
        21.100          19.300  
 -20968023.350 7 -16338713.269 6  20682030.098    20682028.113    20682029.376  
        47.200          41.000  
  -8907327.256 6  -6940771.211 5  22048286.938    22048283.673    22048285.869  
        38.000          33.200  
 -16610876.184 6 -12943538.298 6  21420596.829    21420595.356    21420595.755  
        40.700          37.200  
 -15897839.096 7 -12387924.201 7  20653999.096    20653995.618    20653998.124  
        46.200          43.600  
  -8533839.793 4  -6649741.597 3  23274188.955    23274186.048    23274187.588  
        25.300          21.600  
 -21779955.459 7 -16971390.986 7  20573823.605    20573818.933    20573823.001  
        47.300          47.900  
 06  1  1  4 56  0.0000000  0  7G05G09G14G15G18G21G22
  -2033867.499 2  -1584830.704 2  24081633.739    24081632.119    24081632.161  
        17.800          17.000  
 -20893822.065 7 -16280894.081 6  20696150.230    20696148.041    20696149.422  
        47.200          40.700  
  -9045346.887 6  -7048318.959 5  22022022.300    22022019.624    22022021.424  
        38.100          33.800  
 -16436652.980 6 -12807780.035 6  21453750.673    21453749.229    21453749.644  
        40.900          37.400  
 -15824343.696 7 -12330655.065 7  20667984.751    20667981.260    20667983.766  
        46.100          43.300  
  -8306779.829 4  -6472811.828 3  23317396.973    23317394.190    23317395.699  
        28.100          23.400  
 -21846863.669 7 -17023527.254 8  20561091.347    20561086.767    20561090.782  
        47.400          48.000  
 06  1  1  4 57  0.0000000  0  7G05G09G14G15G18G21G22
  -2214593.477 4  -1725656.013 3  24047242.543    24047241.029    24047240.842  
        25.300          22.100  
 -20817055.882 7 -16221076.274 6  20710758.423    20710756.108    20710757.647  
        47.400          40.800  
  -9182364.665 6  -7155086.026 5  21995948.718    21995945.742    21995947.762  
        38.400          33.400  
 -16260725.921 6 -12670694.019 5  21487228.349    21487226.659    21487227.260  
        40.100          35.800  
 -15749216.327 7 -12272114.256 7  20682280.760    20682277.595    20682279.879  
        46.100          43.200  
  -8079081.149 4  -6295384.410 3  23360726.015    23360723.427    23360725.263  
        25.300          19.300  
 -21912366.301 7 -17074568.270 8  20548626.655    20548622.082    20548626.026  
        47.300          48.200  
 06  1  1  4 58  0.0000000  0  7G05G09G14G15G18G21G22
  -2394702.490 4  -1866000.607 3  24012968.889    24012966.867    24012967.425  
        25.900          18.600  
 -20737739.152 7 -16159271.027 6  20725852.078    20725849.643    20725851.171  
        47.500          40.600  
  -9318377.661 6  -7261070.140 5  21970066.756    21970063.647    21970065.563  
        38.900          34.400  
 -16083117.301 6 -12532297.679 6  21521026.368    21521024.769    21521025.271  
        40.200          36.400  
 -15672457.644 7 -12212302.302 7  20696887.796    20696884.287    20696886.652  
        45.900          43.100  
  -7850766.724 4  -6117477.115 3  23404173.017    23404170.249    23404171.947  
        24.900          19.300  
 -21976452.407 7 -17124505.495 8  20536431.319    20536426.752    20536430.716  
        47.100          48.200  
 06  1  1  4 59  0.0000000  0  7G05G09G14G15G18G21G22
  -2574169.025 4  -2005844.545 3  23978817.275    23978816.256    23978815.941  
        24.900          22.600  
 -20655885.889 7 -16095489.258 6  20741427.965    20741425.637    20741427.287  
        47.400          40.200  
  -9453382.175 6  -7366268.413 5  21944376.091    21944372.662    21944374.950  
        39.500          33.500  
 -15903850.448 6 -12392609.255 5  21555139.366    21555137.875    21555138.428  
        39.800          35.600  
 -15594067.828 7 -12151219.338 7  20711804.829    20711801.197    20711803.769  
        46.100          42.600  
  -7621859.750 4  -5939108.126 2  23447732.683    23447729.936    23447731.657  
        27.100          15.100  
 -22039111.101 7 -17173330.451 8  20524507.880    20524503.382    20524507.139  
        46.900          48.400  
 06  1  1  5  0  0.0000000  0  7G05G09G14G15G18G21G22
  -2752967.591 4  -2145167.988 3  23944792.305    23944792.142    23944791.099  
        25.300          20.500  
 -20571511.569 7 -16029743.033 6  20757483.945    20757481.706    20757483.147  
        47.200          40.400  
  -9587373.999 6  -7470677.580 5  21918878.008    21918875.063    21918876.860  
        39.300          34.400  
 -15722947.359 6 -12251645.860 5  21589564.833    21589562.928    21589563.401  
        39.700          35.900  
 -15514047.009 7 -12088865.454 7  20727032.308    20727028.855    20727031.224  
        46.200          42.600  
  -7392382.244 4  -5760294.555 2  23491401.315    23491398.454    23491399.827  
        26.500          17.000  
 -22100332.121 7 -17221035.138 8  20512857.709    20512853.254    20512857.155  
        47.000          48.500  
 06  1  1  5  1  0.0000000  0  7G05G09G14G15G18G21G22
  -2931072.760 4  -2283951.193 3  23910900.545    23910899.331    23910899.331  
        25.900          18.600  
 -20484631.248 7 -15962044.079 6  20774016.856    20774014.559    20774015.956  
        47.100          40.200  
  -9720351.137 6  -7574296.070 5  21893573.295    21893570.378    21893572.316  
        39.700          34.900  
 -15540430.765 6 -12109425.177 5  21624295.973    21624294.586    21624295.122  
        39.700          35.200  
 -15432395.731 7 -12025241.086 7  20742570.203    20742566.604    20742569.106  
        46.400          42.700  
  -7162358.073 4  -5581055.022 2  23535172.727    23535170.282    23535171.685  
        25.300          17.800  
 -22160105.310 7 -17267611.651 8  20501483.505    20501478.770    20501482.841  
        47.100          48.600  
 06  1  1  5  2  0.0000000  0  7G05G09G14G15G18G21G22
  -3108458.789 4  -2422173.969 3  23877143.437    23877144.048    23877142.937  
        25.300          20.500  
 -20395261.088 7 -15892404.990 6  20791023.286    20791020.985    20791022.493  
        46.800          40.300  
  -9852309.628 6  -7677120.828 5  21868462.184    21868459.349    21868461.307  
        39.300          34.800  
 -15356323.980 6 -11965965.405 5  21659330.989    21659329.035    21659329.711  
        39.200          35.200  
 -15349114.234 7 -11960346.421 7  20758417.819    20758414.612    20758416.868  
        46.300          42.500  
  -6931810.107 4  -5401407.336 3  23579045.041    23579042.068    23579044.069  
        26.800          19.300  
 -22218419.336 7 -17313051.149 8  20490386.526    20490382.009    20490385.930  
        47.300          48.800  
 06  1  1  5  3  0.0000000  0  7G05G09G14G15G18G21G22
  -3285100.348 4  -2559816.618 2  23843530.322    23843529.181    23843529.492  
        25.600          17.800  
 -20303417.073 7 -15820838.226 6  20808500.556    20808498.260    20808499.790  
        47.000          39.900  
  -9983246.513 6  -7779149.537 5  21843545.744    21843542.871    21843544.708  
        39.600          35.400  
 -15170649.467 6 -11821284.041 5  21694662.453    21694661.618    21694661.965  
        38.700          34.300  
 -15264204.094 7 -11894182.682 7  20774575.395    20774572.407    20774574.576  
        46.300          42.400  
  -6700761.190 3  -5221369.327 3  23623012.801    23623010.077    23623011.396  
        23.800          20.500  
 -22275264.233 7 -17357345.870 8  20479569.606    20479564.825    20479568.915  
        47.400          48.900  
 06  1  1  5  4  0.0000000  0  7G05G09G14G15G18G21G22
  -3460971.891 4  -2696859.299 3  23810064.352    23810062.219    23810062.506  
        25.300          18.600  
 -20209115.768 7 -15747356.692 6  20826445.709    20826443.356    20826444.798  
        46.700          40.000  
 -10113158.848 6  -7880379.893 5  21818824.020    21818821.325    21818823.126  
        39.700          35.500  
 -14983430.841 6 -11675399.417 5  21730290.965    21730288.045    21730289.301  
        38.400          34.600  
 -15177666.036 7 -11826750.438 7  20791042.822    20791040.169    20791042.233  
        46.100          42.100  
  -6469234.282 4  -5040958.858 3  23667070.370    23667068.047    23667069.470  
        24.600          20.500  
 -22330629.770 7 -17400487.847 8  20469033.494    20469029.132    20469032.952  
        47.400          49.000  
 06  1  1  5  5  0.0000000  0  7G05G09G14G15G18G21G22
  -3636047.956 3  -2833282.057 3  23776747.765    23776746.241    23776746.207  
        22.600          19.300  
 -20112372.684 7 -15671972.465 6  20844855.134    20844853.028    20844854.361  
        46.600          39.800  
 -10242043.014 6  -7980809.085 5  21794298.718    21794295.631    21794297.632  
        40.500          35.700  
 -14794691.383 6 -11528329.761 5  21766204.713    21766204.212    21766204.397  
        38.400          34.500  
 -15089500.991 7 -11758050.412 6  20807820.591    20807817.364    20807819.691  
        46.200          41.900  
  -6237251.776 3  -4860193.410 3  23711214.209    23711213.099    23711213.792  
        23.800          18.600  
 -22384504.871 7 -17442468.446 8  20458781.559    20458777.003    20458780.949  
        47.400          49.100  
 06  1  1  5  6  0.0000000  0  7G05G09G14G15G18G21G22
  -3810302.639 4  -2969064.836 3  23743588.031    23743586.532    23743586.737  
        26.800          19.900  
 -20013206.783 7 -15594700.331 6  20863725.873    20863723.639    20863725.025  
        46.800          40.000  
 -10369896.141 6  -8080434.888 5  21769968.914    21769965.715    21769967.895  
        40.300          35.700  
 -14604454.373 6 -11380093.164 5  21802406.667    21802405.164    21802405.469  
        37.400          34.500  
 -14999710.805 7 -11688084.046 6  20824906.709    20824903.799    20824905.882  
        46.100          41.600  
  -6004837.163 4  -4679091.193 2  23755442.106    23755439.866    23755441.288  
        24.200          13.900  
 -22436879.976 7 -17483280.215 8  20448814.961    20448810.415    20448814.305  
        47.500          49.300  
 06  1  1  5  7  0.0000000  0  7G05G09G14G15G18G21G22
  -3983710.744 4  -3104187.912 4  23710589.186    23710588.674    23710588.333  
        26.200          24.600  
 -19911635.004 7 -15515553.488 6  20883054.342    20883052.087    20883053.545  
        46.600          39.700  
 -10496715.216 6  -8179254.911 6  21745835.930    21745832.945    21745834.998  
        41.000          36.000  
 -14412743.580 6 -11230708.132 5  21838888.097    21838886.585    21838886.915  
        38.300          33.900  
 -14908296.081 7 -11616851.803 6  20842302.752    20842299.478    20842301.713  
        46.000          41.700  
  -5772013.117 3  -4497669.921 2  23799745.862    23799744.942    23799745.466  
        22.100          12.600  
 -22487744.462 7 -17522914.880 8  20439135.825    20439131.185    20439135.181  
        47.500          49.400  
