     2.10           OBSERVATION DATA    G (GPS)             RINEX VERSION / TYPE
teqc  2005Sep1                          20060101 01:04:01UTCPGM / RUN BY / DATE
Linux 2.4.20-8|Pentium IV|gcc|Linux|486/DX+                 COMMENT
ALGO CACS-ACP   883160   ALGONQUIN PARK  ONT  CANADA        MARKER NAME
40104M002                                                   MARKER NUMBER
-Unknown-           GEOD. SURVEY, NATURAL RESOURCES CANADA  OBSERVER / AGENCY
1103                AOA BENCHMARK ACT   3.3.32.2N           REC # / TYPE / VERS
386                 AOAD/M_T        NONE                    ANT # / TYPE
   918129.4000 -4346071.2000  4561977.8000                  APPROX POSITION XYZ
        0.1000        0.0000        0.0000                  ANTENNA: DELTA H/E/N
     1     1                                                WAVELENGTH FACT L1/2
     7    L1    L2    C1    P2    P1    S1    S2            # / TYPES OF OBSERV
    30.0000                                                 INTERVAL
L1 PHASE CENTRE  .110m ABOVE ARP                            COMMENT
L2 PHASE CENTRE  .128m ABOVE ARP                            COMMENT
where ARP is the Antenna Reference Point for HI measurement COMMENT
    P1 =    P1  TurboRogue; =    Y1  Benchmark              COMMENT
    L1 = L1(CA)                                             COMMENT
    P2 =    P2  TurboRogue; =    Y2  Benchmark              COMMENT
    L2 = L2(P2) TurboRogue; = L2(Y2) Benchmark              COMMENT
 SNR is mapped to RINEX snr flag value [0-9]                COMMENT
  L1 & L2: min(max(int(snr_dBHz/6), 0), 9)                  COMMENT
  2006     1     1     0     0    0.0000000     GPS         TIME OF FIRST OBS
                                                            END OF HEADER
 06  1  1  0  0  0.0000000  0  6G29G 6G10G 2G26G21
 -13756450.979 6 -10719302.137 5  21703413.911    21703411.878    21703413.070
        38.500          34.700
 -17872031.175 7 -13926243.585 6  21407579.072    21407577.646    21407578.248
        44.900          40.500
 -22878236.630 7 -17827175.316 7  20160590.275    20160588.580    20160589.169
        45.900          46.400
 -14648524.249 6 -11414415.680 6  22020494.612    22020490.815    22020493.909
        41.600          36.200
  -9857646.978 5  -7681275.854 4  22621054.862    22621052.894    22621053.626
        33.900          29.900
  -3121997.571 4  -2432722.223 3  24304026.964    24304026.203    24304026.414
        24.900          21.100
 06  1  1  0  0 30.0000000  0  6G29G 6G10G 2G26G21
 -13839213.863 6 -10783792.680 5  21687663.837    21687662.711    21687663.436
        38.100          35.300
 -17905207.516 7 -13952095.262 6  21401265.757    21401264.494    21401264.996
        45.200          40.700
 -22853389.542 7 -17807813.942 7  20165318.442    20165316.880    20165317.325
        45.900          46.300
 -14568238.461 6 -11351855.339 6  22035772.591    22035768.646    22035771.836
        41.800          36.100
  -9973621.298 5  -7771645.409 4  22598985.129    22598983.347    22598983.932
        33.400          29.500
  -3217346.018 4  -2507019.633 2  24285883.991    24285881.504    24285882.916
        26.500          16.100
 06  1  1  0  1  0.0000000  0  6G29G 6G10G 2G26G21
 -13921563.744 6 -10847961.367 5  21671993.345    21671992.162    21671992.929
        38.400          35.900
 -17937852.343 7 -13977532.775 6  21395053.499    21395052.183    21395052.696
        45.000          40.600
 -22828113.228 7 -17788118.102 7  20170128.185    20170126.808    20170127.158
        45.900          46.500
 -14487690.455 6 -11289090.664 6  22051100.591    22051096.520    22051099.690
        41.900          36.400
 -10089330.554 5  -7861808.397 4  22576966.333    22576964.550    22576965.249
        33.500          29.500
  -3312682.806 4  -2581307.978 2  24267742.385    24267739.532    24267741.217
        27.900          17.800
 06  1  1  0  1 30.0000000  0  6G29G 6G10G 2G26G21
 -14003498.154 6 -10911806.343 5  21656402.840    21656400.463    21656401.659
        38.600          35.900
 -17969964.255 7 -14002555.028 6  21388942.929    21388941.507    21388942.116
        45.100          40.600
 -22802409.124 7 -17768088.925 7  20175019.700    20175018.137    20175018.526
        45.800          46.500
 -14406881.026 6 -11226122.290 6  22066477.728    22066474.013    22066477.135
        41.900          36.500
 -10204771.405 5  -7951762.264 4  22554997.218    22554996.788    22554997.288
        33.800          29.700
  -3408006.992 4  -2655586.509 3  24249602.771    24249599.863    24249601.555
        28.100          18.600
 06  1  1  0  2  0.0000000  0  6G29G 6G10G 2G26G21
 -14085014.784 6 -10975325.775 5  21640890.024    21640888.245    21640889.395
        39.000          35.700
 -18001542.057 7 -14027161.091 6  21382933.828    21382932.544    21382933.136
        45.400          40.700
 -22776278.674 7 -17747727.538 7  20179992.203    20179990.658    20179991.010
        45.800          46.700
 -14325811.437 7 -11162951.188 6  22081904.931    22081901.099    22081904.126
        42.000          36.500
 -10319940.375 5  -8041504.293 5  22533080.420    22533080.939    22533081.257
        33.000          30.100
  -3503317.657 4  -2729854.513 1  24231465.427    24231462.564    24231464.222
        29.000          11.000
 06  1  1  0  2 30.0000000  0  6G29G 6G10G 2G26G21
 -14166110.860 6 -11038517.498 5  21625458.137    21625456.078    21625457.273
        39.000          35.500
 -18032584.360 7 -14051349.883 6  21377026.881    21377025.332    21377026.113
        45.400          40.600
 -22749723.223 7 -17727034.972 7  20185045.462    20185044.045    20185044.327
        45.700          46.600
 -14244482.079 6 -11099577.672 6  22097381.344    22097377.627    22097380.699
        41.700          36.500
 -10434834.042 5  -8131031.773 4  22511217.046    22511217.169    22511217.780
        34.700          29.700
  -3598613.825 4  -2804111.225 2  24213330.115    24213328.461    24213329.184
        28.100          16.100
 06  1  1  0  3  0.0000000  0  6G29G 6G10G 2G26G21
 -14246784.009 6 -11101379.661 6  21610106.730    21610104.615    21610105.657
        38.700          36.000
 -18063089.661 7 -14075120.231 6  21371222.031    21371220.176    21371221.182
        45.600          40.600
 -22722744.282 7 -17706012.416 7  20190179.489    20190177.964    20190178.274
        45.600          46.600
 -14162893.750 6 -11036002.366 6  22112907.275    22112903.440    22112906.538
        41.300          36.300
 -10549449.179 5  -8220342.242 5  22489407.194    22489406.581    22489407.287
        34.700          30.100
  -3693894.344 4  -2878355.737 3  24195199.879    24195197.148    24195198.673
        28.100          20.500
 06  1  1  0  3 30.0000000  0  6G29G 6G10G 2G26G21
 -14327031.622 6 -11163910.242 6  21594835.991    21594833.954    21594835.134
        39.600          36.300
 -18093057.054 7 -14098471.432 6  21365519.125    21365517.603    21365518.353
        45.400          40.600
 -22695343.597 7 -17684661.228 7  20195393.477    20195392.065    20195392.326
        45.800          46.600
 -14081047.373 6 -10972225.965 6  22128481.864    22128478.146    22128481.174
        41.400          36.300
 -10663782.299 5  -8309432.934 5  22467650.218    22467650.062    22467650.142
        33.800          31.000
  -3789158.814 4  -2952587.743 3  24177071.973    24177069.215    24177070.863
        27.600          21.600
 06  1  1  0  4  0.0000000  0  6G29G 6G10G 2G26G21
 -14406851.377 6 -11226107.420 6  21579646.658    21579644.690    21579645.963
        39.600          36.200
 -18122485.107 7 -14121402.369 6  21359918.909    21359917.643    21359918.158
        45.000          40.700
 -22667522.363 7 -17662982.344 7  20200687.813    20200686.182    20200686.579
        45.800          46.400
 -13998943.688 6 -10908249.076 6  22144106.163    22144102.028    22144105.040
        41.000          36.200
 -10777830.086 5  -8398301.290 5  22445948.184    22445947.306    22445947.673
        33.100          30.800
  -3884405.907 4  -3026806.166 3  24158945.784    24158943.881    24158945.014
        25.900          22.100
 06  1  1  0  4 30.0000000  0  6G29G 6G10G 2G26G21
 -14486240.688 6 -11287969.193 6  21564539.158    21564537.227    21564538.515
        40.000          36.200
 -18151372.568 7 -14143912.059 6  21354421.968    21354420.619    21354421.098
        45.000          41.000
 -22639282.042 7 -17640976.897 7  20206061.738    20206060.083    20206060.561
        46.000          46.300
 -13916583.921 6 -10844072.650 5  22159778.142    22159774.503    22159777.595
        41.300          35.500
 -10891589.168 5  -8486944.698 4  22424300.873    22424299.386    22424300.265
        34.400          29.700
  -3979634.706 4  -3101010.362 3  24140825.154    24140822.065    24140823.566
        24.200          23.400
 06  1  1  0  5  0.0000000  0  6G29G 6G10G 2G26G21
 -14565196.917 6 -11349493.499 6  21549514.023    21549512.627    21549513.556
        39.800          36.800
 -18179718.049 7 -14165999.432 6  21349028.099    21349026.635    21349027.274
        45.200          40.800
 -22610624.413 7 -17618646.272 7  20211515.197    20211513.477    20211513.989
        46.200          46.300
 -13833968.453 6 -10779696.963 5  22175499.872    22175495.713    22175498.859
        41.100          35.700
 -11005056.127 5  -8575360.476 5  22402708.550    22402707.313    22402708.109
        34.000          30.400
  -4074844.120 4  -3175199.412 3  24122707.312    24122704.496    24122706.274
        26.800          23.800
 06  1  1  0  5 30.0000000  0  6G29G 6G10G 2G26G21
 -14643718.092 6 -11410678.791 6  21534571.994    21534570.429    21534571.334
        39.300          36.500
 -18207520.693 7 -14187663.818 6  21343737.406    21343735.758    21343736.670
        45.400          40.600
 -22581550.807 7 -17595991.508 7  20217047.621    20217046.090    20217046.497
        46.200          46.400
 -13751098.377 6 -10715122.900 5  22191269.698    22191265.242    22191268.741
        41.500          35.600
 -11118227.570 5  -8663545.959 5  22381173.057    22381171.705    22381172.410
        34.800          31.300
  -4170033.220 4  -3249372.684 3  24104592.852    24104589.886    24104592.180
        28.800          21.600
 06  1  1  0  6  0.0000000  0  6G29G 6G10G 2G26G21
 -14721801.455 6 -11471522.935 6  21519713.965    21519711.724    21519712.858
        39.700          36.600
 -18234779.196 7 -14208904.191 6  21338550.154    21338548.471    21338549.404
        45.300          40.300
 -22552062.566 7 -17573013.652 7  20222659.185    20222657.520    20222658.038
        46.400          46.300
 -13667974.578 6 -10650351.106 5  22207086.798    22207083.401    22207086.418
        40.600          35.500
 -11231100.202 5  -8751498.623 5  22359694.811    22359692.590    22359693.603
        34.700          30.400
  -4265201.330 4  -3323529.597 3  24086482.604    24086480.014    24086481.495
        27.100          20.500
 06  1  1  0  6 30.0000000  0  6G29G 6G10G 2G26G21
 -14799444.714 6 -11532024.153 6  21504938.292    21504936.413    21504937.717
        40.500          36.400
 -18261492.308 7 -14229719.589 6  21333466.947    21333465.244    21333466.170
        45.100          40.500
 -22522161.156 7 -17549713.850 7  20228349.222    20228347.535    20228348.097
        46.300          46.400
 -13584597.831 6 -10585382.241 6  22222953.808    22222949.794    22222952.810
        40.800          36.100
 -11343670.627 5  -8839215.796 5  22338272.848    22338271.192    22338271.714
        34.900          31.000
  -4360347.172 4  -3397669.166 2  24068376.706    24068374.436    24068376.155
        29.700          17.800
 06  1  1  0  7  0.0000000  0  6G29G 6G10G 2G26G21
 -14876645.551 6 -11592180.618 6  21490247.804    21490245.729    21490246.853
        40.200          36.600
 -18287659.003 7 -14250109.207 6  21328487.580    21328485.941    21328486.807
        44.800          40.500
 -22491848.145 7 -17526093.316 7  20234117.516    20234115.878    20234116.347
        46.000          46.100
 -13500969.102 6 -10520217.004 5  22238866.931    22238863.277    22238866.594
        40.900          34.700
 -11455935.589 5  -8926694.942 5  22316909.654    22316907.896    22316908.727
        35.500          31.300
  -4455469.845 4  -3471790.685 3  24050276.803    24050273.765    24050275.460
        29.900          19.300
 06  1  1  0  7 30.0000000  0  6G29G 6G10G 2G26G21
 -14953401.445 6 -11651990.384 6  21475641.264    21475639.484    21475640.470
        40.100          37.200
 -18313277.953 7 -14270072.008 6  21323612.241    21323610.742    21323611.511
        45.100          40.500
 -22461125.281 7 -17502153.414 7  20239963.972    20239962.267    20239962.779
        46.400          46.200
 -13417089.344 6 -10454856.154 5  22254829.520    22254825.304    22254828.404
        40.300          35.400
 -11567891.596 5  -9013933.349 5  22295605.681    22295603.105    22295604.375
        35.500          31.100
  -4550568.124 5  -3545893.214 3  24032180.084    24032177.198    24032179.165
        30.100          18.600
 06  1  1  0  8  0.0000000  0  6G29G 6G10G 2G26G21
 -15029709.952 6 -11711451.516 6  21461119.881    21461118.470    21461119.382
        40.000          37.100
 -18338348.274 7 -14289607.311 6  21318841.450    21318840.041    21318840.703
        44.800          40.700
 -22429993.981 7 -17477895.253 7  20245887.956    20245886.332    20245886.845
        46.300          46.300
 -13332959.140 6 -10389300.166 5  22270838.705    22270834.648    22270837.920
        40.400          35.100
 -11679535.267 5  -9100928.375 5  22274360.163    22274357.932    22274358.866
        35.100          31.100
  -4645641.226 4  -3619976.119 2  24014088.325    24014084.760    24014087.027
        29.200          17.800
 06  1  1  0  8 30.0000000  0  6G29G 6G10G 2G26G21
 -15105568.782 6 -11770562.275 6  21446684.640    21446682.838    21446684.023
        40.500          36.800
 -18362868.750 7 -14308714.168 6  21314175.210    21314173.995    21314174.452
        44.700          40.900
 -22398455.703 7 -17453319.970 7  20251889.412    20251887.806    20251888.296
        46.300          46.100
 -13248579.522 6 -10323549.819 5  22286895.618    22286891.529    22286894.827
        40.300          34.500
 -11790863.394 5  -9187677.513 5  22253174.839    22253173.087    22253173.736
        35.300          32.600
  -4740688.123 4  -3694038.571 2  23996000.220    23995997.616    23995999.551
        26.500          17.800
 06  1  1  0  9  0.0000000  0  6G29G 6G10G 2G26G21
 -15180975.637 6 -11829320.835 6  21432334.615    21432333.465    21432334.488
        40.800          36.900
 -18386838.249 7 -14327391.691 6  21309613.893    21309612.730    21309613.210
        44.600          40.700
 -22366511.968 7 -17428428.749 7  20257968.272    20257966.504    20257967.033
        46.200          46.100
 -13163951.518 6 -10257605.921 5  22302999.987    22302995.754    22302999.030
        40.000          34.400
 -11901872.605 5  -9274178.139 5  22232051.153    22232048.495    22232049.654
        34.900          32.400
  -4835707.734 4  -3768079.795 3  23977918.833    23977916.423    23977917.812
        27.100          19.300
 06  1  1  0  9 30.0000000  0  6G29G 6G10G 2G26G21
 -15255928.246 6 -11887725.447 6  21418072.662    21418070.364    21418071.580
        40.000          37.000
 -18410255.851 7 -14345639.161 6  21305157.817    21305156.549    21305157.040
        44.700          40.800
 -22334164.318 7 -17403222.787 7  20264123.841    20264122.136    20264122.632
        46.300          46.100
 -13079076.018 6 -10191469.186 5  22319150.920    22319147.152    22319150.250
        40.200          34.800
 -12012559.427 5  -9360427.559 5  22210987.846    22210985.485    22210986.637
        35.700          32.000
  -4930698.928 4  -3842098.844 3  23959842.981    23959839.572    23959841.828
        28.100          18.600
 06  1  1  0 10  0.0000000  0  7G29G 6G27G10G 2G26G21
 -15330424.291 6 -11945774.292 6  21403896.288    21403894.359    21403895.534
        40.700          37.200
 -18433120.634 7 -14363455.868 6  21300806.975    21300805.416    21300806.136
        44.800          40.700
    -35506.228 4    -27666.263 2  25211142.694    25211140.611    25211141.880
        25.900          17.800
 -22301414.147 7 -17377703.172 7  20270356.053    20270354.310    20270354.796
        46.300          46.000
 -12993953.562 6 -10125140.006 5  22335349.660    22335345.135    22335348.658
        40.000          34.300
 -12122920.444 6  -9446423.126 5  22189986.655    22189984.242    22189985.599
        36.700          31.300
  -5025660.721 4  -3916095.003 3  23941772.318    23941769.191    23941771.240
        28.600          22.100
 06  1  1  0 10 30.0000000  0  7G29G 6G27G10G 2G26G21
 -15404461.356 6 -12003465.482 6  21389807.780    21389805.387    21389806.766
        40.700          37.200
 -18455431.202 7 -14380840.720 6  21296561.231    21296559.840    21296560.501
        44.800          40.700
    -55409.610 4    -43175.379 3  25207355.463    25207354.086    25207354.377
        25.900          22.600
 -22268262.951 7 -17351871.068 7  20276664.443    20276662.694    20276663.240
        46.600          46.000
 -12908585.291 6 -10058619.282 5  22351594.534    22351590.298    22351593.678
        39.600          34.600
 -12232952.601 5  -9532162.423 5  22169048.112    22169046.232    22169046.908
        35.700          33.100
  -5120592.167 4  -3990067.515 3  23923707.112    23923704.547    23923706.008
        29.000          22.100
 06  1  1  0 11  0.0000000  0  7G29G 6G27G10G 2G26G21
 -15478037.202 6 -12060797.292 6  21375806.323    21375804.325    21375805.687
        40.800          37.200
 -18477186.935 7 -14397793.235 6  21292421.266    21292419.826    21292420.429
        44.500          40.900
    -74886.450 3    -58352.118 3  25203648.827    25203647.291    25203648.090
        23.400          18.600
 -22234712.380 7 -17325727.758 7  20283049.000    20283047.206    20283047.800
        46.600          45.900
 -12822972.089 6  -9991907.715 5  22367885.292    22367882.031    22367885.074
        39.400          34.500
 -12342652.376 5  -9617642.711 5  22148172.922    22148170.780    22148171.807
        35.900          32.100
  -5215491.988 4  -4064015.380 3  23905648.370    23905645.503    23905647.104
        28.800          22.100
 06  1  1  0 11 30.0000000  0  7G29G 6G27G10G 2G26G21
 -15551149.454 6 -12117767.854 6  21361893.285    21361891.677    21361892.651
        40.700          37.600
 -18498386.977 7 -14414312.736 6  21288386.899    21288385.646    21288386.142
        44.700          40.700
    -93935.353 3    -73195.433 2  25200024.615    25200022.366    25200023.431
        22.600          17.000
 -22200764.113 7 -17299274.561 7  20289509.034    20289507.344    20289507.883
        46.700          45.900
 -12737114.979 6  -9925006.097 5  22384224.149    22384220.058    22384223.223
        39.100          34.600
 -12452016.606 6  -9702861.555 5  22127361.706    22127359.436    22127360.538
        36.300          32.300
  -5310359.369 4  -4137937.957 4  23887595.527    23887593.450    23887594.660
        29.200          25.900
 06  1  1  0 12  0.0000000  0  7G29G 6G27G10G 2G26G21
 -15623796.082 6 -12174375.588 6  21348068.927    21348067.544    21348068.332
        40.800          38.000
 -18519029.491 7 -14430397.802 6  21284458.827    21284457.412    21284458.137
        44.900          40.700
   -112555.597 3    -87704.694 2  25196480.813    25196478.761    25196479.676
        23.000          17.800
 -22166419.731 7 -17272512.700 7  20296044.500    20296042.794    20296043.363
        46.900          45.700
 -12651014.668 6  -9857914.959 5  22400608.368    22400604.818    22400607.540
        39.200          34.900
 -12561041.796 6  -9787816.205 5  22106614.534    22106612.621    22106613.512
        36.300          32.700
  -5405192.987 4  -4211834.230 4  23869549.369    23869547.383    23869548.269
        29.500          25.300
 06  1  1  0 12 30.0000000  0  7G29G 6G27G10G 2G26G21
 -15695974.592 6 -12230618.558 6  21334334.053    21334332.100    21334333.394
        41.100          37.500
 -18539114.518 7 -14446048.464 6  21280636.969    21280635.341    21280636.185
        45.100          40.800
   -130745.962 4   -101878.963 3  25193019.649    25193017.356    25193018.753
        24.900          18.600
 -22131680.683 7 -17245443.310 7  20302655.094    20302653.383    20302653.998
        46.900          45.800
 -12564672.170 6  -9790635.112 5  22417039.077    22417035.188    22417038.230
        39.600          34.800
 -12669724.541 6  -9872504.012 5  22085932.623    22085930.970    22085931.836
        36.900          33.000
  -5499992.043 4  -4285703.552 4  23851509.534    23851507.733    23851508.536
        28.400          24.200
 06  1  1  0 13  0.0000000  0  7G29G 6G27G10G 2G26G21
 -15767683.014 6 -12286495.238 6  21320688.693    21320686.481    21320687.840
        41.200          37.700
 -18558640.837 7 -14461263.766 6  21276921.041    21276919.766    21276920.371
        45.100          41.000
   -148505.285 3   -115717.414 3  25189639.722    25189638.276    25189638.562
        23.800          19.300
 -22096548.646 7 -17218067.692 7  20309340.587    20309338.816    20309339.408
        46.900          45.700
 -12478088.200 6  -9723167.094 5  22433515.580    22433511.345    22433514.499
        38.900          34.400
 -12778061.606 6  -9956922.485 5  22065316.159    22065314.960    22065315.719
        37.100          32.400
  -5594755.055 4  -4359544.835 3  23833476.892    23833474.489    23833475.756
        29.500          21.600
 06  1  1  0 13 30.0000000  0  7G29G 6G27G10G 2G26G21
 -15838919.055 6 -12342003.822 6  21307132.618    21307130.627    21307131.867
        41.400          37.700
 -18577607.586 7 -14476043.043 6  21273311.891    21273310.486    21273311.144
        45.200          41.000
   -165832.571 3   -129219.192 2  25186342.485    25186340.414    25186341.280
        23.400          16.100
 -22061025.156 7 -17190387.043 7  20316100.645    20316098.678    20316099.389
        46.800          45.600
 -12391263.717 6  -9655511.677 5  22450037.501    22450033.598    22450036.821
        39.400          34.500
 -12886049.668 6 -10041068.974 5  22044766.147    22044765.529    22044766.233
        37.300          33.500
  -5689481.096 4  -4433357.306 3  23815450.973    23815448.635    23815449.809
        29.200          22.600
 06  1  1  0 14  0.0000000  0  7G29G 6G27G10G 2G26G21
 -15909680.445 6 -12397142.547 6  21293667.113    21293665.306    21293666.427
        41.300          38.100
 -18596013.891 7 -14490385.617 6  21269809.566    21269807.709    21269808.796
        45.200          41.000
   -182726.467 4   -142383.268 2  25183127.541    25183125.542    25183127.040
        25.300          13.900
 -22025111.545 7 -17162402.402 7  20322934.587    20322932.773    20322933.387
        46.600          45.500
 -12304199.680 6  -9587669.578 5  22466604.788    22466601.485    22466604.322
        39.200          34.500
 -12993685.448 6 -10124940.971 5  22024283.650    22024282.962    22024283.879
        37.500          33.000
  -5784169.191 5  -4507140.197 3  23797433.125    23797429.968    23797432.138
        30.800          22.600
 06  1  1  0 14 30.0000000  0  7G29G 6G27G10G 2G26G21
 -15979965.123 6 -12451909.807 6  21280292.582    21280290.399    21280291.876
        41.800          37.800
 -18613858.705 7 -14504290.658 6  21266413.578    21266412.052    21266412.846
        45.100          40.800
   -199186.382 3   -155209.142 2  25179995.687    25179993.237    25179994.563
        22.600          12.600
 -21988809.582 7 -17134115.148 7  20329842.548    20329840.817    20329841.395
        46.700          45.600
 -12216897.158 6  -9519641.648 5  22483218.336    22483214.166    22483217.443
        38.700          33.800
 -13100965.664 6 -10208535.919 5  22003868.933    22003868.037    22003869.067
        37.200          32.100
  -5878818.230 5  -4580892.656 4  23779421.914    23779419.062    23779420.641
        31.000          24.900
 06  1  1  0 15  0.0000000  0  7G29G 6G27G10G 2G26G21
 -16049770.970 6 -12506303.964 6  21267008.866    21267006.888    21267008.086
        41.300          37.800
 -18631141.433 7 -14517757.712 6  21263124.572    21263123.296    21263123.838
        44.800          41.000
   -215210.984 3   -167695.836 2  25176945.438    25176944.206    25176945.257
        23.400          17.800
 -21952120.912 7 -17105526.568 7  20336824.252    20336822.428    20336823.049
        46.800          45.400
 -12129357.014 6  -9451428.565 5  22499876.332    22499872.723    22499875.749
        38.600          33.800
 -13207887.031 6 -10291851.239 5  21983523.252    21983521.837    21983522.850
        38.400          33.500
  -5973427.070 5  -4654613.795 3  23761418.080    23761415.578    23761417.038
        31.300          23.000
 06  1  1  0 15 30.0000000  0  7G29G 6G27G10G 2G26G21
 -16119095.610 6 -12560323.131 6  21253816.823    21253814.936    21253815.898
        41.100          38.300
 -18647861.109 7 -14530786.022 6  21259943.028    21259941.493    21259942.268
        44.700          40.700
   -230799.317 4   -179842.599 2  25173980.455    25173977.743    25173978.817
        24.600          17.800
 -21915047.017 7 -17076637.808 7  20343879.039    20343877.442    20343877.923
        46.800          45.600
 -12041580.171 6  -9383031.035 5  22516580.314    22516576.308    22516579.570
        38.700          34.300
 -13314446.270 6 -10374884.381 5  21963245.655    21963244.422    21963245.066
        38.200          34.400
  -6067994.542 5  -4728302.698 3  23743421.899    23743419.420    23743421.069
        30.200          23.400
 06  1  1  0 16  0.0000000  0  7G29G 6G27G10G 2G26G21
 -16187937.098 6 -12613965.825 6  21240716.228    21240714.716    21240715.949
        41.700          37.900
 -18664016.918 7 -14543374.956 6  21256868.671    21256867.080    21256867.865
        44.900          40.800
   -245950.196 3   -191648.483 2  25171095.601    25171094.871    25171095.147
        22.100          16.100
 -21877589.321 7 -17047449.988 7  20351006.961    20351005.387    20351005.806
        46.900          45.400
 -11953567.462 6  -9314449.711 5  22533328.294    22533324.394    22533327.412
        37.800          33.900
 -13420639.879 6 -10457632.615 5  21943038.164    21943036.349    21943037.208
        37.700          34.300
  -6162519.511 5  -4801958.475 3  23725435.318    23725431.588    23725434.171
        31.300          23.000
 06  1  1  0 16 30.0000000  0  7G29G 6G27G10G 2G26G21
 -16256293.141 6 -12667230.247 6  21227709.331    21227706.876    21227708.372
        41.500          37.800
 -18679608.630 7 -14555524.333 6  21253901.756    21253900.041    21253900.998
        44.800          40.700
   -260662.974 4   -203112.953 2  25168297.252    25168294.366    25168296.221
        25.900          15.100
 -21839749.681 7 -17017964.542 7  20358207.651    20358205.988    20358206.467
        47.000          45.400
 -11865319.787 6  -9245685.305 5  22550121.266    22550117.415    22550120.426
        37.800          33.200
 -13526464.796 6 -10540093.551 5  21922900.016    21922898.293    21922899.211
        37.100          33.600
  -6257000.853 4  -4875580.248 3  23707455.238    23707452.484    23707454.308
        29.200          21.100
 06  1  1  0 17  0.0000000  0  7G29G 6G27G10G 2G26G21
 -16324161.827 6 -12720114.924 6  21214793.588    21214791.875    21214793.130
        41.600          38.000
 -18694634.794 7 -14567233.020 6  21251042.211    21251040.867    21251041.419
        44.800          41.000
   -274936.146 4   -214234.854 2  25165580.495    25165578.561    25165579.879
        24.600          17.000
 -21801529.517 7 -16988182.590 7  20365480.795    20365479.021    20365479.627
        47.000          45.400
 -11776838.183 6  -9176738.610 5  22566958.483    22566954.755    22566957.893
        37.900          33.100
 -13631917.576 6 -10622264.527 5  21902833.418    21902831.290    21902832.450
        38.100          33.800
  -6351437.412 4  -4949167.144 3  23689485.477    23689482.163    23689484.083
        28.800          22.600
 06  1  1  0 17 30.0000000  0  7G29G 6G27G10G 2G26G21
 -16391541.068 6 -12772618.202 6  21201972.458    21201970.195    21201971.500
        41.700          38.600
 -18709094.842 7 -14578500.585 6  21248290.572    21248289.355    21248289.816
        44.800          41.100
   -288769.006 3   -225013.728 2  25162948.442    25162946.226    25162946.892
        21.100          16.100
 -21762930.595 7 -16958105.504 7  20372825.903    20372824.087    20372824.721
        47.100          45.300
 -11688123.707 6  -9107610.469 5  22583840.386    22583836.899    22583839.701
        37.700          33.500
 -13736994.922 6 -10704142.959 5  21882837.250    21882835.738    21882836.672
        38.600          33.600
  -6445827.901 5  -5022718.140 3  23671522.776    23671519.788    23671522.010
        30.400          23.000
 06  1  1  0 18  0.0000000  0  7G29G 6G27G10G 2G26G21
 -16458428.749 7 -12824738.451 6  21189243.693    21189241.926    21189243.148
        42.100          38.600
 -18722988.443 7 -14589326.760 6  21245647.056    21245645.396    21245646.302
        45.100          41.300
   -302160.502 3   -235448.680 2  25160399.360    25160398.116    25160399.025
        23.800          17.000
 -21723954.472 7 -16927734.491 7  20380242.748    20380241.004    20380241.538
        46.900          45.200
 -11599177.402 6  -9038301.698 5  22600766.764    22600762.638    22600765.767
        37.200          33.000
 -13841693.740 6 -10785726.440 5  21862913.419    21862912.169    21862913.075
        38.500          34.400
  -6540171.420 5  -5096232.532 3  23653570.565    23653566.879    23653569.307
        31.800          21.100
 06  1  1  0 18 30.0000000  0  7G29G 6G27G10G 2G26G21
 -16524822.879 7 -12876474.117 6  21176609.565    21176607.331    21176608.822
        42.400          38.500
 -18736314.485 7 -14599710.682 6  21243111.036    21243109.476    21243110.238
        45.000          41.100
   -315109.649 4   -245538.910 2  25157936.274    25157933.566    25157935.239
        25.600          17.000
 -21684602.539 7 -16897070.639 7  20387731.148    20387729.405    20387729.995
        47.000          45.100
 -11509999.800 6  -8968812.664 5  22617736.537    22617732.438    22617735.988
        37.700          32.300
 -13946010.693 6 -10867012.334 5  21843061.132    21843061.520    21843062.101
        38.100          34.600
  -6634466.803 5  -5169709.438 3  23635626.161    23635622.547    23635625.175
        32.400          21.100
 06  1  1  0 19  0.0000000  0  7G29G 6G27G10G 2G26G21
 -16590721.367 7 -12927823.569 6  21164069.461    21164067.286    21164068.685
        42.300          38.600
 -18749072.509 7 -14609651.997 6  21240683.184    21240681.593    21240682.386
        44.900          41.000
   -327615.514 4   -255283.757 2  25155556.116    25155554.099    25155555.449
        26.500          17.800
 -21644876.370 7 -16866115.176 7  20395290.985    20395289.098    20395289.742
        47.000          45.000
 -11420592.177 6  -8899144.395 5  22634749.634    22634745.921    22634749.210
        37.000          31.800
 -14049942.621 6 -10947998.214 5  21823284.445    21823283.674    21823284.558
        38.600          34.700
  -6728712.521 5  -5243147.634 3  23617692.034    23617688.843    23617690.919
        31.600          23.000
 06  1  1  0 19 30.0000000  0  7G29G 6G27G10G 2G26G21
 -16656122.286 7 -12978785.307 6  21151623.905    21151621.936    21151623.150
        42.200          38.900
 -18761261.967 7 -14619150.271 6  21238363.694    21238362.101    21238362.951
        45.000          41.100
   -339677.409 3   -264682.659 2  25153261.055    25153258.775    25153259.745
        23.800          16.100
 -21604777.781 7 -16834869.518 7  20402921.481    20402919.584    20402920.275
        47.100          44.900
 -11330955.148 6  -8829297.388 5  22651807.483    22651803.705    22651806.654
        36.800          32.700
 -14153486.064 6 -11028681.404 5  21803581.667    21803579.916    21803580.970
        38.800          34.100
  -6822907.324 5  -5316546.154 4  23599767.028    23599764.167    23599765.825
        30.600          25.900
 06  1  1  0 20  0.0000000  0  7G29G 6G27G10G 2G26G21
 -16721023.528 7 -13029357.684 6  21139273.688    21139271.677    21139272.805
        42.000          38.900
 -18772882.364 7 -14628205.121 6  21236152.391    21236150.796    21236151.579
        44.600          41.100
   -351294.512 4   -273734.915 2  25151050.134    25151048.161    25151049.288
        25.300          17.000
 -21564308.288 7 -16803334.845 7  20410622.519    20410620.709    20410621.346
        47.200          45.000
 -11241089.909 6  -8759272.530 5  22668908.224    22668904.553    22668907.523
        36.500          33.000
 -14256637.946 6 -11109059.485 5  21783953.088    21783950.911    21783951.893
        38.600          34.800
  -6917050.391 5  -5389904.349 4  23581851.517    23581849.493    23581850.901
        31.500          25.900
 06  1  1  0 20 30.0000000  0  7G29G 6G27G10G 2G26G21
 -16785423.114 7 -13079539.159 6  21127018.683    21127016.906    21127018.022
        42.400          39.300
 -18783932.966 7 -14636815.970 6  21234049.409    21234047.973    21234048.616
        44.500          41.100
   -362465.905 3   -282439.909 2  25148924.130    25148921.843    25148923.126
        21.600          13.900
 -21523469.549 7 -16771512.449 7  20418393.739    20418392.021    20418392.651
        47.200          45.000
 -11150997.625 6  -8689070.772 5  22686051.737    22686048.481    22686051.397
        36.800          33.000
 -14359394.932 6 -11189129.838 5  21764398.776    21764396.802    21764397.781
        39.000          34.400
  -7011140.423 5  -5463221.211 4  23563947.619    23563944.923    23563946.612
        33.000          27.100
 06  1  1  0 21  0.0000000  0  7G29G 6G27G10G 2G26G21
 -16849319.368 7 -13129328.423 6  21114859.508    21114857.702    21114858.936
        42.600          39.100
 -18794412.833 7 -14644982.094 6  21232054.956    21232053.751    21232054.220
        44.500          41.100
   -373190.745 4   -290796.886 3  25146883.497    25146881.820    25146882.681
        25.300          19.300
 -21482263.109 7 -16739403.534 7  20426235.174    20426233.331    20426233.950
        47.100          44.900
 -11060678.936 6  -8618692.593 5  22703239.003    22703235.611    22703238.413
        36.500          33.200
 -14461753.816 6 -11268889.992 5  21744919.786    21744918.507    21744919.390
        39.300          34.600
  -7105176.078 5  -5536495.714 4  23546052.934    23546050.552    23546051.859
        33.100          27.400
 06  1  1  0 21 30.0000000  0  7G29G 6G27G10G 2G26G21
 -16912710.010 7 -13178723.706 6  21102796.905    21102794.807    21102796.093
        42.300          39.300
 -18804321.794 7 -14652703.355 6  21230169.427    21230168.068    21230168.686
        44.600          41.200
   -383468.073 4   -298805.189 2  25144928.117    25144925.702    25144927.128
        27.100          17.000
 -21440690.548 7 -16707009.328 7  20434146.201    20434144.338    20434144.956
        47.100          44.800
 -10970135.009 6  -8548138.910 5  22720470.120    22720465.550    22720468.792
        36.500          33.200
 -14563711.405 6 -11348337.428 5  21725517.435    21725516.615    21725517.395
        39.400          34.700
  -7199156.316 5  -5609727.048 4  23528169.144    23528166.027    23528168.150
        32.600          25.300
 06  1  1  0 22  0.0000000  0  7G29G 6G27G10G 2G26G21
 -16975593.303 7 -13227723.659 6  21090830.381    21090828.285    21090829.774
        42.700          38.800
 -18813659.339 7 -14659979.356 6  21228392.642    21228391.246    21228391.880
        44.600          41.100
   -393297.033 4   -306464.131 2  25143057.457    25143054.738    25143056.751
        24.600          12.600
 -21398753.535 7 -16674331.136 7  20442126.326    20442124.710    20442125.174
        47.000          44.700
 -10879366.860 6  -8477410.496 5  22737742.516    22737738.234    22737741.381
        36.500          32.800
 -14665264.525 6 -11427469.706 5  21706192.846    21706191.484    21706192.414
        39.200          34.600
  -7293079.949 5  -5682914.270 4  23510295.722    23510293.381    23510294.660
        31.300          26.200
 06  1  1  0 22 30.0000000  0  7G29G 6G27G10G 2G26G21
 -17037967.348 7 -13276326.793 6  21078960.982    21078958.966    21078960.371
        42.700          39.100
 -18822424.672 7 -14666809.481 6  21226724.577    21226723.164    21226723.846
        44.800          41.000
   -402676.970 3   -313773.182 3  25141272.732    25141270.387    25141271.745
        23.000          18.600
 -21356453.800 7 -16641370.305 7  20450175.640    20450174.102    20450174.517
        47.000          44.600
 -10788375.305 6  -8406508.011 5  22755056.112    22755053.264    22755055.987
        36.400          31.800
 -14766409.727 6 -11506284.120 5  21686946.198    21686944.395    21686945.297
        39.300          35.300
  -7386945.713 5  -5756056.384 3  23492433.153    23492430.751    23492432.323
        32.000          23.800
 06  1  1  0 23  0.0000000  0  7G29G 6G27G10G 2G26G21
 -17099830.175 7 -13324531.563 6  21067189.129    21067186.969    21067188.218
        42.500          39.300
 -18830617.645 7 -14673193.614 6  21225165.521    21225164.092    21225164.777
        44.800          41.100
   -411607.074 4   -320731.700 2  25139573.034    25139571.020    25139572.200
        24.200          17.000
 -21313792.810 7 -16608127.977 7  20458293.853    20458292.172    20458292.685
        47.000          44.600
 -10697161.184 6  -8335432.065 5  22772414.575    22772410.411    22772413.883
        36.500          31.000
 -14867144.009 6 -11584778.340 5  21667776.800    21667775.205    21667776.160
        39.600          35.500
  -7480752.094 5  -5829152.227 4  23474582.812    23474580.449    23474581.883
        32.100          26.200
 06  1  1  0 23 30.0000000  0  7G29G 6G27G10G 2G26G21
 -17161179.884 7 -13372336.509 6  21055514.224    21055512.642    21055513.679
        42.800          39.600
 -18838237.801 7 -14679131.391 6  21223715.525    21223713.857    21223714.792
        44.600          41.000
   -420086.498 4   -327339.042 2  25137959.657    25137957.503    25137958.212
        24.200          17.800
 -21270772.142 7 -16574605.376 7  20466480.215    20466478.766    20466479.144
        47.000          44.500
 -10605725.785 6  -8264183.711 5  22789814.758    22789810.399    22789813.553
        36.100          32.000
 -14967464.271 6 -11662949.938 5  21648685.997    21648684.981    21648685.676
        39.500          35.700
  -7574498.059 5  -5902201.008 3  23456744.447    23456740.948    23456743.151
        32.300          23.400
 06  1  1  0 24  0.0000000  0  7G29G 6G27G10G 2G26G21
 -17222014.816 7 -13419740.334 6  21043938.034    21043936.089    21043937.254
        43.000          39.800
 -18845284.462 7 -14684622.294 6  21222374.520    21222373.003    21222373.841
        44.700          40.900
   -428115.077 3   -333595.088 3  25136431.147    25136429.988    25136430.615
        23.000          18.600
 -21227393.410 7 -16540803.765 7  20474735.230    20474733.412    20474734.041
        47.000          44.400
 -10514070.106 5  -8192763.729 5  22807255.414    22807252.003    22807254.682
        35.300          31.500
 -15067367.082 6 -11740796.259 5  21629675.018    21629673.891    21629674.775
        39.500          35.500
  -7668182.308 5  -5975201.685 4  23438916.523    23438913.456    23438915.515
        33.200          24.900
 06  1  1  0 24 30.0000000  0  7G29G 6G27G10G 2G26G21
 -17282333.024 7 -13466741.514 6  21032459.747    21032457.773    21032458.982
        42.800          39.700
 -18851757.274 7 -14689666.035 6  21221143.015    21221141.377    21221142.187
        44.700          41.100
   -435691.406 4   -339498.714 2  25134990.091    25134987.737    25134989.193
        24.900          17.800
 -21183658.313 7 -16506724.468 7  20483057.812    20483055.949    20483056.627
        47.000          44.400
 -10422194.809 5  -8121172.620 5  22824738.472    22824735.066    22824738.078
        35.400          30.800
 -15166849.532 6 -11818315.027 5  21610744.738    21610743.237    21610743.975
        40.000          35.900
  -7761803.433 5  -6048153.201 3  23421101.038    23421097.749    23421100.021
        34.000          23.800
 06  1  1  0 25  0.0000000  0  7G29G 6G27G10G 2G26G21
 -17342132.800 7 -13513338.729 6  21021080.087    21021078.323    21021079.477
        42.900          40.000
 -18857655.929 7 -14694262.387 6  21220020.402    21220018.893    21220019.601
        44.500          41.000
   -442814.934 3   -345049.513 3  25133634.019    25133632.713    25133633.365
        23.800          19.300
 -21139568.322 7 -16472368.631 7  20491447.821    20491445.926    20491446.622
        47.000          44.400
 -10330101.132 5  -8049411.323 5  22842263.644    22842260.181    22842263.203
        35.900          31.800
 -15265908.232 6 -11895503.601 6  21591894.621    21591892.915    21591893.858
        40.200          36.200
  -7855360.296 5  -6121054.618 4  23403298.126    23403294.828    23403296.927
        33.500          25.300
 06  1  1  0 25 30.0000000  0  7G29G 6G27G10G 2G26G21
 -17401412.172 7 -13559530.430 6  21009799.897    21009797.876    21009799.077
        42.700          39.800
 -18862980.090 7 -14698411.077 6  21219007.112    21219005.565    21219006.451
        44.700          41.100
   -449484.929 4   -350246.893 2  25132365.509    25132363.012    25132364.519
        27.100          15.100
 -21095125.309 7 -16437737.706 7  20499904.976    20499903.177    20499903.768
        47.100          44.400
 -10237790.106 6  -7977480.660 5  22859830.556    22859826.059    22859829.610
        36.100          30.600
 -15364540.206 6 -11972359.651 5  21573124.782    21573123.860    21573124.623
        40.300          35.800
  -7948851.808 5  -6193905.106 4  23385506.570    23385503.641    23385505.583
        32.700          25.300
 06  1  1  0 26  0.0000000  0  7G29G 6G27G10G 2G26G21
 -17460169.583 7 -13605315.403 6  20998618.858    20998616.650    20998617.957
        43.000          40.000
 -18867729.482 7 -14702111.896 6  21218103.319    21218101.854    21218102.637
        44.600          40.900
   -455701.003 4   -355090.585 2  25131182.629    25131180.354    25131181.922
        26.200          17.000
 -21050330.846 7 -16402832.934 7  20508429.126    20508427.329    20508427.964
        47.100          44.400
 -10145262.499 5  -7905381.237 5  22877438.410    22877433.708    22877437.151
        35.300          31.100
 -15462742.130 6 -12048880.608 5  21554438.105    21554436.397    21554437.586
        40.400          35.600
  -8042276.395 5  -6266703.453 4  23367728.574    23367725.617    23367727.566
        33.900          25.900
 06  1  1  0 26 30.0000000  0  8G29G 6G27G 8G10G 2G26G21
 -17518403.048 7 -13650692.111 6  20987537.270    20987535.073    20987536.442
        43.000          40.100
 -18871903.366 7 -14705364.265 6  21217309.356    21217307.614    21217308.487
        44.400          41.000
   -461461.983 3   -359579.675 3  25130085.509    25130084.184    25130084.716
        22.100          19.300
   -133861.439 4   -104307.445 2  24826522.501    24826521.190    24826521.580
        25.900          15.100
 -21005186.562 7 -16367655.568 7  20517019.875    20517018.022    20517018.732
        47.200          44.200
 -10052519.425 5  -7833113.943 5  22895085.998    22895082.155    22895085.322
        35.100          31.600
 -15560511.018 6 -12125064.146 6  21535833.494    21535831.761    21535832.805
        40.900          36.200
  -8135632.919 5  -6339448.772 4  23349963.675    23349960.322    23349962.327
        33.400          27.100
 06  1  1  0 27  0.0000000  0  8G29G 6G27G 8G10G 2G26G21
 -17576111.032 7 -13695659.360 6  20976555.318    20976553.615    20976554.762
        43.000          40.100
 -18875501.945 7 -14708168.352 6  21216624.356    21216622.694    21216623.610
        44.400          40.700
   -466767.883 3   -363714.125 2  25129076.459    25129074.445    25129075.472
        23.400          17.800
   -196059.505 4   -152773.453 2  24814686.762    24814685.302    24814685.957
        26.200          16.100
 -20959693.712 7 -16332206.590 7  20525676.808    20525674.900    20525675.660
        47.300          44.200
  -9959562.222 5  -7760679.757 5  22912774.925    22912771.315    22912774.403
        34.300          31.100
 -15657843.800 6 -12200907.855 6  21517311.187    21517310.101    21517310.964
        41.000          36.400
  -8228919.939 5  -6412139.922 4  23332211.617    23332208.471    23332210.534
        32.700          27.400
 06  1  1  0 27 30.0000000  0  8G29G 6G27G 8G10G 2G26G21
 -17633291.832 7 -13740215.804 6  20965674.515    20965672.438    20965673.628
        42.900          40.000
 -18878524.542 7 -14710523.616 6  21216049.231    21216047.545    21216048.391
        44.300          40.700
   -471617.804 3   -367493.317 3  25128153.110    25128151.451    25128152.246
        20.500          19.300
   -257902.641 3   -200962.870 2  24802919.295    24802916.606    24802917.747
        23.800          15.100
 -20913854.187 7 -16296487.479 7  20534399.693    20534397.912    20534398.553
        47.200          44.100
  -9866391.448 5  -7688079.179 5  22930505.361    22930501.013    22930504.143
        34.500          31.100
 -15754737.066 6 -12276409.076 6  21498873.156    21498871.863    21498872.651
        40.600          36.500
  -8322136.150 5  -6484775.877 4  23314473.214    23314469.926    23314472.099
        32.800          26.200
 06  1  1  0 28  0.0000000  0  8G29G 6G27G 8G10G 2G26G21
 -17689943.518 7 -13784359.955 6  20954894.062    20954891.823    20954893.193
        42.800          39.900
 -18880971.100 7 -14712430.016 6  21215583.659    21215582.100    21215582.841
        44.100          41.000
   -476011.082 4   -370916.653 2  25127317.969    25127314.911    25127316.965
        24.600          16.100
   -319388.452 3   -248873.818 2  24791217.721    24791216.551    24791216.321
        22.600          15.100
 -20867669.796 7 -16260499.643 7  20543188.502    20543186.493    20543187.273
        47.100          44.100
  -9773008.359 5  -7615313.141 5  22948275.489    22948271.312    22948274.587
        34.400          30.400
 -15851187.910 6 -12351565.554 6  21480519.799    21480517.804    21480518.900
        40.800          37.000
  -8415280.357 5  -6557355.743 4  23296748.084    23296745.400    23296747.007
        34.100          27.400
 06  1  1  0 28 30.0000000  0  8G29G 6G27G 8G10G 2G26G21
 -17746064.660 7 -13828090.702 6  20944214.151    20944212.376    20944213.603
        43.100          40.200
 -18882841.362 7 -14713887.357 6  21215227.724    21215226.173    21215226.927
        44.300          40.900
   -479947.291 3   -373983.834 2  25126568.758    25126565.954    25126567.273
        23.400          15.100
   -380514.264 3   -296504.306 3  24779584.443    24779584.612    24779584.238
        22.100          19.900
 -20821141.971 7 -16224244.195 7  20552042.297    20552040.459    20552041.117
        47.000          44.200
  -9679413.841 5  -7542382.361 5  22966086.473    22966081.932    22966085.107
        33.800          31.000
 -15947193.334 6 -12426374.964 6  21462249.874    21462248.324    21462249.580
        41.000          36.300
  -8508351.361 5  -6629878.557 4  23279036.573    23279034.368    23279035.816
        33.000          27.100
 06  1  1  0 29  0.0000000  0  8G29G 6G27G 8G10G 2G26G21
 -17801653.509 7 -13871406.669 6  20933636.137    20933634.180    20933635.451
        43.100          40.300
 -18884135.142 7 -14714895.484 6  21214981.549    21214979.781    21214980.738
        44.300          40.600
   -483425.958 3   -376694.486 2  25125906.363    25125903.994    25125905.251
        22.100          17.000
   -441277.243 3   -343852.011 2  24768022.633    24768021.683    24768021.364
        19.300          17.800
 -20774272.216 7 -16187722.307 7  20560961.332    20560959.579    20560960.103
        47.000          44.100
  -9585609.062 5  -7469287.754 5  22983936.188    22983932.553    22983935.416
        34.000          31.100
 -16042750.096 6 -12500834.761 6  21444065.900    21444064.727    21444065.584
        41.200          36.500
  -8601347.543 5  -6702343.077 4  23261341.159    23261337.650    23261339.853
        33.800          26.800
 06  1  1  0 29 30.0000000  0  8G29G 6G27G 8G10G 2G26G21
 -17856708.461 7 -13914306.611 6  20923159.799    20923157.598    20923158.886
        43.200          40.300
 -18884852.101 7 -14715454.149 6  21214845.183    21214843.377    21214844.353
        44.300          40.600
   -486446.210 3   -379047.901 2  25125331.487    25125329.788    25125330.452
        21.100          17.000
   -501674.823 3   -390914.941 2  24756529.326    24756528.431    24756528.674
        21.600          17.800
 -20727062.464 7 -16150935.485 7  20569944.739    20569943.346    20569943.696
        46.800          44.300
  -9491594.985 5  -7396030.054 5  23001826.214    23001822.559    23001825.437
        34.400          30.100
 -16137855.027 6 -12574942.484 6  21425968.460    21425966.758    21425967.731
        41.200          36.900
  -8694267.585 5  -6774748.277 4  23243658.171    23243655.647    23243657.357
        34.100          27.600
 06  1  1  0 30  0.0000000  0  8G29G 6G27G 8G10G 2G26G21
 -17911227.947 7 -13956789.302 6  20912785.115    20912782.830    20912784.216
        43.300          40.400
 -18884992.149 7 -14715563.270 6  21214818.525    21214816.747    21214817.795
        44.500          40.600
   -489007.516 3   -381043.759 2  25124844.658    25124842.208    25124843.626
        23.800          17.800
   -561703.907 4   -437690.847 2  24745106.462    24745105.026    24745105.474
        24.200          17.800
 -20679514.177 7 -16113884.869 7  20578992.852    20578991.507    20578991.777
        46.700          44.300
  -9397372.710 5  -7322610.123 4  23019755.209    23019752.275    23019755.355
        34.700          28.800
 -16232505.303 6 -12648695.921 6  21407956.556    21407955.464    21407956.361
        41.500          37.200
  -8787110.383 5  -6847093.286 4  23225991.326    23225988.427    23225990.245
        34.500          27.600
 06  1  1  0 30 30.0000000  0  8G29G 6G27G 8G10G 2G26G21
 -17965210.425 7 -13998853.549 6  20902512.523    20902510.346    20902511.709
        43.600          40.500
 -18884555.169 7 -14715222.760 6  21214901.709    21214899.968    21214900.902
        44.300          40.900
   -491109.751 3   -382681.845 2  25124443.535    25124441.869    25124442.556
        21.600          15.100
   -621362.095 3   -484177.734 2  24733753.110    24733752.071    24733752.096
        22.100          15.100
 -20631628.786 7 -16076571.572 7  20588105.294    20588103.731    20588104.166
        46.600          44.100
  -9302943.144 5  -7249028.668 4  23037724.787    23037721.780    23037725.027
        34.600          29.500
 -16326697.710 6 -12722092.590 6  21390032.397    21390031.143    21390031.941
        41.300          37.400
  -8879874.486 5  -6919376.974 4  23208338.602    23208335.439    23208337.500
        33.400          27.400
 06  1  1  0 31  0.0000000  0  8G29G 6G27G 8G10G 2G26G21
 -18018654.061 7 -14040497.921 6  20892342.542    20892340.297    20892341.812
        43.600          40.600
 -18883541.097 7 -14714432.569 6  21215094.484    21215093.002    21215093.729
        44.200          40.900
   -492752.236 3   -383961.706 2  25124131.281    25124129.600    25124130.422
        22.100          17.800
   -680646.581 4   -530373.402 3  24722472.453    24722470.842    24722471.404
        24.600          18.600
 -20583407.971 7 -16038996.913 7  20597281.528    20597279.871    20597280.298
        46.700          44.000
  -9208307.516 5  -7175286.620 4  23055734.409    23055730.476    23055733.820
        34.700          29.500
 -16420429.179 6 -12795130.075 6  21372196.543    21372194.679    21372195.649
        41.400          37.600
  -8972558.183 5  -6991597.982 4  23190701.807    23190698.827    23190700.492
        33.900          27.900
 06  1  1  0 31 30.0000000  0  8G29G 6G27G 8G10G 2G26G21
 -18071557.515 7 -14081721.381 6  20882275.384    20882273.126    20882274.620
        43.600          40.700
 -18881949.939 7 -14713192.698 6  21215397.277    21215395.993    21215396.499
        44.200          41.100
   -493934.725 3   -384883.112 3  25123906.439    25123904.988    25123905.385
        21.100          18.600
   -739554.886 4   -576275.917 3  24711262.255    24711261.210    24711261.790
        25.300          18.600
 -20534853.548 7 -16001162.298 7  20606521.155    20606519.493    20606519.897
        46.600          44.000
  -9113466.639 5  -7101384.660 4  23073782.915    23073777.949    23073781.704
        34.000          29.500
 -16513696.777 6 -12867806.111 6  21354447.883    21354446.466    21354447.335
        41.600          37.600
  -9065160.398 5  -7063755.541 4  23173079.858    23173076.650    23173078.778
        34.900          26.500
 06  1  1  0 32  0.0000000  0  8G29G 6G27G 8G10G 2G26G21
 -18123919.260 7 -14122522.722 6  20872311.184    20872309.018    20872310.377
        43.400          40.800
 -18879781.456 7 -14711502.966 6  21215809.660    21215808.446    21215808.873
        43.700          40.900
   -494656.277 3   -385445.383 2  25123769.619    25123766.829    25123768.759
        23.400          16.100
   -798084.315 3   -621883.240 3  24700124.377    24700123.476    24700123.320
        23.400          22.100
 -20485967.202 7 -15963069.038 7  20615823.786    20615822.170    20615822.630
        46.900          43.600
  -9018421.531 5  -7027323.548 4  23091868.768    23091864.437    23091867.684
        34.300          29.200
 -16606497.382 6 -12940118.250 6  21336788.549    21336787.056    21336788.049
        41.900          37.600
  -9157679.868 5  -7135848.600 4  23155474.556    23155470.538    23155473.215
        34.100          26.800
 06  1  1  0 32 30.0000000  0  8G29G 6G27G 8G10G 2G26G21
 -18175737.793 7 -14162900.778 6  20862450.342    20862448.281    20862449.592
        43.500          40.900
 -18877035.677 7 -14709363.396 6  21216332.400    21216330.868    21216331.564
        43.900          40.800
   -494916.858 4   -385648.415 3  25123719.341    25123718.230    25123718.796
        25.600          22.600
   -856232.112 4   -667193.162 3  24689059.878    24689058.307    24689058.970
        25.900          21.600
 -20436750.311 7 -15924718.216 7  20625189.434    20625187.807    20625188.305
        46.900          43.800
  -8923173.328 5  -6953104.174 4  23109992.946    23109989.676    23109992.936
        33.600          29.500
 -16698828.153 7 -13012064.289 6  21319218.676    21319217.026    21319218.065
        42.000          37.700
  -9250114.942 5  -7207875.924 4  23137884.241    23137881.077    23137882.939
        34.600          27.400
 06  1  1  0 33  0.0000000  0  8G29G 6G27G 8G10G 2G26G21
 -18227011.573 7 -14202854.356 6  20852693.220    20852691.058    20852692.487
        43.600          40.700
 -18873712.593 7 -14706773.977 6  21216964.580    21216963.293    21216963.870
        43.800          40.800
   -494715.872 4   -385491.818 3  25123757.910    25123756.268    25123756.742
        24.200          19.900
   -913995.467 4   -712203.524 2  24678067.947    24678065.780    24678066.714
        26.500          17.800
 -20387204.513 7 -15886111.097 7  20634617.772    20634616.009    20634616.615
        47.000          43.600
  -8827722.903 5  -6878727.195 4  23128156.250    23128152.953    23128156.253
        33.200          28.800
 -16790685.894 6 -13083641.723 6  21301738.224    21301737.077    21301738.011
        41.900          37.700
  -9342464.235 5  -7279836.382 4  23120311.385    23120307.750    23120310.115
        35.500          28.400
 06  1  1  0 33 30.0000000  0  8G29G 6G27G 8G10G 2G26G21
 -18277739.150 7 -14242382.324 6  20843040.030    20843037.866    20843039.329
        43.400          40.700
 -18869812.109 7 -14703734.632 6  21217707.013    21217705.537    21217706.195
        43.600          40.900
   -494053.107 3   -384975.390 3  25123883.752    25123882.521    25123883.065
        20.500          20.500
   -971371.712 3   -756912.272 3  24667149.099    24667147.778    24667147.607
        23.400          21.100
 -20337331.647 7 -15847249.121 7  20644108.195    20644106.566    20644107.034
        47.100          43.500
  -8732071.734 5  -6804193.802 4  23146359.064    23146355.186    23146358.213
        32.800          29.900
 -16882067.716 6 -13154848.304 6  21284348.996    21284347.621    21284348.522
        41.900          37.700
  -9434726.460 5  -7351728.999 4  23102754.007    23102750.836    23102752.818
        35.300          28.800
 06  1  1  0 34  0.0000000  0  8G29G 6G27G 8G10G 2G26G21
 -18327919.169 7 -14281483.620 6  20833490.987    20833488.958    20833490.292
        43.400          40.900
 -18865333.880 7 -14700245.104 6  21218559.341    21218557.867    21218558.433
        43.800          41.000
   -492928.131 3   -384098.792 3  25124098.220    25124096.201    25124097.114
        22.600          19.300
  -1028358.203 4   -801317.318 3  24656304.569    24656303.565    24656303.745
        25.300          19.300
 -20287133.253 7 -15808133.484 7  20653660.848    20653659.028    20653659.666
        47.300          43.400
  -8636220.672 5  -6729504.688 4  23164598.848    23164595.259    23164597.630
        32.100          28.800
 -16972970.659 7 -13225681.744 6  21267050.869    21267049.310    21267050.412
        42.400          37.500
  -9526900.283 5  -7423552.731 4  23085213.679    23085210.699    23085212.487
        35.100          27.900
 06  1  1  0 34 30.0000000  0  8G29G 6G27G 8G10G 2G26G21
 -18377550.043 7 -14320157.010 6  20824046.664    20824044.603    20824045.913
        43.600          41.200
 -18860278.605 7 -14696305.924 6  21219520.922    21219519.688    21219520.155
        43.500          41.000
   -491340.531 4   -382861.732 3  25124400.574    25124398.571    25124399.803
        25.900          20.500
  -1084952.813 4   -845416.955 3  24645535.931    24645534.518    24645534.456
        25.600          22.100
 -20236610.759 7 -15768765.306 7  20663274.830    20663273.150    20663273.719
        47.300          43.300
  -8540170.870 5  -6654660.706 4  23182877.517    23182872.809    23182875.989
        32.400          28.400
 -17063391.726 7 -13296139.683 6  21249844.155    21249842.609    21249843.615
        42.000          37.600
  -9618984.121 5  -7495306.350 4  23067690.782    23067687.525    23067689.532
        35.400          27.400
 06  1  1  0 35  0.0000000  0  8G29G 6G27G 8G10G 2G26G21
 -18426630.342 7 -14358401.376 6  20814707.030    20814704.967    20814706.261
        43.600          41.400
 -18854645.815 7 -14691916.732 6  21220593.021    21220591.548    21220592.217
        43.800          40.700
   -489289.986 3   -381263.907 3  25124790.639    25124788.705    25124789.368
        22.100          21.600
  -1141152.331 4   -889208.739 2  24634841.320    24634839.067    24634840.187
        28.100          16.100
 -20185765.750 7 -15729145.812 7  20672950.221    20672948.604    20672949.153
        47.400          43.100
  -8443923.238 5  -6579662.560 4  23201192.151    23201187.944    23201190.978
        31.600          28.800
 -17153327.998 7 -13366219.874 6  21232730.096    21232728.338    21232729.363
        42.100          37.900
  -9710976.688 5  -7566988.833 4  23050184.398    23050181.587    23050183.565
        35.400          26.800
 06  1  1  0 35 30.0000000  0  8G29G 6G27G 8G10G 2G26G21
 -18475158.966 7 -14396215.875 6  20805472.371    20805470.192    20805471.549
        43.600          41.400
 -18848436.036 7 -14687077.942 6  21221774.839    21221773.202    21221774.034
        43.800          40.600
   -486776.310 4   -379305.204 3  25125269.194    25125267.226    25125268.135
        25.600          22.600
  -1196954.368 4   -932690.835 2  24624223.067    24624219.836    24624221.558
        28.400          13.900
 -20134600.104 7 -15689276.475 7  20682686.796    20682685.005    20682685.632
        47.200          43.000
  -8347478.935 5  -6504511.162 4  23219544.529    23219540.700    23219543.853
        31.000          28.100
 -17242776.556 7 -13435920.016 6  21215707.846    21215706.995    21215707.651
        42.400          38.400
  -9802876.192 5  -7638598.817 4  23032697.333    23032693.725    23032696.110
        35.900          27.600
 06  1  1  0 36  0.0000000  0  8G29G 6G27G 8G10G 2G26G21
 -18523134.335 7 -14433599.262 6  20796342.944    20796340.720    20796342.202
        43.700          41.200
 -18841649.306 7 -14681789.579 6  21223066.214    21223064.761    21223065.507
        44.000          40.700
   -483798.800 4   -376985.097 3  25125835.259    25125833.770    25125834.384
        24.600          21.100
  -1252356.540 4   -975861.335 2  24613679.793    24613677.547    24613678.611
        26.500          15.100
 -20083115.454 7 -15649158.564 7  20692484.040    20692482.154    20692482.862
        47.000          42.900
  -8250838.999 5  -6429207.316 4  23237933.959    23237930.709    23237933.615
        32.400          28.600
 -17331734.571 7 -13505237.930 6  21198780.506    21198778.723    21198779.673
        42.200          38.400
  -9894681.570 6  -7710135.461 4  23015227.345    23015223.758    23015226.306
        36.500          27.900
 06  1  1  0 36 30.0000000  0  8G29G 6G27G 8G10G 2G26G21
 -18570555.269 7 -14470550.626 6  20787318.848    20787316.792    20787318.131
        43.600          41.200
 -18834285.525 7 -14676051.565 6  21224467.644    21224465.918    21224466.843
        44.100          40.600
   -480357.458 3   -374303.537 3  25126490.672    25126488.405    25126489.601
        23.800          19.300
  -1307356.123 4  -1018718.122 2  24603213.586    24603211.644    24603212.485
        28.100          17.800
 -20031313.345 7 -15608793.280 7  20702341.693    20702339.803    20702340.430
        47.000          42.900
  -8154004.284 5  -6353751.721 4  23256360.810    23256357.737    23256360.391
        31.500          28.100
 -17420198.953 7 -13574171.200 6  21181945.437    21181944.388    21181945.290
        42.400          38.200
  -9986390.948 6  -7781597.294 4  22997775.381    22997772.063    22997774.240
        36.300          28.400
 06  1  1  0 37  0.0000000  0  8G29G 6G27G 8G10G 2G26G21
 -18617420.255 7 -14507068.780 6  20778400.336    20778398.751    20778399.809
        43.600          41.300
 -18826344.985 7 -14669864.128 6  21225978.675    21225977.079    21225977.884
        44.200          40.700
   -476452.171 4   -371260.453 3  25127233.750    25127231.703    25127232.785
        24.900          18.600
  -1361950.420 4  -1061259.102 2  24592824.627    24592822.751    24592823.670
        26.500          17.800
 -19979195.361 7 -15568181.862 7  20712259.398    20712257.590    20712258.181
        47.000          42.800
  -8056976.258 5  -6278145.445 4  23274825.165    23274821.478    23274824.338
        32.100          27.400
 -17508166.797 7 -13642717.544 6  21165206.305    21165204.498    21165205.714
        42.700          37.900
 -10078003.374 6  -7852983.577 4  22980342.167    22980339.093    22980341.188
        36.700          29.700
 06  1  1  0 37 30.0000000  0  8G29G 6G27G 8G10G 2G26G21
 -18663727.971 7 -14543152.699 6  20769588.656    20769586.620    20769587.914
        43.700          41.400
 -18817828.150 7 -14663227.630 6  21227599.618    21227597.746    21227598.769
        44.600          40.600
   -472082.500 4   -367855.525 2  25128065.283    25128062.914    25128064.018
        24.200          17.000
  -1416136.956 4  -1103482.361 2  24582512.740    24582511.393    24582511.914
        25.900          16.100
 -19926763.255 7 -15527325.674 7  20722236.823    20722235.080    20722235.680
        46.800          43.100
  -7959755.661 5  -6202389.119 4  23293326.696    23293321.754    23293325.423
        32.400          27.100
 -17595635.411 7 -13710874.893 6  21148561.706    21148559.766    21148561.108
        42.800          38.100
 -10169517.063 5  -7924292.920 5  22962927.781    22962924.637    22962926.666
        35.900          30.400
 06  1  1  0 38  0.0000000  0  8G29G 6G27G 8G10G 2G26G21
 -18709477.413 7 -14578801.603 6  20760882.753    20760880.729    20760882.185
        43.900          41.500
 -18808734.898 7 -14656141.979 6  21229329.825    21229328.136    21229328.990
        44.100          40.900
   -467248.450 3   -364088.723 3  25128984.766    25128983.361    25128984.057
        23.400          18.600
  -1469912.591 4  -1145385.402 2  24572279.266    24572278.421    24572278.611
        24.200          17.800
 -19874018.442 7 -15486225.817 7  20732273.863    20732272.074    20732272.646
        46.700          42.800
  -7862343.528 5  -6126483.569 4  23311863.136    23311859.022    23311862.279
        32.000          28.800
 -17682601.790 7 -13778640.870 6  21132012.380    21132010.892    21132011.834
        42.700          38.600
 -10260930.557 6  -7995524.183 4  22945532.063    22945529.155    22945531.193
        36.500          29.500
 06  1  1  0 38 30.0000000  0  8G29G 6G27G 8G10G 2G26G21
 -18754667.121 7 -14614014.350 6  20752283.467    20752281.360    20752282.800
        43.800          41.500
 -18799064.852 7 -14648606.878 6  21231169.887    21231168.341    21231169.064
        44.100          40.500
   -461949.732 3   -359959.872 2  25129993.313    25129991.394    25129992.406
        23.000          17.800
  -1523275.472 3  -1186966.832 3  24562124.529    24562123.642    24562123.650
        23.000          19.300
 -19820962.503 7 -15444883.529 7  20742370.276    20742368.365    20742368.979
        46.800          42.900
  -7764741.534 5  -6050430.097 4  23330435.936    23330432.218    23330434.927
        31.000          28.400
 -17769063.090 7 -13846013.272 6  21115559.076    21115557.834    21115558.739
        42.800          38.700
 -10352242.534 6  -8066676.351 4  22928156.035    22928152.892    22928155.143
        37.100          29.500
 06  1  1  0 39  0.0000000  0  8G29G 6G27G 8G10G 2G26G21
 -18799295.994 7 -14648790.084 6  20743790.760    20743788.812    20743790.164
        44.000          41.600
 -18788819.631 7 -14640623.582 6  21233119.459    21233117.971    21233118.669
        44.000          40.700
   -456185.928 3   -355468.598 2  25131090.371    25131088.058    25131089.295
        23.400          15.100
  -1576223.236 3  -1228224.805 2  24552049.484    24552047.722    24552048.274
        23.400          13.900
 -19767597.143 7 -15403300.132 7  20752524.916    20752523.339    20752523.866
        47.000          42.800
  -7666950.362 5  -5974229.209 4  23349045.123    23349041.158    23349044.149
        30.200          27.900
 -17855016.612 7 -13912990.010 6  21099202.700    21099201.350    21099202.291
        43.100          38.900
 -10443451.416 6  -8137748.199 4  22910800.080    22910796.528    22910798.677
        36.600          29.700
 06  1  1  0 39 30.0000000  0  8G29G 6G27G 8G10G 2G26G21
 -18843362.676 7 -14683127.746 6  20735405.379    20735403.198    20735404.592
        43.800          41.500
 -18777998.994 7 -14632191.920 6  21235178.522    21235176.986    21235177.741
        44.000          40.700
   -449956.799 3   -350614.749 2  25132275.455    25132273.708    25132274.609
        23.400          17.800
  -1628753.108 4  -1269157.147 2  24542053.568    24542051.517    24542052.117
        24.900          13.900
 -19713923.826 7 -15361476.767 7  20762738.819    20762737.072    20762737.671
        46.800          42.600
  -7568970.784 5  -5897881.507 4  23367689.706    23367685.811    23367688.777
        31.100          26.800
 -17940459.289 7 -13979568.689 6  21082943.521    21082941.966    21082943.042
        43.100          38.500
 -10534555.588 6  -8208738.434 4  22893463.488    22893459.711    22893462.271
        36.900          28.600
 06  1  1  0 40  0.0000000  0  8G29G 6G27G 8G10G 2G26G21
 -18886866.149 7 -14717026.543 6  20727126.874    20727124.767    20727126.149
        43.800          41.600
 -18766603.064 7 -14623311.971 6  21237347.198    21237345.553    21237346.413
        44.000          40.700
   -443262.209 3   -345398.203 2  25133548.942    25133546.786    25133548.033
        19.900          16.100
  -1680862.842 4  -1309762.068 2  24532137.638    24532135.248    24532136.820
        25.300          16.100
 -19659944.415 7 -15319414.888 7  20773010.911    20773009.039    20773009.684
        47.000          42.700
  -7470804.551 5  -5821388.330 4  23386370.640    23386366.045    23386369.509
        30.400          25.900
 -18025388.546 7 -14045747.296 6  21066782.042    21066780.553    21066781.466
        43.000          39.100
 -10625553.531 6  -8279645.903 4  22876147.004    22876143.162    22876145.876
        37.100          27.900
 06  1  1  0 40 30.0000000  0  8G29G 6G27G 8G10G 2G26G21
 -18929805.111 7 -14750485.458 6  20718955.888    20718953.787    20718955.134
        43.700          41.900
 -18754632.262 7 -14613984.071 6  21239625.096    21239623.654    21239624.296
        43.900          40.600
   -436102.401 4   -339819.133 3  25134911.949    25134909.878    25134911.108
        24.600          18.600
  -1732549.730 4  -1350037.544 2  24522301.867    24522299.441    24522300.598
        27.400          17.000
 -19605660.502 7 -15277115.737 7  20783340.859    20783338.927    20783339.611
        47.100          42.700
  -7372452.523 5  -5744750.397 4  23405084.863    23405082.341    23405084.569
        30.100          27.100
 -18109801.625 7 -14111523.691 6  21050718.635    21050717.217    21050718.193
        43.200          39.100
 -10716443.926 6  -8350469.588 4  22858850.705    22858847.451    22858849.880
        36.800          28.600
 06  1  1  0 41  0.0000000  0  8G29G 6G27G 8G10G 2G26G21
 -18972178.593 7 -14783503.746 6  20710892.585    20710890.285    20710891.789
        43.900          41.900
 -18742086.488 7 -14604208.145 6  21242012.524    21242010.913    21242011.731
        43.900          40.400
   -428477.033 3   -333877.298 3  25136362.654    25136361.192    25136361.559
        19.300          19.300
  -1783811.298 4  -1389981.587 3  24512546.570    24512545.441    24512545.594
        26.800          21.100
 -19551073.484 7 -15234580.399 7  20793728.293    20793726.416    20793727.097
        47.000          42.500
  -7273915.740 5  -5667968.529 4  23423836.425    23423833.488    23423835.778
        31.600          28.100
 -18193695.565 7 -14176895.568 6  21034754.087    21034752.811    21034753.666
        43.100          39.200
 -10807225.202 6  -8421208.214 5  22841575.895    22841572.651    22841574.715
        36.400          30.800
 06  1  1  0 41 30.0000000  0  8G29G 6G27G 8G10G 2G26G21
 -19013985.502 7 -14816080.544 6  20702936.911    20702934.681    20702936.113
        43.900          41.900
 -18728966.475 7 -14593984.750 6  21244508.923    21244507.622    21244508.205
        43.800          40.500
   -420386.111 3   -327572.690 2  25137901.887    25137900.833    25137901.212
        22.100          17.800
  -1834645.365 4  -1429592.492 3  24502873.050    24502871.609    24502872.613
        25.600          21.600
 -19496185.089 7 -15191810.220 7  20804173.162    20804171.407    20804171.957
        47.000          42.400
  -7175195.412 5  -5591043.602 4  23442623.297    23442618.914    23442622.007
        31.600          25.300
 -18277067.762 7 -14241860.890 6  21018889.448    21018887.556    21018888.666
        43.600          39.300
 -10897895.808 6  -8491860.614 5  22824321.561    22824318.639    22824320.700
        37.700          31.300
 06  1  1  0 42  0.0000000  0  8G29G 6G27G 8G10G 2G26G21
 -19055224.429 7 -14848214.758 7  20695089.375    20695087.085    20695088.633
        44.000          42.000
 -18715272.378 7 -14583314.027 6  21247114.898    21247113.433    21247114.059
        43.300          40.400
   -411829.469 3   -320905.176 2  25139530.467    25139528.907    25139529.749
        21.600          17.000
  -1885049.265 4  -1468868.249 3  24493281.761    24493280.262    24493280.749
        27.400          23.800
 -19440996.889 7 -15148806.430 7  20814675.300    20814673.337    20814674.027
        46.900          42.500
  -7076292.431 5  -5513976.345 4  23461443.729    23461439.492    23461442.604
        30.200          27.100
 -18359915.370 7 -14306417.450 6  21003123.485    21003122.081    21003123.167
        43.900          39.300
 -10988454.200 6  -8562425.570 5  22807089.146    22807085.613    22807087.992
        37.500          30.200
 06  1  1  0 42 30.0000000  0  8G29G 6G27G 8G10G 2G26G21
 -19095894.534 7 -14879905.738 7  20687350.040    20687347.894    20687349.369
        44.200          42.100
 -18701005.004 7 -14572196.590 6  21249829.733    21249828.414    21249829.039
        43.500          40.500
   -402807.183 3   -313874.842 2  25141247.917    25141245.638    25141247.010
        23.800          17.800
  -1935020.469 4  -1507806.819 3  24483772.923    24483771.149    24483771.766
        25.900          23.000
 -19385510.569 7 -15105570.338 7  20825233.729    20825232.081    20825232.505
        46.600          42.300
  -6977208.036 4  -5436767.758 4  23480298.381    23480294.896    23480297.492
        29.700          26.800
 -18442235.588 7 -14370563.053 6  20987458.829    20987456.992    20987458.210
        43.900          39.300
 -11078897.979 6  -8632901.223 5  22789878.442    22789874.604    22789877.135
        37.200          30.100
 06  1  1  0 43  0.0000000  0  8G29G 6G27G 8G10G 2G26G21
 -19135994.719 7 -14911152.624 7  20679719.055    20679717.151    20679718.438
        44.200          42.200
 -18686164.871 7 -14560632.849 6  21252653.803    21252652.409    21252652.996
        43.300          40.500
   -393319.198 3   -306481.617 3  25143052.824    25143051.383    25143051.997
        23.000          21.600
  -1984556.521 4  -1546406.301 3  24474345.966    24474344.007    24474344.845
        24.200          19.300
 -19329727.559 7 -15062103.056 7  20835848.941    20835847.145    20835847.724
        46.600          42.200
  -6877943.196 5  -5359418.559 4  23499188.368    23499184.447    23499187.330
        31.500          27.600
 -18524025.801 7 -14434295.659 6  20971894.051    20971892.874    20971893.861
        43.800          39.300
 -11169227.147 6  -8703287.579 5  22772689.003    22772685.712    22772687.880
        37.300          30.800
 06  1  1  0 43 30.0000000  0  8G29G 6G27G 8G10G 2G26G21
 -19175523.959 7 -14941954.616 7  20672197.100    20672194.968    20672196.334
        44.300          42.300
 -18670752.237 7 -14548623.008 6  21255587.149    21255585.356    21255586.283
        43.600          40.200
   -383365.271 3   -298725.331 2  25144947.529    25144945.639    25144946.457
        23.400          17.000
  -2033655.375 4  -1584665.109 3  24465003.390    24465001.265    24465001.955
        24.600          19.300
 -19273649.453 7 -15018405.837 7  20846520.378    20846518.458    20846519.190
        46.600          42.100
  -6778499.430 5  -5281929.947 4  23518112.819    23518107.972    23518111.551
        32.400          27.400
 -18605283.360 7 -14497613.223 6  20956431.742    20956429.976    20956431.125
        43.800          39.100
 -11259439.532 6  -8773582.926 5  22755521.723    22755519.057    22755520.788
        37.200          31.100
 06  1  1  0 44  0.0000000  0  8G29G 6G27G 8G10G 2G26G21
 -19214481.277 7 -14972310.950 7  20664783.755    20664781.563    20664783.073
        44.600          42.300
 -18654767.347 7 -14536167.244 6  21258628.591    21258626.950    21258627.874
        43.600          40.100
   -372945.600 3   -290606.121 2  25146930.713    25146927.947    25146929.613
        20.500          13.900
  -2082314.227 4  -1622581.076 2  24455742.713    24455741.028    24455741.731
        25.300          15.100
 -19217277.882 7 -14974479.940 7  20857247.233    20857245.658    20857246.179
        46.600          42.000
  -6678877.642 5  -5204302.597 4  23537069.167    23537065.326    23537068.250
        30.400          26.800
 -18686005.486 7 -14560513.551 6  20941070.862    20941069.116    20941070.188
        43.900          39.200
 -11349533.230 6  -8843785.786 5  22738377.543    22738374.694    22738376.502
        36.700          30.400
 06  1  1  0 44 30.0000000  0  8G29G 6G27G 8G10G 2G26G21
 -19252865.738 7 -15002220.912 7  20657479.410    20657477.241    20657478.756
        44.700          42.300
 -18638211.022 7 -14523266.209 6  21261779.308    21261777.486    21261778.545
        43.500          39.800
   -362060.176 3   -282123.989 3  25149001.466    25149000.303    25149000.367
        21.600          18.600
  -2130530.808 4  -1660152.438 2  24446567.607    24446565.982    24446566.750
        26.200          17.000
 -19160614.581 7 -14930326.722 7  20868030.013    20868028.369    20868028.802
        46.700          42.100
  -6579078.810 4  -5126537.305 4  23556059.802    23556055.979    23556059.091
        28.800          24.600
 -18766189.711 7 -14622994.744 6  20925812.152    20925810.430    20925811.606
        44.000          39.700
 -11439506.736 6  -8913895.001 5  22721256.390    22721253.207    22721255.304
        38.100          31.100
 06  1  1  0 45  0.0000000  0  8G29G 6G27G 8G10G 2G26G21
 -19290676.500 7 -15031683.830 7  20650284.285    20650281.917    20650283.577
        44.300          42.500
 -18621083.483 7 -14509920.080 6  21265038.589    21265036.969    21265037.805
        43.500          40.000
   -350708.954 3   -273278.912 2  25151161.544    25151159.524    25151160.608
        19.900          15.100
  -2178303.158 4  -1697377.597 2  24437477.621    24437475.483    24437475.982
        24.600          17.000
 -19103661.066 7 -14885947.361 6  20878868.001    20878866.137    20878866.736
        46.800          41.900
  -6479104.236 4  -5048635.057 4  23575083.985    23575080.947    23575083.488
        29.200          25.900
 -18845833.182 7 -14685054.564 6  20910656.731    20910654.728    20910656.020
        44.000          39.500
 -11529358.488 6  -8983909.342 5  22704157.590    22704154.829    22704156.961
        38.000          30.200
 06  1  1  0 45 30.0000000  0  8G29G 6G27G 8G10G 2G26G21
 -19327912.324 7 -15060698.746 7  20643198.613    20643196.345    20643197.887
        44.200          42.600
 -18603385.407 7 -14496129.367 6  21268406.112    21268404.711    21268405.354
        43.200          39.900
   -338891.862 3   -264070.815 3  25153410.253    25153408.975    25153409.606
        21.100          20.500
  -2225628.927 4  -1734254.811 3  24428471.343    24428469.627    24428470.552
        25.300          18.600
 -19046418.786 7 -14841342.988 6  20889761.087    20889758.987    20889759.876
        46.900          41.800
  -6378954.943 4  -4970596.634 4  23594142.242    23594138.928    23594141.705
        29.900          26.200
 -18924933.438 7 -14746691.110 6  20895604.267    20895602.531    20895603.691
        43.900          39.800
 -11619087.267 6  -9053827.861 4  22687083.705    22687080.086    22687082.653
        38.500          29.900
 06  1  1  0 46  0.0000000  0  8G29G 6G27G 8G10G 2G26G21
 -19364572.495 7 -15089265.097 7  20636222.320    20636220.146    20636221.594
        44.200          42.700
 -18585117.580 7 -14481894.698 6  21271882.738    21271881.008    21271881.954
        43.700          39.900
   -326609.266 3   -254499.989 2  25155748.294    25155745.516    25155747.398
        23.400          17.000
  -2272505.548 4  -1770782.024 3  24419550.547    24419549.401    24419549.843
        25.300          19.900
 -18988889.388 7 -14796514.882 6  20900708.397    20900706.521    20900707.276
        47.000          41.800
  -6278632.105 4  -4892422.989 4  23613232.180    23613229.791    23613232.181
        28.400          27.100
 -19003487.839 7 -14807902.310 6  20880655.924    20880654.098    20880655.405
        44.400          39.900
 -11708691.048 6  -9123648.993 4  22670032.114    22670028.867    22670031.191
        38.400          29.700
 06  1  1  0 46 30.0000000  0  8G29G 6G27G 8G10G 2G26G21
 -19400656.089 7 -15117382.168 7  20629355.753    20629353.770    20629355.055
        44.100          42.800
 -18566280.310 7 -14467216.309 6  21275467.352    21275465.436    21275466.586
        43.700          40.000
   -313861.284 3   -244566.446 2  25158173.910    25158171.407    25158172.903
        20.500          13.900
  -2318930.663 4  -1806957.410 2  24410716.559    24410714.463    24410715.538
        26.500          13.900
 -18931074.492 7 -14751464.314 6  20911710.364    20911708.398    20911709.175
        46.800          41.900
  -6178136.799 4  -4814114.982 4  23632355.868    23632353.219    23632355.632
        27.100          26.200
 -19081493.880 7 -14868686.225 6  20865811.972    20865810.003    20865811.288
        44.300          40.000
 -11798168.373 6  -9193371.574 5  22653004.784    22653002.517    22653004.036
        38.100          31.100
 06  1  1  0 47  0.0000000  0  8G29G 6G27G 8G10G 2G26G21
 -19436162.283 7 -15145049.323 7  20622598.992    20622597.027    20622598.433
        44.300          42.700
 -18546874.480 7 -14452094.881 6  21279159.836    21279158.627    21279159.140
        43.300          40.300
   -300647.844 3   -234270.289 2  25160688.197    25160685.797    25160687.350
        21.600          13.900
  -2364902.081 4  -1842779.287 2  24401968.364    24401966.104    24401967.552
        26.500          15.100
 -18872975.608 7 -14706192.462 6  20922766.271    20922764.130    20922765.046
        46.800          41.500
  -6077470.466 4  -4735673.721 4  23651511.329    23651509.179    23651512.023
        29.000          24.900
 -19158948.707 7 -14929040.615 6  20851072.613    20851070.792    20851071.960
        44.000          39.800
 -11887517.483 6  -9262994.232 5  22636003.152    22635999.650    22636001.901
        38.400          31.600
 06  1  1  0 47 30.0000000  0  8G29G 6G27G 8G10G 2G26G21
 -19471090.094 7 -15172265.786 7  20615952.749    20615950.447    20615951.921
        44.100          42.700
 -18526900.759 7 -14436530.942 6  21282960.910    21282959.575    21282960.080
        43.200          40.000
   -286969.026 3   -223611.478 2  25163291.221    25163289.503    25163290.416
        23.000          17.800
  -2410416.405 4  -1878245.000 3  24393307.263    24393305.805    24393306.363
        26.500          19.300
 -18814594.378 7 -14660700.593 6  20933875.840    20933873.750    20933874.596
        46.700          41.600
  -5976634.188 4  -4657100.004 4  23670700.197    23670698.091    23670700.746
        29.700          26.800
 -19235849.966 7 -14988963.653 6  20836438.419    20836436.973    20836438.076
        44.400          40.200
 -11976736.642 6  -9332515.642 5  22619025.106    22619021.738    22619024.038
        39.100          31.800
 06  1  1  0 48  0.0000000  0  8G29G 6G27G 8G10G 2G26G21
 -19505438.868 7 -15199031.053 7  20609416.181    20609414.090    20609415.560
        44.300          42.800
 -18506359.872 7 -14420525.052 6  21286869.587    21286868.164    21286868.841
        43.200          40.200
   -272825.015 3   -212590.183 2  25165982.713    25165981.135    25165981.611
        22.600          16.100
  -2455473.085 4  -1913354.034 3  24384733.098    24384731.844    24384732.268
        26.500          19.900
 -18755932.540 7 -14614990.069 6  20945038.691    20945036.726    20945037.483
        46.600          41.300
  -5875628.969 4  -4578394.666 4  23689921.001    23689918.803    23689920.939
        28.600          26.200
 -19312195.196 7 -15048453.419 6  20821910.845    20821908.903    20821910.304
        44.700          40.200
 -12065824.674 6  -9401934.883 5  22602072.237    22602068.819    22602071.028
        38.900          32.100
 06  1  1  0 48 30.0000000  0  8G29G 6G27G 8G10G 2G26G21
 -19539207.926 7 -15225344.590 7  20602990.192    20602988.053    20602989.508
        44.200          43.000
 -18485252.335 7 -14404077.624 6  21290886.523    21290884.665    21290885.686
        43.300          39.900
   -258216.002 4   -201206.533 2  25168762.921    25168760.881    25168761.983
        27.100          17.800
  -2500069.579 4  -1948104.560 2  24376246.979    24376245.015    24376246.359
        28.400          16.100
 -18696991.343 7 -14569061.867 6  20956254.774    20956252.835    20956253.583
        46.600          41.300
  -5774455.846 4  -4499558.517 4  23709172.452    23709171.512    23709173.451
        26.800          25.600
 -19387981.812 7 -15107507.905 6  20807488.927    20807487.215    20807488.436
        44.700          40.500
 -12154779.636 6  -9471250.426 5  22585144.658    22585141.279    22585143.593
        39.300          31.300
 06  1  1  0 49  0.0000000  0  8G29G 6G27G 8G10G 2G26G21
 -19572396.180 7 -15251205.559 7  20596674.674    20596672.475    20596673.964
        44.300          42.800
 -18463578.807 7 -14387189.162 6  21295010.822    21295009.168    21295010.000
        43.400          39.900
   -243141.995 4   -189460.551 2  25171631.543    25171629.224    25171630.564
        26.200          16.100
  -2544203.709 4  -1982494.749 3  24367848.500    24367847.341    24367847.535
        27.100          20.500
 -18637772.616 7 -14522917.401 6  20967523.867    20967521.853    20967522.685
        46.600          41.200
  -5673116.116 4  -4420592.464 3  23728458.977    23728455.376    23728458.540
        28.600          22.600
 -19463207.188 7 -15166125.061 6  20793174.050    20793172.332    20793173.514
        44.800          40.800
 -12243600.191 6  -9540461.239 5  22568242.393    22568239.163    22568241.502
        38.800          31.100
 06  1  1  0 49 30.0000000  0  8G29G 6G27G 8G10G 2G26G21
 -19605003.113 7 -15276613.547 7  20590469.823    20590467.578    20590469.101
        44.400          42.800
 -18441339.825 7 -14369860.087 6  21299242.470    21299241.100    21299241.737
        43.400          40.000
   -227603.689 3   -177352.787 2  25174587.612    25174586.471    25174586.890
        23.400          16.100
  -2587873.026 4  -2016522.750 3  24359538.836    24359536.844    24359537.451
        26.800          19.900
 -18578277.744 7 -14476557.764 6  20978845.199    20978843.290    20978844.030
        46.300          41.100
  -5571610.879 4  -4341497.534 3  23747776.016    23747771.157    23747774.665
        28.400          23.000
 -19537869.064 7 -15224303.131 6  20778966.307    20778964.635    20778965.856
        44.900          40.800
 -12332284.090 6  -9609565.573 5  22551366.313    22551362.996    22551365.357
        38.900          30.600
 06  1  1  0 50  0.0000000  0  8G29G 6G27G 8G10G 2G26G21
 -19637027.987 7 -15301567.989 7  20584375.749    20584373.447    20584374.958
        44.400          43.200
 -18418536.852 7 -14352091.533 6  21303581.976    21303580.090    21303581.153
        43.100          39.600
   -211601.003 3   -164883.201 2  25177633.001    25177631.311    25177631.882
        22.600          16.100
  -2631075.208 3  -2050186.744 2  24351317.051    24351315.566    24351316.059
        23.800          17.800
 -18518508.383 7 -14429984.237 6  20990218.794    20990216.972    20990217.675
        46.100          40.900
  -5469941.465 4  -4262274.615 4  23767123.138    23767118.282    23767121.819
        27.400          25.600
 -19611964.793 7 -15282040.042 6  20764866.721    20764864.731    20764866.038
        44.700          40.900
 -12420830.068 6  -9678562.434 5  22534517.167    22534513.596    22534515.933
        39.300          32.000
 06  1  1  0 50 30.0000000  0  8G29G 6G27G 8G10G 2G26G21
 -19668469.976 7 -15326068.229 7  20578392.743    20578390.254    20578391.881
        44.600          43.200
 -18395170.353 7 -14333883.875 6  21308028.360    21308026.482    21308027.639
        43.100          39.500
   -195133.999 4   -152051.803 3  25180767.146    25180765.257    25180766.241
        24.900          18.600
  -2673808.002 4  -2083485.026 3  24343186.130    24343183.353    24343184.899
        26.800          18.600
 -18458466.017 7 -14383197.977 6  21001644.581    21001642.674    21001643.378
        46.100          40.700
  -5368108.720 4  -4182924.456 3  23786500.156    23786496.423    23786499.488
        28.600          23.800
 -19685492.085 7 -15339334.021 6  20750874.586    20750872.791    20750874.112
        44.900          40.900
 -12509236.534 6  -9747450.577 5  22517693.527    22517690.390    22517692.567
        39.300          32.000
 06  1  1  0 51  0.0000000  0  8G29G 6G27G 8G10G 2G26G21
 -19699328.520 7 -15350113.838 7  20572520.469    20572518.069    20572519.729
        44.600          43.100
 -18371240.912 7 -14315237.561 6  21312581.847    21312580.472    21312581.126
        43.200          39.700
   -178203.032 3   -138858.848 2  25183988.566    25183987.023    25183987.518
        21.100          17.800
  -2716069.526 4  -2116416.073 2  24335143.288    24335140.608    24335142.160
        24.900          15.100
 -18398152.051 7 -14336200.080 6  21013121.873    21013120.129    21013120.697
        46.300          40.700
  -5266114.161 4  -4103448.194 4  23805909.776    23805906.143    23805908.594
        28.400          27.100
 -19758448.379 7 -15396183.069 6  20736991.286    20736989.667    20736990.930
        45.200          40.800
 -12597501.699 6  -9816228.614 5  22500896.918    22500893.973    22500896.039
        39.300          32.300
 06  1  1  0 51 30.0000000  0  8G29G 6G27G 8G10G 2G26G21
 -19729602.863 7 -15373704.227 7  20566759.601    20566757.010    20566758.770
        44.700          43.100
 -18346749.577 7 -14296153.403 6  21317242.466    21317241.094    21317241.712
        43.100          39.800
   -160808.499 3   -125304.704 2  25187298.648    25187296.704    25187297.583
        21.100          13.900
  -2757857.475 4  -2148978.064 2  24327191.113    24327188.965    24327190.157
        25.300          13.900
 -18337568.185 7 -14288991.874 6  21024650.611    21024648.852    21024649.367
        46.100          40.900
  -5163958.814 4  -4023846.650 3  23825349.689    23825344.114    23825347.972
        26.800          20.500
 -19830831.336 7 -15452585.364 6  20723217.444    20723215.597    20723216.924
        44.900          40.900
 -12685623.563 6  -9884894.999 5  22484128.188    22484124.789    22484127.174
        39.400          31.300
 06  1  1  0 52  0.0000000  0  8G29G 6G27G 8G10G 2G26G21
 -19759292.477 7 -15396838.982 7  20561109.767    20561107.314    20561108.980
        44.400          43.200
 -18321697.386 7 -14276632.223 6  21322009.921    21322008.153    21322009.103
        43.000          39.300
   -142950.861 3   -111389.669 2  25190696.646    25190695.319    25190695.772
        22.100          16.100
  -2799169.495 4  -2181169.229 2  24319330.067    24319327.071    24319329.169
        26.200          15.100
 -18276716.057 7 -14241574.630 6  21036230.489    21036228.624    21036229.308
        46.300          40.600
  -5061643.533 4  -3944120.460 4  23844819.656    23844815.209    23844818.102
        27.400          25.300
 -19902638.589 7 -15508539.048 6  20709552.827    20709551.294    20709552.373
        44.900          41.100
 -12773600.668 6  -9953448.579 5  22467386.592    22467383.117    22467385.429
        39.400          31.500
 06  1  1  0 52 30.0000000  0  8G29G 6G27G 8G10G 2G26G21
 -19788396.801 7 -15419517.667 7  20555571.185    20555568.961    20555570.461
        44.600          43.400
 -18296084.819 7 -14256674.382 6  21326883.750    21326881.984    21326882.933
        42.800          39.300
   -124630.161 4    -97113.821 3  25194183.758    25194181.695    25194182.665
        24.200          19.300
  -2840003.691 4  -2212988.066 2  24311558.989    24311557.625    24311558.007
        25.900          16.100
 -18215597.144 7 -14193949.501 6  21047860.930    21047859.191    21047859.736
        46.200          40.800
  -4959169.927 4  -3864270.933 3  23864319.513    23864315.108    23864318.154
        26.500          23.000
 -19973867.783 7 -15564042.307 6  20695998.648    20695996.757    20695997.967
        44.900          41.000
 -12861431.467 6 -10021888.157 5  22450673.203    22450669.766    22450671.928
        39.500          32.100
 06  1  1  0 53  0.0000000  0  8G29G 6G27G 8G10G 2G26G21
 -19816915.113 7 -15441739.722 7  20550144.452    20550142.059    20550143.646
        44.400          43.400
 -18269912.942 7 -14236280.713 6  21331864.077    21331862.429    21331863.369
        42.900          39.200
   -105846.753 3    -82477.432 2  25197757.498    25197755.406    25197756.594
        23.000          17.000
  -2880358.313 4  -2244433.225 2  24303880.609    24303878.367    24303879.359
        27.400          16.100
 -18154212.901 7 -14146117.626 6  21059542.037    21059540.284    21059540.888
        46.200          41.100
  -4856539.105 4  -3784298.917 3  23883849.780    23883844.748    23883848.336
        26.200          22.600
 -20044516.671 7 -15619093.375 6  20682554.419    20682552.693    20682554.008
        45.200          41.100
 -12949114.252 6 -10090212.398 5  22433987.651    22433984.250    22433986.430
        39.600          32.800
 06  1  1  0 53 30.0000000  0  8G29G 6G27G 8G10G 2G26G21
 -19844847.133 7 -15463504.924 7  20544829.129    20544826.755    20544828.351
        44.500          43.500
 -18243182.452 7 -14215451.764 6  21336950.575    21336949.072    21336949.824
        42.700          39.100
    -86601.020 4    -67480.778 2  25201420.614    25201418.056    25201419.209
        24.600          16.100
  -2920230.806 4  -2275502.666 2  24296292.477    24296290.413    24296291.712
        26.800          17.000
 -18092564.831 7 -14098080.171 6  21071273.314    21071271.491    21071272.151
        46.400          40.600
  -4753752.352 4  -3704205.318 3  23903409.298    23903404.274    23903408.012
        28.800          22.600
 -20114582.742 7 -15673690.302 6  20669221.139    20669219.501    20669220.801
        45.400          41.100
 -13036647.099 6 -10158419.795 5  22417330.402    22417327.582    22417329.309
        39.300          33.600
 06  1  1  0 54  0.0000000  0  8G29G 6G27G 8G10G 2G26G21
 -19872192.197 7 -15484812.755 7  20539625.479    20539623.076    20539624.728
        44.200          43.400
 -18215894.674 7 -14194188.565 6  21342143.287    21342141.817    21342142.547
        42.700          39.400
    -66893.736 4    -52124.468 2  25205170.794    25205168.384    25205170.060
        25.300          17.800
  -2959619.098 4  -2306194.826 3  24288797.558    24288796.067    24288796.711
        28.400          20.500
 -18030654.406 7 -14049838.279 6  21083054.618    21083052.599    21083053.381
        46.500          40.700
  -4650810.602 4  -3623991.048 3  23922998.622    23922994.198    23922997.179
        25.900          23.400
 -20184063.821 7 -15727831.389 6  20655999.702    20655997.556    20655999.065
        45.400          40.800
 -13124028.308 6 -10226509.023 5  22400702.116    22400699.370    22400701.268
        40.000          33.200
 06  1  1  0 54 30.0000000  0  8G29G 6G27G 8G10G 2G26G21
 -19898949.578 7 -15505662.658 7  20534533.549    20534531.400    20534532.853
        44.400          43.600
 -18188050.157 7 -14172491.546 6  21347442.222    21347440.550    21347441.383
        42.800          39.400
    -46724.667 3    -36408.340 2  25209008.580    25209006.294    25209007.802
        23.800          15.100
  -2998521.480 4  -2336508.356 3  24281395.052    24281393.174    24281393.788
        26.800          20.500
 -17968483.461 7 -14001393.382 6  21094885.334    21094883.397    21094884.065
        46.400          40.500
  -4547715.366 4  -3543657.129 3  23942617.048    23942612.088    23942615.681
        24.900          21.100
 -20252957.604 7 -15781514.843 6  20642889.564    20642887.499    20642889.043
        45.400          40.900
 -13211256.209 6 -10294478.815 5  22384103.711    22384100.153    22384102.636
        40.500          32.800
 06  1  1  0 55  0.0000000  0  8G29G 6G27G 8G10G 2G26G21
 -19925118.932 7 -15526054.353 7  20529553.463    20529551.619    20529552.823
        44.100          43.800
 -18159650.203 7 -14150361.716 6  21352846.248    21352844.660    21352845.561
        42.900          38.700
    -26094.393 3    -20332.815 2  25212934.083    25212932.366    25212933.062
        20.500          17.800
  -3036935.910 4  -2366441.656 3  24274084.355    24274082.769    24274083.330
        27.400          22.100
 -17906053.408 7 -13952746.585 6  21106765.248    21106763.449    21106764.067
        46.200          40.600
  -4444467.615 4  -3463204.360 3  23962262.571    23962259.493    23962261.973
        24.600          19.900
 -20321261.982 7 -15834739.021 6  20629891.696    20629889.706    20629891.077
        45.200          41.300
 -13298329.128 6 -10362327.837 5  22367534.160    22367530.673    22367533.191
        41.000          32.600
 06  1  1  0 55 30.0000000  0  8G29G 6G27G 8G10G 2G26G21
 -19950699.960 7 -15545987.615 7  20524685.690    20524683.669    20524684.981
        44.100          43.500
 -18130695.966 7 -14127799.974 6  21358356.146    21358354.583    21358355.406
        43.000          39.100
     -5003.269 3     -3898.241 2  25216947.438    25216945.218    25216946.375
        21.100          16.100
  -3074860.250 4  -2395993.071 3  24266867.506    24266865.783    24266866.481
        27.100          18.600
 -17843365.591 7 -13903898.936 6  21118694.344    21118692.600    21118693.160
        46.100          40.500
  -4341068.523 4  -3382633.694 4  23981940.036    23981936.450    23981938.671
        27.400          24.600
 -20388974.576 7 -15887502.058 6  20617006.271    20617004.358    20617005.699
        45.400          41.100
 -13385244.951 6 -10430054.455 5  22350994.655    22350991.210    22350993.617
        41.300          32.700
 06  1  1  0 56  0.0000000  0  9G29G 6G27G 8G10G 2G26G21G15
 -19975692.024 7 -15565461.943 7  20519929.919    20519927.786    20519929.185
        44.100          43.600
 -18101188.029 7 -14104806.784 6  21363971.280    21363969.814    21363970.488
        42.700          39.200
     16548.272 3     12895.162 2  25221049.072    25221047.213    25221047.929
        23.000          13.900
  -3112292.502 4  -2425161.053 3  24259744.378    24259742.587    24259743.516
        26.500          19.300
 -17780421.690 7 -13854851.742 6  21130672.015    21130670.517    21130670.896
        46.000          40.700
  -4237519.187 4  -3301945.933 3  24001645.512    24001640.577    24001644.380
        29.700          21.100
 -20456093.128 7 -15939802.211 6  20604234.188    20604232.014    20604233.507
        45.300          41.200
 -13472002.347 6 -10497657.612 5  22334485.135    22334481.747    22334484.166
        40.500          32.600
   -222917.379 2   -173701.538 3  24539122.212    24539121.706    24539121.300
        17.800          23.000
 06  1  1  0 56 30.0000000  0  9G29G 6G27G 8G10G 2G26G21G15
 -20000094.842 7 -15584477.121 7  20515285.906    20515284.045    20515285.332
        43.900          43.700
 -18071127.820 7 -14081383.248 6  21369691.756    21369689.941    21369691.028
        42.900          38.900
     38559.416 3     30046.700 2  25225237.082    25225235.841    25225236.356
        21.100          13.900
  -3149230.661 4  -2453944.003 3  24252715.123    24252713.465    24252714.084
        24.600          20.500
 -17717223.098 7 -13805606.085 6  21142698.368    21142696.647    21142697.189
        45.800          40.200
  -4133821.068 4  -3221142.196 4  24021377.859    24021374.371    24021376.993
        27.400          24.900
 -20522615.549 7 -15991637.845 6  20591575.373    20591573.202    20591574.803
        45.800          41.100
 -13558599.572 6 -10565135.957 5  22318006.087    22318002.974    22318005.196
        40.900          33.200
   -327415.448 3   -255128.540 4  24519235.617    24519236.614    24519235.105
        20.500          25.300
 06  1  1  0 57  0.0000000  0  9G29G 6G27G 8G10G 2G26G21G15
 -20023907.976 7 -15603032.808 7  20510754.638    20510752.573    20510753.922
        44.200          43.700
 -18040516.320 7 -14057530.137 6  21375516.875    21375515.301    21375516.098
        42.800          39.100
     61030.160 3     47556.342 2  25229513.996    25229511.753    25229512.649
        21.600          12.600
  -3185672.952 4  -2482340.587 3  24245780.961    24245778.911    24245779.775
        25.300          20.500
 -17653771.416 7 -13756163.213 6  21154772.920    21154771.043    21154771.692
        45.700          40.200
  -4029975.276 4  -3140223.425 3  24041139.425    24041135.158    24041138.300
        26.500          23.400
 -20588539.715 7 -16043007.307 6  20579030.184    20579028.331    20579029.786
        45.800          41.300
 -13645034.700 6 -10632487.991 5  22301558.489    22301554.841    22301557.295
        40.800          33.400
   -431915.321 3   -336556.975 4  24499351.236    24499351.221    24499350.603
        23.000          26.500
 06  1  1  0 57 30.0000000  0  9G29G 6G27G 8G10G 2G26G21G15
 -20047131.045 7 -15621128.700 7  20506335.468    20506333.377    20506334.758
        44.300          43.700
 -18009354.563 7 -14033248.256 6  21381446.678    21381445.387    21381445.867
        42.700          39.500
     83959.648 3     65423.461 1  25233876.871    25233874.567    25233876.179
        20.500          11.000
  -3221617.495 3  -2510349.294 3  24238939.766    24238938.507    24238939.006
        23.800          19.900
 -17590068.000 7 -13706524.193 6  21166894.863    21166893.410    21166893.866
        45.800          40.000
  -3925982.891 4  -3059190.427 3  24060927.527    24060923.874    24060926.830
        24.900          18.600
 -20653863.399 7 -16093908.865 6  20566599.487    20566597.677    20566598.937
        45.700          41.500
 -13731305.889 6 -10699712.285 5  22285141.103    22285137.991    22285140.174
        41.200          33.200
   -536415.830 3   -417985.874 3  24479466.250    24479464.451    24479464.753
        20.500          23.800
 06  1  1  0 58  0.0000000  0  9G29G 6G27G 8G10G 2G26G21G15
 -20069763.782 7 -15638764.592 7  20502028.919    20502026.529    20502028.139
        44.600          43.800
 -17977643.457 7 -14008538.307 6  21387481.095    21387479.654    21387480.315
        42.500          38.900
    107347.816 4     83647.948 2  25238327.198    25238325.810    25238326.299
        24.600          16.100
  -3257061.810 3  -2537968.237 2  24232194.880    24232193.576    24232194.103
        23.400          17.800
 -17526114.566 7 -13656690.346 6  21179065.350    21179063.352    21179064.056
        45.600          40.000
  -3821845.162 4  -2978044.163 3  24080743.857    24080740.946    24080743.357
        25.300          19.300
 -20718584.654 7 -16144340.994 6  20554283.360    20554281.729    20554282.834
        45.500          41.700
 -13817411.353 6 -10766807.442 5  22268756.146    22268752.545    22268755.165
        41.400          33.500
   -640915.655 4   -499414.278 3  24459580.893    24459578.620    24459579.841
        24.600          21.100
 06  1  1  0 58 30.0000000  0  9G29G 6G27G 8G10G 2G26G21G15
 -20091805.840 7 -15655940.219 7  20497834.351    20497832.045    20497833.608
        44.700          43.800
 -17945384.812 7 -13983401.710 6  21393619.758    21393618.085    21393618.939
        42.400          38.700
    131193.753 3    102229.224 1  25242864.954    25242862.673    25242864.134
        22.600           6.500
  -3292004.641 4  -2565196.380 3  24225546.114    24225545.039    24225545.017
        24.200          22.600
 -17461912.538 7 -13606662.787 6  21191282.475    21191280.620    21191281.229
        45.500          39.800
  -3717563.646 4  -2896785.842 3  24100588.505    24100585.183    24100588.265
        28.400          20.500
 -20782701.118 7 -16194301.860 6  20542082.262    20542080.770    20542081.880
        45.700          41.800
 -13903349.436 6 -10833772.170 5  22252402.485    22252399.355    22252401.432
        41.200          34.500
   -745413.337 3   -580841.038 3  24439694.471    24439694.040    24439693.801
        22.100          21.600
 06  1  1  0 59  0.0000000  0  8G29G 6G 8G10G 2G26G21G15
 -20113257.015 7 -15672655.416 7  20493752.188    20493749.929    20493751.523
        44.600          43.700
 -17912579.301 7 -13957838.975 6  21399862.409    21399860.795    21399861.639
        42.600          38.600
  -3326443.988 3  -2592032.220 3  24218992.385    24218991.424    24218991.058
        23.400          22.100
 -17397463.257 7 -13556442.567 6  21203546.590    21203544.893    21203545.337
        45.600          39.800
  -3613139.206 3  -2815416.159 3  24120458.018    24120456.555    24120458.485
        23.800          20.500
 -20846210.769 7 -16243789.886 6  20529996.996    20529995.129    20529996.460
        45.700          41.700
 -13989118.122 6 -10900604.889 5  22236081.494    22236077.899    22236080.289
        41.500          34.100
   -849907.761 3   -662265.224 3  24419809.808    24419809.119    24419808.989
        23.000          22.100
 06  1  1  0 59 30.0000000  0  8G29G 6G 8G10G 2G26G21G15
 -20134116.911 7 -15688909.871 7  20489782.729    20489780.419    20489782.038
        44.500          43.800
 -17879227.959 7 -13931850.920 6  21406208.926    21406207.323    21406208.134
        42.100          38.600
  -3360377.904 4  -2618474.186 3  24212534.967    24212533.842    24212533.827
        24.900          21.100
 -17332768.130 7 -13506030.777 6  21215857.702    21215855.969    21215856.502
        45.600          39.800
  -3508573.313 3  -2733936.259 3  24140357.838    24140355.155    24140357.157
        23.800          22.100
 -20909111.632 7 -16292803.530 6  20518027.568    20518025.422    20518026.868
        45.700          41.900
 -14074715.615 6 -10967304.223 5  22219792.503    22219789.080    22219791.498
        41.500          33.200
   -954397.616 3   -743685.855 3  24399925.832    24399924.854    24399924.749
        21.600          22.100
 06  1  1  1  0  0.0000000  0  8G29G 6G 8G10G 2G26G21G15
 -20154385.288 7 -15704703.411 7  20485925.648    20485923.533    20485925.026
        44.400          43.800
 -17845332.544 7 -13905438.910 6  21412658.970    21412657.239    21412658.192
        42.200          38.300
  -3393804.839 4  -2644521.107 3  24206173.650    24206172.442    24206172.774
        24.900          21.600
 -17267828.876 7 -13455428.757 6  21228215.130    21228213.440    21228214.037
        45.400          39.700
  -3403866.995 4  -2652346.955 4  24160283.252    24160280.172    24160282.628
        27.400          24.900
 -20971401.841 7 -16341341.338 7  20506174.028    20506172.017    20506173.437
        45.600          42.100
 -14160140.275 6 -11033868.895 5  22203536.819    22203533.332    22203535.814
        41.800          33.500
  -1058881.584 3   -825101.895 3  24380043.747    24380042.748    24380042.926
        23.400          22.100
 06  1  1  1  0 30.0000000  0  8G29G 6G 8G10G 2G26G21G15
 -20174061.918 7 -15720035.844 7  20482181.499    20482179.180    20482180.790
        44.600          44.000
 -17810893.701 7 -13878603.455 6  21419212.651    21419210.926    21419211.884
        42.100          38.400
  -3426722.512 4  -2670171.222 3  24199910.948    24199908.812    24199909.505
        26.200          21.600
 -17202646.819 7 -13404637.542 6  21240618.892    21240617.320    21240617.750
        45.400          39.600
  -3299021.161 4  -2570648.961 4  24180234.105    24180231.761    24180233.899
        25.900          24.200
 -21033079.194 7 -16389401.605 7  20494437.161    20494435.179    20494436.632
        45.700          42.000
 -14245390.383 6 -11100297.530 5  22187314.302    22187311.051    22187313.205
        41.800          34.400
  -1163358.253 3   -906512.273 3  24360163.763    24360161.146    24360162.446
        23.000          20.500
 06  1  1  1  1  0.0000000  0  8G29G 6G 8G10G 2G26G21G15
 -20193146.620 7 -15734907.034 7  20478549.834    20478547.492    20478549.041
        44.700          43.900
 -17775913.213 7 -13851345.935 6  21425868.994    21425867.759    21425868.244
        42.100          38.900
  -3459129.182 4  -2695423.192 3  24193742.945    24193741.711    24193742.398
        26.200          19.900
 -17137223.619 7 -13353658.423 6  21253068.637    21253066.861    21253067.437
        45.400          39.700
  -3194037.553 4  -2488843.585 4  24200213.287    24200209.557    24200212.374
        26.800          25.300
 -21094141.797 7 -16436982.836 6  20482817.201    20482815.311    20482816.607
        45.600          41.900
 -14330464.193 6 -11166588.805 5  22171125.208    22171121.880    22171124.190
        41.800          34.000
  -1267826.251 3   -987915.891 2  24340282.449    24340280.911    24340281.344
        23.400          16.100
 06  1  1  1  1 30.0000000  0  8G29G 6G 8G10G 2G26G21G15
 -20211639.320 7 -15749316.928 7  20475030.565    20475028.409    20475029.949
        44.600          44.000
 -17740392.150 7 -13823667.195 6  21432628.578    21432626.946    21432627.747
        42.400          38.400
  -3491023.267 4  -2720275.685 3  24187674.915    24187672.424    24187673.681
        27.400          20.500
 -17071560.350 7 -13302492.238 6  21265563.784    21265562.100    21265562.632
        45.200          39.700
  -3088917.258 3  -2406931.705 3  24220216.684    24220212.822    24220215.718
        23.400          19.900
 -21154587.566 7 -16484083.417 7  20471314.556    20471312.852    20471314.143
        45.700          42.100
 -14415359.515 7 -11232740.992 5  22154969.985    22154967.042    22154969.086
        42.000          34.500
  -1372284.269 3  -1069311.706 3  24320403.850    24320403.988    24320402.954
        20.500          18.600
 06  1  1  1  2  0.0000000  0  8G29G 6G 8G10G 2G26G21G15
 -20229539.768 7 -15763265.323 7  20471624.394    20471622.050    20471623.595
        44.400          43.900
 -17704331.629 7 -13795568.096 6  21439490.907    21439488.839    21439490.041
        42.400          38.300
  -3522403.050 4  -2744727.468 3  24181703.296    24181700.481    24181701.684
        26.200          19.300
 -17005658.802 7 -13251140.381 6  21278104.807    21278102.686    21278103.467
        45.200          39.400
  -2983661.547 3  -2324914.257 3  24240247.288    24240242.063    24240245.890
        23.000          21.100
 -21214414.786 7 -16530702.015 7  20459929.860    20459928.224    20459929.446
        45.800          42.300
 -14500074.476 7 -11298752.630 5  22138849.691    22138846.349    22138848.484
        42.000          34.700
  -1476731.067 3  -1150698.796 3  24300529.197    24300528.266    24300528.089
        22.600          23.400
 06  1  1  1  2 30.0000000  0  8G29G 6G 8G10G 2G26G21G15
 -20246847.966 7 -15776752.226 7  20468330.639    20468328.389    20468329.925
        44.600          44.000
 -17667733.046 7 -13767049.724 6  21446455.215    21446453.405    21446454.414
        42.300          38.100
  -3553266.770 4  -2768777.101 3  24175829.816    24175828.032    24175829.038
        27.900          21.600
 -16939520.343 7 -13199603.919 6  21290690.541    21290688.618    21290689.271
        45.300          39.500
  -2878271.641 4  -2242792.291 3  24260301.383    24260297.061    24260300.445
        26.500          22.100
 -21273621.408 7 -16576837.036 7  20448663.223    20448661.407    20448662.809
        46.000          42.300
 -14584607.377 7 -11364622.411 5  22122763.323    22122759.933    22122762.196
        42.200          34.300
  -1581165.307 3  -1232076.067 3  24280655.583    24280655.053    24280655.079
        21.100          20.500
 06  1  1  1  3  0.0000000  0  8G29G 6G 8G10G 2G26G21G15
 -20263563.714 7 -15789777.479 7  20465149.737    20465147.590    20465149.049
        44.400          44.100
 -17630597.847 7 -13738113.211 6  21453521.824    21453519.831    21453521.125
        42.400          38.000
  -3583612.777 4  -2792423.319 3  24170054.676    24170052.901    24170053.586
        25.900          18.600
 -16873146.563 7 -13147884.085 6  21303320.888    21303319.165    21303319.647
        45.100          39.400
  -2772748.796 3  -2160566.744 3  24280380.649    24280377.851    24280379.901
        23.000          22.600
 -21332205.421 7 -16622486.904 7  20437515.081    20437513.195    20437514.543
        45.600          42.100
 -14668956.371 7 -11430348.894 5  22106712.380    22106709.111    22106711.361
        42.600          34.800
  -1685585.544 3  -1313442.501 2  24260785.413    24260784.164    24260784.188
        22.100          15.100
 06  1  1  1  3 30.0000000  0  8G29G 6G 8G10G 2G26G21G15
 -20279687.039 7 -15802341.110 7  20462081.584    20462079.379    20462080.860
        44.600          44.100
 -17592927.055 7 -13708759.350 6  21460690.431    21460688.439    21460689.638
        42.200          37.800
  -3613439.244 4  -2815664.698 3  24164379.219    24164377.409    24164378.319
        27.600          21.100
 -16806538.747 7 -13095981.885 6  21315995.974    21315994.114    21315994.747
        45.200          39.400
  -2667093.908 4  -2078238.334 4  24300486.359    24300483.861    24300485.723
        25.600          24.200
 -21390165.374 7 -16667650.487 7  20426485.673    20426483.825    20426485.177
        45.800          42.100
 -14753119.593 7 -11495930.616 5  22090696.465    22090693.319    22090695.456
        42.300          35.100
  -1789990.327 4  -1394796.886 2  24240918.642    24240916.446    24240917.359
        25.600          16.100
 06  1  1  1  4  0.0000000  0  8G29G 6G 8G10G 2G26G21G15
 -20295217.731 7 -15814442.944 7  20459126.339    20459123.951    20459125.529
        44.600          44.100
 -17554722.369 7 -13678989.468 6  21467960.502    21467958.913    21467959.678
        42.400          38.200
  -3642744.445 4  -2838499.915 3  24158803.140    24158800.200    24158802.077
        27.100          19.300
 -16739698.345 7 -13043898.454 6  21328715.106    21328713.429    21328713.928
        44.900          39.300
  -2561308.600 4  -1995808.203 2  24320617.124    24320613.189    24320615.886
        26.500          13.900
 -21447498.965 7 -16712326.003 7  20415575.635    20415573.741    20415575.021
        45.800          42.400
 -14837095.246 7 -11561366.177 5  22074716.364    22074713.395    22074715.452
        42.700          35.400
  -1894378.178 4  -1476138.096 3  24221053.517    24221052.638    24221052.638
        24.600          20.500
 06  1  1  1  4 30.0000000  0  8G29G 6G 8G10G 2G26G21G15
 -20310155.968 7 -15826083.126 7  20456283.581    20456281.331    20456282.918
        44.700          44.200
 -17515985.185 7 -13648804.654 6  21475332.002    21475330.142    21475331.244
        42.300          38.400
  -3671526.804 4  -2860927.718 3  24153325.572    24153323.654    24153324.702
        28.100          18.600
 -16672626.922 7 -12991635.003 6  21341478.505    21341476.590    21341477.263
        44.800          39.200
  -2455394.106 3  -1913277.429 2  24340771.294    24340767.759    24340770.780
        23.000          13.900
 -21504204.754 7 -16756512.322 7  20404784.792    20404782.935    20404784.239
        46.000          42.500
 -14920881.364 7 -11626654.057 5  22058772.450    22058769.322    22058771.430
        42.600          34.900
  -1998747.606 4  -1557464.882 4  24201193.386    24201192.055    24201192.306
        25.900          24.200
 06  1  1  1  5  0.0000000  0  8G29G 6G 8G10G 2G26G21G15
 -20324501.583 7 -15837261.525 7  20453553.655    20453551.417    20453552.965
        44.700          44.200
 -17476717.035 6 -13618206.098 6  21482804.249    21482802.493    21482803.398
        41.500          37.700
  -3699784.457 4  -2882946.662 3  24147948.469    24147946.210    24147947.387
        27.100          21.100
 -16605325.915 7 -12939192.654 6  21354285.228    21354283.684    21354284.065
        44.600          39.100
  -2349351.696 4  -1830646.991 2  24360952.372    24360947.339    24360951.195
        26.500          16.100
 -21560280.769 7 -16800207.903 7  20394113.917    20394112.113    20394113.306
        46.000          42.700
 -15004476.177 7 -11691792.856 5  22042865.149    22042861.561    22042863.918
        42.400          34.900
  -2103097.430 4  -1638776.400 4  24181336.723    24181334.777    24181335.757
        27.600          25.600
 06  1  1  1  5 30.0000000  0  8G29G 6G 8G10G 2G26G21G15
 -20338254.705 7 -15847978.242 7  20450936.415    20450934.285    20450935.757
        44.400          44.200
 -17436919.117 6 -13587194.746 6  21490377.534    21490375.985    21490376.757
        41.800          38.000
  -3727516.360 4  -2904555.915 3  24142671.612    24142668.987    24142670.618
        28.100          19.900
 -16537796.811 7 -12886572.570 6  21367135.580    21367133.906    21367134.464
        44.700          38.600
  -2243182.660 3  -1747917.879 3  24381154.696    24381151.225    24381153.315
        23.400          20.500
 -21615725.320 7 -16843411.434 7  20383563.140    20383561.251    20383562.578
        46.000          42.500
 -15087877.601 7 -11756780.975 5  22026994.497    22026990.579    22026993.240
        42.500          34.400
  -2207426.023 4  -1720071.399 3  24161483.320    24161481.413    24161482.207
        29.200          21.100
 06  1  1  1  6  0.0000000  0  8G29G 6G 8G10G 2G26G21G15
 -20351415.421 7 -15858233.344 7  20448432.236    20448429.884    20448431.417
        44.500          44.300
 -17396592.947 6 -13555771.762 6  21498051.279    21498049.785    21498050.540
        41.900          38.100
  -3754720.735 4  -2925754.114 3  24137494.049    24137491.548    24137493.230
        28.800          18.600
 -16470040.660 7 -12833775.562 6  21380029.131    21380027.447    21380027.981
        44.800          38.600
  -2136888.175 4  -1665091.092 4  24401381.895    24401378.763    24401380.643
        24.600          24.900
 -21670536.517 7 -16886121.447 7  20373133.017    20373131.023    20373132.425
        46.300          42.700
 -15171084.030 7 -11821617.149 5  22011160.501    22011157.163    22011159.472
        42.900          35.500
  -2311731.985 4  -1801348.793 4  24141633.737    24141632.628    24141632.557
        24.200          24.600
 06  1  1  1  6 30.0000000  0  8G29G 6G 8G10G 2G26G21G15
 -20363983.607 7 -15868026.730 7  20446040.302    20446038.206    20446039.582
        44.200          44.300
 -17355740.079 6 -13523938.363 6  21505825.380    21505823.800    21505824.591
        41.600          37.800
  -3781396.053 5  -2946540.066 3  24132419.039    24132416.488    24132417.978
        31.300          21.600
 -16402059.136 7 -12780802.940 6  21392965.911    21392963.868    21392964.682
        44.900          38.400
  -2030469.284 4  -1582167.349 3  24421633.554    24421629.124    24421632.374
        27.100          20.500
 -21724712.788 7 -16928336.711 7  20362823.664    20362821.564    20362823.029
        46.100          42.700
 -15254093.340 7 -11886299.725 6  21995364.283    21995361.228    21995363.412
        43.100          36.000
  -2416014.113 3  -1882607.552 4  24121789.553    24121788.733    24121788.441
        21.600          24.900
 06  1  1  1  7  0.0000000  0  8G29G 6G 8G10G 2G26G21G15
 -20375959.514 7 -15877358.609 7  20443761.405    20443759.208    20443760.606
        44.200          44.400
 -17314361.878 6 -13491695.611 6  21513699.685    21513698.009    21513698.918
        41.800          37.900
  -3807540.538 4  -2966912.419 3  24127443.178    24127440.620    24127442.172
        26.800          19.300
 -16333853.472 7 -12727655.658 6  21405945.156    21405942.962    21405943.882
        44.700          38.400
  -1923927.347 3  -1499147.644 2  24441907.327    24441902.869    24441906.310
        22.100          13.900
 -21778252.466 7 -16970055.926 7  20352635.054    20352633.329    20352634.554
        46.000          42.900
 -15336903.586 7 -11950827.178 5  21979606.195    21979602.670    21979605.037
        43.100          35.500
  -2520270.727 3  -1963846.446 4  24101950.341    24101948.940    24101949.234
        23.000          24.900
 06  1  1  1  7 30.0000000  0  8G29G 6G 8G10G 2G26G21G15
 -20387343.324 7 -15886229.104 7  20441595.269    20441593.018    20441594.446
        44.500          44.500
 -17272460.121 6 -13459044.900 6  21521672.959    21521671.691    21521672.256
        41.500          37.800
  -3833152.659 4  -2986869.901 3  24122569.793    24122567.145    24122568.751
        29.200          20.500
 -16265425.222 7 -12674334.941 6  21418966.315    21418964.595    21418965.083
        44.600          38.500
  -1817263.614 3  -1416033.082 3  24462204.311    24462200.591    24462203.361
        21.100          19.300
 -21831153.886 7 -17011277.804 7  20342568.266    20342566.481    20342567.714
        46.000          42.700
 -15419513.004 7 -12015198.153 5  21963885.961    21963882.657    21963885.089
        43.400          35.600
  -2624500.749 3  -2045064.603 3  24082116.961    24082114.131    24082115.591
        22.100          23.800
 06  1  1  1  8  0.0000000  0  8G29G 6G 8G10G 2G26G21G15
 -20398135.003 7 -15894638.205 7  20439541.757    20439539.543    20439540.968
        44.600          44.600
 -17230036.009 6 -13425987.160 6  21529746.170    21529744.665    21529745.369
        41.500          37.800
  -3858231.011 4  -3006411.472 3  24117796.340    24117795.006    24117795.713
        28.800          21.600
 -16196776.062 7 -12620842.084 6  21432029.518    21432027.987    21432028.375
        44.300          38.200
  -1710479.615 3  -1332824.834 3  24482524.173    24482520.973    24482523.387
        23.000          19.300
 -21883415.446 7 -17052001.089 7  20332623.105    20332621.456    20332622.633
        45.800          43.000
 -15501919.727 7 -12079411.181 5  21948204.673    21948201.199    21948203.602
        43.400          35.300
  -2728702.278 4  -2126260.574 3  24062288.061    24062285.171    24062286.953
        24.600          22.600
 06  1  1  1  8 30.0000000  0  8G29G 6G 8G10G 2G26G21G15
 -20408334.789 7 -15902586.088 7  20437600.786    20437598.556    20437600.024
        44.700          44.400
 -17187091.465 6 -13392523.877 6  21537918.409    21537916.530    21537917.637
        41.700          37.500
  -3882774.017 4  -3025535.886 3  24113126.374    24113124.485    24113125.074
        26.800          20.500
 -16127907.114 7 -12567177.961 6  21445134.900    21445133.269    21445133.820
        44.300          38.100
  -1603576.649 3  -1249523.856 2  24502867.507    24502863.883    24502866.203
        19.900          17.800
 -21935035.537 7 -17092224.525 7  20322800.211    20322798.468    20322799.717
        46.000          43.100
 -15584121.755 7 -12143464.710 5  21932562.004    21932558.739    21932561.010
        43.200          35.700
  -2832873.792 4  -2207433.162 3  24042464.620    24042462.365    24042463.519
        26.200          21.600
 06  1  1  1  9  0.0000000  0  8G29G 6G 8G10G 2G26G21G15
 -20417942.843 7 -15910072.884 7  20435772.308    20435770.068    20435771.690
        44.800          44.600
 -17143627.933 6 -13358656.193 6  21546188.919    21546187.434    21546188.223
        41.200          37.400
  -3906780.243 4  -3044241.992 3  24108558.668    24108556.610    24108557.562
        28.600          19.300
 -16058819.807 7 -12513343.687 6  21458282.227    21458280.207    21458280.911
        44.500          38.500
  -1496555.665 4  -1166130.948 3  24523234.070    24523229.652    24523232.590
        27.400          18.600
 -21986012.599 7 -17131946.902 7  20313099.513    20313097.810    20313099.054
        45.900          43.100
 -15666117.112 7 -12207357.186 6  21916958.630    21916955.624    21916957.518
        42.700          36.200
  -2937014.056 4  -2288581.401 3  24022647.075    24022645.015    24022645.884
        26.200          20.500
 06  1  1  1  9 30.0000000  0  8G29G 6G 8G10G 2G26G21G15
 -20426959.455 7 -15917098.813 7  20434056.676    20434054.213    20434055.922
        45.100          44.500
 -17099646.773 6 -13324385.174 6  21554558.607    21554556.847    21554557.721
        41.400          37.200
  -3930248.533 4  -3062528.960 3  24104091.915    24104090.848    24104090.768
        26.200          19.900
 -15989515.655 7 -12459340.445 6  21471470.156    21471468.262    21471468.994
        44.400          37.900
  -1389418.137 4  -1082647.098 1  24543621.724    24543617.254    24543620.083
        24.900           9.000
 -22036345.025 7 -17171166.966 7  20303521.492    20303519.783    20303521.017
        46.000          43.000
 -15747903.489 7 -12271086.817 6  21901395.514    21901392.234    21901394.387
        43.300          36.400
  -3041121.576 4  -2369704.122 3  24002835.754    24002833.668    24002834.797
        25.900          19.300
 06  1  1  1 10  0.0000000  0  8G29G 6G 8G10G 2G26G21G15
 -20435384.800 7 -15923664.015 7  20432453.286    20432450.954    20432452.636
        44.900          44.500
 -17055149.861 6 -13289712.265 6  21563025.971    21563024.420    21563025.155
        41.700          37.400
  -3953177.324 4  -3080395.561 3  24099728.983    24099727.168    24099727.924
        25.600          20.500
 -15919995.870 7 -12405169.178 6  21484699.177    21484697.441    21484698.063
        44.400          37.900
  -1282165.272 3   -999073.520 3  24564031.154    24564026.771    24564029.183
        18.600          23.000
 -22086031.319 7 -17209883.548 7  20294066.649    20294064.811    20294066.071
        46.000          43.200
 -15829479.550 7 -12334652.581 6  21885872.054    21885868.579    21885870.939
        43.400          36.100
  -3145194.852 4  -2450800.167 3  23983031.609    23983029.667    23983030.339
        27.400          21.100
 06  1  1  1 10 30.0000000  0  8G29G 6G 8G10G 2G26G21G15
 -20443219.219 7 -15929768.754 7  20430962.730    20430960.178    20430961.851
        45.100          44.500
 -17010138.750 6 -13254638.674 6  21571591.127    21571589.516    21571590.448
        41.500          36.900
  -3975565.024 4  -3097840.506 3  24095469.260    24095467.336    24095468.241
        28.100          22.600
 -15850262.004 7 -12350831.090 6  21497969.641    21497967.290    21497968.354
        44.300          37.900
  -1174798.238 3   -915410.979 3  24584461.188    24584457.872    24584460.453
        21.600          20.500
 -22135069.903 7 -17248095.421 7  20284734.865    20284733.020    20284734.308
        46.000          43.100
 -15910843.152 7 -12398052.785 6  21870389.118    21870385.668    21870387.998
        43.500          36.500
  -3249232.179 4  -2531868.200 4  23963233.570    23963232.472    23963232.450
        28.400          24.200
 06  1  1  1 11  0.0000000  0  8G29G 6G 8G10G 2G26G21G15
 -20450462.829 7 -15935413.124 7  20429583.895    20429581.801    20429583.362
        44.700          44.800
 -16964615.082 6 -13219165.689 6  21580254.041    21580252.236    21580253.306
        41.200          36.800
  -3997410.836 4  -3114863.226 3  24091311.886    24091309.753    24091310.959
        27.100          21.100
 -15780315.278 7 -12296327.140 6  21511279.812    21511277.718    21511278.599
        44.000          38.000
  -1067318.463 3   -831660.596 3  24604914.961    24604910.862    24604913.429
        21.100          22.600
 -22183459.460 7 -17285801.563 7  20275526.798    20275524.860    20275526.218
        46.100          43.300
 -15991992.379 7 -12461285.947 5  21854946.876    21854943.435    21854945.804
        43.600          35.900
  -3353232.164 4  -2612907.156 3  23943442.125    23943441.591    23943441.414
        28.800          22.100
 06  1  1  1 11 30.0000000  0  7G29G 6G 8G10G26G21G15
 -20457116.066 7 -15940597.464 7  20428318.151    20428315.750    20428317.284
        44.800          44.600
 -16918580.600 6 -13183294.672 6  21589014.436    21589012.462    21589013.525
        41.300          37.000
  -4018712.777 4  -3131462.129 3  24087258.797    24087256.499    24087257.655
        28.100          21.600
 -15710157.079 7 -12241658.406 6  21524630.322    21524628.365    21524629.127
        44.000          37.700
 -22231198.433 7 -17323000.756 7  20266442.413    20266440.496    20266441.891
        46.200          43.500
 -16072925.345 7 -12524350.593 6  21839545.803    21839542.486    21839544.718
        43.400          36.700
  -3457193.396 4  -2693915.891 4  23923661.091    23923658.721    23923659.384
        26.200          25.900
 06  1  1  1 12  0.0000000  0  7G29G 6G 8G10G26G21G15
 -20463179.220 7 -15945321.996 7  20427164.192    20427161.948    20427163.460
        44.600          44.800
 -16872036.891 6 -13147026.850 6  21597871.127    21597869.671    21597870.401
        41.200          37.000
  -4039469.373 4  -3147636.071 3  24083308.921    24083306.524    24083307.654
        26.800          23.000
 -15639788.806 7 -12186825.979 6  21538020.733    21538019.042    21538019.620
        43.800          37.700
 -22278285.429 7 -17359691.918 7  20257482.154    20257480.258    20257481.602
        46.300          43.800
 -16153639.909 7 -12587245.058 6  21824186.111    21824183.035    21824185.363
        44.100          36.500
  -3561114.216 3  -2774893.121 4  23903884.797    23903883.073    23903883.537
        23.000          26.500
 06  1  1  1 12 30.0000000  0  8G29G 6G18G 8G10G26G21G15
 -20468652.757 7 -15949587.088 7  20426122.760    20426120.309    20426121.947
        44.600          44.700
 -16824985.908 6 -13110363.761 6  21606824.828    21606823.100    21606824.079
        41.500          37.200
    -79570.664 2    -62003.024 9  23664116.694    23664115.820    23664114.722
        15.100          -3.000
  -4059679.923 4  -3163384.537 3  24079461.825    24079460.778    24079461.262
        27.600          21.600
 -15569211.684 7 -12131830.816 6  21551451.507    21551449.575    21551450.203
        44.000          37.700
 -22324719.056 7 -17395873.956 7  20248646.066    20248644.178    20248645.499
        46.300          43.800
 -16234133.785 7 -12649967.552 6  21808868.577    21808865.353    21808867.738
        44.100          36.400
  -3664993.198 3  -2855837.748 4  23884115.994    23884115.826    23884115.240
        23.400          28.400
 06  1  1  1 13  0.0000000  0  8G29G 6G18G 8G10G26G21G15
 -20473536.964 7 -15953392.961 7  20425193.162    20425190.937    20425192.464
        44.400          44.800
 -16777429.144 6 -13073306.542 6  21615874.897    21615872.925    21615874.090
        41.800          37.300
   -164690.873 2   -128330.434 9  23647918.868    23647917.361    23647917.633
        13.900          -3.000
  -4079342.718 4  -3178706.188 3  24075721.704    24075719.081    24075720.204
        29.500          22.100
 -15498427.123 7 -12076674.004 6  21564921.196    21564919.048    21564920.009
        44.200          37.200
 -22370497.982 7 -17431545.834 7  20239934.522    20239932.661    20239933.940
        46.100          43.800
 -16314405.665 7 -12712517.068 6  21793593.576    21793590.219    21793592.574
        44.100          36.700
  -3768828.706 4  -2936748.496 4  23864357.198    23864356.840    23864355.817
        24.900          28.400
 06  1  1  1 13 30.0000000  0  8G29G 6G18G 8G10G26G21G15
 -20477832.291 7 -15956739.965 7  20424375.905    20424373.581    20424375.082
        44.600          44.700
 -16729368.494 6 -13035856.694 6  21625020.359    21625018.839    21625019.501
        41.300          37.800
   -249673.128 2   -194550.365 9  23631747.833    23631745.597    23631746.401
        17.000          -3.000
  -4098456.721 4  -3193600.214 3  24072083.300    24072081.544    24072082.406
        27.600          20.500
 -15427436.512 7 -12021356.638 6  21578429.951    21578428.111    21578428.912
        44.000          37.200
 -22415620.892 7 -17466706.533 7  20231347.762    20231346.046    20231347.288
        46.300          43.800
 -16394453.183 7 -12774891.752 6  21778361.197    21778358.056    21778360.062
        44.200          37.200
  -3872619.069 4  -3017624.066 4  23844606.766    23844605.745    23844605.858
        26.500          27.600
 06  1  1  1 14  0.0000000  0  8G29G 6G18G 8G10G26G21G15
 -20481539.068 7 -15959628.367 7  20423670.385    20423668.102    20423669.673
        44.500          44.700
 -16680805.610 6 -12998015.498 6  21634261.514    21634260.066    21634260.752
        41.200          37.700
   -334517.237 3   -260662.626    23615602.095    23615600.416    23615601.177
        18.600           3.000
  -4117020.638 4  -3208065.602 3  24068550.674    24068549.041    24068549.640
        27.400          21.600
 -15356241.166 7 -11965879.739 6  21591978.001    21591976.533    21591977.036
        43.700          37.600
 -22460086.484 7 -17501355.037 7  20222886.437    20222884.501    20222885.910
        46.200          43.800
 -16474274.298 7 -12837090.012 6  21763171.719    21763168.213    21763170.806
        44.600          36.700
  -3976362.803 4  -3098463.323 4  23824865.614    23824864.048    23824864.594
        28.100          27.600
 06  1  1  1 14 30.0000000  0  8G29G 6G18G 8G10G26G21G15
 -20484657.895 7 -15962058.610 7  20423076.985    20423074.518    20423076.169
        44.500          44.700
 -16631742.336 6 -12959784.384 6  21643597.745    21643596.270    21643596.977
        41.100          37.000
   -419222.500 3   -326666.731 1  23599483.906    23599481.052    23599482.638
        21.600           6.500
  -4135033.380 4  -3222101.491 3  24065122.721    24065120.565    24065121.684
        27.900          18.600
 -15284842.458 7 -11910244.378 6  21605564.861    21605563.055    21605563.702
        43.600          37.500
 -22503893.412 7 -17535490.300 7  20214550.375    20214548.272    20214549.763
        46.400          43.800
 -16553867.013 7 -12899110.310 6  21748025.561    21748022.351    21748024.569
        44.300          36.900
  -4080058.365 4  -3179265.051 4  23805132.227    23805131.457    23805131.323
        26.500          27.600
 06  1  1  1 15  0.0000000  0  8G29G 6G18G 8G10G26G21G15
 -20487188.937 7 -15964030.852 7  20422595.221    20422592.937    20422594.393
        44.400          44.800
 -16582180.409 6 -12921164.708 6  21653028.693    21653027.590    21653027.997
        40.400          36.800
   -503788.334 3   -392562.155 2  23583391.055    23583388.716    23583389.799
        20.500          15.100
  -4152493.812 4  -3235707.009 3  24061800.600    24061798.530    24061799.270
        27.600          21.100
 -15213241.852 7 -11854451.697 6  21619189.906    21619188.171    21619188.792
        43.600          37.200
 -22547040.590 7 -17569111.474 7  20206339.515    20206337.626    20206339.055
        46.400          43.700
 -16633229.400 7 -12960951.124 6  21732923.524    21732920.039    21732922.452
        44.500          36.500
  -4183704.074 4  -3260027.904 4  23785409.418    23785408.205    23785408.329
        26.500          26.200
 06  1  1  1 15 30.0000000  0  8G29G 6G18G 8G10G26G21G15
 -20489132.925 7 -15965545.643 7  20422225.170    20422223.124    20422224.470
        44.400          44.800
 -16532121.803 6 -12882158.011 6  21662554.888    21662553.508    21662554.140
        40.500          36.800
   -588214.197 3   -458348.510 2  23567324.938    23567322.785    23567324.070
        22.100          16.100
  -4169400.507 4  -3248881.055 3  24058582.269    24058581.041    24058581.902
        27.900          19.300
 -15141440.646 7 -11798502.700 6  21632853.256    21632851.407    21632852.255
        43.500          37.100
 -22589526.746 7 -17602217.565 7  20198254.510    20198252.723    20198254.048
        46.400          43.800
 -16712359.523 7 -13022610.956 6  21717865.276    21717862.073    21717864.350
        44.500          37.000
  -4287298.239 4  -3340750.653 3  23765695.875    23765694.726    23765694.957
        29.200          23.400
 06  1  1  1 16  0.0000000  0  8G29G 6G18G 8G10G26G21G15
 -20490490.436 7 -15966603.440 7  20421966.886    20421964.817    20421966.154
        44.500          44.800
 -16481568.310 6 -12842765.690 6  21672175.190    21672173.439    21672174.406
        40.800          37.100
   -672499.946 4   -524025.692 3  23551286.294    23551283.415    23551285.250
        25.900          19.300
  -4185752.404 4  -3261622.762 3  24055471.961    24055469.574    24055470.712
        28.400          21.600
 -15069439.962 7 -11742398.266 6  21646554.533    21646552.743    21646553.473
        43.400          36.700
 -22631350.598 7 -17634807.569 7  20190295.850    20190293.920    20190295.366
        46.400          43.900
 -16791255.515 7 -13084088.348 6  21702852.102    21702848.902    21702851.086
        44.800          37.500
  -4390839.469 4  -3421432.116 2  23745992.295    23745990.584    23745991.328
        28.400          17.000
 06  1  1  1 16 30.0000000  0  8G29G 6G18G 8G10G26G21G15
 -20491261.730 7 -15967204.448 7  20421820.044    20421818.000    20421819.382
        44.400          44.800
 -16430521.688 6 -12802989.118 6  21681888.999    21681887.148    21681888.125
        40.500          36.500
   -756644.670 4   -589592.993 3  23535273.696    23535271.088    23535272.948
        27.600          19.900
  -4201548.303 4  -3273931.295 3  24052465.657    24052463.614    24052464.645
        28.600          20.500
 -14997241.190 7 -11686139.482 6  21660293.542    21660291.802    21660292.457
        43.400          37.100
 -22672511.038 7 -17666880.631 7  20182463.215    20182461.307    20182462.752
        46.200          43.800
 -16869915.191 7 -13145381.597 6  21687883.808    21687880.285    21687882.561
        44.600          37.300
  -4494325.869 4  -3502070.884 3  23726300.117    23726297.700    23726299.000
        26.500          22.100
 06  1  1  1 17  0.0000000  0  8G29G 6G18G 8G10G26G21G15
 -20491447.602 7 -15967349.280 7  20421784.819    20421782.646    20421784.091
        44.700          44.800
 -16378983.909 6 -12762829.818 6  21691695.840    21691694.420    21691695.145
        40.000          36.100
   -840647.771 4   -655049.939 3  23519288.018    23519286.110    23519287.491
        27.600          21.100
  -4216787.277 4  -3285805.803 3  24049565.829    24049563.545    24049564.826
        28.100          19.900
 -14924845.761 7 -11629727.456 6  21674070.019    21674068.118    21674068.897
        43.200          36.600
 -22713006.946 7 -17698435.878 7  20174757.076    20174755.246    20174756.613
        46.200          44.000
 -16948336.523 7 -13206489.119 6  21672960.338    21672957.214    21672959.454
        44.800          37.600
  -4597755.963 4  -3582665.789 3  23706618.417    23706615.705    23706617.656
        28.400          20.500
 06  1  1  1 17 30.0000000  0  8G29G 6G18G 8G10G26G21G15
 -20491048.616 7 -15967038.380 7  20421860.799    20421858.501    20421860.076
        44.700          44.700
 -16326956.913 6 -12722289.306 6  21701596.324    21701594.904    21701595.542
        40.000          36.400
   -924508.819 4   -720396.184 4  23503330.126    23503328.032    23503329.253
        29.900          24.900
  -4231468.367 4  -3297245.602 3  24046772.200    24046770.165    24046771.336
        27.900          19.900
 -14852254.901 7 -11573163.148 6  21687883.353    21687881.715    21687882.382
        43.300          36.700
 -22752837.019 7 -17729472.291 7  20167177.780    20167175.913    20167177.224
        46.100          44.200
 -17026517.425 7 -13267409.296 6  21658083.153    21658079.833    21658082.123
        45.000          37.400
  -4701128.242 4  -3663215.641 3  23686946.686    23686945.580    23686946.167
        27.900          23.800
 06  1  1  1 18  0.0000000  0  8G29G 6G18G 8G10G26G21G15
 -20490065.460 7 -15966272.278 7  20422047.947    20422045.591    20422047.291
        44.900          44.900
 -16274442.489 6 -12681368.991 6  21711589.291    21711588.273    21711588.528
        39.600          36.800
  -1008227.527 5   -785631.514 4  23487399.138    23487396.801    23487398.407
        32.300          25.600
  -4245590.494 4  -3308249.844 3  24044084.413    24044082.102    24044083.422
        27.100          20.500
 -14779469.927 7 -11516447.579 6  21701734.101    21701732.155    21701732.978
        43.000          36.400
 -22792000.345 7 -17759989.160 7  20159725.374    20159723.359    20159724.765
        46.300          44.200
 -17104455.922 7 -13328140.588 6  21643252.268    21643248.584    21643251.150
        45.000          37.800
  -4804441.133 4  -3743719.180 3  23667285.546    23667285.735    23667284.892
        24.600          23.800
 06  1  1  1 18 30.0000000  0  8G29G 6G18G 8G10G26G21G15
 -20488498.450 7 -15965051.228 7  20422346.224    20422343.855    20422345.433
        44.900          45.000
 -16221442.550 6 -12640070.352 6  21721675.249    21721673.692    21721674.488
        40.000          36.000
  -1091803.240 5   -850755.433 4  23471495.189    23471492.767    23471494.404
        32.800          26.200
  -4259152.229 4  -3318817.435 3  24041504.177    24041501.809    24041502.851
        28.100          22.100
 -14706492.048 7 -11459581.697 5  21715621.433    21715619.009    21715620.360
        43.000          35.600
 -22830495.901 7 -17789985.693 7  20152399.768    20152397.855    20152399.205
        46.200          44.300
 -17182150.069 7 -13388681.477 6  21628467.251    21628464.012    21628466.189
        44.900          37.900
  -4907692.730 4  -3824174.979 3  23647639.281    23647636.989    23647637.995
        27.400          23.000
 06  1  1  1 19  0.0000000  0  8G29G 6G18G 8G10G26G21G15
 -20486348.454 7 -15963375.904 7  20422755.153    20422752.934    20422754.423
        44.700          45.100
 -16167959.287 6 -12598395.086 5  21731852.951    21731851.024    21731852.157
        40.200          35.700
  -1175235.406 5   -915767.495 4  23455618.584    23455615.784    23455617.661
        32.300          26.500
  -4272152.846 4  -3328947.782 3  24039030.315    24039027.886    24039029.159
        27.600          21.100
 -14633322.634 7 -11402566.568 6  21729545.185    21729543.098    21729543.960
        42.700          36.300
 -22868322.719 7 -17819461.130 7  20145201.446    20145199.640    20145200.849
        46.100          44.300
 -17259597.483 7 -13449030.103 6  21613729.595    21613726.165    21613728.609
        45.300          37.800
  -5010881.240 4  -3904581.617 4  23628002.257    23628001.392    23628001.432
        26.800          25.300
 06  1  1  1 19 30.0000000  0  8G29G 6G18G 8G10G26G21G15
 -20483616.155 7 -15961246.832 7  20423274.977    20423272.779    20423274.319
        44.800          44.900
 -16113994.476 6 -12556344.593 5  21742122.008    21742120.342    21742121.210
        40.200          35.900
  -1258523.372 5   -980667.187 4  23439769.348    23439766.622    23439768.578
        32.700          26.200
  -4284591.405 4  -3338640.159 3  24036663.197    24036661.056    24036662.292
        28.600          21.100
 -14559962.842 7 -11345403.100 6  21743504.997    21743502.976    21743503.816
        43.100          36.100
 -22905479.653 7 -17848414.576 7  20138130.617    20138128.978    20138130.071
        46.200          44.500
 -17336796.022 7 -13509184.811 6  21599039.255    21599035.682    21599038.201
        45.500          37.700
  -5114005.133 4  -3984937.897 4  23608378.711    23608377.833    23608377.694
        28.400          28.600
 06  1  1  1 20  0.0000000  0  8G29G 6G18G 8G10G26G21G15
 -20480302.205 7 -15958664.536 7  20423905.734    20423903.468    20423904.986
        44.800          44.800
 -16059550.136 6 -12513920.442 6  21752482.488    21752480.946    21752481.683
        40.400          36.500
  -1341666.870 5  -1045454.315 4  23423948.053    23423945.098    23423947.153
        32.800          26.500
  -4296466.802 4  -3347893.725 3  24034403.348    24034401.784    24034402.258
        25.900          21.100
 -14486414.174 7 -11288092.437 6  21757500.745    21757498.775    21757499.600
        42.700          36.100
 -22941965.919 7 -17876845.427 7  20131187.605    20131185.952    20131187.063
        46.000          44.700
 -17413744.387 7 -13569144.572 6  21584396.516    21584393.016    21584395.414
        45.400          38.000
  -5217062.765 4  -4065242.537 5  23588767.752    23588767.069    23588766.574
        27.900          31.300
 06  1  1  1 20 30.0000000  0  8G29G 6G18G 8G10G26G21G15
 -20476407.432 7 -15955629.647 7  20424646.690    20424644.529    20424646.130
        44.900          44.700
 -16004628.489 6 -12471124.364 6  21762933.658    21762932.273    21762932.975
        40.500          36.500
  -1424665.242 5  -1110128.355 4  23408153.899    23408151.230    23408152.808
        31.000          27.100
  -4307778.381 4  -3356707.939 3  24032251.202    24032248.555    24032250.250
        29.700          19.300
 -14412677.731 7 -11230635.466 5  21771532.740    21771530.469    21771531.386
        42.900          35.900
 -22977780.497 7 -17904752.882 7  20124372.410    20124370.635    20124371.876
        46.100          44.600
 -17490440.049 7 -13628907.419 6  21569801.311    21569798.328    21569800.439
        45.400          38.500
  -5320052.342 4  -4145494.133 4  23569169.778    23569168.289    23569168.373
        28.100          29.200
 06  1  1  1 21  0.0000000  0  8G29G 6G18G 8G10G26G21G15
 -20471932.364 7 -15952142.579 7  20425498.315    20425496.128    20425497.640
        44.900          44.700
 -15949231.174 6 -12427957.638 6  21773475.269    21773473.973    21773474.567
        39.700          36.000
  -1507518.096 4  -1174688.978 4  23392387.533    23392384.730    23392386.269
        28.600          25.600
  -4318524.864 4  -3365081.814 3  24030205.469    24030204.201    24030204.649
        28.100          23.000
 -14338754.844 7 -11173033.211 5  21785599.528    21785597.310    21785598.325
        42.500          35.800
 -23012922.391 7 -17932136.174 7  20117684.915    20117683.289    20117684.500
        46.300          44.600
 -17566881.113 7 -13688471.877 6  21555255.458    21555252.222    21555254.472
        45.800          38.800
  -5422972.229 4  -4225691.431 4  23549584.084    23549582.699    23549583.045
        28.400          27.900
 06  1  1  1 21 30.0000000  0  8G29G 6G18G 8G10G26G21G15
 -20466877.989 7 -15948204.101 7  20426460.211    20426458.041    20426459.470
        44.800          44.900
 -15893360.351 6 -12384421.943 6  21784107.190    21784105.879    21784106.393
        39.300          36.100
  -1590224.929 4  -1239135.836 3  23376648.687    23376645.647    23376647.703
        29.000          21.600
  -4328705.424 4  -3373014.716 3  24028268.461    24028266.084    24028267.534
        28.100          21.100
 -14264646.729 7 -11115286.622 6  21799701.780    21799699.846    21799700.579
        42.700          36.200
 -23047390.812 7 -17958994.676 7  20111126.085    20111124.096    20111125.517
        46.400          44.700
 -17643065.463 7 -13747836.298 6  21540758.153    21540754.729    21540757.117
        45.900          38.500
  -5525820.798 5  -4305833.185 4  23530013.283    23530011.420    23530012.195
        30.200          27.100
 06  1  1  1 22  0.0000000  0  8G29G 6G18G 8G10G26G21G15
 -20461244.798 7 -15943814.597 7  20427532.204    20427529.910    20427531.529
        44.900          44.800
 -15837017.931 6 -12340518.778 6  21794828.922    21794827.572    21794828.221
        39.700          36.300
  -1672784.642 5  -1303468.081 3  23360938.182    23360935.006    23360937.163
        30.200          21.600
  -4338319.317 4  -3380506.052 3  24026438.963    24026437.050    24026437.932
        28.100          19.900
 -14190354.530 7 -11057396.594 6  21813839.084    21813837.212    21813837.998
        42.400          36.000
 -23081185.000 7 -17985327.802 7  20104695.192    20104693.274    20104694.723
        46.400          44.700
 -17718990.755 7 -13806998.863 6  21526309.954    21526306.449    21526308.936
        45.600          38.500
  -5628596.411 4  -4385918.077 4  23510455.840    23510454.281    23510454.590
        28.800          28.100
 06  1  1  1 22 30.0000000  0  8G29G 6G18G 8G10G26G21G15
 -20455033.801 7 -15938974.858 7  20428714.171    20428711.779    20428713.486
        45.200          44.900
 -15780206.468 6 -12296250.114 5  21805640.003    21805638.302    21805639.224
        39.900          35.700
  -1755197.298 5  -1367685.726 4  23345255.464    23345253.035    23345254.459
        31.100          24.200
  -4347366.149 4  -3387555.539 3  24024717.456    24024715.863    24024716.571
        27.900          21.100
 -14115879.633 7 -10999364.201 5  21828011.007    21828009.245    21828009.906
        42.400          35.700
 -23114304.000 7 -18011134.820 7  20098392.705    20098390.989    20098392.251
        46.800          44.700
 -17794655.358 7 -13865958.290 6  21511911.418    21511908.085    21511910.321
        45.600          38.600
  -5731297.226 5  -4465944.690 4  23490912.655    23490910.786    23490911.436
        31.000          27.400
 06  1  1  1 23  0.0000000  0  8G29G 6G18G 8G10G26G21G15
 -20448245.854 7 -15933685.549 7  20430006.042    20430003.519    20430005.236
        45.100          44.800
 -15722927.550 6 -12251617.190 5  21816539.819    21816537.946    21816538.905
        39.300          35.200
  -1837462.186 5  -1431788.214 4  23329601.160    23329598.468    23329600.249
        33.100          25.300
  -4355844.584 4  -3394162.083 3  24023104.051    24023102.286    24023103.101
        27.900          19.300
 -14041223.414 7 -10941190.517 5  21842217.732    21842215.841    21842216.622
        42.200          35.800
 -23146747.085 7 -18036415.135 7  20092219.302    20092217.241    20092218.705
        46.600          44.800
 -17870056.902 7 -13924712.737 6  21497563.081    21497559.556    21497562.114
        46.000          38.600
  -5833921.330 4  -4545911.521 4  23471382.981    23471381.763    23471382.137
        29.200          26.200
 06  1  1  1 23 30.0000000  0  8G29G 6G18G 8G10G26G21G15
 -20440881.669 7 -15927947.220 7  20431407.208    20431404.820    20431406.566
        45.100          44.800
 -15665183.540 6 -12206621.876 5  21827527.651    21827526.387    21827526.955
        38.900          35.600
  -1919578.911 5  -1495775.273 4  23313975.335    23313971.838    23313974.019
        33.800          24.900
  -4363753.666 4  -3400324.992 3  24021598.908    24021597.253    24021597.765
        28.400          21.600
 -13966387.092 7 -10882876.496 5  21856458.944    21856456.530    21856457.802
        42.000          35.600
 -23178513.513 7 -18061168.199 7  20086174.247    20086172.242    20086173.766
        46.500          44.600
 -17945193.306 7 -13983260.582 6  21483265.259    21483261.624    21483264.154
        46.000          38.600
  -5936467.046 4  -4625817.278 4  23451870.292    23451867.824    23451868.893
        29.900          25.600
 06  1  1  1 24  0.0000000  0  8G29G 6G18G 8G10G26G21G15
 -20432942.277 7 -15921760.676 7  20432918.181    20432915.698    20432917.384
        45.200          44.800
 -15606976.453 6 -12161265.717 5  21838604.523    21838602.875    21838603.657
        39.300          35.900
  -2001547.113 5  -1559646.605 4  23298376.812    23298373.731    23298375.683
        32.800          26.200
  -4371093.202 4  -3406044.113 3  24020202.041    24020200.200    24020201.242
        27.600          22.100
 -13891371.549 6 -10824422.823 5  21870733.827    21870731.146    21870732.636
        41.800          34.700
 -23209602.517 7 -18085393.391 7  20080258.243    20080256.129    20080257.716
        46.600          44.700
 -18020062.615 7 -14041600.302 6  21469017.927    21469014.563    21469016.930
        46.000          38.900
  -6038932.520 5  -4705660.500 4  23432371.560    23432369.485    23432370.399
        30.100          27.100
 06  1  1  1 24 30.0000000  0  8G29G 6G18G 8G10G26G21G15
 -20424428.391 7 -15915126.484 7  20434538.069    20434535.853    20434537.391
        45.100          44.900
 -15548308.386 6 -12115550.358 5  21849768.276    21849766.821    21849767.754
        38.600          35.100
  -2083366.070 5  -1623401.610 4  23282807.308    23282804.530    23282806.249
        32.100          28.400
  -4377862.292 4  -3411318.755 3  24018914.475    24018911.834    24018913.224
        28.100          19.900
 -13816178.079 6 -10765830.502 5  21885042.486    21885040.638    21885041.286
        41.700          35.700
 -23240013.403 7 -18109090.180 7  20074471.038    20074469.188    20074470.655
        46.600          44.700
 -18094662.658 7 -14099730.205 6  21454821.945    21454818.491    21454820.912
        45.900          38.900
  -6141316.239 4  -4785440.011 4  23412888.127    23412886.425    23412886.849
        28.600          27.100
 06  1  1  1 25  0.0000000  0  8G29G 6G18G 8G10G26G21G15
 -20415340.924 7 -15908045.334 7  20436267.462    20436265.149    20436266.733
        45.100          45.100
 -15489181.568 6 -12069477.523 5  21861019.706    21861018.247    21861018.936
        38.700          34.500
  -2165035.285 5  -1687039.925 4  23267266.359    23267263.631    23267265.380
        31.800          29.500
  -4384059.805 4  -3416147.960 3  24017734.846    24017733.191    24017734.033
        29.200          21.100
 -13740808.158 6 -10707100.698 5  21899384.712    21899382.870    21899383.675
        41.600          34.900
 -23269745.464 7 -18132258.016 7  20068813.413    20068811.351    20068812.842
        46.800          44.900
 -18168991.333 7 -14157648.648 6  21440677.614    21440674.364    21440676.723
        46.100          39.100
  -6243616.307 4  -4865154.328 4  23393421.453    23393419.224    23393420.368
        26.500          25.600
 06  1  1  1 25 30.0000000  0  8G29G 6G18G 8G10G26G21G15
 -20405681.026 7 -15900518.142 7  20438105.708    20438103.417    20438104.993
        45.200          45.100
 -15429598.180 6 -12023048.923 5  21872358.379    21872356.905    21872357.496
        38.400          35.200
  -2246554.335 5  -1750561.232 4  23251753.493    23251750.879    23251752.595
        31.800          26.500
  -4389685.133 4  -3420531.337 3  24016665.041    24016662.401    24016663.606
        28.400          23.000
 -13665263.043 6 -10648234.354 5  21913760.557    21913758.610    21913759.395
        41.500          35.400
 -23298798.183 7 -18154896.493 7  20063284.788    20063282.825    20063284.327
        46.800          44.800
 -18243046.752 7 -14215354.167 6  21426585.633    21426581.931    21426584.503
        46.300          39.100
  -6345830.920 4  -4944802.064 4  23373970.180    23373968.179    23373969.036
        28.400          25.900
 06  1  1  1 26  0.0000000  0  8G29G 6G18G 8G10G26G21G15
 -20395449.484 7 -15892545.512 7  20440052.705    20440050.371    20440051.980
        45.300          44.900
 -15369560.348 6 -11976266.215 6  21883783.185    21883781.909    21883782.484
        39.100          36.000
  -2327922.744 5  -1813965.187 4  23236269.683    23236266.259    23236268.610
        32.800          24.600
  -4394737.996 4  -3424468.607 3  24015702.646    24015700.895    24015701.930
        27.900          19.300
 -13589543.686 6 -10589232.261 5  21928169.367    21928167.698    21928168.166
        41.500          35.300
 -23327170.853 7 -18177005.063 7  20057885.662    20057883.722    20057885.166
        46.800          44.900
 -18316826.792 7 -14272845.109 6  21412545.352    21412542.177    21412544.379
        46.200          39.300
  -6447958.387 4  -5024381.888 4  23354535.438    23354534.320    23354534.268
        28.400          25.300
 06  1  1  1 26 30.0000000  0  8G29G 6G18G 8G10G26G21G15
 -20384647.283 7 -15884128.214 7  20442108.306    20442106.001    20442107.524
        45.100          45.000
 -15309070.228 6 -11929131.069 5  21895294.159    21895292.796    21895293.402
        38.900          35.500
  -2409139.834 5  -1877251.252 3  23220814.434    23220811.064    23220813.473
        32.700          23.800
  -4399217.530 5  -3427959.177 3  24014851.427    24014848.675    24014850.429
        30.200          22.600
 -13513651.408 6 -10530095.416 5  21942611.228    21942609.335    21942610.056
        41.300          34.900
 -23354862.887 7 -18198583.264 7  20052616.106    20052614.111    20052615.584
        46.700          44.800
 -18390328.835 7 -14330119.424 6  21398558.676    21398555.176    21398557.475
        46.200          39.500
  -6549996.865 4  -5103892.379 4  23335118.816    23335117.063    23335117.686
        28.800          25.600
 06  1  1  1 27  0.0000000  0  8G29G 6G18G 8G10G26G21G15
 -20373275.513 7 -15875267.089 7  20444272.111    20444269.993    20444271.447
        45.000          45.100
 -15248129.957 6 -11881645.165 5  21906890.739    21906888.946    21906889.946
        38.800          34.400
  -2490205.100 5  -1940418.985 4  23205388.011    23205385.534    23205387.174
        31.600          27.600
  -4403122.782 4  -3431002.232 3  24014107.430    24014105.224    24014106.452
        27.400          21.100
 -13437587.384 6 -10470824.737 5  21957085.774    21957083.955    21957084.544
        41.200          35.200
 -23381873.856 7 -18219630.767 7  20047476.233    20047474.033    20047475.590
        46.800          45.000
 -18463551.074 7 -14387175.712 6  21384624.862    21384621.537    21384623.926
        46.600          39.700
  -6651944.410 5  -5183332.024 4  23315718.895    23315716.991    23315717.958
        30.400          25.300
 06  1  1  1 27 30.0000000  0  8G29G 6G18G 8G10G26G21G15
 -20361335.001 7 -15865962.793 7  20446544.223    20446542.124    20446543.590
        45.200          44.900
 -15186741.978 6 -11833810.384 5  21918572.026    21918570.589    21918571.293
        38.100          33.900
  -2571118.106 5  -2003468.039 4  23189990.707    23189988.446    23189989.729
        31.300          29.000
  -4406453.919 4  -3433597.911 3  24013473.142    24013470.932    24013472.275
        27.100          19.300
 -13361352.718 6 -10411421.100 5  21971592.737    21971591.175    21971591.572
        41.300          35.600
 -23408203.120 7 -18240147.074 7  20042465.632    20042463.764    20042465.130
        46.600          44.900
 -18536491.398 7 -14444012.327 6  21370744.758    21370741.596    21370743.708
        46.600          40.200
  -6753799.296 5  -5262699.471 4  23296336.478    23296334.866    23296335.472
        31.000          27.900
 06  1  1  1 28  0.0000000  0  8G29G 6G18G 8G10G26G21G15
 -20348826.911 7 -15856216.225 7  20448924.613    20448922.376    20448923.894
        45.300          44.900
 -15124908.289 6 -11785628.305 5  21930338.907    21930337.352    21930338.033
        38.100          34.100
  -2651878.341 5  -2066398.070 4  23174622.625    23174619.898    23174621.740
        33.200          27.900
  -4409210.407 4  -3435745.809 3  24012949.347    24012947.311    24012948.356
        28.800          22.600
 -13284948.629 6 -10351885.437 5  21986131.812    21986129.867    21986130.727
        41.200          34.400
 -23433850.277 7 -18260131.861 7  20037585.104    20037583.227    20037584.553
        46.600          44.900
 -18609147.476 7 -14500627.448 6  21356918.727    21356915.376    21356917.573
        46.100          39.800
  -6855559.793 5  -5341993.322 4  23276972.507    23276970.773    23276971.285
        31.500          29.200
 06  1  1  1 28 30.0000000  0  8G29G 6G18G 8G10G26G21G15
 -20335752.268 7 -15846028.192 7  20451412.578    20451410.387    20451411.926
        45.200          45.000
 -15062631.274 6 -11737100.779 5  21942189.918    21942188.311    21942189.085
        38.100          34.300
  -2732485.460 5  -2129208.821 4  23159283.716    23159280.468    23159282.752
        33.600          26.800
  -4411391.180 4  -3437445.125 3  24012533.253    24012532.048    24012532.481
        26.500          23.800
 -13208376.310 6 -10292218.685 5  22000703.306    22000701.324    22000702.232
        41.500          35.100
 -23458814.684 7 -18279584.645 7  20032834.531    20032832.626    20032834.022
        46.700          44.900
 -18681517.891 7 -14557019.975 6  21343146.829    21343143.797    21343145.812
        46.100          40.100
  -6957223.759 5  -5421211.975 5  23257626.455    23257624.593    23257625.317
        31.600          31.000
 06  1  1  1 29  0.0000000  0  8G29G 6G18G 8G10G26G21G15
 -20322112.117 7 -15835399.497 7  20454008.399    20454006.061    20454007.581
        45.200          45.200
 -14999913.138 6 -11688229.520 5  21954124.633    21954123.337    21954123.815
        38.300          34.800
  -2812938.707 5  -2191899.673 4  23143973.887    23143971.149    23143972.869
        32.800          26.500
  -4412995.782 4  -3438695.479 3  24012228.935    24012227.098    24012227.564
        26.200          23.800
 -13131637.081 6 -10232421.876 5  22015306.039    22015304.212    22015304.956
        41.100          34.700
 -23483096.131 7 -18298505.242 7  20028214.047    20028211.946    20028213.606
        46.900          44.800
 -18753600.108 7 -14613187.926 6  21329430.324    21329426.929    21329429.259
        46.500          40.000
  -7058789.612 5  -5500354.171 5  23238298.762    23238297.138    23238297.701
        30.800          31.600
 06  1  1  1 29 30.0000000  0  8G29G 6G18G 8G10G26G21G15
 -20307907.549 7 -15824331.002 7  20456711.319    20456709.070    20456710.616
        44.900          44.900
 -14936756.151 6 -11639016.298 5  21966143.409    21966141.703    21966142.525
        38.600          34.600
  -2893237.429 5  -2254470.089 4  23128693.393    23128691.340    23128692.561
        32.100          28.800
  -4414023.749 4  -3439496.490 3  24012032.105    24012030.655    24012031.651
        26.800          19.300
 -13054731.997 6 -10172495.838 5  22029940.923    22029938.715    22029939.721
        40.700          34.400
 -23506694.219 7 -18316893.361 7  20023723.569    20023721.438    20023723.037
        46.900          45.100
 -18825391.891 7 -14669129.568 6  21315768.763    21315765.436    21315767.737
        46.400          40.000
  -7160255.395 5  -5579418.400 5  23218990.502    23218989.185    23218989.439
        31.100          31.500
 06  1  1  1 30  0.0000000  0  8G29G 6G18G 8G10G26G21G15
 -20293139.691 7 -15812823.579 7  20459521.703    20459519.254    20459520.878
        45.200          45.000
 -14873162.507 6 -11589462.822 5  21978244.627    21978243.190    21978243.849
        38.200          34.500
  -2973381.447 5  -2316919.940 4  23113442.551    23113440.000    23113441.499
        32.400          28.600
  -4414474.712 4  -3439847.877 3  24011946.841    24011944.825    24011945.499
        24.200          19.300
 -12977662.438 6 -10112441.633 5  22044606.487    22044604.699    22044605.323
        40.600          34.500
 -23529608.517 7 -18334748.647 7  20019362.990    20019361.064    20019362.594
        46.900          45.100
 -18896891.345 7 -14724843.423 6  21302163.032    21302159.512    21302161.907
        46.400          39.800
  -7261619.302 5  -5658403.230 5  23199702.375    23199700.079    23199700.897
        30.600          30.400
 06  1  1  1 30 30.0000000  0  8G29G 6G18G 8G10G26G21G15
 -20277809.678 7 -15800878.113 7  20462438.668    20462436.535    20462437.969
        45.300          45.000
 -14809134.717 6 -11539571.058 5  21990428.673    21990427.158    21990427.948
        38.200          34.000
  -3053370.374 5  -2379248.967 4  23098221.177    23098218.151    23098220.204
        33.000          26.800
  -4414348.102 4  -3439749.193 3  24011971.594    24011968.969    24011970.583
        28.400          20.500
 -12900429.473 6 -10052260.092 5  22059303.636    22059301.510    22059302.403
        40.500          34.300
 -23551838.641 7 -18352070.820 7  20015133.014    20015130.755    20015132.413
        47.100          45.300
 -18968096.162 7 -14780327.692 6  21288612.897    21288609.577    21288611.890
        46.300          39.700
  -7362879.497 5  -5737307.273 4  23180431.728    23180431.182    23180431.013
        30.100          28.800
 06  1  1  1 31  0.0000000  0  8G29G 6G18G 8G10G26G21G15
 -20261918.630 7 -15788495.474 7  20465462.483    20465460.505    20465461.857
        45.200          45.100
 -14744675.125 6 -11489342.812 5  22002694.822    22002693.373    22002694.090
        37.900          33.900
  -3133203.736 5  -2441456.777 4  23083029.510    23083026.646    23083028.802
        33.500          27.600
  -4413643.656 4  -3439200.308 3  24012105.171    24012103.404    24012104.301
        26.200          23.400
 -12823034.223 6  -9991952.100 5  22074031.168    22074029.450    22074030.078
        40.500          34.500
 -23573384.282 7 -18368859.629 7  20011032.618    20011030.813    20011032.247
        47.000          45.500
 -19039004.294 7 -14835580.770 6  21275119.682    21275116.288    21275118.616
        46.700          40.000
  -7464033.977 4  -5816128.913 4  23161183.555    23161181.379    23161182.120
        29.700          27.400
 06  1  1  1 31 30.0000000  0  8G29G 6G18G 8G10G26G21G15
 -20245467.818 7 -15775676.659 7  20468593.216    20468590.974    20468592.505
        45.300          45.000
 -14679785.875 6 -11438779.781 5  22015043.183    22015041.472    22015042.249
        37.500          33.600
  -3212880.789 5  -2503542.779 4  23067867.619    23067864.909    23067866.558
        33.600          28.100
  -4412361.005 4  -3438200.841 3  24012349.205    24012346.514    24012348.266
        26.200          19.900
 -12745477.720 6  -9931518.447 5  22088789.613    22088787.999    22088788.600
        40.600          34.300
 -23594245.117 7 -18385114.819 7  20007063.121    20007061.159    20007062.476
        46.600          45.600
 -19109613.712 7 -14890601.089 6  21261682.989    21261679.716    21261681.964
        46.800          40.000
  -7565080.849 5  -5894866.727 4  23141954.650    23141952.818    23141953.630
        31.600          28.100
 06  1  1  1 32  0.0000000  0  8G29G 6G18G 8G10G26G21G15
 -20228458.266 7 -15762422.458 7  20471830.047    20471827.826    20471829.298
        45.300          45.000
 -14614469.303 6 -11387883.768 5  22027472.232    22027470.745    22027471.501
        37.200          33.400
  -3292400.808 5  -2565506.415 4  23052734.818    23052732.360    23052734.095
        33.900          27.600
  -4410499.379 4  -3436750.261 3  24012703.329    24012701.456    24012702.350
        27.100          20.500
 -12667761.063 6  -9870960.008 5  22103578.856    22103576.683    22103577.759
        40.600          34.100
 -23614421.074 7 -18400836.340 7  20003223.685    20003221.805    20003223.106
        46.700          45.600
 -19179921.860 7 -14945386.650 6  21248303.608    21248300.483    21248302.692
        46.400          40.100
  -7666018.289 5  -5973519.282 4  23122747.224    23122745.008    23122746.013
        33.800          27.400
 06  1  1  1 32 30.0000000  0  8G29G 6G18G 8G10G26G21G15
 -20210891.463 7 -15748734.038 7  20475172.747    20475170.704    20475172.013
        45.200          44.900
 -14548728.036 6 -11336656.825 5  22039982.487    22039981.021    22039981.704
        37.700          33.500
  -3371763.737 5  -2627347.660 4  23037633.080    23037629.468    23037632.156
        34.400          26.800
  -4408058.699 4  -3434848.398 3  24013167.668    24013165.482    24013166.772
        25.900          20.500
 -12589885.344 6  -9810277.612 5  22118397.969    22118396.147    22118396.823
        40.100          33.900
 -23633911.775 7 -18416023.896 7  19999514.778    19999512.752    19999514.261
        46.800          45.500
 -19249926.699 7 -14999935.870 6  21234982.315    21234979.002    21234981.244
        46.400          40.300
  -7766844.403 5  -6052085.080 4  23103560.181    23103558.529    23103558.945
        31.800          28.800
 06  1  1  1 33  0.0000000  0  8G29G 6G18G 8G10G26G21G15
 -20192768.420 7 -15734612.185 7  20478621.405    20478619.357    20478620.636
        45.200          44.900
 -14482564.034 6 -11285100.468 5  22052572.954    22052571.556    22052572.223
        38.300          33.400
  -3450968.960 5  -2689066.018 4  23022560.555    23022557.531    23022559.659
        33.600          26.800
  -4405038.630 4  -3432495.084 3  24013742.017    24013740.437    24013741.191
        27.100          19.900
 -12511851.927 6  -9749472.350 5  22133247.675    22133245.486    22133246.452
        40.500          33.900
 -23652717.123 7 -18430677.410 7  19995936.110    19995934.197    19995935.677
        46.900          45.600
 -19319626.221 7 -15054247.169 6  21221718.965    21221715.689    21221717.941
        46.600          40.700
  -7867557.225 5  -6130562.592 4  23084395.502    23084393.729    23084394.410
        32.300          29.900
 06  1  1  1 33 30.0000000  0  8G29G 6G18G 8G10G26G21G15
 -20174090.468 7 -15720057.934 7  20482175.787    20482173.550    20482175.035
        45.300          44.800
 -14415979.874 6 -11233216.720 5  22065243.642    22065242.368    22065242.913
        38.200          34.300
  -3530015.572 5  -2750660.770 4  23007518.610    23007516.321    23007517.579
        33.900          29.200
  -4401438.937 4  -3429690.127 3  24014427.759    24014425.402    24014426.728
        27.100          20.500
 -12433661.994 6  -9688545.121 5  22148126.150    22148124.382    22148125.048
        40.100          33.500
 -23670837.023 7 -18444796.812 7  19992487.927    19992486.114    19992487.510
        46.800          45.600
 -19389018.802 7 -15108319.303 6  21208513.971    21208510.602    21208512.956
        46.700          40.600
  -7968154.763 5  -6208950.283 4  23065252.672    23065250.667    23065251.303
        32.800          29.900
 06  1  1  1 34  0.0000000  0  8G29G 6G18G 8G10G26G21G15
 -20154858.794 7 -15705072.213 7  20485835.322    20485833.229    20485834.670
        45.500          44.800
 -14348978.068 6 -11181007.538 5  22077994.118    22077992.363    22077993.238
        37.700          33.600
  -3608903.908 5  -2812132.172 5  22992506.701    22992504.454    22992505.782
        34.900          31.000
  -4397259.480 4  -3426433.395 3  24015222.257    24015221.483    24015221.413
        26.500          22.100
 -12355316.483 6  -9627496.662 5  22163034.466    22163033.021    22163033.507
        39.900          33.500
 -23688271.220 7 -18458381.897 7  19989170.246    19989168.479    19989169.852
        46.600          45.600
 -19458101.693 7 -15162150.116 6  21195368.075    21195364.494    21195366.920
        46.800          40.600
  -8068635.317 5  -6287246.809 4  23046131.239    23046129.500    23046129.986
        31.600          29.200
 06  1  1  1 34 30.0000000  0  8G29G 6G18G 8G10G26G21G15
 -20135074.643 7 -15689655.984 7  20489600.406    20489598.023    20489599.653
        45.400          44.700
 -14281560.864 6 -11128474.673 5  22090822.918    22090821.322    22090822.154
        37.700          33.500
  -3687633.173 5  -2873479.633 4  22977524.799    22977522.038    22977524.042
        34.300          28.100
  -4392499.879 4  -3422724.640 3  24016129.361    24016126.498    24016128.141
        28.800          21.600
 -12276816.501 6  -9566327.838 5  22177972.695    22177971.083    22177971.662
        39.700          32.800
 -23705019.540 7 -18471432.533 7  19985983.391    19985981.384    19985982.905
        46.800          45.700
 -19526872.523 7 -15215737.765 6  21182281.243    21182277.882    21182280.216
        46.800          40.700
  -8168996.852 5  -6365450.584 4  23027033.081    23027031.510    23027031.826
        31.600          29.500
 06  1  1  1 35  0.0000000  0  8G29G 6G18G 8G10G26G21G15
 -20114739.504 7 -15673810.421 7  20493469.839    20493467.712    20493469.198
        45.600          44.700
 -14213730.833 6 -11075620.114 5  22103730.424    22103729.140    22103729.630
        37.200          33.900
  -3766202.448 5  -2934702.443 4  22962573.340    22962570.267    22962572.498
        34.100          26.800
  -4387159.966 4  -3418563.656 3  24017145.600    24017142.786    24017144.548
        28.600          19.900
 -12198163.120 6  -9505039.488 5  22192940.201    22192938.397    22192938.963
        39.600          33.200
 -23721082.223 7 -18483948.911 7  19982926.815    19982924.860    19982926.371
        47.000          45.900
 -19595329.752 7 -15269081.053 6  21169254.598    21169250.907    21169253.471
        47.000          40.900
  -8269237.181 5  -6443559.931 5  23007957.557    23007956.527    23007956.866
        32.600          30.600
 06  1  1  1 35 30.0000000  0  8G29G 6G18G 8G10G26G21G15
 -20093854.645 7 -15657536.501 7  20497444.382    20497441.983    20497443.588
        45.400          44.900
 -14145490.189 6 -11022445.602 5  22116716.356    22116714.743    22116715.526
        37.500          33.200
  -3844611.321 5  -2995800.276 4  22947653.506    22947650.272    22947652.572
        35.900          28.400
  -4381239.447 4  -3413950.278 3  24018271.472    24018269.803    24018270.724
        28.600          23.000
 -12119357.422 6  -9443632.452 5  22207936.221    22207934.254    22207935.200
        39.900          32.800
 -23736458.879 7 -18495930.719 7  19980000.949    19979998.736    19980000.380
        47.000          46.000
 -19663471.048 7 -15322178.155 6  21156287.512    21156284.099    21156286.383
        46.600          41.100
  -8369354.536 5  -6521573.458 5  22988906.027    22988905.041    22988905.015
        32.100          31.000
 06  1  1  1 36  0.0000000  0  8G29G 6G18G 8G10G26G21G15
 -20072421.369 7 -15640835.242 7  20501523.001    20501520.604    20501522.243
        45.600          44.800
 -14076841.814 6 -10968953.377 5  22129779.437    22129778.224    22129778.719
        36.500          33.900
  -3922859.568 5  -3056772.921 5  22932763.567    22932760.441    22932762.353
        34.800          30.100
  -4374738.278 4  -3408884.415 3  24019508.703    24019506.605    24019507.674
        28.100          18.600
 -12040400.583 6  -9382107.625 5  22222961.445    22222959.449    22222960.288
        39.500          32.600
 -23751149.783 7 -18507378.174 7  19977205.221    19977203.176    19977204.684
        47.000          46.000
 -19731294.244 7 -15375027.391 6  21143381.219    21143377.751    21143380.208
        46.900          41.000
  -8469347.020 5  -6599489.667 5  22969878.557    22969876.732    22969877.413
        32.700          30.800
 06  1  1  1 36 30.0000000  0  8G29G 6G18G 8G10G26G21G15
 -20050440.977 7 -15623707.659 7  20505705.569    20505703.303    20505704.807
        45.500          44.700
 -14007787.525 6 -10915144.855 5  22142919.906    22142918.806    22142919.207
        36.100          33.400
  -4000946.454 5  -3117619.818 4  22917903.188    22917900.568    22917902.138
        33.600          28.800
  -4367656.504 4  -3403366.146 3  24020856.165    24020853.915    24020855.555
        28.100          20.500
 -11961293.787 6  -9320465.958 5  22238015.111    22238012.985    22238014.003
        39.700          32.700
 -23765154.693 7 -18518291.091 7  19974540.156    19974538.132    19974539.594
        46.800          46.000
 -19798796.902 7 -15427626.856 6  21130535.890    21130532.426    21130534.815
        46.800          41.300
  -8569212.453 5  -6677306.887 5  22950875.340    22950873.478    22950873.933
        33.100          31.000
 06  1  1  1 37  0.0000000  0  8G29G 6G18G 8G10G26G21G15
 -20027914.960 7 -15606154.918 7  20509992.224    20509989.808    20509991.385
        45.400          44.700
 -13938330.394 6 -10861022.440 5  22156137.702    22156136.018    22156136.851
        37.200          32.800
  -4078871.933 5  -3178340.956 4  22903074.189    22903071.103    22903073.343
        34.300          26.200
  -4359993.524 4  -3397395.006 3  24022314.698    24022312.714    24022313.283
        27.100          21.600
 -11882038.005 6  -9258708.198 5  22253096.773    22253094.992    22253095.617
        38.900          33.100
 -23778473.949 7 -18528669.732 7  19972005.518    19972003.499    19972004.939
        46.800          46.100
 -19865977.247 7 -15479975.167 6  21117751.852    21117748.380    21117750.760
        46.800          41.100
  -8668948.893 5  -6755023.599 4  22931895.413    22931893.490    22931894.383
        32.600          29.700
 06  1  1  1 37 30.0000000  0  8G29G 6G18G 8G10G26G21G15
 -20004844.661 7 -15588178.056 7  20514382.189    20514379.930    20514381.455
        45.500          44.600
 -13868472.741 6 -10806587.917 5  22169431.192    22169429.580    22169430.454
        37.300          32.800
  -4156635.262 5  -3238935.763 4  22888276.518    22888273.924    22888275.858
        35.500          28.100
  -4351749.851 4  -3390971.332 3  24023882.512    24023881.204    24023881.632
        25.600          21.100
 -11802634.382 6  -9196835.242 5  22268206.770    22268205.127    22268205.719
        39.300          32.700
 -23791107.552 7 -18538514.095 7  19969601.315    19969599.444    19969600.825
        46.800          46.100
 -19932832.948 7 -15532070.513 6  21105029.621    21105026.077    21105028.521
        46.900          41.300
  -8768554.431 5  -6832638.300 5  22912941.266    22912939.608    22912940.252
        32.800          30.600
 06  1  1  1 38  0.0000000  0  8G29G 6G18G 8G10G26G21G15
 -19981231.431 7 -15569778.134 7  20518875.625    20518873.304    20518874.927
        45.700          44.500
 -13798216.918 6 -10751843.131 5  22182800.454    22182798.651    22182799.569
        36.700          32.400
  -4234235.927 5  -3299403.807 5  22873509.688    22873507.517    22873508.807
        35.400          30.400
  -4342924.573 4  -3384094.517 3  24025563.150    24025560.189    24025562.093
        28.600          19.900
 -11723083.921 6  -9134847.861 5  22283344.726    22283342.733    22283343.555
        38.700          32.000
 -23803055.488 7 -18547824.167 7  19967327.782    19967325.862    19967327.259
        46.900          46.100
 -19999361.889 7 -15583911.237 6  21092369.582    21092366.111    21092368.544
        47.100          41.400
  -8868027.069 5  -6910149.438 5  22894011.757    22894010.403    22894010.758
        33.500          30.100
 06  1  1  1 38 30.0000000  0  8G29G 6G18G 8G10G26G21G15
 -19957076.601 7 -15550956.182 7  20523472.012    20523469.784    20523471.382
        45.600          44.500
 -13727565.418 6 -10696790.037 5  22196244.993    22196243.233    22196244.203
        37.000          32.700
  -4311673.331 5  -3359744.598 4  22858773.831    22858771.271    22858772.911
        34.400          29.000
  -4333518.497 4  -3376765.103 3  24027351.794    24027350.092    24027351.103
        26.500          18.600
 -11643387.728 6  -9072746.921 5  22298510.465    22298508.610    22298509.311
        38.900          32.700
 -23814318.020 7 -18556600.167 7  19965184.621    19965182.603    19965184.079
        46.900          46.100
 -20065561.925 7 -15635495.671 6  21079772.244    21079768.836    21079771.191
        47.300          41.500
  -8967364.847 5  -6987555.489 4  22875109.215    22875107.032    22875107.991
        33.800          29.500
 06  1  1  1 39  0.0000000  0  8G29G 6G18G 8G10G26G21G15
 -19932381.819 7 -15531713.491 7  20528171.473    20528169.050    20528170.745
        45.700          44.500
 -13656520.775 6 -10641430.581 5  22209764.706    22209762.531    22209763.826
        37.500          32.400
  -4388946.832 5  -3419957.726 4  22844069.123    22844065.932    22844068.448
        35.900          27.100
  -4323531.441 4  -3368982.982 3  24029253.521    24029251.043    24029252.468
        28.600          20.500
 -11563546.752 6  -9010533.165 5  22313703.896    22313701.959    22313702.765
        39.100          32.800
 -23824895.167 7 -18564842.094 7  19963171.699    19963169.831    19963171.243
        46.600          46.100
 -20131430.568 7 -15686821.878 6  21067237.921    21067234.281    21067236.779
        47.100          41.300
  -9066565.542 5  -7064854.734 5  22856231.448    22856229.601    22856230.423
        33.600          30.400
 06  1  1  1 39 30.0000000  0  8G29G 6G18G 8G10G26G21G15
 -19907148.590 7 -15512051.235 7  20532973.177    20532970.805    20532972.552
        45.900          44.400
 -13585085.609 6 -10585766.823 5  22223357.960    22223356.403    22223357.170
        36.400          32.400
  -4466056.370 5  -3480043.088 4  22829395.439    22829393.038    22829394.688
        35.100          29.700
  -4312963.246 4  -3360748.014 3  24031263.922    24031261.976    24031262.691
        26.200          18.600
 -11483562.014 6  -8948207.389 5  22328924.306    22328922.445    22328923.079
        38.400          32.000
 -23834787.228 7 -18572550.188 7  19961289.443    19961287.466    19961288.810
        46.800          46.100
 -20196966.031 7 -15737888.463 6  21054766.534    21054763.206    21054765.581
        47.100          41.500
  -9165627.156 5  -7142045.592 5  22837380.160    22837379.059    22837379.405
        33.600          31.100
 06  1  1  1 40  0.0000000  0  8G29G 6G18G 8G10G26G21G15
 -19881378.320 7 -15491970.502 7  20537877.080    20537874.736    20537876.384
        46.100          44.400
 -13513262.339 5 -10529800.669 5  22237025.085    22237024.106    22237024.392
        35.800          32.800
  -4543001.293 5  -3540000.131 5  22814753.537    22814751.352    22814752.685
        35.400          31.100
  -4301813.584 4  -3352059.957 2  24033386.003    24033383.422    24033385.075
        28.400          16.100
 -11403434.780 6  -8885770.583 5  22344171.844    22344170.071    22344170.901
        38.800          32.100
 -23843994.558 7 -18579724.727 7  19959537.230    19959535.402    19959536.675
        46.600          46.100
 -20262166.192 7 -15788693.779 6  21042359.427    21042356.060    21042358.464
        47.100          41.600
  -9264547.655 5  -7219126.491 5  22818556.762    22818555.167    22818555.677
        34.000          32.000
 06  1  1  1 40 30.0000000  0  8G29G 6G18G 8G10G26G21G15
 -19855072.328 7 -15471472.325 7  20542883.136    20542880.533    20542882.311
        45.800          44.300
 -13441053.571 6 -10473534.114 5  22250766.227    22250764.905    22250765.538
        36.900          33.000
  -4619780.908 6  -3599828.396 4  22800143.581    22800140.147    22800142.467
        37.100          29.700
  -4290082.786 3  -3342919.080 3  24035617.321    24035616.208    24035616.273
        23.800          21.600
 -11323166.055 6  -8823223.515 5  22359446.641    22359444.885    22359445.526
        38.400          32.700
 -23852517.214 7 -18586365.759 7  19957915.368    19957913.632    19957914.842
        46.800          46.200
 -20327028.530 7 -15839235.858 6  21030016.417    21030013.294    21030015.409
        46.900          41.900
  -9363324.921 5  -7296095.764 5  22799759.902    22799758.599    22799758.694
        33.500          32.000
 06  1  1  1 41  0.0000000  0  8G29G 6G18G 8G10G26G21G15
 -19828232.380 7 -15450558.074 7  20547990.399    20547988.083    20547989.745
        45.900          44.400
 -13368461.928 6 -10416969.211 5  22264579.842    22264578.580    22264579.226
        36.700          32.400
  -4696394.886 6  -3659527.594 4  22785564.080    22785560.812    22785563.167
        36.900          29.900
  -4277771.153 4  -3333325.601 3  24037960.804    24037958.385    24037959.761
        25.900          18.600
 -11242756.757 6  -8760566.924 5  22374747.980    22374746.147    22374746.898
        38.600          32.600
 -23860355.601 7 -18592473.589 7  19956424.006    19956421.960    19956423.432
        46.800          46.200
 -20391551.309 7 -15889513.336 6  21017738.175    21017734.954    21017737.109
        46.800          41.800
  -9461957.103 5  -7372951.997 5  22780990.529    22780989.583    22780989.730
        34.300          32.600
 06  1  1  1 41 30.0000000  0  8G29G 6G18G 8G10G26G21G15
 -19800859.768 7 -15429228.764 7  20553199.603    20553196.955    20553198.750
        46.000          44.400
 -13295489.937 5 -10360107.939 5  22278465.994    22278464.643    22278465.236
        35.600          32.000
  -4772842.798 6  -3719097.393 5  22771016.868    22771013.810    22771015.705
        36.900          31.000
  -4264878.621 4  -3323279.495 3  24040414.400    24040412.759    24040413.367
        26.500          22.100
 -11162207.985 6  -8697801.633 5  22390075.687    22390074.054    22390074.631
        38.400          32.300
 -23867510.031 7 -18598048.467 7  19955062.531    19955060.539    19955061.978
        46.800          46.200
 -20455732.245 7 -15939524.447 6  21005524.903    21005521.575    21005523.945
        46.800          41.800
  -9560441.946 5  -7449693.427 5  22762249.673    22762248.460    22762248.649
        33.800          32.300
 06  1  1  1 42  0.0000000  0  8G29G 6G18G 8G10G26G21G15
 -19772956.458 7 -15407485.924 7  20558509.151    20558506.835    20558508.474
        46.000          44.500
 -13222140.073 5 -10302952.216 5  22292424.097    22292422.667    22292423.388
        35.900          31.800
  -4849123.975 6  -3778537.249 5  22756500.395    22756498.489    22756499.649
        36.700          32.700
  -4251405.359 4  -3312780.801 3  24042977.411    24042976.091    24042976.478
        24.200          21.600
 -11081520.858 6  -8634928.532 5  22405430.105    22405428.410    22405428.924
        38.000          31.800
 -23873980.882 7 -18603090.677 7  19953831.018    19953829.094    19953830.558
        46.700          46.300
 -20519569.131 7 -15989267.467 6  20993377.469    20993373.821    20993376.350
        46.800          41.800
  -9658777.398 5  -7526318.439 5  22743537.118    22743535.616    22743536.131
        34.600          31.300
 06  1  1  1 42 30.0000000  0  8G29G 6G18G 8G10G26G21G15
 -19744523.436 7 -15385330.317 7  20563919.691    20563917.443    20563919.027
        45.700          44.600
 -13148414.991 6 -10245504.117 5  22306453.790    22306452.180    22306452.981
        36.700          32.300
  -4925238.226 6  -3837847.025 5  22742016.562    22742013.767    22742015.592
        36.800          31.600
  -4237351.631 4  -3301829.874 3  24045652.595    24045650.958    24045651.358
        25.600          23.800
 -11000696.486 6  -8571948.502 5  22420810.377    22420808.860    22420809.283
        38.500          32.000
 -23879768.486 7 -18607600.498 7  19952729.678    19952727.711    19952729.083
        46.600          46.100
 -20583059.829 7 -16038740.732 6  20981295.635    20981291.915    20981294.545
        47.100          41.900
  -9756961.678 5  -7602825.668 5  22724853.689    22724851.714    22724852.700
        34.400          30.400
 06  1  1  1 43  0.0000000  0  8G29G 6G18G 8G10G26G21G15
 -19715562.772 7 -15362763.564 7  20569430.805    20569428.479    20569430.020
        45.700          44.500
 -13074317.296 5 -10187765.664 5  22320553.895    22320552.532    22320553.061
        35.600          32.000
  -5001184.884 5  -3897026.243 4  22727563.909    22727560.843    22727563.057
        35.900          29.200
  -4222717.408 4  -3290426.611 3  24048436.928    24048435.343    24048436.195
        28.100          23.000
 -10919735.654 6  -8508862.121 5  22436216.850    22436214.966    22436215.833
        38.400          32.000
 -23884873.229 7 -18611578.214 7  19951758.113    19951756.371    19951757.665
        46.500          46.300
 -20646202.037 7 -16087942.447 6  20969280.031    20969276.376    20969279.080
        47.500          41.900
  -9854992.562 5  -7679213.357 5  22706198.789    22706197.139    22706197.681
        34.400          31.300
 06  1  1  1 43 30.0000000  0  8G29G 6G18G 8G10G26G21G15
 -19686075.745 7 -15339786.659 7  20575041.959    20575039.715    20575041.142
        45.600          44.400
 -12999849.641 5 -10129738.941 5  22334724.288    22334723.168    22334723.402
        34.500          31.300
  -5076963.451 6  -3956074.477 5  22713143.988    22713141.474    22713143.144
        37.100          31.100
  -4207503.092 4  -3278571.273 3  24051332.399    24051331.204    24051331.412
        26.800          23.000
 -10838639.440 6  -8445670.254 5  22451648.972    22451647.116    22451647.840
        37.600          31.800
 -23889295.526 7 -18615024.155 7  19950916.697    19950914.839    19950916.254
        46.800          46.200
 -20708993.398 7 -16136870.775 7  20957331.347    20957327.629    20957330.141
        47.300          42.100
  -9952867.898 5  -7755479.836 5  22687573.621    22687572.180    22687572.599
        34.000          32.600
 06  1  1  1 44  0.0000000  0  8G29G 6G18G 8G10G26G21G15
 -19656064.001 7 -15316400.877 7  20580753.134    20580750.713    20580752.301
        45.600          44.500
 -12925014.540 5 -10071425.894 5  22348965.198    22348963.763    22348964.442
        35.500          31.600
  -5152573.085 5  -4014991.043 5  22698755.324    22698753.901    22698754.647
        35.800          32.100
  -4191708.962 4  -3266264.185 3  24054338.084    24054335.750    24054336.987
        26.800          20.500
 -10757408.750 6  -8382373.609 5  22467106.862    22467104.948    22467105.683
        37.800          32.300
 -23893036.035 7 -18617938.829 7  19950204.865    19950203.054    19950204.437
        46.700          46.200
 -20771432.289 7 -16185524.454 7  20945449.284    20945445.975    20945448.219
        47.100          42.200
 -10050585.491 5  -7831623.395 5  22668978.177    22668977.101    22668977.319
        34.400          32.700
 06  1  1  1 44 30.0000000  0  8G29G 6G18G 8G10G26G21G15
 -19625529.349 7 -15292607.638 7  20586563.391    20586561.344    20586562.641
        45.400          44.500
 -12849814.752 5 -10012828.664 5  22363275.552    22363273.905    22363274.647
        35.800          31.300
  -5228013.695 6  -4073775.898 4  22684399.903    22684397.282    22684399.044
        37.200          29.900
  -4175335.304 4  -3253505.495 3  24057453.803    24057452.294    24057452.881
        27.900          23.400
 -10676044.456 6  -8318972.859 5  22482589.887    22482587.690    22482588.761
        37.700          31.300
 -23896095.058 7 -18620322.483 7  19949622.788    19949620.929    19949622.227
        46.700          46.300
 -20833516.266 7 -16233901.570 7  20933634.913    20933631.686    20933633.964
        47.100          42.400
 -10148143.479 5  -7907642.579 5  22650413.719    22650412.546    22650412.748
        34.400          32.000
 06  1  1  1 45  0.0000000  0  8G29G 6G18G 8G10G26G21G15
 -19594473.412 7 -15268408.207 7  20592473.011    20592471.091    20592472.283
        45.400          44.500
 -12774252.844 5  -9953949.269 5  22377654.104    22377652.885    22377653.515
        35.500          31.500
  -5303284.791 6  -4132428.709 4  22670077.077    22670073.167    22670076.199
        38.100          29.700
  -4158382.252 4  -3240295.326 3  24060680.006    24060677.985    24060679.004
        27.600          21.600
 -10594547.834 6  -8255468.987 5  22498097.646    22498095.940    22498096.652
        37.100          31.100
 -23898473.210 7 -18622175.586 7  19949170.262    19949168.407    19949169.681
        46.600          46.400
 -20895243.251 7 -16282000.513 7  20921888.897    20921885.522    20921887.925
        47.300          42.500
 -10245539.699 5  -7983535.736 5  22631879.867    22631878.230    22631878.928
        35.400          31.800
 06  1  1  1 45 30.0000000  0  8G29G 6G18G 8G10G26G21G15
 -19562897.561 7 -15243803.649 7  20598481.823    20598479.818    20598481.032
        45.400          44.500
 -12698331.619 5  -9894789.889 5  22392101.803    22392100.095    22392100.848
        34.500          31.100
  -5378385.940 6  -4190949.087 5  22655785.451    22655782.452    22655784.385
        36.700          30.200
  -4140850.200 4  -3226633.993 3  24064015.786    24064014.346    24064014.968
        26.500          20.500
 -10512919.710 6  -8191862.646 5  22513631.519    22513629.160    22513630.247
        37.200          30.800
 -23900170.982 7 -18623498.520 7  19948847.309    19948845.319    19948846.668
        46.700          46.200
 -20956611.117 7 -16329819.624 7  20910211.206    20910207.613    20910210.147
        47.500          42.400
 -10342771.923 5  -8059301.094 5  22613377.221    22613375.508    22613376.165
        35.100          32.300
 06  1  1  1 46  0.0000000  0  8G29G 6G18G 8G10G26G21G15
 -19530803.791 7 -15218795.514 7  20604589.137    20604586.943    20604588.372
        45.500          44.200
 -12622053.483 5  -9835352.398 5  22406616.758    22406615.328    22406616.070
        35.100          31.000
  -5453316.593 6  -4249336.577 5  22641525.880    22641523.938    22641525.003
        36.100          31.600
  -4122739.409 4  -3212521.707 3  24067462.719    24067460.125    24067461.342
        25.600          19.300
 -10431161.027 6  -8128154.571 5  22529189.029    22529187.427    22529187.962
        37.200          31.000
 -23901189.016 7 -18624291.795 7  19948653.567    19948651.526    19948652.904
        46.800          46.500
 -21017617.705 7 -16377357.224 7  20898601.790    20898598.328    20898600.834
        47.500          42.400
 -10439837.970 5  -8134936.957 5  22594906.373    22594904.777    22594905.213
        35.300          33.100
 06  1  1  1 46 30.0000000  0  8G29G 6G18G 8G10G26G21G15
 -19498193.659 7 -15193385.017 7  20610794.787    20610792.415    20610794.045
        46.000          44.300
 -12545421.206 5  -9775638.942 5  22421199.464    22421197.969    22421198.666
        34.700          30.600
  -5528076.130 6  -4307590.738 4  22627300.564    22627297.030    22627299.604
        38.500          29.700
  -4104049.925 4  -3197958.459 3  24071019.011    24071016.887    24071018.199
        28.800          19.900
 -10349272.919 6  -8064345.647 5  22544771.928    22544770.008    22544770.773
        36.800          30.400
 -23901527.992 7 -18624555.924 7  19948589.143    19948587.061    19948588.543
        46.800          46.400
 -21078260.695 7 -16424611.491 7  20887061.606    20887058.334    20887060.696
        47.300          42.500
 -10536735.768 6  -8210441.722 5  22576467.393    22576465.699    22576466.438
        36.400          33.500
 06  1  1  1 47  0.0000000  0  8G29G 6G18G 8G10G26G21G15
 -19465068.799 7 -15167573.433 7  20617098.244    20617095.812    20617097.489
        45.900          44.200
 -12468437.401 5  -9715651.577 5  22435848.678    22435847.431    22435848.117
        34.100          31.000
  -5602664.314 6  -4365711.418 4  22613106.683    22613102.807    22613105.679
        37.700          29.000
  -4084782.335 4  -3182944.770 2  24074685.391    24074683.570    24074684.510
        26.800          17.800
 -10267256.281 6  -8000436.570 5  22560379.197    22560377.499    22560378.159
        37.000          31.000
 -23901188.343 7 -18624291.258 7  19948653.630    19948651.670    19948653.090
        46.900          46.300
 -21138538.022 7 -16471580.832 7  20875591.376    20875587.942    20875590.290
        47.100          42.700
 -10633463.213 6  -8285813.757 5  22558060.459    22558059.190    22558059.457
        36.100          33.200
 06  1  1  1 47 30.0000000  0  8G29G 6G18G 8G10G26G21G15
 -19431431.063 7 -15141362.203 7  20623499.292    20623496.875    20623498.528
        46.100          44.000
 -12391104.733 5  -9655392.385 5  22450565.225    22450563.667    22450564.437
        34.800          30.600
  -5677080.300 6  -4423697.890 5  22598945.407    22598942.916    22598944.453
        37.800          32.300
  -4064937.104 4  -3167480.961 2  24078461.731    24078459.447    24078460.819
        27.400          17.000
 -10185112.092 6  -7936428.114 5  22576010.934    22576009.128    22576009.854
        37.100          30.400
 -23900170.914 7 -18623498.451 7  19948847.187    19948845.374    19948846.725
        46.900          46.500
 -21198447.553 7 -16518263.577 7  20864191.160    20864187.628    20864190.062
        47.300          42.700
 -10730018.047 6  -8361051.275 5  22539687.231    22539685.610    22539686.013
        36.100          34.500
 06  1  1  1 48  0.0000000  0  8G29G 6G18G 8G10G26G21G15
 -19397281.986 7 -15114752.532 7  20629997.702    20629995.316    20629996.890
        46.100          44.100
 -12313426.045 5  -9594863.552 5  22465346.943    22465345.499    22465346.226
        35.600          31.300
  -5751323.532 6  -4481549.730 5  22584817.698    22584815.187    22584816.970
        38.700          32.600
  -4044515.114 4  -3151567.711 3  24082348.220    24082346.124    24082347.236
        27.600          19.300
 -10102841.088 6  -7872320.829 5  22591666.704    22591664.889    22591665.723
        37.000          30.600
 -23898476.405 7 -18622178.054 7  19949169.611    19949167.889    19949169.121
        46.800          46.600
 -21257987.125 7 -16564658.044 7  20852860.883    20852857.530    20852859.938
        47.400          42.800
 -10826398.087 6  -8436152.580 5  22521346.368    22521344.939    22521345.364
        36.500          34.100
 06  1  1  1 48 30.0000000  0  8G29G 6G18G 8G10G26G21G15
 -19362623.481 7 -15087745.899 7  20636592.774    20636590.578    20636592.070
        46.100          44.100
 -12235403.892 5  -9534067.082 5  22480194.069    22480192.424    22480193.396
        35.200          30.100
  -5825393.895 6  -4539266.884 5  22570722.282    22570719.598    22570721.616
        38.100          32.300
  -4023516.594 4  -3135205.231 2  24086343.504    24086341.475    24086342.536
        24.900          17.800
 -10020444.605 6  -7808115.765 5  22607345.957    22607344.259    22607344.928
        36.800          31.100
 -23896105.286 7 -18620330.424 7  19949620.801    19949619.077    19949620.289
        46.700          46.700
 -21317154.642 7 -16610762.596 7  20841601.818    20841598.324    20841600.784
        47.300          43.000
 -10922601.067 6  -8511115.934 5  22503039.481    22503037.722    22503038.381
        36.000          33.500
 06  1  1  1 49  0.0000000  0  8G29G 6G18G 8G10G26G21G15
 -19327457.121 7 -15060343.535 7  20643284.691    20643282.485    20643283.989
        46.100          44.100
 -12157041.183 5  -9473005.232 5  22495105.976    22495104.300    22495105.235
        35.100          30.200
  -5899290.667 6  -4596848.766 5  22556660.157    22556657.078    22556659.218
        37.900          31.000
  -4001941.799 4  -3118393.711 2  24090449.137    24090447.114    24090448.444
        26.200          17.800
  -9937923.406 6  -7743813.535 4  22623049.655    22623047.154    22623048.555
        36.600          29.700
 -23893058.545 7 -18617956.335 7  19950200.686    19950198.773    19950200.117
        46.700          46.500
 -21375947.565 7 -16656575.250 7  20830413.783    20830410.376    20830412.759
        47.300          43.100
 -11018624.924 6  -8585939.708 5  22484766.927    22484765.003    22484765.818
        36.600          33.600
 06  1  1  1 49 30.0000000  0  8G29G 6G18G 8G10G26G21G15
 -19291784.836 7 -15032546.944 7  20650072.961    20650070.719    20650072.244
        46.100          44.200
 -12078340.304 5  -9411679.892 5  22510082.138    22510080.948    22510081.310
        34.300          31.000
  -5973013.460 6  -4654295.094 5  22542631.597    22542628.512    22542630.701
        38.800          32.300
  -3979791.291 4  -3101133.577 3  24094664.854    24094662.306    24094663.957
        25.900          19.300
  -9855278.378 6  -7679414.796 5  22638776.631    22638774.278    22638775.504
        37.000          30.100
 -23889337.024 7 -18615056.443 7  19950908.799    19950906.845    19950908.280
        46.900          46.400
 -21434364.303 7 -16702094.782 7  20819297.519    20819294.022    20819296.476
        47.300          43.100
 -11114467.369 6  -8660622.122 5  22466528.385    22466526.964    22466527.478
        37.200          34.000
 06  1  1  1 50  0.0000000  0  8G29G 6G18G 8G10G26G21G15
 -19255608.348 7 -15004357.471 7  20656957.172    20656954.961    20656956.433
        46.000          44.100
 -11999304.225 5  -9350093.353 5  22525122.267    22525120.997    22525121.368
        34.600          30.800
  -6046561.735 6  -4711605.425 5  22528635.713    22528632.802    22528634.780
        38.600          32.400
  -3957065.668 4  -3083425.306 3  24098988.821    24098986.482    24098987.779
        25.600          18.600
  -9772510.432 6  -7614920.297 5  22654526.016    22654524.661    22654525.065
        36.400          30.400
 -23884941.488 7 -18611631.350 7  19951745.227    19951743.284    19951744.666
        46.800          46.300
 -21492402.710 7 -16747319.502 7  20808253.203    20808249.762    20808252.167
        47.300          43.400
 -11210126.317 6  -8735161.546 5  22448325.463    22448323.710    22448324.335
        36.700          34.400
 06  1  1  1 50 30.0000000  0  8G29G 6G18G 8G10G26G21G15
 -19218929.530 7 -14975776.572 7  20663936.940    20663934.645    20663936.213
        46.000          44.200
 -11919935.582 5  -9288247.667 5  22540225.149    22540224.307    22540224.475
        33.100          30.400
  -6119935.081 6  -4768779.444 5  22514672.232    22514669.837    22514671.517
        37.300          31.600
  -3933765.425 4  -3065269.259 2  24103422.604    24103420.246    24103421.707
        24.600          16.100
  -9689620.676 6  -7550330.876 5  22670300.086    22670298.156    22670298.903
        36.600          31.000
 -23879872.685 7 -18607681.629 7  19952709.844    19952707.844    19952709.224
        47.100          46.400
 -21550060.328 7 -16792247.514 7  20797281.477    20797277.864    20797280.418
        47.600          43.500
 -11305599.476 6  -8809556.204 5  22430156.839    22430155.659    22430155.932
        36.100          34.100
 06  1  1  1 51  0.0000000  0  8G29G 6G18G 8G10G26G21G15
 -19181750.184 7 -14946805.651 7  20671011.817    20671009.664    20671011.123
        45.800          44.100
 -11840237.084 5  -9226144.975 4  22555391.315    22555390.311    22555390.503
        32.700          29.700
  -6193132.653 6  -4825816.504 5  22500744.219    22500740.450    22500743.353
        39.500          30.400
  -3909891.034 4  -3046665.851 2  24107966.272    24107963.556    24107965.166
        27.600          15.100
  -9606610.108 6  -7485647.320 5  22686096.709    22686094.201    22686095.477
        36.600          30.200
 -23874131.599 7 -18603208.048 7  19953802.388    19953800.428    19953801.867
        47.000          46.400
 -21607334.915 7 -16836877.055 7  20786382.457    20786378.863    20786381.420
        47.300          43.500
 -11400884.656 6  -8883804.380 5  22412024.917    22412023.609    22412023.921
        36.100          34.500
 06  1  1  1 51 30.0000000  0  8G29G 6G18G 8G10G26G21G15
 -19144071.914 7 -14917445.958 7  20678181.732    20678179.498    20678180.985
        45.900          44.100
 -11760211.580 5  -9163787.447 4  22570620.296    22570618.707    22570619.430
        32.400          28.800
  -6266154.027 6  -4882716.294 5  22486848.576    22486845.717    22486847.838
        39.000          32.700
  -3885443.270 4  -3027615.642 3  24112618.378    24112616.968    24112617.428
        24.900          21.600
  -9523479.526 6  -7420870.244 5  22701915.486    22701913.375    22701914.551
        36.700          30.200
 -23867719.088 7 -18598211.279 7  19955022.764    19955020.679    19955022.190
        47.200          46.500
 -21664224.712 7 -16881206.764 7  20775556.749    20775553.062    20775555.603
        47.200          43.400
 -11495979.768 6  -8957904.444 5  22393929.099    22393927.651    22393927.826
        36.100          34.800
 06  1  1  1 52  0.0000000  0  8G29G 6G18G 8G10G26G21G15
 -19105896.839 7 -14887699.147 7  20685446.157    20685444.015    20685445.486
        46.000          44.000
 -11679861.834 5  -9101177.278 4  22585910.272    22585908.850    22585909.547
        33.900          29.900
  -6338999.263 6  -4939478.781 5  22472986.008    22472984.339    22472984.961
        37.200          34.000
  -3860422.371 4  -3008118.853 3  24117379.969    24117377.788    24117379.020
        28.400          21.100
  -9440229.643 6  -7356000.198 4  22717757.707    22717755.392    22717756.527
        36.800          29.500
 -23860635.960 7 -18592691.952 7  19956370.689    19956368.569    19956370.072
        47.200          46.400
 -21720727.372 7 -16925234.802 7  20764804.428    20764801.003    20764803.393
        47.100          43.600
 -11590882.535 6  -9031854.650 5  22375869.200    22375867.764    22375868.469
        37.300          33.400
 06  1  1  1 52 30.0000000  0  8G29G 6G18G 8G10G26G21G15
 -19067226.595 7 -14857566.486 7  20692804.926    20692802.687    20692804.213
        45.800          43.900
 -11599190.492 5  -9038316.507 5  22601261.321    22601260.309    22601260.744
        34.100          30.600
  -6411667.300 6  -4996103.194 5  22459158.492    22459155.460    22459157.631
        39.800          32.400
  -3834829.230 4  -2988176.174 3  24122250.249    24122248.096    24122249.068
        26.200          22.100
  -9356861.525 6  -7291038.033 5  22733621.874    22733619.996    22733620.689
        36.400          30.200
 -23852883.155 7 -18586650.801 7  19957845.750    19957843.826    19957845.159
        47.100          46.400
 -21776840.754 7 -16968959.512 7  20754126.224    20754122.984    20754125.300
        47.200          43.800
 -11685590.710 6  -9105653.222 5  22357847.187    22357845.685    22357846.090
        37.700          34.100
 06  1  1  1 53  0.0000000  0  8G29G 6G18G 8G10G26G21G15
 -19028063.183 7 -14827049.544 7  20700257.564    20700255.221    20700256.778
        46.100          44.000
 -11518200.343 5  -8975207.316 5  22616673.169    22616672.160    22616672.474
        33.100          30.100
  -6484157.966 6  -5052589.451 5  22445363.896    22445360.118    22445363.046
        39.500          31.100
  -3808664.758 4  -2967788.258 3  24127228.667    24127227.349    24127228.011
        27.400          20.500
  -9273376.099 6  -7225984.452 4  22749508.560    22749506.575    22749507.548
        36.500          29.500
 -23844461.898 7 -18580088.781 7  19959448.000    19959446.312    19959447.537
        46.900          46.400
 -21832562.736 7 -17012379.230 7  20743522.884    20743519.430    20743521.820
        47.300          43.800
 -11780101.999 6  -9179298.380 5  22339862.089    22339860.780    22339861.176
        37.200          34.900
 06  1  1  1 53 30.0000000  0  8G29G 6G18G 8G10G26G21G15
 -18988408.405 7 -14796149.713 7  20707803.299    20707801.282    20707802.677
        46.000          44.000
 -11436894.153 5  -8911851.870 4  22632145.491    22632144.023    22632144.543
        33.800          28.800
  -6556470.469 6  -5108936.851 5  22431603.039    22431600.322    22431602.000
        38.600          32.400
  -3781929.419 4  -2946955.546 2  24132316.171    24132314.079    24132315.073
        25.900          16.100
  -9189774.049 5  -7160839.994 5  22765417.617    22765415.681    22765416.414
        35.800          30.100
 -23835373.063 7 -18573006.568 7  19961177.805    19961175.811    19961177.289
        47.100          46.200
 -21887891.266 7 -17055492.363 7  20732994.303    20732990.602    20732993.245
        47.400          43.600
 -11874414.120 6  -9252788.321 5  22321915.215    22321913.754    22321914.148
        36.800          34.600
 06  1  1  1 54  0.0000000  0  8G29G 6G18G 8G10G26G21G15
 -18948264.142 7 -14764868.466 7  20715442.808    20715440.484    20715442.043
        46.100          43.700
 -11355274.635 5  -8848252.254 4  22647676.854    22647675.699    22647676.308
        32.800          29.000
  -6628604.368 6  -5165145.056 5  22417876.941    22417873.748    22417876.023
        40.300          32.700
  -3754624.098 3  -2925678.659 3  24137512.311    24137510.721    24137511.314
        23.800          19.300
  -9106056.589 5  -7095605.611 5  22781348.017    22781346.618    22781346.996
        35.100          30.400
 -23825617.740 7 -18565405.010 7  19963034.203    19963032.135    19963033.660
        47.200          46.100
 -21942824.165 7 -17098297.222 7  20722540.795    20722537.274    20722539.752
        47.300          43.900
 -11968524.928 6  -9326121.407 5  22304006.533    22304004.957    22304005.398
        37.000          34.500
 06  1  1  1 54 30.0000000  0  8G29G 6G18G 8G10G26G21G15
 -18907632.382 7 -14733207.351 7  20723174.754    20723172.328    20723174.007
        46.100          43.800
 -11273344.720 5  -8784410.764 4  22663267.397    22663266.662    22663266.819
        32.600          28.800
  -6700559.495 6  -5221214.005 5  22404183.790    22404180.355    22404182.933
        39.000          31.000
  -3726749.485 4  -2903958.189 2  24142817.171    24142814.608    24142816.079
        28.400          15.100
  -9022224.569 5  -7030281.962 4  22797301.118    22797299.134    22797300.018
        35.300          29.700
 -23815196.867 7 -18557284.848 7  19965017.194    19965015.144    19965016.652
        47.200          46.100
 -21997359.262 7 -17140792.093 7  20712163.198    20712159.647    20712162.084
        47.000          43.900
 -12062432.106 6  -9399295.817 5  22286137.051    22286135.284    22286135.744
        37.900          35.100
 06  1  1  1 55  0.0000000  0  8G29G 6G18G 8G10G26G21G15
 -18866514.806 7 -14701167.680 7  20730999.215    20730996.765    20730998.453
        46.300          43.700
 -11191107.135 5  -8720329.555 4  22678917.254    22678915.860    22678916.318
        32.300          29.200
  -6772335.251 6  -5277143.153 5  22390525.380    22390522.477    22390524.386
        38.900          33.200
  -3698306.540 4  -2881794.856 3  24148229.231    24148227.580    24148228.523
        27.600          19.900
  -8938278.797 5  -6964869.676 4  22813275.078    22813273.581    22813274.102
        35.200          28.600
 -23804111.502 7 -18548646.896 7  19967126.671    19967124.701    19967126.162
        47.300          46.100
 -22051494.414 7 -17182975.321 7  20701861.252    20701858.071    20701860.335
        46.900          43.900
 -12156133.411 6  -9472309.815 5  22268306.071    22268304.222    22268304.815
        37.600          34.600
 06  1  1  1 55 30.0000000  0  8G29G 6G18G 8G10G26G21G15
 -18824913.586 7 -14668751.141 7  20738915.800    20738913.189    20738914.950
        46.100          43.600
 -11108564.690 5  -8656010.792 4  22694624.843    22694622.942    22694624.038
        32.400          27.900
  -6843930.798 6  -5332931.876 5  22376901.573    22376898.872    22376900.624
        40.100          34.700
  -3669295.979 4  -2859189.237 2  24153749.924    24153747.300    24153749.075
        26.200          15.100
  -8854220.312 5  -6899369.560 5  22829270.713    22829269.569    22829269.656
        35.200          30.100
 -23792362.884 7 -18539492.126 7  19969362.374    19969360.351    19969361.899
        47.400          46.100
 -22105227.709 7 -17224845.416 7  20691636.333    20691632.940    20691635.252
        46.800          44.100
 -12249626.528 6  -9545161.586 5  22250514.507    22250512.942    22250513.422
        37.400          34.400
 06  1  1  1 56  0.0000000  0  8G29G 6G18G 8G10G26G21G15
 -18782830.528 7 -14635959.147 7  20746923.678    20746921.493    20746922.923
        45.900          43.800
 -11025720.180 5  -8591456.650 4  22710389.333    22710388.003    22710388.695
        33.100          28.600
  -6915345.843 6  -5388579.947 5  22363311.297    22363308.334    22363310.404
        39.600          33.500
  -3639718.453 4  -2836141.831 2  24159379.220    24159376.268    24159377.949
        27.900          16.100
  -8770049.741 5  -6833782.093 4  22845288.210    22845286.542    22845287.120
        35.400          28.800
 -23779952.067 7 -18529821.357 7  19971724.239    19971722.078    19971723.723
        47.500          46.200
 -22158557.043 7 -17266400.742 7  20681488.171    20681484.664    20681487.084
        46.900          44.100
 -12342909.143 6  -9617849.325 5  22232763.780    22232762.006    22232762.545
        37.700          34.800
 06  1  1  1 56 30.0000000  0  8G29G 6G18G 8G10G26G21G15
 -18740267.574 7 -14602793.205 7  20755023.181    20755020.945    20755022.475
        45.900          43.600
 -10942576.448 5  -8526669.348 4  22726211.151    22726209.752    22726210.638
        33.400          28.400
  -6986579.995 6  -5444087.080 5  22349755.760    22349752.746    22349754.903
        39.500          32.700
  -3609574.675 4  -2812653.170 2  24165114.540    24165112.805    24165113.876
        27.100          17.000
  -8685767.907 5  -6768107.937 4  22861327.127    22861324.811    22861325.856
        34.700          29.500
 -23766880.285 7 -18519635.551 7  19974211.736    19974209.487    19974211.145
        47.400          46.100
 -22211480.396 7 -17307639.712 7  20671417.126    20671413.717    20671416.095
        46.800          44.300
 -12435979.004 6  -9690371.291 6  22215053.255    22215051.644    22215051.993
        37.900          36.000
 06  1  1  1 57  0.0000000  0  8G29G 6G18G 8G10G26G21G15
 -18697226.694 7 -14569254.857 7  20763213.531    20763211.433    20763212.790
        46.000          43.700
 -10859136.285 5  -8461651.049 4  22742089.945    22742088.035    22742088.878
        31.800          29.500
  -7057632.519 6  -5499452.676 5  22336235.077    22336232.256    22336234.223
        40.200          33.100
  -3578865.614 4  -2788724.031 2  24170958.277    24170955.903    24170957.167
        24.900          17.000
  -8601375.662 5  -6702347.754 4  22877385.630    22877383.863    22877384.572
        34.500          28.800
 -23753148.652 7 -18508935.572 7  19976824.678    19976822.597    19976824.146
        47.400          46.100
 -22263995.217 7 -17348560.348 7  20661424.028    20661420.400    20661422.983
        46.800          44.200
 -12528833.770 6  -9762725.630 5  22197383.888    22197381.755    22197382.609
        38.600          35.900
 06  1  1  1 57 30.0000000  0  8G29G 6G18G 8G10G26G21G15
 -18653709.963 7 -14535345.710 7  20771494.523    20771492.314    20771493.798
        46.000          43.700
 -10775402.360 5  -8396403.886 5  22758023.078    22758022.252    22758022.248
        32.400          30.100
  -7128502.998 6  -5554676.422 5  22322748.835    22322745.927    22322747.878
        39.700          33.000
  -3547592.371 4  -2764355.280 3  24176909.242    24176907.694    24176908.222
        25.300          19.300
  -8516874.280 5  -6636502.527 4  22893465.858    22893464.276    22893464.871
        35.200          29.900
 -23738758.433 7 -18497722.414 7  19979562.918    19979561.029    19979562.423
        47.300          46.200
 -22316099.707 7 -17389161.246 7  20651508.843    20651505.170    20651507.801
        47.000          44.200
 -12621471.199 6  -9834910.644 5  22179755.134    22179753.548    22179754.208
        39.100          35.700
 06  1  1  1 58  0.0000000  0  8G29G 6G18G 8G10G26G21G15
 -18609719.035 7 -14501067.065 7  20779865.653    20779863.549    20779864.938
        45.900          43.800
 -10691377.649 5  -8330930.100 4  22774012.701    22774011.329    22774012.021
        33.000          28.800
  -7199190.903 6  -5609757.907 5  22309297.207    22309294.300    22309296.401
        39.700          32.600
  -3515755.565 4  -2739547.376 2  24182968.091    24182965.327    24182966.973
        27.100          15.100
  -8432264.375 5  -6570572.738 4  22909566.257    22909564.842    22909565.301
        34.700          28.800
 -23723710.861 7 -18485997.033 7  19982426.384    19982424.548    19982425.912
        47.600          46.400
 -22367791.746 7 -17429440.753 7  20641672.062    20641668.572    20641671.016
        46.900          44.300
 -12713888.983 6  -9906924.485 5  22162168.416    22162167.063    22162167.433
        38.800          35.800
 06  1  1  1 58 30.0000000  0  8G29G 6G18G 8G10G26G21G15
 -18565256.260 7 -14466420.742 7  20788326.509    20788324.445    20788325.875
        46.000          43.400
 -10607065.052 5  -8265231.982 4  22790057.130    22790055.213    22790056.278
        32.800          26.200
  -7269695.884 6  -5664696.849 5  22295880.553    22295878.025    22295879.857
        40.400          34.000
  -3483356.270 4  -2714301.200 3  24189132.993    24189131.621    24189132.098
        26.200          19.900
  -8347546.641 5  -6504558.928 4  22925688.244    22925686.300    22925687.111
        34.900          29.000
 -23708007.291 7 -18473760.486 7  19985414.879    19985412.802    19985414.294
        47.500          46.200
 -22419069.301 7 -17469397.292 7  20631914.503    20631910.708    20631913.396
        46.900          44.300
 -12806084.880 6  -9978765.439 5  22144624.206    22144622.579    22144623.180
        38.900          35.600
 06  1  1  1 59  0.0000000  0  8G29G 6G18G 8G10G26G21G15
 -18520323.522 7 -14431408.213 7  20796877.044    20796874.891    20796876.362
        46.000          43.600
 -10522467.359 5  -8199311.715 4  22806155.483    22806153.612    22806154.639
        32.000          26.800
  -7340017.372 6  -5719492.811 5  22282499.054    22282496.189    22282498.182
        40.400          33.900
  -3450395.416 4  -2688617.436 3  24195405.259    24195403.762    24195404.156
        25.900          18.600
  -8262722.178 5  -6438461.937 4  22941829.753    22941827.614    22941828.737
        34.700          28.400
 -23691648.949 7 -18461013.720 7  19988527.709    19988525.657    19988527.196
        47.400          46.100
 -22469930.291 7 -17509029.232 7  20622235.823    20622232.164    20622234.811
        46.900          44.300
 -12898056.428 6 -10050431.571 5  22127122.467    22127120.933    22127121.588
        38.600          35.700
 06  1  1  1 59 30.0000000  0  8G29G 6G18G 8G10G26G21G15
 -18474922.697 7 -14396030.942 7  20805516.659    20805514.360    20805515.928
        46.000          43.600
 -10437587.432 5  -8133171.529 4  22822307.457    22822306.142    22822306.883
        31.100          27.600
  -7410154.850 6  -5774145.380 5  22269152.336    22269149.439    22269151.363
        40.200          33.900
  -3416874.010 4  -2662496.851 3  24201784.268    24201782.551    24201783.328
        24.200          20.500
  -8177791.465 5  -6372282.160 4  22957991.278    22957989.662    22957990.156
        33.600          28.800
 -23674637.168 7 -18447757.787 7  19991764.908    19991762.788    19991764.413
        47.500          46.100
 -22520372.705 7 -17548335.002 7  20612636.958    20612633.430    20612635.925
        47.000          44.600
 -12989801.427 6 -10121921.158 5  22109663.625    22109662.345    22109662.711
        37.800          35.800
 06  1  1  2  0  0.0000000  0  8G29G 6G18G 8G10G26G21G15
 -18429056.000 7 -14360290.654 7  20814244.469    20814242.550    20814243.819
        45.900          43.600
 -10352427.838 5  -8066813.432 4  22838512.580    22838511.658    22838511.907
        31.500          28.600
  -7480107.711 6  -5828654.102 5  22255840.692    22255837.795    22255839.690
        40.200          33.900
  -3382793.379 4  -2635940.514 3  24208268.907    24208267.908    24208268.112
        24.900          20.500
  -8092755.612 5  -6306020.468 4  22974172.902    22974171.331    22974171.821
        34.300          28.400
 -23656973.156 7 -18433993.622 7  19995126.274    19995124.166    19995125.722
        47.700          46.000
 -22570394.121 7 -17587312.728 7  20603118.263    20603114.669    20603117.174
        46.900          44.700
 -13081317.539 6 -10193232.394 5  22092249.530    22092247.490    22092248.486
        39.300          35.300
 06  1  1  2  0 30.0000000  0  8G29G 6G18G 8G10G26G21G15
 -18382725.200 7 -14324188.728 7  20823061.190    20823058.978    20823060.355
        45.700          43.400
 -10266991.732 5  -8000239.872 4  22854771.152    22854769.202    22854770.218
        31.600          27.600
  -7549875.287 6  -5883018.440 5  22242564.067    22242561.264    22242563.370
        40.600          33.600
  -3348154.005 4  -2608948.815 3  24214861.546    24214859.312    24214860.636
        26.200          20.500
  -8007615.508 5  -6239677.531 4  22990374.668    22990372.838    22990373.668
        34.500          28.100
 -23638658.357 7 -18419722.350 7  19998611.544    19998609.375    19998610.973
        47.700          46.100
 -22619992.820 7 -17625961.062 7  20593679.701    20593676.408    20593678.861
        47.000          44.900
 -13172602.270 6 -10264363.349 5  22074877.727    22074876.300    22074876.931
        38.700          35.700
 06  1  1  2  1  0.0000000  0  8G29G 6G18G 8G10G26G21G15
 -18335932.511 7 -14287726.886 7  20831965.549    20831963.388    20831964.790
        45.900          43.500
 -10181281.848 5  -7933452.993 4  22871080.784    22871079.171    22871079.971
        30.200          27.600
  -7619457.408 6  -5937238.269 5  22229322.955    22229320.099    22229322.217
        40.300          33.400
  -3312957.110 4  -2581522.691 3  24221559.687    24221557.428    24221558.595
        27.600          19.300
  -7922371.819 5  -6173253.876 4  23006596.684    23006593.990    23006595.382
        34.100          27.400
 -23619694.317 7 -18404945.176 7  20002220.103    20002218.156    20002219.577
        47.700          46.100
 -22669166.645 7 -17664278.326 7  20584322.384    20584318.898    20584321.470
        46.900          44.900
 -13263653.467 6 -10335312.322 6  22057552.157    22057550.185    22057551.045
        39.600          36.100
 06  1  1  2  1 30.0000000  0  8G29G 6G18G 8G10G26G21G15
 -18288679.961 7 -14250906.712 7  20840957.403    20840955.194    20840956.714
        45.900          43.600
 -10095301.167 5  -7866455.074 4  22887442.369    22887441.066    22887441.865
        30.400          26.200
  -7688853.220 6  -5991312.925 5  22216117.514    22216114.621    22216116.728
        40.700          34.100
  -3277203.786 4  -2553662.971 3  24228362.660    24228361.020    24228361.734
        24.600          19.300
  -7837025.502 5  -6106750.261 4  23022837.367    23022835.308    23022836.206
        34.300          28.100
 -23600082.208 7 -18389663.012 7  20005952.073    20005950.135    20005951.566
        47.600          45.900
 -22717913.599 7 -17702262.966 7  20575046.279    20575042.604    20575045.157
        46.600          44.800
 -13354468.678 6 -10406077.413 6  22040270.330    22040268.741    22040269.326
        39.500          36.500
 06  1  1  2  2  0.0000000  0  8G29G 6G18G 8G10G26G21G15
 -18240969.598 7 -14213729.800 7  20850036.448    20850034.123    20850035.725
        46.000          43.300
 -10009052.346 5  -7799248.240 4  22903855.354    22903853.643    22903854.337
        30.800          25.900
  -7758062.302 6  -6045242.066 5  22202947.818    22202945.058    22202946.879
        40.800          34.800
  -3240895.311 4  -2525370.664 2  24235272.195    24235269.800    24235270.974
        24.600          17.800
  -7751577.046 5  -6040167.054 4  23039096.576    23039095.335    23039095.789
        33.000          27.600
 -23579823.564 7 -18373877.054 7  20009807.199    20009805.266    20009806.630
        47.600          46.000
 -22766231.472 7 -17739913.257 7  20565851.458    20565848.057    20565850.401
        46.400          44.800
 -13445045.443 6 -10476656.690 6  22023033.921    22023032.684    22023032.799
        38.900          36.900
 06  1  1  2  2 30.0000000  0  8G29G 6G18G 8G10G26G21G15
 -18192803.558 7 -14176197.815 7  20859201.847    20859199.846    20859201.223
        46.000          43.300
  -9922538.426 5  -7731834.812 4  22920318.582    22920316.599    22920317.678
        33.000          27.100
  -7827084.465 6  -6099025.556 5  22189813.196    22189810.291    22189812.179
        40.500          34.500
  -3204032.543 4  -2496646.459 2  24242287.122    24242284.849    24242286.073
        26.800          15.100
  -7666027.429 5  -5973505.008 4  23055376.835    23055374.650    23055375.612
        32.800          27.100
 -23558920.021 7 -18357588.575 7  20013785.046    20013783.084    20013784.559
        47.700          46.000
 -22814118.216 7 -17777227.600 7  20556738.784    20556735.461    20556737.718
        46.100          44.900
 -13535381.563 6 -10547048.453 6  22005843.680    22005842.110    22005842.567
        39.600          36.700
 06  1  1  2  3  0.0000000  0  8G29G 6G18G 8G10G26G21G15
 -18144183.789 7 -14138312.276 7  20868454.009    20868451.893    20868453.279
        45.800          43.400
  -9835762.135 5  -7664216.937 4  22936831.408    22936829.582    22936830.556
        30.800          26.800
  -7895918.984 6  -6152662.838 5  22176714.556    22176711.246    22176713.573
        41.100          33.900
  -3166616.394 4  -2467491.020 2  24249406.406    24249404.829    24249405.383
        25.300          12.600
  -7580377.484 5  -5906764.812 4  23071675.912    23071674.046    23071674.711
        33.900          28.400
 -23537372.897 7 -18340798.607 7  20017885.528    20017883.364    20017884.978
        47.900          45.900
 -22861571.975 7 -17814204.551 7  20547708.615    20547705.332    20547707.593
        46.300          45.100
 -13625474.616 6 -10617250.817 6  21988699.537    21988697.928    21988698.420
        39.400          37.200
 06  1  1  2  3 30.0000000  0  8G29G 6G18G 8G10G26G21G15
 -18095112.435 7 -14100074.854 7  20877791.881    20877789.885    20877791.203
        45.700          43.400
  -9748726.364 5  -7596396.886 4  22953393.395    22953392.136    22953392.521
        30.200          27.100
  -7964565.459 6  -6206153.596 5  22163651.733    22163648.539    22163650.718
        41.500          34.400
  -3128648.142 4  -2437905.411 2  24256632.163    24256629.665    24256631.239
        27.600          15.100
  -7494628.060 5  -5839947.074 4  23087992.927    23087991.352    23087992.067
        33.200          27.400
 -23515183.690 7 -18323508.313 7  20022107.966    20022105.824    20022107.418
        47.900          45.900
 -22908590.638 7 -17850842.470 7  20538761.579    20538757.986    20538760.505
        46.500          45.000
 -13715322.287 6 -10687261.973 6  21971601.808    21971600.394    21971600.883
        39.800          36.600
 06  1  1  2  4  0.0000000  0  8G29G 6G18G 8G10G26G21G15
 -18045591.551 7 -14061487.144 7  20887215.477    20887213.379    20887214.755
        45.700          43.100
  -9661434.140 5  -7528377.007 4  22970004.252    22970003.144    22970003.718
        30.100          25.900
  -8033023.130 6  -6259497.222 5  22150624.326    22150621.425    22150623.499
        41.300          34.000
  -3090129.531 4  -2407890.911 2  24263961.942    24263959.477    24263960.921
        26.800          15.100
  -7408779.814 5  -5773052.356 4  23104329.220    23104327.500    23104328.215
        33.000          26.800
 -23492354.002 7 -18305718.945 7  20026452.266    20026450.198    20026451.666
        47.800          45.900
 -22955172.176 7 -17887139.775 7  20529897.467    20529893.820    20529896.390
        46.400          45.200
 -13804922.213 6 -10757080.095 6  21954551.950    21954549.851    21954550.722
        39.800          36.500
 06  1  1  2  4 30.0000000  0  8G29G 6G18G 8G10G26G21G15
 -17995623.218 7 -14022550.776 7  20896724.110    20896722.018    20896723.427
        46.000          43.200
  -9573888.282 4  -7460159.479 4  22986663.568    22986662.527    22986662.712
        29.000          25.300
  -8101291.421 6  -6312693.289 5  22137633.562    22137630.272    22137632.641
        41.300          34.000
  -3051061.499 3  -2377448.285 3  24271395.839    24271394.583    24271394.706
        23.000          20.500
  -7322833.603 5  -5706081.285 4  23120684.343    23120682.305    23120683.312
        33.200          26.500
 -23468885.498 7 -18287431.798 7  20030918.117    20030916.050    20030917.678
        47.900          45.900
 -23001314.842 7 -17923095.095 7  20521116.853    20521113.187    20521115.748
        46.400          45.200
 -13894271.925 6 -10826703.222 6  21937549.156    21937547.508    21937547.914
        39.700          37.200
 06  1  1  2  5  0.0000000  0  8G29G 6G18G 8G10G26G21G15
 -17945209.561 7 -13983267.395 7  20906317.676    20906315.397    20906316.899
        45.800          43.100
  -9486091.734 4  -7391746.593 4  23003370.889    23003369.601    23003370.157
        29.900          24.900
  -8169369.890 6  -6365741.435 5  22124678.554    22124675.572    22124677.639
        41.200          35.100
  -3011444.937 4  -2346578.262 3  24278935.533    24278933.223    24278934.729
        28.600          19.900
  -7236790.199 5  -5639034.472 4  23137057.998    23137056.241    23137056.844
        33.200          27.900
 -23444779.593 7 -18268647.976 7  20035505.420    20035503.269    20035504.896
        47.900          45.900
 -23047016.121 7 -17958706.480 7  20512420.195    20512416.490    20512419.137
        46.400          45.400
 -13983368.964 6 -10896129.473 6  21920594.747    21920592.853    21920593.442
        40.200          37.200
 06  1  1  2  5 30.0000000  0  8G29G 6G18G 8G10G26G21G15
 -17894352.752 7 -13943638.706 7  20915995.447    20915993.131    20915994.709
        45.900          43.000
  -9398047.155 4  -7323140.451 4  23020125.229    23020124.233    23020124.469
        28.400          25.600
  -8237258.243 6  -6418641.447 5  22111759.824    22111756.778    22111758.959
        41.300          35.300
  -2971281.305 3  -2315281.932 3  24286577.940    24286575.910    24286576.784
        23.800          18.600
  -7150650.441 5  -5571912.598 4  23153449.789    23153448.350    23153448.580
        32.100          27.900
 -23420037.974 7 -18249368.790 7  20040213.467    20040211.506    20040212.916
        47.800          45.900
 -23092274.240 7 -17993972.550 7  20503807.757    20503804.125    20503806.698
        46.400          45.300
 -14072211.027 6 -10965357.049 6  21903688.535    21903686.549    21903687.392
        40.500          36.600
 06  1  1  2  6  0.0000000  0  8G29G 6G18G 8G10G26G21G15
 -17843054.837 7 -13903666.299 7  20925757.059    20925754.754    20925756.354
        46.100          43.000
  -9309757.818 4  -7254343.612 4  23036925.763    23036925.141    23036925.221
        28.100          26.200
  -8304955.936 6  -6471392.884 5  22098877.383    22098874.527    22098876.447
        41.600          35.400
  -2930571.617 4  -2283560.107 3  24294324.599    24294322.629    24294323.569
        25.300          19.300
  -7064415.114 5  -5504716.255 4  23169859.577    23169858.578    23169858.791
        32.400          28.100
 -23394662.347 7 -18229595.573 7  20045042.085    20045040.352    20045041.658
        47.700          45.900
 -23137087.340 7 -18028891.851 7  20495279.942    20495276.502    20495278.964
        46.300          45.400
 -14160795.727 6 -11034384.077 6  21886831.523    21886829.398    21886830.407
        40.900          36.500
 06  1  1  2  6 30.0000000  0  9G29G 6G18G 8G10G 9G26G21G15
 -17791317.969 7 -13863351.847 7  20935602.186    20935600.023    20935601.447
        45.900          43.000
  -9221226.222 4  -7185357.987 4  23053772.842    23053772.260    23053772.312
        29.700          26.800
  -8372462.165 6  -6523995.128 6  22086031.148    22086028.464    22086030.285
        41.800          36.000
  -2889317.774 4  -2251414.263 3  24302175.151    24302173.122    24302174.312
        25.900          18.600
  -6978085.023 5  -5437446.072 4  23186288.642    23186286.108    23186287.510
        33.100          27.600
   -155462.361 2   -121139.795 9  24642534.431    24642532.537    24642532.050
        13.900          -3.000
 -23368654.219 7 -18209329.500 7  20049991.541    20049989.568    20049990.931
        47.700          46.000
 -23181453.329 7 -18063462.750 7  20486837.461    20486833.909    20486836.420
        46.100          45.300
 -14249120.644 6 -11103208.687 6  21870023.695    21870021.793    21870022.602
        40.500          36.800
 06  1  1  2  7  0.0000000  0  9G29G 6G18G 8G10G 9G26G21G15
 -17739144.262 7 -13822697.000 7  20945530.407    20945528.251    20945529.718
        45.900          42.600
  -9132455.395 5  -7116185.943 4  23070665.859    23070664.330    23070665.048
        30.200          25.300
  -8439776.656 6  -6576447.967 5  22073221.596    22073218.812    22073220.749
        41.900          35.500
  -2847520.781 4  -2218845.194 2  24310127.978    24310126.955    24310126.965
        24.200          15.100
  -6891660.778 5  -5370102.512 4  23202734.415    23202732.508    23202733.237
        33.000          28.100
   -272086.093 3   -212015.477 9  24620340.343    24620340.010    24620339.826
        20.500          -3.000
 -23342015.284 7 -18188571.885 7  20055060.548    20055058.760    20055060.065
        47.600          45.900
 -23225370.273 7 -18097683.747 7  20478480.314    20478476.773    20478479.215
        45.900          45.300
 -14337183.525 6 -11171829.101 6  21853265.892    21853264.206    21853264.729
        40.600          37.700
 06  1  1  2  7 30.0000000  0  9G29G 6G18G 8G10G 9G26G21G15
 -17686535.967 7 -13781703.515 7  20955541.542    20955539.307    20955540.804
        45.900          42.800
  -9043448.359 5  -7046829.806 4  23087603.421    23087602.063    23087602.861
        30.200          25.300
  -8506898.824 6  -6628750.946 5  22060448.890    22060445.714    22060447.834
        41.500          35.100
  -2805181.854 4  -2185853.798 3  24318185.678    24318184.424    24318184.774
        25.300          18.600
  -6805143.201 5  -5302686.237 4  23219197.827    23219196.023    23219196.740
        32.800          27.400
   -388730.335 3                  24598144.398                    24598143.728
        21.600
 -23314747.321 7 -18167324.118 7  20060249.510    20060247.627    20060248.968
        47.500          45.900
 -23268835.979 7 -18131553.129 7  20470209.142    20470205.504    20470208.073
        46.000          45.500
 -14424981.700 6 -11240243.250 6  21836558.405    21836556.758    21836557.260
        40.600          38.100
 06  1  1  2  8  0.0000000  0  9G29G 6G18G 8G10G 9G26G21G15
 -17633495.140 7 -13740372.989 7  20965634.964    20965632.549    20965634.183
        45.700          42.400
  -8954207.975 4  -6977291.874 4  23104585.434    23104584.068    23104584.630
        29.700          26.200
  -8573828.040 7  -6680903.584 5  22047712.610    22047709.576    22047711.646
        42.000          35.500
  -2762302.124 4  -2152441.056 3  24326345.428    24326343.502    24326344.405
        25.300          20.500
  -6718533.150 5  -5235197.895 4  23235678.971    23235677.210    23235677.900
        32.600          26.800
   -505391.589 3   -393811.967 1  24575944.261    24575944.030    24575943.237
        23.000          11.000
 -23286851.955 7 -18145587.465 7  20065557.857    20065555.853    20065557.299
        47.600          45.600
 -23311848.793 7 -18165069.615 7  20462024.117    20462020.469    20462023.033
        45.800          45.500
 -14512512.848 6 -11308449.328 6  21819901.598    21819900.156    21819900.537
        40.500          38.300
 06  1  1  2  8 30.0000000  0  9G29G 6G18G 8G10G 9G26G21G15
 -17580023.788 7 -13698706.992 7  20975810.236    20975807.863    20975809.534
        45.900          42.500
  -8864737.059 4  -6907574.313 4  23121610.831    23121610.108    23121610.081
        27.400          24.900
  -8640563.631 6  -6732905.338 5  22035012.785    22035010.093    22035011.952
        41.500          35.300
  -2718883.149 4  -2118608.130 2  24334608.379    24334605.898    24334607.067
        25.600          17.000
  -6631831.427 5  -5167638.103 4  23252177.854    23252175.876    23252176.679
        32.700          25.900
   -622066.932 3   -484727.781 3  24553742.636    24553741.677    24553741.551
        23.800          18.600
 -23258330.948 7 -18123363.298 7  20070985.227    20070983.225    20070984.637
        47.500          45.600
 -23354406.702 7 -18198231.622 7  20453925.431    20453921.843    20453924.419
        45.700          45.500
 -14599774.558 6 -11376445.456 6  21803296.450    21803294.506    21803295.416
        41.100          37.700
 06  1  1  2  9  0.0000000  0  9G29G 6G18G 8G10G 9G26G21G15
 -17526124.407 7 -13656707.464 7  20986066.918    20986064.489    20986066.161
        45.800          42.500
  -8775038.585 4  -6837679.427 4  23138680.197    23138679.196    23138679.308
        27.900          27.100
  -8707105.351 6  -6784756.018 6  22022350.423    22022347.838    22022349.518
        41.400          36.100
  -2674926.870 4  -2084356.529 2  24342972.141    24342970.190    24342971.131
        24.900          16.100
  -6545038.543 5  -5100007.296 4  23268694.234    23268692.060    23268692.889
        32.000          26.500
   -738753.540 3   -575652.365 2  24531538.307    24531536.371    24531536.833
        18.600          17.000
 -23229186.149 7 -18100653.059 7  20076531.061    20076529.234    20076530.566
        47.400          45.600
 -23396507.592 7 -18231037.514 7  20445913.773    20445910.384    20445912.846
        45.800          45.500
 -14686764.524 6 -11444229.841 6  21786742.877    21786740.954    21786741.705
        41.000          38.200
 06  1  1  2  9 30.0000000  0  9G29G 6G18G 8G10G 9G26G21G15
 -17471798.916 7 -13614375.902 7  20996404.679    20996402.400    20996403.924
        45.700          42.600
  -8685115.493 4  -6767609.520 4  23155791.801    23155790.723    23155790.999
        29.700          26.500
  -8773452.514 6  -6836455.094 6  22009725.194    22009722.526    22009724.216
        41.500          36.400
  -2630434.292 4  -2049686.971 2  24351439.241    24351436.809    24351438.165
        25.900          17.000
  -6458155.240 5  -5032306.036 4  23285227.319    23285225.767    23285226.266
        32.600          27.600
   -855448.018 2   -666583.062 3  24509331.333    24509330.815    24509329.501
        17.800          19.300
 -23199419.203 7 -18077458.032 7  20082195.654    20082193.724    20082195.155
        47.200          45.600
 -23438149.302 7 -18263485.611 7  20437989.894    20437986.220    20437988.897
        46.100          45.700
 -14773480.105 6 -11511800.420 6  21770241.253    21770239.428    21770240.146
        41.100          37.700
 06  1  1  2 10  0.0000000  0  9G29G 6G18G 8G10G 9G26G21G15
 -17417049.458 7 -13571713.979 7  21006822.955    21006820.848    21006822.293
        45.600          42.400
  -8594970.604 4  -6697366.776 4  23172945.929    23172945.259    23172945.373
        29.000          26.200
  -8839604.664 7  -6888002.219 6  21997136.710    21997134.013    21997135.962
        42.200          36.000
  -2585406.951 4  -2014600.772 2  24360007.322    24360005.742    24360006.320
        24.900          17.000
  -6371182.280 5  -4964534.901 4  23301777.458    23301776.223    23301776.372
        32.300          25.600
   -972147.559 3   -757517.719 3  24487124.623    24487122.911    24487122.902
        18.600          18.600
 -23169032.113 7 -18053779.777 7  20087978.120    20087976.233    20087977.547
        47.200          45.600
 -23479330.414 7 -18295574.792 7  20430153.413    20430149.792    20430152.360
        45.800          45.800
 -14859919.022 6 -11579155.417 6  21753792.392    21753790.530    21753791.333
        41.200          37.800
 06  1  1  2 10 30.0000000  0  9G29G 6G18G 8G10G 9G26G21G15
 -17361878.507 7 -13528723.618 7  21017321.781    21017319.652    21017320.973
        45.800          42.500
  -8504606.849 4  -6626953.484 4  23190141.496    23190140.854    23190140.848
        27.600          26.500
  -8905561.359 7  -6939397.035 5  21984585.787    21984582.921    21984584.838
        42.500          35.900
  -2539846.159 4  -1979098.871 2  24368677.208    24368675.299    24368676.194
        25.300          17.000
  -6284120.435 5  -4896694.510 4  23318344.801    23318343.122    23318343.789
        32.000          24.900
  -1088849.078 3   -848453.951 2  24464917.626    24464915.997    24464915.429
        20.500          17.800
 -23138026.595 7 -18029619.628 7  20093878.108    20093876.435    20093877.628
        47.200          45.500
 -23520048.920 7 -18327303.500 7  20422405.083    20422401.342    20422403.962
        46.000          45.900
 -14946078.679 6 -11646292.811 6  21737396.475    21737394.954    21737395.547
        41.300          38.200
 06  1  1  2 11  0.0000000  0  9G29G 6G18G 8G10G 9G26G21G15
 -17306287.980 7 -13485406.315 7  21027900.310    21027898.003    21027899.566
        45.600          42.300
  -8414027.167 4  -6556371.976 4  23207378.290    23207377.168    23207377.355
        26.200          24.200
  -8971322.010 7  -6990639.101 5  21972071.748    21972068.944    21972070.938
        42.300          35.800
  -2493753.275 4  -1943182.362 2  24377448.842    24377447.277    24377448.017
        26.200          17.000
  -6196970.674 5  -4828785.622 4  23334929.131    23334927.495    23334927.925
        31.600          25.300
  -1205549.287 3   -939389.110 3  24442709.033    24442708.545    24442707.127
        21.600          19.300
 -23106404.448 7 -18004978.989 7  20099895.703    20099893.916    20099895.121
        47.300          45.200
 -23560302.751 7 -18358670.126 7  20414744.857    20414741.336    20414743.792
        45.900          46.000
 -15031956.773 6 -11713210.805 6  21721054.849    21721053.009    21721053.809
        41.800          37.900
 06  1  1  2 11 30.0000000  0  9G29G 6G18G 8G10G 9G26G21G15
 -17250280.101 7 -13441763.805 7  21038558.158    21038555.980    21038557.465
        45.500          42.100
  -8323234.506 4  -6485624.469 3  23224655.680    23224654.284    23224654.993
        28.800          21.600
  -9036885.996 7  -7041727.912 6  21959595.423    21959592.589    21959594.548
        42.400          36.300
  -2447129.651 4  -1906852.271 2  24386321.272    24386318.869    24386320.095
        25.300          12.600
  -6109733.564 5  -4760808.642 4  23351530.044    23351528.480    23351528.873
        32.000          24.900
  -1322245.454 4  -1030321.182 3  24420502.731    24420501.795    24420501.267
        24.200          19.900
 -23074167.536 7 -17979859.313 7  20106030.135    20106028.321    20106029.642
        47.400          45.300
 -23600090.086 7 -18389673.246 7  20407173.491    20407170.082    20407172.463
        45.700          45.900
 -15117550.737 6 -11779907.408 6  21704766.620    21704765.021    21704765.556
        41.200          38.100
 06  1  1  2 12  0.0000000  0  9G29G 6G18G 8G10G 9G26G21G15
 -17193857.212 7 -13397797.912 7  21049295.043    21049292.920    21049294.295
        45.500          42.100
  -8232231.724 4  -6414713.240 4  23241973.464    23241971.990    23241972.454
        27.900          24.900
  -9102252.856 7  -7092663.123 6  21947156.670    21947153.802    21947155.726
        42.600          36.600
  -2399977.166 4  -1870110.083 3  24395293.227    24395292.105    24395292.535
        26.200          19.300
  -6022409.696 5  -4692764.081 4  23368146.790    23368145.573    23368145.676
        31.000          25.900
  -1438934.478 3  -1121247.630 3  24398297.798    24398296.234    24398296.015
        19.300          21.100
 -23041317.910 7 -17954262.195 7  20112281.442    20112279.332    20112280.811
        47.400          45.100
 -23639408.654 7 -18420311.086 7  20399691.356    20399688.090    20399690.430
        45.700          46.200
 -15202858.197 6 -11846380.743 6  21688533.421    21688531.771    21688532.301
        41.500          38.800
 06  1  1  2 12 30.0000000  0  9G29G 6G18G 8G10G 9G26G21G15
 -17137021.538 7 -13353510.363 6  21060110.515    21060108.353    21060109.722
        45.400          41.900
  -8141021.897 4  -6343640.674 3  23259329.810    23259328.502    23259329.099
        27.900          23.400
  -9167421.934 7  -7143444.213 6  21934755.494    21934752.630    21934754.566
        43.000          36.600
  -2352297.200 4  -1832956.886 3  24404366.781    24404364.962    24404365.596
        24.200          18.600
  -5934999.800 5  -4624652.495 4  23384780.615    23384778.726    23384779.560
        30.600          24.900
  -1555613.039 3  -1212165.945 3  24376095.093    24376092.924    24376093.336
        20.500          19.300
 -23007857.333 7 -17928189.014 7  20118648.768    20118646.687    20118648.190
        47.500          45.100
 -23678256.979 7 -18450582.506 7  20392298.744    20392295.498    20392297.809
        45.600          46.100
 -15287876.817 6 -11912629.014 6  21672354.597    21672353.167    21672353.700
        41.500          39.100
 06  1  1  2 13  0.0000000  0  9G29G 6G18G 8G10G 9G26G21G15
 -17079775.319 7 -13308902.907 6  21071004.027    21071001.877    21071003.316
        45.500          41.700
  -8049607.834 4  -6272408.954 3  23276725.319    23276724.034    23276724.399
        28.100          22.100
  -9232392.779 7  -7194070.837 6  21922391.916    21922388.882    21922391.040
        43.000          36.500
  -2304091.296 3  -1795393.855 3  24413539.392    24413538.511    24413538.267
        21.600          19.300
  -5847504.532 5  -4556474.363 4  23401430.396    23401428.704    23401429.470
        31.000          25.300
  -1672278.053 3  -1303073.660 3  24353892.904    24353892.870    24353891.606
        18.600          21.100
 -22973787.701 7 -17901641.241 7  20125132.011    20125129.955    20125131.515
        47.900          45.100
 -23716633.459 7 -18480486.261 7  20384995.908    20384992.615    20384994.962
        45.700          46.100
 -15372603.913 7 -11978650.119 6  21656231.942    21656230.000    21656230.828
        42.000          38.700
 06  1  1  2 13 30.0000000  0  9G29G 6G18G 8G10G 9G26G21G15
 -17022120.375 7 -13263976.966 6  21081975.559    21081973.207    21081974.757
        45.400          41.600
  -7957992.440 4  -6201020.363 3  23294159.528    23294157.949    23294158.659
        28.100          22.100
  -9297164.754 7  -7244542.509 6  21910066.611    21910063.123    21910065.586
        43.500          36.400
  -2255361.126 3  -1757422.355 2  24422812.917    24422811.654    24422812.229
        23.800          17.800
  -5759924.617 5  -4488230.289 4  23418096.456    23418094.656    23418095.221
        30.800          25.900
  -1788926.491 3  -1393968.520 2  24331697.313    24331695.279    24331695.175
        22.100          16.100
 -22939111.222 7 -17874620.602 7  20131730.813    20131728.727    20131730.264
        47.800          45.200
 -23754535.576 7 -18510020.376 7  20377783.644    20377780.033    20377782.576
        45.600          46.100
 -15457037.262 7 -12044442.334 6  21640164.819    21640162.964    21640163.658
        42.100          38.900
 06  1  1  2 14  0.0000000  0  9G29G 6G18G 8G10G 9G26G21G15
 -16964059.387 7 -13218734.625 6  21093024.205    21093021.823    21093023.439
        45.300          41.500
  -7866178.680 4  -6129477.209 4  23311630.488    23311629.576    23311629.810
        27.900          24.200
  -9361737.014 7  -7294858.557 6  21897778.274    21897775.471    21897777.458
        43.100          36.500
  -2206108.433 4  -1719043.647 3  24432186.257    24432184.222    24432185.100
        24.900          18.600
  -5672260.815 4  -4419920.843 4  23434777.760    23434776.505    23434776.794
        29.900          25.600
  -1905555.109 3  -1484847.921 2  24309503.568    24309500.887    24309501.330
        18.600          15.100
 -22903829.575 7 -17847128.403 7  20138444.662    20138442.621    20138444.155
        47.900          45.300
 -23791961.492 7 -18539183.429 7  20370661.709    20370658.118    20370660.658
        45.600          46.300
 -15541174.368 7 -12110003.714 6  21624154.129    21624151.962    21624153.046
        42.300          38.400
 06  1  1  2 14 30.0000000  0  9G29G 6G18G 8G10G 9G26G21G15
 -16905594.694 7 -13173177.710 6  21104149.504    21104147.207    21104148.878
        45.300          41.200
  -7774169.500 4  -6057781.765 3  23329139.328    23329138.257    23329138.920
        28.800          23.800
  -9426109.551 7  -7345018.964 6  21885528.588    21885525.752    21885527.759
        42.700          36.500
  -2156334.326 4  -1680258.639 2  24441657.242    24441655.593    24441656.615
        26.500          13.900
  -5584513.847 5  -4351546.616 4  23451476.574    23451474.459    23451475.482
        30.800          25.600
  -2022160.665 3  -1575709.375 2  24287313.122    24287312.128    24287311.679
        23.000          17.000
 -22867944.942 8 -17819166.345 7  20145273.435    20145271.242    20145272.851
        48.000          45.300
 -23828909.825 7 -18567974.341 7  20363630.569    20363627.059    20363629.554
        45.400          46.400
 -15625012.551 6 -12175332.170 6  21608200.138    21608198.077    21608199.038
        41.800          38.600
 06  1  1  2 15  0.0000000  0  9G29G 6G18G 8G10G 9G26G21G15
 -16846727.892 7 -13127307.462 6  21115351.751    21115349.166    21115350.966
        45.300          41.200
  -7681967.728 4  -5985936.257 4  23346685.392    23346683.886    23346684.587
        28.400          24.200
  -9490281.579 7  -7395023.142 6  21873316.971    21873314.157    21873316.049
        42.400          36.900
  -2106040.829 4  -1641068.938 2  24451227.571    24451226.322    24451226.608
        24.600          17.000
  -5496684.451 5  -4283108.138 4  23468189.704    23468187.436    23468188.330
        30.400          24.600
  -2138740.178 4  -1666550.515 2  24265128.785    24265127.619    24265127.711
        26.800          15.100
 -22831459.204 7 -17790735.892 7  20152216.164    20152214.204    20152215.617
        47.600          45.200
 -23865378.775 7 -18596391.701 7  20356690.823    20356687.260    20356689.759
        45.400          46.400
 -15708549.521 7 -12240425.904 6  21592303.686    21592301.745    21592302.547
        42.200          39.100
 06  1  1  2 15 30.0000000  0  9G29G 6G18G 8G10G 9G26G21G15
 -16787461.705 7 -13081126.007 6  21126629.436    21126627.110    21126628.810
        45.300          41.200
  -7589576.308 4  -5913942.975 4  23364266.309    23364265.223    23364265.714
        28.600          24.200
  -9554252.498 7  -7444870.603 6  21861143.998    21861140.990    21861142.969
        42.700          37.000
  -2055229.468 4  -1601475.718 2  24460897.087    24460895.697    24460896.145
        25.300          17.000
  -5408773.104 4  -4214605.791 4  23484918.218    23484916.928    23484917.022
        29.900          24.600
  -2255290.362 3  -1757368.821 2  24242949.546    24242949.033    24242948.335
        23.000          17.000
 -22794374.529 7 -17761838.737 7  20159273.054    20159271.139    20159272.512
        47.500          45.100
 -23901365.742 7 -18624433.488 7  20349842.645    20349839.122    20349841.574
        45.200          46.400
 -15791782.788 7 -12305282.985 6  21576464.971    21576462.996    21576463.831
        42.500          39.000
 06  1  1  2 16  0.0000000  0  9G29G 6G18G 8G10G 9G26G21G15
 -16727798.325 7 -13034635.051 6  21137983.170    21137980.756    21137982.395
        45.500          41.500
  -7496998.243 4  -5841804.261 3  23381883.207    23381882.407    23381882.626
        26.200          23.400
  -9618021.863 7  -7494561.019 6  21849008.811    21849005.969    21849008.070
        43.100          36.900
  -2003901.923 3  -1561480.235 2  24470663.859    24470662.902    24470663.106
        20.500          15.100
  -5320780.496 4  -4146040.148 4  23501662.571    23501661.230    23501661.342
        29.200          24.600
  -2371808.437 3  -1848162.106 3  24220778.058    24220776.239    24220776.371
        23.000          19.300
 -22756692.783 7 -17732476.331 7  20166443.668    20166441.738    20166443.149
        47.500          45.000
 -23936869.682 7 -18652098.889 7  20343086.465    20343082.964    20343085.482
        45.500          46.600
 -15874709.701 7 -12369901.350 6  21560684.052    21560682.376    21560683.020
        42.200          39.200
 06  1  1  2 16 30.0000000  0  9G29G 6G18G 8G10G 9G26G21G15
 -16667739.719 7 -12987836.127 6  21149411.805    21149409.577    21149411.136
        45.500          41.500
  -7404236.569 4  -5769522.469 4  23399535.200    23399534.292    23399534.222
        26.500          24.200
  -9681589.437 7  -7544094.193 6  21836912.841    21836909.468    21836911.768
        43.300          36.500
  -1952059.694 3  -1521083.725 2  24480529.286    24480527.759    24480528.413
        19.900          17.000
  -5232707.553 5  -4077411.896 4  23518422.671    23518420.629    23518421.482
        31.500          24.600
  -2488291.145 3  -1938927.769 2  24198610.531    24198610.066    24198609.929
        22.600          16.100
 -22718416.175 7 -17702650.398 7  20173727.563    20173725.528    20173726.993
        47.500          45.100
 -23971888.380 7 -18679386.182 7  20336422.732    20336419.165    20336421.702
        45.400          46.600
 -15957327.878 7 -12434279.144 6  21544962.439    21544960.792    21544961.477
        42.700          39.400
 06  1  1  2 17  0.0000000  0  9G29G 6G18G 8G10G 9G26G21G15
 -16607288.400 7 -12940731.198 6  21160915.368    21160913.136    21160914.652
        45.500          41.400
  -7311293.980 4  -5697099.710 4  23417221.798    23417221.050    23417220.807
        25.900          24.900
  -9744954.063 7  -7593469.226 6  21824854.641    21824851.727    21824853.731
        43.400          37.100
  -1899704.952 3  -1480287.852 2  24490492.570    24490490.302    24490491.140
        23.800          12.600
  -5144554.904 5  -4008721.529 4  23535197.163    23535196.139    23535196.232
        30.400          24.900
  -2604735.079 3  -2029663.263 3  24176451.989    24176451.747    24176451.071
        22.600          22.600
 -22679546.631 7 -17672362.437 7  20181124.037    20181122.230    20181123.562
        47.500          45.100
 -24006420.322 7 -18706294.182 7  20329851.470    20329847.889    20329850.454
        45.400          46.700
 -16039634.751 7 -12498414.366 6  21529299.690    21529298.189    21529298.806
        42.600          39.300
 06  1  1  2 17 30.0000000  0 10G29G 6G18G 8G10G 9G26G21G22G15
 -16546446.638 7 -12893322.024 6  21172493.123    21172490.800    21172492.426
        45.300          41.100
  -7218173.376 4  -5624538.237 3  23434942.339    23434940.902    23434941.310
        26.800          23.000
  -9808115.610 7  -7642686.012 6  21812835.585    21812832.513    21812834.654
        43.500          37.400
  -1846839.448 4  -1439093.953 3  24500552.641    24500551.086    24500551.634
        25.900          18.600
  -5056323.257 4  -3939969.610 3  23551986.861    23551985.468    23551985.875
        29.700          21.600
  -2721137.311 3  -2120366.233 3  24154300.943    24154300.916    24154300.471
        23.000          23.000
 -22640086.337 7 -17641614.147 7  20188633.193    20188631.221    20188632.627
        47.400          44.900
 -24040463.276 7 -18732821.155 7  20323373.295    20323369.793    20323372.330
        45.400          46.600
   -117947.146 4    -91906.767 2  24695968.602    24695966.018    24695967.913
        26.200          12.600
 -16121628.002 7 -12562305.210 6  21513697.201    21513695.444    21513696.104
        42.700          39.700
 06  1  1  2 18  0.0000000  0 10G29G 6G18G 8G10G 9G26G21G22G15
 -16485216.649 7 -12845610.329 6  21184144.783    21184142.525    21184144.132
        45.400          41.100
  -7124878.000 4  -5551840.563 3  23452695.829    23452694.569    23452695.128
        27.400          22.600
  -9871073.369 7  -7691744.006 6  21800854.908    21800852.035    21800854.089
        43.800          37.700
  -1793464.569 4  -1397503.184 2  24510709.115    24510707.438    24510708.080
        24.900          17.000
  -4968013.154 4  -3871156.560 4  23568792.309    23568790.586    23568791.019
        29.500          24.200
  -2837494.536 4  -2211034.146 3  24132158.825    24132158.680    24132158.489
        24.200          21.600
 -22600037.393 7 -17610407.172 7  20196254.509    20196252.308    20196253.832
        47.600          44.900
 -24074016.039 7 -18758966.165 7  20316988.619    20316984.911    20316987.492
        45.200          46.800
   -206339.189 4   -160783.743 1  24679148.871    24679143.835    24679148.101
        26.800          11.000
 -16203305.187 7 -12625949.760 6  21498154.364    21498152.677    21498153.284
        42.400          39.300
 06  1  1  2 18 30.0000000  0 10G29G 6G18G 8G10G 9G26G21G22G15
 -16423600.721 7 -12797597.907 6  21195870.120    21195867.575    21195869.347
        45.400          40.700
  -7031410.637 4  -5479008.864 3  23470482.087    23470480.860    23470481.089
        25.600          23.000
  -9933826.463 7  -7740642.517 6  21788913.353    21788910.354    21788912.398
        43.500          37.600
  -1739582.012 3  -1355516.831 2  24520962.495    24520961.266    24520961.504
        22.100          12.600
  -4879625.310 4  -3802282.929 3  23585612.053    23585609.858    23585610.972
        29.900          23.000
  -2953803.523 3  -2301664.479 3  24110024.114    24110025.451    24110025.079
        19.300          19.900
 -22559401.870 7 -17578743.121 7  20203987.015    20203984.865    20203986.450
        47.800          44.700
 -24107076.869 7 -18784727.842 7  20310697.071    20310693.634    20310696.130
        45.100          46.800
   -294672.427 4   -229614.845 2  24662338.791    24662335.279    24662338.391
        24.600          17.000
 -16284663.616 7 -12689345.929 6  21482672.617    21482670.895    21482671.455
        42.700          39.700
 06  1  1  2 19  0.0000000  0 10G29G 6G18G 8G10G 9G26G21G22G15
 -16361600.917 7 -12749286.363 6  21207668.065    21207665.806    21207667.420
        45.300          41.000
  -6937774.129 4  -5406045.381 3  23488300.360    23488299.321    23488299.560
        27.100          23.000
  -9996374.740 7  -7789381.428 6  21777010.784    21777007.860    21777009.982
        44.000          37.300
  -1685193.449 4  -1313136.188 2  24531312.812    24531311.263    24531312.065
        24.600          15.100
  -4791160.445 4  -3733349.277 3  23602445.855    23602444.188    23602444.735
        28.400          23.800
  -3070061.374 3  -2392254.971 2  24087899.405    24087901.959    24087902.238
        22.100          16.100
 -22518182.064 8 -17546623.784 7  20211830.761    20211828.706    20211830.282
        48.000          44.700
 -24139643.835 7 -18810104.695 7  20304499.489    20304496.328    20304498.638
        45.200          46.800
   -382946.864 3   -298400.123 2  24645540.916    24645536.649    24645540.442
        21.600          17.800
 -16365700.928 7 -12752491.872 6  21467251.620    21467250.139    21467250.502
        42.700          40.300
 06  1  1  2 19 30.0000000  0 10G29G 6G18G 8G10G 9G26G21G22G15
 -16299219.839 7 -12700677.724 6  21219538.916    21219536.451    21219538.209
        45.100          40.600
  -6843971.551 4  -5332952.501 3  23506150.393    23506149.568    23506149.855
        27.100          23.000
 -10058717.507 7  -7837960.211 6  21765147.683    21765144.221    21765146.708
        44.200          37.200
  -1630300.855 3  -1270362.678 2  24541757.970    24541756.720    24541757.089
        22.600          15.100
  -4702619.170 4  -3664356.087 3  23619295.078    23619292.916    23619293.817
        28.800          22.600
  -3186264.735 4  -2482803.006 3  24065788.418    24065789.765    24065789.346
        26.200          21.600
 -22476380.067 8 -17514050.788 7  20219785.559    20219783.329    20219785.017
        48.000          44.700
 -24171714.804 7 -18835095.059 7  20298396.832    20298393.413    20298395.834
        45.000          46.900
   -471161.855 3   -367139.053 3  24628753.622    24628750.135    24628752.875
        19.900          19.300
 -16446414.581 7 -12815385.613 6  21451892.390    21451890.712    21451891.332
        43.400          40.100
 06  1  1  2 20  0.0000000  0 10G29G 6G18G 8G10G 9G26G21G22G15
 -16236459.552 7 -12651773.599 6  21231481.694    21231479.346    21231480.998
        45.100          40.900
  -6750005.823 4  -5259732.482 3  23524031.832    23524030.596    23524031.193
        27.600          23.400
 -10120854.132 7  -7886378.363 6  21753323.190    21753320.196    21753322.453
        44.300          37.700
  -1574906.377 3  -1227198.195 2  24552299.932    24552298.634    24552298.722
        23.800          17.000
  -4614002.032 4  -3595303.801 4  23636158.083    23636156.648    23636157.170
        29.500          24.600
  -3302410.173 4  -2573305.927 3  24043686.972    24043688.395    24043687.497
        24.600          21.600
 -22433998.100 7 -17481025.868 7  20227850.503    20227848.333    20227849.937
        47.800          44.500
 -24203288.519 7 -18859697.947 7  20292388.852    20292385.246    20292387.790
        45.200          47.000
   -559316.675 2   -435831.085 3  24611978.437    24611975.381    24611977.950
        13.900          23.800
 -16526802.034 7 -12878025.179 6  21436595.111    21436593.372    21436593.980
        42.800          39.800
 06  1  1  2 20 30.0000000  0 10G29G 6G18G 8G10G 9G26G21G22G15
 -16173322.311 7 -12602575.745 6  21243496.411    21243494.013    21243495.607
        44.800          40.700
  -6655879.598 4  -5186387.435 3  23541943.539    23541942.267    23541942.678
        28.100          23.400
 -10182783.875 7  -7934635.301 6  21741538.179    21741535.461    21741537.421
        44.000          37.900
  -1519011.593 4  -1183643.855 2  24562936.222    24562934.319    24562934.857
        24.200          17.800
  -4525309.774 4  -3526192.948 3  23653036.105    23653033.991    23653034.791
        29.200          23.800
  -3418494.590 4  -2663761.219 3  24021598.603    24021598.063    24021597.823
        24.200          22.600
 -22391038.258 7 -17447550.660 7  20236025.306    20236023.316    20236024.810
        47.700          44.400
 -24234363.054 7 -18883911.870 7  20286475.466    20286471.826    20286474.410
        44.900          46.900
   -647411.030 2   -504475.993 4  24595214.592    24595211.427    24595214.151
        17.000          24.600
 -16606860.864 7 -12940408.671 6  21421360.354    21421358.602    21421359.311
        43.400          39.900
 06  1  1  2 21  0.0000000  0 10G29G 6G18G 8G10G 9G26G21G22G15
 -16109810.514 7 -12553086.024 6  21255582.114    21255579.860    21255581.476
        44.900          40.600
  -6561596.016 4  -5112919.711 4  23559884.906    23559884.036    23559884.373
        28.800          24.900
 -10244506.255 7  -7982730.651 6  21729792.905    21729790.023    21729792.015
        43.800          38.000
  -1462618.337 3  -1139701.140 2  24573666.875    24573666.090    24573666.328
        22.600          17.800
  -4436542.957 5  -3457024.039 4  23669928.191    23669926.287    23669926.880
        30.400          25.300
  -3534514.815 3  -2754166.555 3  23999520.703    23999519.553    23999519.574
        23.400          21.100
 -22347502.894 7 -17413626.991 7  20244309.884    20244307.954    20244309.346
        47.500          44.700
 -24264936.845 7 -18907735.606 7  20280657.495    20280653.800    20280656.377
        45.000          47.000
   -735444.793 2   -573073.656 4  24578462.693    24578458.875    24578462.182
        17.800          24.600
 -16686588.660 7 -13002534.222 6  21406188.982    21406186.784    21406187.797
        43.500          39.700
 06  1  1  2 21 30.0000000  0 10G29G 6G18G 8G10G 9G26G21G22G15
 -16045926.253 7 -12503306.071 6  21267738.821    21267736.506    21267738.152
        44.800          40.200
  -6467157.961 4  -5039331.685 3  23577855.721    23577854.510    23577854.915
        24.900          21.100
 -10306021.209 7  -8030664.379 6  21718087.006    21718083.989    21718086.286
        44.400          37.800
  -1405728.317 3  -1095371.302 2  24584493.161    24584491.543    24584492.262
        20.500          16.100
  -4347702.237 4  -3387797.543 4  23686833.928    23686832.166    23686832.694
        29.900          24.200
  -3650467.363 4  -2844519.146 3  23977455.582    23977454.800    23977454.645
        24.200          19.900
 -22303394.116 7 -17379256.511 7  20252703.494    20252701.589    20252702.915
        47.400          44.600
 -24295008.056 7 -18931167.712 7  20274935.096    20274931.507    20274933.949
        44.800          47.000
   -823417.363 3   -641623.709 3  24561721.648    24561718.588    24561720.801
        22.100          23.000
 -16765982.749 7 -13064399.745 6  21391080.327    21391078.639    21391079.435
        43.500          39.800
 06  1  1  2 22  0.0000000  0 10G29G 6G18G 8G10G 9G26G21G22G15
 -15981672.003 7 -12453237.814 6  21279966.123    21279963.707    21279965.405
        44.800          40.300
  -6372568.582 4  -4965625.711 3  23595855.379    23595855.015    23595854.559
        25.600          20.500
 -10367327.746 7  -8078435.701 6  21706420.766    21706417.920    21706419.948
        44.200          38.100
  -1348343.363 3  -1050655.768 2  24595413.327    24595412.237    24595412.183
        21.600          17.000
  -4258788.153 5  -3318513.836 3  23703754.187    23703751.716    23703752.744
        30.400          23.800
  -3766349.204 3  -2934816.594 3  23955403.910    23955403.354    23955402.913
        21.600          18.600
 -22258714.397 7 -17344441.138 7  20261205.691    20261203.849    20261205.155
        47.400          44.700
 -24324575.250 7 -18954207.079 7  20269308.769    20269305.028    20269307.653
        44.900          47.000
   -911328.377 4   -710125.785 3  24544993.241    24544989.265    24544992.868
        24.900          23.800
 -16845040.633 7 -13126003.288 6  21376036.155    21376034.523    21376035.089
        43.400          39.900
 06  1  1  2 22 30.0000000  0 10G29G 6G18G 8G10G 9G26G21G22G15
 -15917049.940 7 -12402882.954 6  21292263.442    21292260.881    21292262.654
        44.700          40.200
  -6277830.612 3  -4891803.951 2  23613883.545    23613882.221    23613882.745
        23.800          17.000
 -10428425.404 7  -8126044.258 6  21694794.578    21694791.457    21694793.561
        44.300          38.400
  -1290465.870 4  -1005556.423 2  24606427.204    24606425.526    24606426.211
        24.200          15.100
  -4169801.366 4  -3249173.503 4  23720687.631    23720685.812    23720686.531
        29.700          24.900
  -3882156.802 4  -3025056.265 3  23933367.600    23933365.209    23933366.382
        26.200          21.100
 -22213465.774 7 -17309182.463 7  20269816.180    20269814.394    20269815.661
        47.200          44.700
 -24353636.691 7 -18976852.359 7  20263778.390    20263774.831    20263777.288
        44.800          47.100
   -999177.106 4   -778579.330 3  24528276.111    24528271.873    24528275.508
        26.200          20.500
 -16923759.784 7 -13187342.876 6  21361056.278    21361054.702    21361055.349
        43.600          40.200
 06  1  1  2 23  0.0000000  0 10G29G 6G18G 8G10G 9G26G21G22G15
 -15852062.477 7 -12352243.366 6  21304629.964    21304627.603    21304629.252
        44.800          40.300
  -6182947.140 4  -4817868.769 2  23631938.550    23631938.147    23631938.022
        24.600          16.100
 -10489313.443 7  -8173489.480 6  21683207.805    21683204.760    21683206.808
        44.100          38.200
  -1232097.185 3   -960074.365 1  24617534.511    24617532.209    24617533.606
        22.100           6.500
  -4080742.909 4  -3179777.315 4  23737634.676    23737632.959    23737633.300
        28.100          24.600
  -3997887.252 4  -3115235.794 3  23911344.933    23911342.451    23911343.594
        27.900          21.600
 -22167650.573 7 -17273482.300 7  20278534.594    20278532.726    20278534.055
        47.500          44.700
 -24382190.560 7 -18999102.125 7  20258344.727    20258341.256    20258343.633
        44.700          47.100
  -1086963.319 4   -846984.169 3  24511571.165    24511566.930    24511570.398
        25.900          21.100
 -17002137.574 7 -13248416.476 6  21346141.575    21346139.894    21346140.512
        43.600          40.200
 06  1  1  2 23 30.0000000  0  9G29G 6G18G10G 9G26G21G22G15
 -15786711.806 7 -12301320.757 6  21317065.701    21317063.437    21317065.051
        44.900          40.200
  -6087920.865 4  -4743822.361 3  23650021.995    23650020.963    23650021.626
        25.900          18.600
 -10549991.334 7  -8220770.941 6  21671660.921    21671658.135    21671660.152
        44.300          38.300
  -3991613.061 4  -3110325.513 4  23754595.701    23754593.885    23754594.470
        27.900          24.600
  -4113537.609 3  -3205352.940 3  23889336.455    23889335.422    23889335.218
        23.800          22.100
 -22121271.084 7 -17237342.433 7  20287360.298    20287358.498    20287359.799
        47.500          44.400
 -24410235.530 7 -19020955.343 7  20253007.952    20253004.438    20253006.915
        44.600          47.200
  -1174686.544 4   -915339.944 3  24494877.410    24494874.010    24494877.006
        26.500          19.900
 -17080171.941 7 -13309222.462 6  21331292.168    21331290.592    21331291.133
        43.600          40.400
 06  1  1  2 24  0.0000000  0  9G29G 6G18G10G 9G26G21G22G15
 -15721000.272 7 -12250116.955 6  21329570.228    21329567.810    21329569.578
        44.900          40.000
  -5992754.870 4  -4669667.045 3  23668132.183    23668130.460    23668131.244
        25.300          19.900
 -10610458.502 7  -8267888.210 6  21660154.635    21660151.620    21660153.691
        44.300          38.500
  -3902412.516 5  -3040818.628 3  23771569.242    23771567.729    23771568.231
        30.200          23.800
  -4229104.206 3  -3295404.780 2  23867344.514    23867343.053    23867343.252
        23.400          17.800
 -22074329.682 7 -17200764.707 7  20296293.188    20296291.036    20296292.538
        47.500          44.400
 -24437769.505 7 -19042410.384 7  20247768.354    20247764.836    20247767.444
        44.800          47.100
  -1262346.304 4   -983646.246 3  24478197.153    24478192.550    24478196.441
        25.900          20.500
 -17157860.315 7 -13369758.852 6  21316508.608    21316506.864    21316507.418
        43.300          40.600
 06  1  1  2 24 30.0000000  0  9G29G 6G18G10G 9G26G21G22G15
 -15654930.084 7 -12198633.683 6  21342142.996    21342140.659    21342142.270
        44.900          40.000
  -5897451.932 4  -4595405.062 3  23686267.691    23686266.516    23686266.768
        26.500          21.600
 -10670714.253 7  -8314840.738 6  21648688.261    21648685.289    21648687.323
        44.200          38.500
  -3813141.886 4  -2971257.116 3  23788556.752    23788555.818    23788555.556
        27.600          23.800
  -4344583.563 4  -3385388.658 2  23845369.759    23845368.791    23845368.726
        25.900          17.800
 -22026828.684 7 -17163750.940 7  20305332.258    20305330.209    20305331.695
        47.600          44.300
 -24464791.367 7 -19063466.381 7  20242626.413    20242622.769    20242625.404
        44.800          47.300
  -1349942.298 4  -1051902.856 3  24461527.282    24461523.908    24461526.719
        24.900          20.500
 -17235200.036 7 -13430023.555 6  21301791.179    21301789.660    21301790.096
        43.600          40.500
 06  1  1  2 25  0.0000000  0  9G29G 6G18G10G 9G26G21G22G15
 -15588503.629 7 -12146872.801 6  21354783.614    21354781.145    21354782.962
        44.900          39.800
  -5802015.079 4  -4521038.715 3  23704428.680    23704427.755    23704427.909
        25.900          23.000
 -10730758.361 7  -8361628.353 6  21637262.115    21637259.263    21637261.272
        44.300          38.600
  -3723801.877 4  -2901641.562 3  23805557.017    23805556.295    23805556.397
        27.400          22.100
  -4459973.131 4  -3475302.551 3  23823411.503    23823411.285    23823410.619
        24.900          22.600
 -21978770.386 7 -17126302.911 7  20314477.408    20314475.296    20314476.851
        47.700          44.100
 -24491298.070 7 -19084120.952 7  20237582.339    20237578.716    20237581.284
        44.600          47.200
  -1437474.062 4  -1120109.405 3  24444870.689    24444867.109    24444870.198
        25.300          22.600
 -17312188.269 7 -13490014.381 6  21287140.646    21287139.183    21287139.775
        43.800          40.500
 06  1  1  2 25 30.0000000  0  9G29G 6G18G10G 9G26G21G22G15
 -15521723.231 7 -12094836.119 6  21367491.589    21367489.044    21367490.876
        44.700          39.700
  -5706447.215 4  -4446570.298 4  23722614.888    23722613.958    23722613.836
        24.900          24.900
 -10790589.959 7  -8408250.365 6  21625876.936    21625873.744    21625875.795
        44.300          38.800
  -3634392.970 4  -2831972.278 3  23822572.355    23822570.182    23822570.771
        27.600          22.100
  -4575268.742 4  -3565143.258 3  23801470.177    23801470.490    23801470.268
        24.900          19.900
 -21930157.178 7 -17088422.482 7  20323728.141    20323726.125    20323727.640
        47.700          44.100
 -24517290.156 7 -19104374.522 7  20232636.255    20232632.539    20232635.195
        44.500          47.300
  -1524940.963 4  -1188265.414 3  24428227.139    24428222.756    24428226.519
        25.900          23.400
 -17388822.717 7 -13549729.527 6  21272557.839    21272556.131    21272556.809
        43.900          40.600
 06  1  1  2 26  0.0000000  0  9G29G 6G18G10G 9G26G21G22G15
 -15454590.958 7 -12042525.249 6  21380266.310    21380263.891    21380265.585
        44.300          39.700
  -5610751.235 4  -4372002.031 3  23740824.670    23740824.040    23740824.322
        24.600          22.600
 -10850208.258 7  -8454706.177 6  21614531.758    21614528.695    21614530.935
        45.100          38.900
  -3544915.555 4  -2762249.648 3  23839597.245    23839597.954    23839597.100
        27.900          21.600
  -4690467.771 3  -3654908.684 3  23779547.699    23779548.759    23779548.443
        22.600          20.500
 -21880991.348 7 -17050111.432 7  20333084.351    20333081.961    20333083.667
        47.600          43.900
 -24542765.575 7 -19124225.497 7  20227788.265    20227784.772    20227787.235
        44.400          47.400
  -1612342.618 3  -1256370.604 3  24411593.358    24411590.787    24411593.304
        22.100          21.100
 -17465100.995 7 -13609167.142 6  21258042.724    21258040.897    21258041.569
        44.100          40.700
 06  1  1  2 26 30.0000000  0  9G29G 6G18G10G 9G26G21G22G15
 -15387109.312 7 -11989942.144 6  21393107.541    21393105.329    21393106.815
        44.200          40.000
  -5514930.016 3  -4297336.208 3  23759058.881    23759058.388    23759058.177
        22.600          22.100
 -10909612.942 7  -8500995.540 6  21603227.553    21603224.204    21603226.564
        44.800          38.400
  -3455370.550 4  -2692474.318 3  23856638.868    23856636.548    23856637.527
        28.100          19.300
  -4805566.682 4  -3744596.050 3  23757645.993    23757646.206    23757646.238
        24.900          23.400
 -21831275.275 7 -17011371.626 7  20342544.691    20342542.683    20342544.135
        47.600          44.000
 -24567721.741 7 -19143671.856 7  20223039.349    20223035.823    20223038.228
        44.200          47.400
  -1699678.751 3  -1324424.695 3  24394974.866    24394971.348    24394974.317
        23.000          21.600
 -17541020.619 7 -13668325.283 6  21243595.390    21243593.957    21243594.437
        44.100          41.300
 06  1  1  2 27  0.0000000  0  9G29G 6G18G10G 9G26G21G22G15
 -15319280.611 7 -11937088.606 6  21406014.977    21406012.626    21406014.237
        44.200          39.700
  -5418986.491 3  -4222575.084 2  23777315.848    23777315.597    23777315.417
        22.100          17.000
 -10968803.443 7  -8547118.005 6  21591963.735    21591960.554    21591962.853
        44.800          38.400
  -3365758.587 4  -2622646.818 3  23873690.587    23873689.711    23873689.848
        27.600          20.500
  -4920561.816 4  -3834202.603 3  23735763.740    23735763.060    23735763.195
        25.600          23.400
 -21781011.420 7 -16972204.977 7  20352109.640    20352107.563    20352109.070
        47.500          43.800
 -24592157.705 7 -19162712.861 7  20218389.298    20218385.707    20218388.273
        44.400          47.400
  -1786948.759 4  -1392427.298 3  24378367.978    24378364.047    24378367.380
        25.300          19.900
 -17616579.047 7 -13727201.975 6  21229217.514    21229215.683    21229216.378
        44.400          41.200
 06  1  1  2 27 30.0000000  0  9G29G 6G18G10G 9G26G21G22G15
 -15251107.149 7 -11883966.419 6  21418988.029    21418985.639    21418987.360
        44.600          39.800
  -5322923.702 4  -4147720.956 2  23795597.097    23795595.405    23795596.309
        25.600          15.100
 -11027779.000 7  -8593072.984 6  21580741.123    21580738.013    21580740.232
        44.700          38.900
  -3276080.187 4  -2552767.571 3  23890756.443    23890755.092    23890755.205
        27.600          20.500
  -5035450.234 4  -3923725.989 4  23713902.040    23713900.937    23713900.979
        25.300          24.200
 -21730202.198 7 -16932613.371 7  20361778.303    20361776.290    20361777.708
        47.500          43.900
 -24616071.798 7 -19181347.216 7  20213838.604    20213834.950    20213837.587
        44.200          47.300
  -1874152.166 3  -1460377.968 3  24361773.352    24361769.799    24361773.018
        22.600          21.100
 -17691773.845 7 -13785795.329 6  21214908.213    21214906.459    21214907.088
        44.300          41.100
 06  1  1  2 28  0.0000000  0  9G29G 6G18G10G 9G26G21G22G15
 -15182591.158 7 -11830577.328 6  21432026.278    21432023.749    21432025.497
        44.600          39.500
  -5226744.481 4  -4072776.119 3  23813899.303    23813898.177    23813898.556
        25.300          18.600
 -11086539.038 7  -8638860.013 6  21569559.376    21569556.693    21569558.536
        44.800          39.700
  -3186336.010 3  -2482837.056 3  23907833.086    23907832.216    23907832.810
        23.400          19.900
  -5150228.792 4  -4013163.780 3  23692061.353    23692059.128    23692059.767
        25.300          22.600
 -21678850.046 7 -16892598.696 7  20371550.246    20371548.282    20371549.723
        47.600          44.000
 -24639462.561 7 -19199573.784 7  20209387.351    20209383.896    20209386.389
        44.100          47.400
  -1961288.696 3  -1528276.556 3  24345191.480    24345188.021    24345190.972
        22.600          21.100
 -17766602.641 7 -13844103.486 6  21200668.870    21200667.034    21200667.824
        44.500          41.200
 06  1  1  2 28 30.0000000  0  9G29G 6G18G10G 9G26G21G22G15
 -15113734.934 7 -11776923.118 6  21445129.031    21445126.684    21445128.409
        44.400          39.300
  -5130451.727 4  -3997742.827 2  23832222.963    23832221.542    23832222.179
        27.900          13.900
 -11145082.975 7  -8684478.655 6  21558418.917    21558415.981    21558418.049
        45.200          39.500
  -3096526.654 4  -2412855.763 3  23924925.420    23924923.012    23924923.884
        27.900          22.600
  -5264894.038 4  -4102513.247 3  23670241.488    23670238.553    23670239.839
        25.900          23.800
 -21626957.380 7 -16852162.849 7  20381425.122    20381423.158    20381424.581
        47.600          44.000
 -24662328.807 7 -19217391.636 7  20205036.014    20205032.652    20205035.050
        44.000          47.300
  -2048357.647 4  -1596122.461 3  24328623.954    24328619.199    24328623.295
        24.600          19.300
 -17841062.539 7 -13902124.191 6  21186499.811    21186497.891    21186498.576
        44.300          41.400
 06  1  1  2 29  0.0000000  0  9G29G 6G18G10G 9G26G21G22G15
 -15044540.930 7 -11723005.703 6  21458296.304    21458293.905    21458295.517
        44.300          39.400
  -5034048.436 4  -3922623.416 3  23850568.063    23850566.493    23850567.565
        25.900          18.600
 -11203410.066 7  -8729928.333 6  21547319.559    21547316.573    21547318.653
        45.000          39.300
  -3006652.588 4  -2342824.037 3  23942026.888    23942024.955    23942025.878
        28.100          21.100
  -5379442.654 4  -4191771.858 3  23648443.621    23648440.958    23648441.585
        25.600          23.000
 -21574526.542 7 -16811307.640 7  20391402.253    20391400.402    20391401.764
        47.500          43.800
 -24684669.062 7 -19234799.623 7  20200784.814    20200781.456    20200783.868
        44.000          47.600
  -2135358.710 4  -1663915.469 3  24312067.924    24312064.048    24312067.367
        26.200          19.900
 -17915151.169 7 -13959855.595 6  21172400.987    21172399.270    21172399.893
        44.500          41.500
 06  1  1  2 29 30.0000000  0  9G29G 6G18G10G 9G26G21G22G15
 -14975011.435 7 -11668826.868 6  21471527.104    21471524.767    21471526.494
        44.100          39.100
  -4937537.445 4  -3847420.052 3  23868933.503    23868932.836    23868932.978
        24.600          19.900
 -11261519.962 7  -8775208.770 6  21536261.778    21536258.619    21536260.917
        45.500          39.100
  -2916714.141 4  -2272742.143 3  23959142.384    23959139.915    23959140.786
        28.100          19.900
  -5493870.902 4  -4280936.645 3  23626667.864    23626665.603    23626666.173
        25.600          22.600
 -21521560.002 7 -16770035.002 7  20401481.303    20401479.521    20401480.870
        47.500          43.700
 -24706480.905 7 -19251795.861 7  20196634.418    20196630.802    20196633.333
        43.800          47.700
  -2222291.511 4  -1731655.296 3  24295524.985    24295520.839    24295524.697
        26.800          19.900
 -17988866.055 7 -14017295.768 6  21158373.381    21158371.820    21158372.278
        44.300          41.700
 06  1  1  2 30  0.0000000  0  9G29G 6G18G10G 9G26G21G22G15
 -14905148.467 7 -11614388.183 6  21484821.589    21484819.267    21484820.902
        43.600          39.100
  -4840921.590 4  -3772135.028 2  23887319.136    23887318.136    23887318.088
        25.600          17.000
 -11319412.140 7  -8820319.561 6  21525245.528    21525242.176    21525244.561
        45.600          39.500
  -2826712.260 4  -2202610.827 3  23976268.184    23976267.216    23976267.355
        27.400          22.100
  -5608176.057 4  -4370005.580 4  23604915.495    23604914.514    23604914.788
        28.400          24.200
 -21468060.425 7 -16728347.012 7  20411661.922    20411660.126    20411661.500
        47.500          43.800
 -24727763.922 7 -19268380.029 7  20192584.215    20192580.781    20192583.220
        43.800          47.600
  -2309155.581 4  -1799341.582 3  24278994.918    24278991.150    24278994.611
        25.600          21.100
 -18062204.906 7 -14074442.921 6  21144417.615    21144415.892    21144416.548
        44.600          41.400
 06  1  1  2 30 30.0000000  0  9G29G 6G18G10G 9G26G21G22G15
 -14834954.782 7 -11559691.799 6  21498179.120    21498176.654    21498178.355
        43.700          39.100
  -4744203.726 4  -3696770.507 3  23905723.953    23905722.674    23905723.141
        24.200          19.300
 -11377085.924 7  -8865260.172 6  21514270.487    21514267.152    21514269.550
        45.400          39.300
  -2736647.422 4  -2132430.468 3  23993407.463    23993406.020    23993405.744
        24.900          21.600
  -5722354.862 4  -4458976.036 3  23583187.474    23583186.023    23583187.055
        28.400          21.100
 -21414030.117 7 -16686245.465 7  20421943.704    20421941.735    20421943.208
        47.600          43.600
 -24748516.513 7 -19284550.878 7  20188635.224    20188631.641    20188634.157
        43.800          47.600
  -2395950.470 3  -1866973.921 3  24262477.800    24262475.171    24262477.462
        23.800          23.000
 -18135165.069 7 -14131294.997 6  21130533.873    21130531.866    21130532.724
        44.800          41.400
 06  1  1  2 31  0.0000000  0 10G29G 6G18G 3G10G 9G26G21G22G15
 -14764432.329 7 -11504739.229 6  21511598.872    21511596.715    21511598.209
        43.600          39.100
  -4647387.078 3  -3621328.958 2  23924147.226    23924146.056    23924146.541
        23.000          12.600
 -11434540.338 7  -8910029.841 6  21503337.113    21503333.945    21503336.110
        45.000          39.500
    -70366.104 3    -54830.771 3  24576796.904    24576795.430    24576796.047
        21.100          21.100
  -2646520.109 4  -2062201.419 3  24010556.938    24010556.060    24010556.663
        27.100          19.900
  -5836403.512 4  -4547845.101 3  23561484.565    23561483.738    23561484.178
        27.100          23.000
 -21359471.647 7 -16643732.360 7  20432325.936    20432323.879    20432325.405
        47.600          43.700
 -24768736.737 7 -19300306.894 7  20184787.417    20184783.822    20184786.342
        43.800          47.600
  -2482675.371 4  -1934551.747 3  24245975.458    24245971.769    24245974.765
        25.300          23.800
 -18207744.069 7 -14187850.062 6  21116722.568    21116720.617    21116721.414
        45.000          41.800
 06  1  1  2 31 30.0000000  0 10G29G 6G18G 3G10G 9G26G21G22G15
 -14693583.658 7 -11449532.464 6  21525081.034    21525078.726    21525080.285
        43.600          39.100
  -4550474.259 4  -3545812.494 3  23942589.027    23942588.197    23942588.393
        24.200          20.500
 -11491774.620 7  -8954627.979 6  21492445.578    21492442.706    21492444.733
        45.100          39.500
   -115624.396 3    -90096.935 3  24568184.099    24568182.231    24568183.292
        20.500          19.900
  -2556331.070 4  -1991924.251 3  24027721.174    24027718.843    24027719.519
        27.400          19.300
  -5950319.035 4  -4636610.385 3  23539806.496    23539806.837    23539806.711
        25.900          23.400
 -21304387.453 7 -16600809.602 7  20442808.114    20442806.088    20442807.553
        47.400          43.600
 -24788424.007 7 -19315647.621 7  20181041.108    20181037.513    20181039.995
        43.600          47.700
  -2569330.101 4  -2002074.887 3  24229486.032    24229481.673    24229485.355
        27.600          23.400
 -18279939.342 7 -14244106.118 6  21102984.392    21102982.287    21102983.212
        45.200          41.800
 06  1  1  2 32  0.0000000  0 10G29G 6G18G 3G10G 9G26G21G22G15
 -14622410.871 7 -11394073.144 6  21538624.785    21538622.512    21538623.990
        43.600          38.800
  -4453468.331 3  -3470223.517 4  23961048.391    23961048.208    23961048.066
        22.600          24.600
 -11548788.699 7  -8999054.531 6  21481596.181    21481593.341    21481595.357
        45.400          40.000
   -160381.547 2   -124972.671 3  24559666.953    24559665.466    24559665.913
        16.100          21.100
  -2466080.804 4  -1921599.389 3  24044893.512    24044892.816    24044892.983
        26.200          19.900
  -6064097.512 4  -4725268.862 3  23518156.434    23518155.078    23518155.747
        26.200          23.800
 -21248780.096 7 -16557479.184 7  20453389.761    20453387.836    20453389.234
        47.500          43.500
 -24807576.376 7 -19330571.540 7  20177396.440    20177393.016    20177395.378
        43.700          47.800
  -2655914.191 4  -2069542.987 4  24213009.117    24213005.776    24213008.603
        26.500          24.600
 -18351748.447 7 -14300061.264 7  21089319.429    21089317.500    21089318.348
        45.200          42.000
 06  1  1  2 32 30.0000000  0 10G29G 6G18G 3G10G 9G26G21G22G15
 -14550916.327 7 -11338363.111 6  21552229.598    21552227.491    21552228.870
        43.400          38.700
  -4356371.946 3  -3394564.062 3  23979525.449    23979524.790    23979524.486
        19.900          23.400
 -11605582.098 7  -9043309.132 6  21470788.887    21470785.856    21470788.080
        45.600          40.000
   -204636.558 3   -159457.021 3  24551245.960    24551244.203    24551245.054
        19.300          23.000
  -2375769.775 4  -1851227.183 3  24062080.870    24062078.755    24062079.351
        26.800          21.600
  -6177735.426 4  -4813817.900 3  23496532.601    23496530.642    23496531.291
        26.500          23.400
 -21192652.160 7 -16513743.118 7  20464070.553    20464068.644    20464070.115
        47.500          43.400
 -24826192.397 7 -19345077.523 7  20173854.022    20173850.430    20173852.937
        43.600          47.700
  -2742426.974 4  -2136955.539 4  24196546.537    24196542.714    24196545.719
        25.300          24.200
 -18423168.877 7 -14355713.538 6  21075728.432    21075726.557    21075727.337
        45.000          41.900
 06  1  1  2 33  0.0000000  0 10G29G 6G18G 3G10G 9G26G21G22G15
 -14479102.352 7 -11282404.163 6  21565895.690    21565893.102    21565894.843
        43.600          39.000
  -4259188.125 3  -3318836.469 3  23998018.824    23998018.545    23998018.091
        22.600          23.000
 -11662153.677 7  -9087390.885 6  21460023.704    21460020.558    21460022.806
        45.500          39.900
   -248387.817 3   -193548.922 3  24542920.395    24542918.557    24542919.429
        23.000          21.100
  -2285398.753 4  -1780808.196 3  24079275.866    24079275.621    24079275.469
        24.900          19.300
  -6291230.036 4  -4902255.202 3  23474935.137    23474933.178    23474933.389
        26.200          22.100
 -21136006.075 7 -16469603.308 7  20474850.031    20474847.958    20474849.491
        47.600          43.300
 -24844270.707 7 -19359164.519 7  20170413.827    20170410.240    20170412.770
        43.500          47.800
  -2828868.438 4  -2204312.488 4  24180097.214    24180092.895    24180096.466
        25.600          24.900
 -18494197.977 7 -14411060.891 7  21062212.118    21062210.301    21062210.982
        45.100          42.200
 06  1  1  2 33 30.0000000  0 10G29G 6G18G 3G10G 9G26G21G22G15
 -14406971.293 7 -11226198.138 6  21579621.425    21579619.166    21579620.843
        44.000          38.600
  -4161919.787 2  -3243043.028 3  24016527.853    24016528.404    24016527.442
        17.800          22.100
 -11718503.340 7  -9131299.711 6  21449300.473    21449297.585    21449299.687
        45.400          39.800
   -291634.274 3   -227247.425 3  24534690.875    24534689.173    24534690.067
        19.300          23.000
  -2194968.060 4  -1710342.730 3  24096486.350    24096484.475    24096484.783
        26.200          23.000
  -6404578.252 4  -4990578.423 4  23453365.803    23453363.773    23453364.254
        26.500          25.300
 -21078844.315 7 -16425061.664 7  20485727.464    20485725.466    20485726.937
        47.300          43.000
 -24861810.267 7 -19372831.703 7  20167075.984    20167072.616    20167074.931
        43.400          47.900
  -2915237.910 4  -2271613.349 4  24163661.370    24163657.642    24163660.930
        26.200          24.200
 -18564833.214 7 -14466101.334 7  21048770.713    21048769.023    21048769.621
        45.400          42.400
 06  1  1  2 34  0.0000000  0 10G29G 6G18G 3G10G 9G26G21G22G15
 -14334525.477 7 -11169746.845 6  21593407.582    21593405.064    21593406.916
        44.000          38.400
  -4064569.837 4  -3167185.999 3  24035053.854    24035053.863    24035053.297
        24.900          22.100
 -11774629.728 7  -9175034.559 6  21438620.299    21438617.200    21438619.331
        45.600          40.300
   -334374.483 3   -260551.424 3  24526557.859    24526555.770    24526556.849
        22.600          22.600
  -2104478.359 4  -1639831.342 3  24113705.219    24113704.219    24113704.481
        24.600          22.100
  -6517776.367 4  -5078784.684 4  23431823.475    23431822.762    23431823.135
        28.100          24.900
 -21021169.612 7 -16380120.322 7  20496702.486    20496700.554    20496701.969
        47.200          43.000
 -24878809.612 7 -19386077.938 7  20163841.028    20163837.673    20163840.064
        43.400          47.800
  -3001534.838 4  -2338857.697 3  24147239.737    24147236.119    24147239.173
        25.600          23.400
 -18635072.320 7 -14520833.098 7  21035404.680    21035402.781    21035403.582
        45.300          42.300
 06  1  1  2 34 30.0000000  0 10G29G 6G18G 3G10G 9G26G21G22G15
 -14261766.951 7 -11113051.883 6  21607253.169    21607250.659    21607252.491
        44.000          38.600
  -3967141.084 3  -3091267.546 3  24053593.750    24053593.675    24053593.294
        22.100          20.500
 -11830532.626 7  -9218595.258 6  21427982.068    21427979.192    21427981.180
        45.600          40.300
   -376607.128 3   -293459.973 3  24518520.899    24518518.792    24518519.821
        22.600          21.600
  -2013930.419 4  -1569274.519 3  24130936.382    24130934.045    24130935.389
        24.200          19.900
  -6630820.516 4  -5166870.954 4  23410311.467    23410311.178    23410311.156
        26.800          24.600
 -20962984.449 7 -16334781.225 7  20507774.794    20507772.771    20507774.226
        47.100          43.000
 -24895267.552 7 -19398902.302 7  20160709.314    20160705.732    20160708.304
        43.200          47.600
  -3087758.841 3  -2406045.208 4  24130831.437    24130828.199    24130830.731
        23.400          24.900
 -18704912.757 7 -14575254.212 7  21022114.353    21022112.745    21022113.292
        45.400          42.500
 06  1  1  2 35  0.0000000  0 10G29G 6G18G 3G10G 9G26G21G22G15
 -14188698.266 7 -11056115.237 6  21621157.738    21621155.179    21621156.969
        43.500          38.300
  -3869636.479 4  -3015289.956 3  24072149.142    24072147.917    24072148.379
        27.400          18.600
 -11886211.584 7  -9261981.454 6  21417386.697    21417383.604    21417385.798
        45.600          40.100
   -418330.889 3   -325971.983 3  24510581.018    24510579.253    24510580.207
        23.800          23.000
  -1923324.419 4  -1498672.455 3  24148177.891    24148175.678    24148176.162
        25.300          20.500
  -6743708.078 4  -5254835.242 4  23388828.926    23388829.147    23388829.588
        27.400          26.500
 -20904291.339 7 -16289046.326 7  20518943.638    20518941.715    20518943.156
        47.200          42.900
 -24911182.680 7 -19411303.694 7  20157680.646    20157677.248    20157679.685
        43.000          47.800
  -3173909.481 4  -2473175.527 4  24114437.867    24114434.083    24114437.241
        25.300          24.200
 -18774352.053 7 -14629362.748 7  21008900.377    21008898.805    21008899.327
        45.400          42.500
 06  1  1  2 35 30.0000000  0 10G29G 6G18G 3G10G 9G26G21G22G15
 -14115321.671 7 -10998938.666 6  21635120.727    21635118.342    21635119.945
        43.400          38.400
  -3772058.775 4  -2939255.396 2  24090717.874    24090715.919    24090716.976
        27.100          15.100
 -11941665.860 7  -9305192.577 6  21406834.216    21406831.153    21406833.355
        45.700          40.200
   -459544.767 4   -358086.643 4  24502738.153    24502736.979    24502737.514
        24.200          26.800
  -1832661.144 4  -1428025.767 3  24165429.439    24165428.479    24165428.945
        26.200          18.600
  -6856434.981 4  -5342674.321 4  23367379.338    23367378.308    23367378.648
        27.400          28.600
 -20845092.921 7 -16242917.676 7  20530208.807    20530206.862    20530208.281
        47.300          43.000
 -24926553.636 7 -19423281.057 7  20154755.668    20154752.256    20154754.629
        42.900          47.700
  -3259985.998 4  -2540248.109 4  24098057.765    24098054.162    24098057.318
        26.200          25.600
 -18843387.770 7 -14683156.807 7  20995763.343    20995761.847    20995762.239
        45.300          42.500
 06  1  1  2 36  0.0000000  0 10G29G 6G18G 3G10G 9G26G21G22G15
 -14041639.449 7 -10941523.944 6  21649141.824    21649139.577    21649141.146
        43.200          38.400
  -3674410.997 4  -2863166.218 1  24109299.022    24109297.312    24109298.300
        24.600           9.000
 -11996894.098 7  -9348227.567 6  21396324.577    21396321.509    21396323.661
        45.600          40.100
   -500247.379 3   -389802.965 3  24494992.573    24494991.174    24494991.516
        22.600          21.600
  -1741940.967 4  -1357334.737 3  24182694.113    24182692.303    24182692.767
        26.200          20.500
  -6968998.471 4  -5430386.080 4  23345960.335    23345958.144    23345958.804
        29.200          28.400
 -20785391.874 7 -16196397.370 7  20541569.681    20541567.411    20541569.109
        47.100          42.700
 -24941379.164 7 -19434833.413 7  20151934.401    20151930.996    20151933.419
        43.000          47.700
  -3345988.149 4  -2607262.762 3  24081692.302    24081688.202    24081691.494
        28.600          23.400
 -18912017.591 7 -14736634.571 7  20982703.428    20982701.773    20982702.336
        45.300          42.300
 06  1  1  2 36 30.0000000  0 10G29G 6G18G 3G10G 9G26G21G22G15
 -13967653.990 7 -10883872.929 6  21663220.865    21663218.408    21663220.090
        43.000          38.200
  -3576695.869 3  -2787024.581 2  24127893.670    24127892.942    24127892.833
        22.600          16.100
 -12051896.612 7  -9391086.666 6  21385857.914    21385854.883    21385857.031
        45.500          40.200
   -540437.813 4   -421120.178 3  24487345.107    24487342.723    24487344.311
        27.100          21.600
  -1651164.590 4  -1286599.896 2  24199968.610    24199966.105    24199967.163
        26.200          13.900
  -7081394.653 4  -5517967.460 4  23324571.303    23324569.353    23324569.958
        27.600          24.600
 -20725190.854 7 -16149487.479 7  20553025.442    20553023.280    20553024.840
        47.000          42.700
 -24955658.081 7 -19445959.841 7  20149217.317    20149213.820    20149216.306
        42.800          47.800
  -3431915.370 4  -2674219.019 3  24065341.149    24065336.419    24065340.503
        27.900          19.900
 -18980238.802 7 -14789793.952 7  20969721.729    20969719.694    20969720.542
        45.300          42.200
 06  1  1  2 37  0.0000000  0 10G29G 6G18G 3G10G 9G26G21G22G15
 -13893367.532 7 -10825987.378 6  21677357.136    21677354.679    21677356.346
        42.900          37.900
  -3478916.455 3  -2710832.892 2  24146499.216    24146499.758    24146498.750
        20.500          16.100
 -12106672.512 7  -9433769.181 6  21375434.422    21375431.415    21375433.559
        45.800          40.300
   -580114.588 3   -452037.144 4  24479794.806    24479793.026    24479793.621
        21.100          26.500
  -1560332.355 4  -1215821.528 3  24217252.122    24217251.305    24217251.461
        25.300          18.600
  -7193620.083 4  -5605415.801 3  23303215.385    23303213.402    23303213.788
        27.900          23.800
 -20664492.245 7 -16102189.855 7  20564575.924    20564573.773    20564575.386
        47.000          42.400
 -24969389.085 7 -19456659.325 7  20146604.502    20146600.995    20146603.472
        43.200          47.900
  -3517767.194 4  -2741116.552 2  24049003.618    24048999.180    24049003.227
        27.400          17.800
 -19048048.924 7 -14842632.999 7  20956817.642    20956815.937    20956816.540
        45.500          42.600
