     2.10           Observation         G (GPS)             RINEX VERSION / TYPE
mergeRinObs         gpstk               07/31/2006 10:09:25 PGM / RUN BY / DATE
ALGO CACS-ACP   883160   ALGONQUIN PARK  ONT  CANADA        MARKER NAME
-Unknown-           GEOD. SURVEY, NATURAL RESOURCES CANADA  OBSERVER / AGENCY
1103                AOA BENCHMARK ACT   3.3.32.2N           REC # / TYPE / VERS
386                 AOAD/M_T        NONE                    ANT # / TYPE
   918129.4000 -4346071.2000  4561977.8000                  APPROX POSITION XYZ
        0.1000        0.0000        0.0000                  ANTENNA: DELTA H/E/N
     1     1                                                WAVELENGTH FACT L1/2
     7    C1    L1    L2    P1    P2    S1    S2            # / TYPES OF OBSERV
    30.000                                                  INTERVAL
  2006     6     7     0     0    0.0000000     GPS         TIME OF FIRST OBS
40104M002                                                   MARKER NUMBER
L1 & L2: min(max(int(snr_dBHz/6), 0), 9)                    COMMENT
L1 = L1(CA)                                                 COMMENT
L1 PHASE CENTRE  .110m ABOVE ARP                            COMMENT
L2 = L2(P2) TurboRogue; = L2(Y2) Benchmark                  COMMENT
L2 PHASE CENTRE  .128m ABOVE ARP                            COMMENT
Linux 2.4.20-8|Pentium IV|gcc|Linux|486/DX+                 COMMENT
P1 =    P1  TurboRogue; =    Y1  Benchmark                  COMMENT
P2 =    P2  TurboRogue; =    Y2  Benchmark                  COMMENT
SNR is mapped to RINEX snr flag value [0-9]                 COMMENT
where ARP is the Antenna Reference Point for HI measurement COMMENT
                                                            END OF HEADER
 06  6  7  0  0  0.0000000  0  9G 1G 3G 6G 7G13G16G20G23G25
  22487119.796    -9091601.247 5  -7084359.849 5  22487118.502    22487120.052  
        34.300          32.000  
  23796436.087    -3843024.647 3  -2994560.443 1  23796436.350    23796439.457  
        21.100          11.000  
  23940817.636    -3421115.454 3  -2665786.305 2  23940816.797    23940816.986  
        23.800          17.000  
  22073935.972   -12788011.485 6  -9964671.774 5  22073934.740    22073937.172  
        37.100          33.800  
  22931804.667    -8757285.645 4  -6823852.502 4  22931804.420    22931804.240  
        29.900          26.800  
  20236401.618   -22810495.657 7 -17774397.982 8  20236400.446    20236400.017  
        43.500          50.500  
  23044619.278    -8379122.508 5  -6529175.322 3  23044617.979    23044619.599  
        33.000          23.800  
  20689229.594   -20889919.343 7 -16277848.634 7  20689228.290    20689225.785  
        46.300          43.400  
  21600006.206   -14996780.857 7 -11685788.825 6  21600005.572    21600006.011  
        42.900          38.400  
 06  6  7  0  0 30.0000000  0  9G 1G 3G 6G 7G13G16G20G23G25
  22504725.465    -8999081.124 5  -7012266.290 5  22504724.212    22504726.244  
        33.200          32.700  
  23775308.750    -3954052.735 3  -3081075.654 2  23775308.182    23775311.168  
        22.100          17.800  
  23951466.265    -3365155.193 3  -2622180.902 3  23951465.668    23951466.665  
        23.800          21.600  
  22065717.050   -12831200.647 6  -9998325.650 5  22065716.117    22065718.129  
        38.000          33.000  
  22913673.416    -8852564.570 5  -6898095.809 4  22913673.433    22913673.016  
        30.200          26.200  
  20235570.319   -22814864.079 7 -17777801.930 8  20235569.146    20235568.610  
        43.500          50.300  
  23059393.728    -8301483.547 5  -6468677.455 3  23059392.468    23059393.796  
        33.600          21.100  
  20680709.397   -20934692.339 7 -16312736.704 7  20680708.127    20680705.497  
        45.100          42.700  
  21609982.401   -14944355.028 7 -11644937.551 6  21609981.849    21609982.386  
        42.700          37.700  
 06  6  7  0  1  0.0000000  0  9G 1G 3G 6G 7G13G16G20G23G25
  22522388.377    -8906262.444 5  -6939940.088 5  22522387.105    22522388.926  
        33.100          32.300  
  23754197.617    -4064994.465 2  -3167523.561 3  23754196.550    23754199.648  
        17.000          18.600  
  23962200.151    -3308744.420 3  -2578224.464 3  23962199.643    23962201.130  
        22.100          23.400  
  22057588.715   -12873917.772 6 -10031611.706 5  22057587.465    22057589.210  
        37.900          33.500  
  22895588.420    -8947603.333 4  -6972151.942 4  22895588.035    22895587.416  
        29.700          24.900  
  20234836.486   -22818719.229 7 -17780805.934 8  20234835.346    20234834.898  
        43.100          50.100  
  23074232.884    -8223501.728 5  -6407912.450 3  23074231.779    23074233.432  
        34.400          23.000  
  20672285.649   -20978959.532 7 -16347230.640 7  20672284.414    20672281.668  
        44.900          42.700  
  21620000.298   -14891712.940 7 -11603917.787 6  21619999.533    21619999.809  
        43.000          37.300  
 06  6  7  0  1 30.0000000  0  9G 1G 3G 6G 7G13G16G20G23G25
  22540107.977    -8813146.958 5  -6867382.618 5  22540106.601    22540108.233  
        33.000          31.600  
  23733104.211    -4175846.973 3  -3253901.944 3  23733102.480    23733104.928  
        19.900          21.600  
  23973020.549    -3251885.164 3  -2533918.543 3  23973020.173    23973021.062  
        19.900          21.600  
  22049550.346   -12916161.214 6 -10064528.643 5  22049548.986    22049550.644  
        38.100          33.200  
  22877549.243    -9042399.600 4  -7046019.134 4  22877549.045    22877547.926  
        29.700          25.600  
  20234200.287   -22822062.063 7 -17783410.733 8  20234199.200    20234198.762  
        43.400          50.300  
  23089136.998    -8145180.044 5  -6346882.618 4  23089135.754    23089137.723  
        32.600          24.200  
  20663958.617   -21022719.121 7 -16381329.039 7  20663957.272    20663954.675  
        45.200          43.100  
  21630058.827   -14838854.942 7 -11562729.760 6  21630058.036    21630058.198  
        42.600          37.500  
 06  6  7  0  2  0.0000000  0  9G 1G 3G 6G 7G13G16G20G23G25
  22557883.473    -8719736.289 5  -6794595.119 5  22557882.174    22557884.037  
        34.800          30.800  
  23712026.249    -4286607.460 4  -3340208.647 3  23712024.790    23712027.682  
        24.200          19.300  
  23983925.397    -3194578.922 3  -2489264.293 3  23983924.703    23983925.501  
        23.400          19.900  
  22041601.901   -12957929.299 5 -10097075.159 5  22041600.775    22041602.736  
        35.800          33.100  
  22859556.874    -9136951.029 5  -7119695.558 4  22859556.526    22859555.919  
        31.000          26.500  
  20233661.922   -22824893.237 7 -17785616.833 8  20233660.730    20233660.259  
        42.900          50.000  
  23104105.474    -8066521.677 5  -6285590.423 4  23104104.220    23104106.182  
        33.500          24.900  
  20655728.620   -21065968.953 7 -16415030.239 7  20655727.331    20655724.860  
        47.200          44.700  
  21640158.374   -14785781.215 6 -11521373.647 6  21640157.743    21640158.076  
        41.500          37.200  
 06  6  7  0  2 30.0000000  0  9G 1G 3G 6G 7G13G16G20G23G25
  22575714.519    -8626032.092 5  -6721578.901 5  22575713.592    22575715.233  
        34.600          30.100  
  23690967.159    -4397272.869 4  -3426441.227 3  23690965.837    23690968.861  
        25.600          19.900  
  23994916.003    -3136827.660 3  -2444263.292 3  23994915.003    23994914.938  
        23.000          19.900  
  22033744.558   -12999220.178 6 -10129249.841 5  22033743.211    22033745.560  
        36.000          33.500  
  22841611.338    -9231255.084 5  -7193179.203 4  22841611.047    22841610.382  
        31.800          26.200  
  20233220.240   -22827213.541 7 -17787424.854 8  20233219.145    20233218.731  
        43.000          49.800  
  23119137.270    -7987529.603 5  -6224038.196 3  23119136.135    23119137.740  
        33.200          23.400  
  20647596.087   -21108707.211 7 -16448332.791 7  20647594.676    20647592.067  
        47.200          44.400  
  21650298.966   -14732492.013 6 -11479849.622 6  21650298.325    21650298.809  
        41.200          37.700  
 06  6  7  0  3  0.0000000  0  9G 1G 3G 6G 7G13G16G20G23G25
  22593601.243    -8532036.082 5  -6648335.297 5  22593600.270    22593602.240  
        33.600          31.100  
  23669926.736    -4507840.173 4  -3512597.366 3  23669925.452    23669928.470  
        27.100          19.300  
  24005988.747    -3078633.061 3  -2398916.815 2  24005988.414    24005988.917  
        22.600          17.800  
  22025977.421   -13040032.582 6 -10161051.687 5  22025976.678    22025978.992  
        36.100          33.100  
  22823713.483    -9325308.796 5  -7266467.809 4  22823713.140    22823712.321  
        31.000          25.900  
  20232875.941   -22829023.515 7 -17788835.208 8  20232874.773    20232874.261  
        43.200          49.900  
  23134231.561    -7908206.817 5  -6162228.276 3  23134230.455    23134232.176  
        32.700          22.600  
  20639560.808   -21150931.776 7 -16481235.061 7  20639559.461    20639557.060  
        47.300          44.500  
  21660480.645   -14678987.558 6 -11438157.868 6  21660479.955    21660480.403  
        41.100          37.700  
 06  6  7  0  3 30.0000000  0  9G 1G 3G 6G 7G13G16G20G23G25
  22611543.198    -8437749.988 5  -6574865.653 4  22611542.233    22611544.256  
        34.500          29.700  
  23648905.996    -4618306.357 3  -3598674.721 2  23648904.757    23648907.189  
        23.800          17.800  
  24017147.472    -3019996.996 3  -2353226.355 3  24017146.851    24017147.383  
        23.000          18.600  
  22018302.950   -13080364.609 6 -10192479.210 5  22018302.052    22018303.978  
        36.300          32.400  
  22805864.322    -9419109.458 5  -7339559.202 4  22805863.875    22805862.730  
        32.000          27.400  
  20232628.534   -22830323.847 7 -17789848.447 8  20232627.303    20232626.904  
        43.200          49.900  
  23149389.025    -7828556.205 5  -6100162.911 3  23149387.734    23149389.103  
        31.300          23.400  
  20631623.961   -21192640.666 7 -16513735.501 7  20631622.610    20631620.115  
        47.400          44.400  
  21670703.161   -14625268.030 6 -11396298.518 6  21670702.478    21670702.992  
        40.700          37.400  
 06  6  7  0  4  0.0000000  0  9G 1G 3G 6G 7G13G16G20G23G25
  22629539.895    -8343175.497 5  -6501171.285 5  22629539.178    22629541.133  
        33.500          30.100  
  23627904.159    -4728668.557 4  -3684671.063 2  23627903.371    23627905.668  
        24.900          16.100  
  24028389.869    -2960921.070 3  -2307193.135 3  24028388.869    24028389.310  
        22.100          18.600  
  22010720.013   -13120214.576 6 -10223531.110 5  22010718.811    22010720.593  
        36.600          32.600  
  22788063.073    -9512655.075 5  -7412451.883 4  22788062.706    22788061.796  
        33.100          27.600  
  20232477.751   -22831115.419 7 -17790465.249 8  20232476.505    20232476.319  
        42.700          49.900  
  23164607.742    -7748580.923 5  -6037844.549 3  23164606.405    23164608.155  
        30.800          21.600  
  20623785.450   -21233832.084 7 -16545832.723 7  20623784.186    20623781.556  
        47.500          44.200  
  21680966.378   -14571333.713 6 -11354271.799 6  21680965.753    21680966.314  
        40.600          37.600  
 06  6  7  0  4 30.0000000  0  9G 1G 3G 6G 7G13G16G20G23G25
  22647591.696    -8248314.301 5  -6427253.516 4  22647590.806    22647592.786  
        33.800          29.900  
  23606923.037    -4838924.013 4  -3770584.246 2  23606922.319    23606924.241  
        25.300          17.000  
  24039715.079    -2901407.331 4  -2260818.761 3  24039714.385    24039714.553  
        24.600          20.500  
  22003228.827   -13159581.279 6 -10254206.445 5  22003227.406    22003229.219  
        36.400          32.400  
  22770310.862    -9605942.791 5  -7485143.589 4  22770310.450    22770309.605  
        32.400          28.100  
  20232423.681   -22831399.092 7 -17790686.285 8  20232422.555    20232422.323  
        42.600          50.000  
  23179887.216    -7668284.317 5  -5975275.822 3  23179886.013    23179887.897  
        31.600          21.600  
  20616045.938   -21274504.333 7 -16577525.397 7  20616044.542    20616042.030  
        47.200          44.700  
  21691270.728   -14517184.802 6 -11312077.862 6  21691270.014    21691270.553  
        41.000          37.500  
 06  6  7  0  5  0.0000000  0  9G 1G 3G 6G 7G13G16G20G23G25
  22665696.912    -8153168.108 5  -6353113.660 4  22665696.347    22665698.443  
        34.100          29.700  
  23585962.233    -4949069.440 3  -3856411.695 2  23585961.599    23585963.904  
        23.000          16.100  
  24051122.960    -2841457.479 3  -2214104.563 3  24051122.624    24051122.660  
        22.600          21.600  
  21995829.470   -13198462.661 6 -10284503.598 5  21995828.505    21995830.467  
        37.000          32.100  
  22752608.080    -9698970.090 5  -7557632.363 4  22752607.723    22752607.344  
        32.000          28.800  
  20232466.253   -22831175.671 7 -17790512.186 8  20232465.106    20232464.885  
        42.800          50.000  
  23195227.674    -7587668.905 4  -5912458.675 3  23195226.590    23195228.713  
        29.900          21.600  
  20608405.056   -21314655.365 7 -16608811.920 7  20608403.939    20608401.475  
        47.400          44.600  
  21701615.576   -14462821.581 6 -11269716.931 6  21701614.847    21701615.545  
        40.800          37.400  
 06  6  7  0  5 30.0000000  0  9G 1G 3G 6G 7G13G16G20G23G25
  22683857.204    -8057738.597 5  -6278753.051 5  22683856.275    22683858.302  
        33.100          30.200  
  23565024.355    -5059101.844 4  -3942151.036 2  23565023.548    23565025.529  
        24.600          16.100  
  24062613.559    -2781073.391 3  -2167051.995 3  24062612.536    24062613.710  
        18.600          23.000  
  21988523.943   -13236857.408 6 -10314421.560 5  21988522.651    21988523.926  
        37.500          31.500  
  22734954.920    -9791734.632 5  -7629916.418 4  22734954.804    22734954.586  
        31.800          28.800  
  20232604.979   -22830445.607 7 -17789943.295 8  20232603.875    20232603.746  
        42.800          50.000  
  23210628.784    -7506737.867 5  -5849395.584 3  23210627.613    23210629.354  
        30.800          18.600  
  20600864.231   -21354283.047 7 -16639690.631 7  20600863.015    20600860.626  
        47.500          44.700  
  21712001.308   -14408244.188 6 -11227189.116 6  21712000.656    21712001.449  
        40.800          37.500  
 06  6  7  0  6  0.0000000  0  9G 1G 3G 6G 7G13G16G20G23G25
  22702070.362    -7962027.593 5  -6204173.092 5  22702069.419    22702071.544  
        32.700          30.800  
  23544107.557    -5169018.214 4  -4027800.032 2  23544106.696    23544109.155  
        24.600          17.000  
  24074186.276    -2720256.729 3  -2119662.391 3  24074184.948    24074186.800  
        19.900          23.000  
  21981309.942   -13274764.052 6 -10343959.192 5  21981309.074    21981310.322  
        37.900          31.500  
  22717353.226    -9884233.906 5  -7701993.798 4  22717352.810    22717352.476  
        31.800          28.400  
  20232840.032   -22829210.183 7 -17788980.618 8  20232838.992    20232838.804  
        43.000          50.000  
  23226089.122    -7425494.588 5  -5786089.178 3  23226087.813    23226089.336  
        31.500          19.900  
  20593423.351   -21393385.732 7 -16670160.252 7  20593422.065    20593419.547  
        47.600          44.400  
  21722427.828   -14353453.003 6 -11184494.701 6  21722427.240    21722427.791  
        40.700          37.100  
 06  6  7  0  6 30.0000000  0  9G 1G 3G 6G 7G13G16G20G23G25
  22720337.377    -7866036.829 5  -6129375.140 4  22720336.002    22720337.787  
        33.400          29.200  
  23523213.515    -5278815.812 4  -4113356.466 3  23523212.763    23523215.135  
        26.800          19.300  
  24085841.499    -2659009.678 3  -2071937.406 3  24085840.437    24085841.049  
        22.100          19.900  
  21974189.785   -13312180.972 6 -10373115.197 5  21974188.804    21974190.333  
        36.200          33.400  
  22699802.008    -9976465.008 5  -7773862.147 4  22699801.843    22699801.620  
        32.000          28.800  
  20233171.098   -22827470.024 7 -17787624.639 8  20233170.141    20233169.873  
        43.500          50.000  
  23241608.066    -7343941.712 5  -5722541.537 3  23241606.827    23241608.867  
        32.400          19.900  
  20586082.644   -21431961.614 7 -16700219.373 7  20586081.327    20586078.833  
        46.800          44.900  
  21732895.232   -14298448.122 6 -11141633.771 6  21732894.288    21732894.642  
        40.900          37.400  
 06  6  7  0  7  0.0000000  0  9G 1G 3G 6G 7G13G16G20G23G25
  22738656.690    -7769768.017 5  -6054360.514 4  22738655.457    22738657.286  
        31.800          29.500  
  23502342.441    -5388491.766 4  -4198818.101 3  23502341.372    23502344.410  
        24.200          18.600  
  24097577.915    -2597333.889 3  -2023878.330 2  24097577.174    24097577.759  
        23.400          17.800  
  21967163.235   -13349106.633 6 -10401888.424 5  21967162.020    21967163.587  
        38.800          33.800  
  22682302.534   -10068425.573 5  -7845519.692 4  22682302.412    22682302.009  
        32.300          27.900  
  20233598.326   -22825225.864 7 -17785875.936 8  20233597.251    20233596.828  
        43.600          50.700  
  23257185.663    -7262082.597 5  -5658755.263 2  23257184.378    23257185.690  
        32.700          17.800  
  20578842.587   -21470008.575 7 -16729866.347 7  20578841.170    20578838.688  
        46.700          44.500  
  21743402.604   -14243229.891 7 -11098606.599 6  21743401.884    21743402.345  
        42.000          37.200  
 06  6  7  0  7 30.0000000  0  9G 1G 3G 6G 7G13G16G20G23G25
  22757028.314    -7673222.857 5  -5979130.565 5  22757027.246    22757029.419  
        31.500          30.600  
  23481495.731    -5498043.093 4  -4284182.640 3  23481495.022    23481497.325  
        25.300          20.500  
  24109396.035    -2535231.311 3  -1975486.691 2  24109394.996    24109394.794  
        23.000          12.600  
  21960230.127   -13385539.694 6 -10430277.789 5  21960229.069    21960230.844  
        38.900          34.400  
  22664854.878   -10160112.762 5  -7916964.236 4  22664854.676    22664854.494  
        30.600          27.400  
  20234121.188   -22822478.692 7 -17783735.266 8  20234120.014    20234119.599  
        43.700          50.700  
  23272820.753    -7179920.187 5  -5594732.637 3  23272819.160    23272820.487  
        31.600          19.300  
  20571703.607   -21507525.255 7 -16759100.118 7  20571702.130    20571699.434  
        47.000          44.600  
  21753950.940   -14187798.483 6 -11055413.314 6  21753950.238    21753950.607  
        41.900          37.000  
 06  6  7  0  8  0.0000000  0  9G 1G 3G 6G 7G13G16G20G23G25
  22775452.075    -7576403.149 5  -5903686.687 5  22775451.138    22775453.627  
        31.300          30.400  
  23460672.281    -5607466.632 4  -4369447.638 3  23460672.060    23460674.888  
        26.500          21.100  
  24121293.750    -2472703.829 3  -1926763.916 2  24121293.309    24121293.212  
        23.000          16.100  
  21953391.152   -13421478.803 6 -10458282.265 5  21953389.884    21953391.696  
        38.600          34.100  
  22647460.089   -10251524.309 5  -7988193.981 4  22647459.793    22647459.503  
        31.600          28.400  
  20234739.390   -22819229.337 7 -17781203.286 8  20234738.333    20234737.899  
        43.500          50.700  
  23288512.009    -7097457.597 5  -5530476.103 3  23288511.048    23288513.048  
        30.800          19.900  
  20564665.400   -21544509.509 7 -16787919.009 7  20564664.213    20564661.416  
        46.900          44.400  
  21764539.689   -14132154.129 6 -11012054.093 6  21764539.023    21764539.260  
        41.600          36.600  
 06  6  7  0  8 30.0000000  0  9G 1G 3G 6G 7G13G16G20G23G25
  22793927.760    -7479310.591 5  -5828030.205 5  22793927.177    22793929.911  
        30.600          31.800  
  23439873.994    -5716759.604 4  -4454610.900 2  23439874.288    23439876.485  
        26.800          16.100  
  24133272.974    -2409753.319 3  -1877711.544 2  24133272.278    24133273.046  
        21.100          16.100  
  21946646.580   -13456922.105 6 -10485900.392 5  21946645.287    21946647.021  
        38.500          34.000  
  22630118.442   -10342657.368 5  -8059206.777 4  22630117.926    22630117.543  
        31.800          27.600  
  20235453.266   -22815478.657 7 -17778280.661 8  20235452.104    20235451.549  
        43.500          50.600  
  23304261.514    -7014697.941 5  -5465988.126 3  23304260.087    23304261.741  
        30.800          21.600  
  20557728.967   -21580959.989 7 -16816321.981 7  20557727.857    20557725.110  
        47.000          44.300  
  21775168.896   -14076296.999 6 -10968529.071 6  21775168.225    21775168.602  
        41.900          37.100  
 06  6  7  0  9  0.0000000  0  9G 1G 3G 6G 7G13G16G20G23G25
  22812454.782    -7381947.015 5  -5752162.546 5  22812454.919    22812457.119  
        31.500          30.100  
  23419103.049    -5825918.809 4  -4539669.930 3  23419102.289    23419104.493  
        26.500          19.900  
  24145332.159    -2346381.596 3  -1828330.968 3  24145331.487    24145332.070  
        22.600          19.300  
  21939996.242   -13491868.555 6 -10513131.357 5  21939995.062    21939996.975  
        38.700          34.600  
  22612830.083   -10433509.403 5  -8130000.562 4  22612829.614    22612829.111  
        32.300          28.100  
  20236262.228   -22811227.598 7 -17774968.131 8  20236261.062    20236260.463  
        43.700          50.500  
  23320066.106    -6931644.277 5  -5401271.034 3  23320064.939    23320066.493  
        30.800          21.600  
  20550894.770   -21616874.612 7 -16844307.404 7  20550893.500    20550890.779  
        47.000          44.300  
  21785838.680   -14020227.352 6 -10924838.462 6  21785837.900    21785838.445  
        41.500          37.000  
 06  6  7  0  9 30.0000000  0  9G 1G 3G 6G 7G13G16G20G23G25
  22831034.686    -7284314.333 5  -5676085.165 4  22831034.238    22831036.406  
        32.000          29.500  
  23398356.693    -5934941.109 4  -4624622.270 3  23398355.892    23398358.243  
        24.900          19.900  
  24157472.276    -2282590.621 3  -1778623.720 3  24157470.963    24157471.403  
        20.500          18.600  
  21933441.089   -13526316.358 6 -10539973.769 5  21933440.142    21933441.692  
        38.800          34.400  
  22595594.903   -10524077.890 5  -8200573.359 4  22595594.579    22595594.145  
        32.600          27.900  
  20237166.189   -22806477.117 7 -17771266.441 8  20237165.050    20237164.433  
        43.600          50.500  
  23335925.525    -6848299.860 5  -5336327.396 3  23335924.594    23335926.353  
        30.200          19.300  
  20544162.947   -21652251.454 7 -16871873.777 7  20544161.462    20544158.800  
        46.800          44.300  
  21796548.752   -13963945.513 6 -10880982.510 6  21796548.054    21796548.279  
        41.900          36.600  
 06  6  7  0 10  0.0000000  0  9G 1G 3G 6G 7G13G16G20G23G25
  22849664.796    -7186414.136 5  -5599799.346 4  22849663.850    22849665.973  
        31.300          28.600  
  23377636.519    -6043823.544 4  -4709465.639 3  23377636.000    23377638.480  
        25.600          20.500  
  24169689.809    -2218382.447 3  -1728591.358 3  24169689.003    24169689.620  
        19.300          18.600  
  21926981.099   -13560264.439 6 -10566426.786 5  21926979.868    21926981.491  
        38.700          34.600  
  22578414.921   -10614360.381 5  -8270923.356 4  22578414.493    22578413.864  
        32.400          28.400  
  20238164.896   -22801228.029 7 -17767176.224 8  20238163.792    20238163.321  
        43.800          50.500  
  23351840.316    -6764667.997 4  -5271159.762 3  23351838.988    23351841.044  
        29.900          20.500  
  20537533.414   -21687088.824 7 -16899019.779 7  20537532.075    20537529.476  
        46.800          44.400  
  21807299.144   -13907451.674 6 -10836961.354 6  21807298.529    21807298.769  
        41.900          36.800  
 06  6  7  0 10 30.0000000  0  9G 1G 3G 6G 7G13G16G20G23G25
  22868345.463    -7088248.294 4  -5523306.536 4  22868344.243    22868346.340  
        29.700          28.600  
  23356943.357    -6152563.228 4  -4794197.796 3  23356943.415    23356945.700  
        25.900          21.100  
  24181987.290    -2153758.926 3  -1678235.327 3  24181986.561    24181987.325  
        21.100          18.600  
  21920615.776   -13593711.337 6 -10592489.274 5  21920614.863    21920616.651  
        39.000          34.100  
  22561289.974   -10704353.837 5  -8341048.103 4  22561289.477    22561288.915  
        32.800          29.000  
  20239258.361   -22795481.482 7 -17762698.377 8  20239257.286    20239256.868  
        43.600          50.500  
  23367809.245    -6680751.285 4  -5205770.163 3  23367807.927    23367809.921  
        29.000          21.100  
  20531007.023   -21721384.942 7 -16925744.026 7  20531005.712    20531003.193  
        46.900          44.500  
  21818089.914   -13850746.068 6 -10792775.196 6  21818089.280    21818089.703  
        41.400          36.800  
 06  6  7  0 11  0.0000000  0  9G 1G 3G 6G 7G13G16G20G23G25
  22887076.102    -6989818.655 5  -5446608.182 4  22887074.918    22887077.006  
        30.100          28.100  
  23336278.940    -6261157.409 4  -4878816.541 3  23336278.583    23336280.997  
        27.100          21.100  
  24194363.658    -2088722.052 3  -1627557.221 2  24194362.693    24194362.668  
        23.000          17.000  
  21914346.922   -13626655.816 6 -10618160.259 5  21914345.827    21914347.699  
        39.100          34.800  
  22544219.410   -10794056.135 5  -8410945.979 4  22544219.252    22544219.207  
        32.600          29.700  
  20240446.473   -22789238.364 7 -17757833.600 8  20240445.336    20240444.800  
        43.600          50.500  
  23383831.517    -6596552.750 5  -5140160.986 3  23383830.568    23383832.772  
        30.200          22.100  
  20524583.776   -21755138.479 7 -16952045.484 7  20524582.526    20524580.134  
        46.800          44.700  
  21828920.903   -13793828.907 6 -10748424.195 6  21828920.244    21828920.717  
        41.400          36.600  
 06  6  7  0 11 30.0000000  0  9G 1G 3G 6G 7G13G16G20G23G25
  22905856.760    -6891127.076 5  -5369705.701 4  22905855.335    22905857.347  
        30.100          28.600  
  23315642.469    -6369602.649 4  -4963319.277 3  23315642.245    23315644.849  
        27.100          23.400  
  24206817.628    -2023273.996 3  -1576558.676 2  24206816.842    24206816.720  
        20.500          13.900  
  21908174.086   -13659096.376 6 -10643438.577 5  21908172.719    21908174.417  
        38.600          34.800  
  22527205.917   -10883464.359 5  -8480614.720 4  22527205.659    22527205.374  
        33.200          29.900  
  20241728.645   -22782499.586 7 -17752582.587 8  20241727.584    20241727.073  
        43.600          50.400  
  23399907.682    -6512075.770 5  -5074334.827 3  23399906.098    23399907.961  
        30.100          21.100  
  20518264.398   -21788347.298 7 -16977922.492 7  20518263.133    20518260.688  
        46.700          44.700  
  21839792.109   -13736700.430 6 -10703908.522 6  21839791.433    21839791.806  
        41.400          36.500  
 06  6  7  0 12  0.0000000  0  9G 1G 3G 6G 7G13G16G20G23G25
  22924687.208    -6792175.356 5  -5292600.515 4  22924685.575    22924687.343  
        30.600          28.600  
  23295034.722    -6477896.177 4  -5047703.779 3  23295034.510    23295037.184  
        26.500          21.100  
  24219349.508    -1957416.658 3  -1525241.237 1  24219348.902    24219348.768  
        19.900           9.000  
  21902096.881   -13691031.739 6 -10668323.236 5  21902095.674    21902097.250  
        39.100          35.100  
  22510248.715   -10972576.063 5  -8550052.395 4  22510248.415    22510247.561  
        33.200          28.600  
  20243105.190   -22775266.219 7 -17746946.185 8  20243104.049    20243103.512  
        43.500          50.300  
  23416035.413    -6427323.570 5  -5008294.216 3  23416033.966    23416035.700  
        30.200          22.100  
  20512049.046   -21821010.155 7 -17003374.071 7  20512047.696    20512045.210  
        46.800          44.800  
  21850703.490   -13679360.877 6 -10659228.375 6  21850702.787    21850703.281  
        40.700          36.500  
 06  6  7  0 12 30.0000000  0  9G 1G 3G 6G 7G13G16G20G23G25
  22943565.066    -6692965.257 5  -5215294.001 4  22943564.465    22943566.616  
        30.600          28.100  
  23274457.004    -6586034.994 4  -5131967.737 3  23274456.266    23274459.038  
        27.400          22.600  
  24231959.274    -1891151.982 3  -1473606.404 2  24231958.676    24231958.946  
        20.500          13.900  
  21896115.926   -13722460.548 6 -10692813.179 5  21896114.847    21896116.402  
        38.900          34.400  
  22493348.401   -11061388.418 5  -8619256.790 4  22493348.017    22493347.231  
        33.600          28.600  
  20244575.629   -22767539.205 7 -17740925.122 8  20244574.500    20244573.961  
        43.600          50.400  
  23432214.610    -6342299.131 5  -4942041.455 3  23432213.495    23432215.178  
        30.100          19.900  
  20505937.897   -21853125.186 7 -17028398.780 7  20505936.632    20505933.963  
        47.100          45.200  
  21861654.810   -13621810.436 6 -10614383.900 6  21861654.182    21861654.778  
        40.900          36.600  
 06  6  7  0 13  0.0000000  0  9G 1G 3G 6G 7G13G16G20G23G25
  22962493.230    -6593498.599 4  -5137787.591 4  22962492.231    22962494.296  
        29.700          27.900  
  23253907.951    -6694016.116 4  -5216108.843 3  23253908.285    23253910.830  
        26.200          23.400  
  24244645.872    -1824481.820 2  -1421655.652 2  24244645.105    24244646.154  
        17.000          12.600  
  21890231.919   -13753381.848 6 -10716907.665 5  21890230.784    21890232.302  
        39.300          34.800  
  22476505.543   -11149899.141 5  -8688226.145 4  22476505.058    22476504.268  
        34.300          29.700  
  20246139.810   -22759319.598 7 -17734520.218 8  20246138.734    20246138.110  
        43.600          50.400  
  23448445.774    -6257005.586 5  -4875579.001 3  23448444.512    23448446.283  
        30.800          21.600  
  20499931.193   -21884690.485 7 -17052995.122 7  20499929.879    20499927.283  
        47.000          45.200  
  21872646.457   -13564049.380 6 -10569375.316 6  21872645.814    21872646.450  
        40.700          36.700  
 06  6  7  0 13 30.0000000  0  9G 1G 3G 6G 7G13G16G20G23G25
  22981469.408    -6493777.394 5  -5060082.788 4  22981468.585    22981470.419  
        30.100          27.100  
  23233390.312    -6801836.294 4  -5300124.534 3  23233390.541    23233392.729  
        25.300          19.900  
  24257409.803    -1757408.362 3  -1369390.606 2  24257409.142    24257410.024  
        18.600          17.000  
  21884444.581   -13783793.953 6 -10740605.370 5  21884443.393    21884445.029  
        39.000          34.800  
  22459720.034   -11238105.595 5  -8756958.420 4  22459719.803    22459719.192  
        33.200          29.200  
  20247797.485   -22750608.352 7 -17727732.213 8  20247796.373    20247795.800  
        43.900          50.500  
  23464726.813    -6171446.005 5  -4808909.240 3  23464725.821    23464727.733  
        30.400          18.600  
  20494029.127   -21915704.557 7 -17077161.929 7  20494027.908    20494025.542  
        46.900          45.300  
  21883677.935   -13506077.959 6 -10524202.806 6  21883677.438    21883678.074  
        40.900          36.500  
 06  6  7  0 14  0.0000000  0  9G 1G 3G 6G 7G13G16G20G23G25
  23000494.374    -6393803.415 4  -4982181.043 4  23000493.292    23000495.407  
        29.900          28.800  
  23212904.276    -6909492.479 4  -5384012.448 3  23212904.427    23212906.668  
        27.400          19.900  
  24270250.367    -1689933.621 3  -1316812.891 3  24270249.492    24270250.157  
        20.500          19.900  
  21878754.421   -13813695.923 6 -10763905.574 5  21878753.258    21878754.827  
        39.500          35.200  
  22442993.102   -11326005.162 5  -8825451.538 4  22442992.947    22442992.092  
        33.500          29.900  
  20249548.433   -22741406.645 7 -17720562.032 8  20249547.295    20249546.806  
        43.800          50.500  
  23481058.808    -6085623.537 4  -4742034.652 2  23481057.450    23481059.295  
        29.700          17.800  
  20488232.674   -21946165.921 7 -17100898.054 7  20488231.264    20488228.935  
        46.700          45.300  
  21894749.787   -13447896.379 6 -10478866.533 6  21894749.092    21894749.677  
        40.700          36.300  
 06  6  7  0 14 30.0000000  0  9G 1G 3G 6G 7G13G16G20G23G25
  23019566.139    -6293578.513 4  -4904083.791 4  23019565.310    23019567.657  
        29.900          28.100  
  23192450.297    -7016981.895 4  -5467770.398 3  23192449.695    23192451.814  
        28.400          22.600  
  24283166.866    -1622059.586 3  -1263924.061 3  24283165.797    24283165.808  
        18.600          19.900  
  21873161.868   -13843086.490 6 -10786807.279 5  21873160.599    21873162.102  
        39.400          35.100  
  22426325.613   -11413594.748 5  -8893703.121 5  22426325.268    22426324.714  
        34.000          30.400  
  20251392.666   -22731715.653 7 -17713010.586 8  20251391.467    20251391.000  
        43.800          50.400  
  23497439.949    -5999541.354 5  -4674957.669 2  23497438.754    23497440.164  
        30.100          17.000  
  20482541.479   -21976072.977 7 -17124202.255 7  20482540.194    20482537.740  
        46.900          45.200  
  21905861.652   -13389504.870 6 -10433366.678 6  21905860.781    21905861.188  
        40.700          36.500  
 06  6  7  0 15  0.0000000  0  9G 1G 3G 6G 7G13G16G20G23G25
  23038685.504    -6193104.511 5  -4825792.426 4  23038685.072    23038687.100  
        30.200          28.600  
  23172028.333    -7124301.486 4  -5551396.041 3  23172027.595    23172029.912  
        26.800          21.600  
  24296157.203    -1553788.331 3  -1210725.716 2  24296156.460    24296157.026  
        23.400          17.000  
  21867666.318   -13871964.473 6 -10809309.570 5  21867665.169    21867666.819  
        39.400          34.900  
  22409717.548   -11500872.177 5  -8961711.476 5  22409717.018    22409716.400  
        34.500          30.200  
  20253329.750   -22721536.077 7 -17705078.421 8  20253328.607    20253328.185  
        43.800          50.600  
  23513869.744    -5913202.624 4  -4607680.800 2  23513868.281    23513869.970  
        29.500          17.800  
  20476956.418   -22005424.058 7 -17147073.220 7  20476955.075    20476952.316  
        47.000          45.200  
  21917012.973   -13330903.587 6 -10387703.357 5  21917012.256    21917012.466  
        40.700          35.900  
 06  6  7  0 15 30.0000000  0  9G 1G 3G 6G 7G13G16G20G23G25
  23057852.706    -6092383.264 4  -4747308.379 4  23057851.741    23057853.987  
        29.200          28.600  
  23151639.208    -7231448.163 4  -5634886.928 3  23151638.340    23151640.310  
        28.600          21.600  
  24309224.286    -1485121.739 3  -1157219.285 2  24309223.583    24309223.874  
        21.100          12.600  
  21862268.306   -13900328.648 6 -10831411.490 5  21862267.224    21862269.055  
        38.900          35.100  
  22393168.341   -11587834.936 5  -9029474.649 5  22393168.231    22393168.011  
        34.300          30.600  
  20255359.477   -22710869.303 7 -17696766.624 8  20255358.444    20255357.938  
        43.600          50.500  
  23530347.233    -5826610.533 4  -4540206.471 2  23530346.044    23530347.932  
        28.800          17.000  
  20471476.981   -22034217.613 7 -17169509.758 7  20471475.806    20471473.174  
        47.300          45.400  
  21928204.002   -13272092.877 6 -10341876.843 6  21928203.497    21928203.968  
        40.700          36.000  
 06  6  7  0 16  0.0000000  0  9G 1G 3G 6G 7G13G16G20G23G25
  23077066.606    -5991416.661 5  -4668633.190 4  23077065.357    23077067.548  
        30.200          29.700  
  23131283.475    -7338419.117 4  -5718240.881 3  23131282.296    23131284.677  
        26.800          22.600  
  24322366.783    -1416062.249 3  -1103406.708 1  24322365.728    24322365.161  
        19.900           9.000  
  21856968.961   -13928177.878 6 -10853112.151 5  21856967.754    21856969.499  
        39.100          34.800  
  22376680.640   -11674480.222 5  -9096990.412 4  22376680.299    22376679.447  
        34.400          29.000  
  20257481.830   -22699716.342 7 -17688075.985 8  20257480.724    20257480.196  
        43.900          50.400  
  23546872.815    -5739768.036 4  -4472537.048 2  23546871.173    23546873.646  
        27.600          16.100  
  20466104.263   -22062451.918 7 -17191510.513 7  20466102.939    20466100.423  
        47.200          45.400  
  21939435.367   -13213072.997 6 -10295887.342 6  21939434.693    21939435.084  
        40.700          36.200  
 06  6  7  0 16 30.0000000  0  9G 1G 3G 6G 7G13G16G20G23G25
  23096325.385    -5890206.407 4  -4589768.122 4  23096324.586    23096327.163  
        28.400          27.600  
  23110961.531    -7445211.240 4  -5801455.503 3  23110960.488    23110962.758  
        29.200          22.100  
  24335582.264    -1346611.515 3  -1049289.260 1  24335581.256    24335581.536  
        20.500          11.000  
  21851767.736   -13955510.947 6 -10874410.618 5  21851766.522    21851768.227  
        39.000          35.200  
  22360253.522   -11760805.329 5  -9164256.689 4  22360253.210    22360252.261  
        35.500          29.200  
  20259696.569   -22688078.177 7 -17679007.251 8  20259695.399    20259694.762  
        44.200          50.400  
  23563445.145    -5652678.389 4  -4404675.046 3  23563444.170    23563446.442  
        26.500          18.600  
  20460837.867   -22090125.727 7 -17213074.509 7  20460836.630    20460834.192  
        47.000          45.300  
  21950706.433   -13153844.062 6 -10249734.937 5  21950705.602    21950705.791  
        40.500          35.600  
 06  6  7  0 17  0.0000000  0  9G 1G 3G 6G 7G13G16G20G23G25
  23115630.437    -5788754.452 4  -4510714.717 4  23115629.888    23115632.766  
        27.900          26.500  
  23090675.100    -7551821.280 4  -5884528.232 4  23090673.700    23090675.620  
        28.100          24.900  
  24348872.286    -1276771.922 3   -994868.777 2  24348871.493    24348871.416  
        20.500          12.600  
  21846664.723   -13982326.898 6 -10895306.127 5  21846663.488    21846665.347  
        39.300          35.300  
  22343887.949   -11846807.962 5  -9231271.729 5  22343887.543    22343886.669  
        34.800          30.800  
  20262003.311   -22675956.098 7 -17669561.443 8  20262002.139    20262001.492  
        44.000          50.300  
  23580064.398    -5565344.669 4  -4336622.872 3  23580063.138    23580065.567  
        25.600          21.100  
  20455678.706   -22117237.361 7 -17234200.450 7  20455677.482    20455674.905  
        47.000          45.200  
  21962017.073   -13094406.387 6 -10203419.870 5  21962016.189    21962016.552  
        40.500          35.800  
 06  6  7  0 17 30.0000000  0  9G 1G 3G 6G 7G13G16G20G23G25
  23134981.980    -5687062.812 4  -4431474.544 4  23134981.575    23134984.081  
        28.400          27.600  
  23070422.405    -7658246.284 4  -5967456.775 4  23070421.339    23070423.390  
        27.600          24.600  
  24362235.715    -1206545.359 3   -940146.748 2  24362235.159    24362235.144  
        22.100          12.600  
  21841660.353   -14008624.566 6 -10915797.775 5  21841659.163    21841660.955  
        39.100          35.100  
  22327583.521   -11932485.224 5  -9298033.189 5  22327583.213    22327582.757  
        33.500          30.400  
  20264401.936   -22663351.044 7 -17659739.287 8  20264400.823    20264400.123  
        44.100          50.200  
  23596729.387    -5477770.029 4  -4268382.962 3  23596728.397    23596730.386  
        26.500          19.300  
  20450626.933   -22143785.500 7 -17254887.294 7  20450625.650    20450622.999  
        47.100          45.200  
  21973366.701   -13034760.212 6 -10156942.340 5  21973366.341    21973367.042  
        40.200          35.700  
 06  6  7  0 18  0.0000000  0  9G 1G 3G 6G 7G13G16G20G23G25
  23154379.101    -5585133.205 4  -4352048.948 4  23154378.484    23154380.728  
        27.900          27.100  
  23050206.423    -7764483.293 4  -6050238.832 3  23050205.141    23050207.023  
        28.800          22.600  
  24375672.630    -1135934.124 3   -885124.981 3  24375672.272    24375672.450  
        22.100          18.600  
  21836754.852   -14034402.922 6 -10935884.771 5  21836753.764    21836755.484  
        39.400          35.200  
  22311341.996   -12017834.293 5  -9364538.894 4  22311341.757    22311340.960  
        34.600          29.900  
  20266892.257   -22650264.350 7 -17649541.826 8  20266891.086    20266890.427  
        44.100          50.300  
  23613439.347    -5389957.839 4  -4199957.969 3  23613438.375    23613440.838  
        27.900          21.100  
  20445682.518   -22169768.526 7 -17275133.797 7  20445681.327    20445678.627  
        47.100          45.300  
  21984757.166   -12974905.792 6 -10110302.539 5  21984756.402    21984756.782  
        40.200          35.200  
 06  6  7  0 18 30.0000000  0  9G 1G 3G 6G 7G13G16G20G23G25
  23173820.726    -5482967.679 4  -4272439.515 4  23173819.850    23173822.347  
        28.600          26.500  
  23030026.547    -7870529.354 4  -6132872.112 3  23030025.371    23030027.194  
        28.800          23.800  
  24389181.777    -1064940.159 2   -829804.999 2  24389181.406    24389182.301  
        17.800          17.000  
  21831948.714   -14059660.758 6 -10955566.156 5  21831947.477    21831948.982  
        39.600          35.100  
  22295163.808   -12102852.865 5  -9430787.104 5  22295163.402    22295162.423  
        34.800          30.100  
  20269473.886   -22636697.164 7 -17638969.956 8  20269472.766    20269472.110  
        44.100          50.300  
  23630194.637    -5301911.007 4  -4131350.123 3  23630193.291    23630195.652  
        29.000          22.100  
  20440845.985   -22195184.895 7 -17294938.748 7  20440844.751    20440842.011  
        47.200          45.400  
  21996186.929   -12914843.347 6 -10063500.631 5  21996186.064    21996186.386  
        40.300          35.200  
 06  6  7  0 19  0.0000000  0  9G 1G 3G 6G 7G13G16G20G23G25
  23193307.610    -5380568.187 4  -4192647.777 4  23193306.104    23193308.120  
        27.600          24.900  
  23009883.283    -7976381.430 4  -6215354.241 4  23009881.977    23009884.270  
        28.800          24.200  
  24402764.263     -993565.735 3   -774188.588 2  24402763.728    24402764.313  
        20.500          17.000  
  21827241.651   -14084397.172 6 -10974841.238 5  21827240.312    21827241.743  
        39.000          35.100  
  22279048.512   -12187538.268 5  -9496775.683 5  22279048.274    22279047.503  
        34.900          31.500  
  20272146.913   -22622650.544 7 -17628024.499 8  20272145.733    20272145.036  
        43.900          50.200  
  23646993.653    -5213632.791 4  -4062561.972 3  23646992.291    23646994.423  
        29.700          19.900  
  20436117.334   -22220033.183 7 -17314301.035 7  20436116.127    20436113.604  
        47.100          45.500  
  22007655.890   -12854573.027 6 -10016536.745 5  22007654.954    22007655.421  
        39.800          35.500  
 06  6  7  0 19 30.0000000  0  9G 1G 3G 6G 7G13G16G20G23G25
  23212837.122    -5277936.639 4  -4112675.216 4  23212835.801    23212838.338  
        26.200          25.600  
  22989777.968    -8082036.593 4  -6297682.918 3  22989776.546    22989778.376  
        27.900          21.600  
  24416418.173     -921812.956 3   -718277.320 2  24416417.701    24416418.099  
        19.300          17.000  
  21822633.216   -14108611.164 6 -10993709.234 5  21822632.306    21822633.866  
        39.500          35.500  
  22262997.767   -12271888.097 5  -9562502.825 5  22262997.278    22262996.510  
        35.300          31.500  
  20274910.728   -22608125.807 7 -17616706.480 8  20274909.639    20274909.005  
        44.000          50.300  
  23663835.813    -5125126.076 4  -3993595.775 3  23663834.627    23663836.617  
        29.700          19.300  
  20431497.185   -22244312.228 7 -17333219.761 7  20431495.950    20431493.402  
        47.200          45.600  
  22019164.113   -12794095.119 6  -9969411.096 5  22019163.513    22019163.806  
        39.800          35.100  
 06  6  7  0 20  0.0000000  0  9G 1G 3G 6G 7G13G16G20G23G25
  23232410.833    -5175075.021 4  -4032523.378 4  23232410.163    23232412.811  
        28.400          26.200  
  22969710.324    -8187491.708 4  -6379855.721 4  22969709.194    22969711.172  
        28.600          24.200  
  24430144.626     -849683.885 3   -662072.863 2  24430143.886    24430144.186  
        21.100          16.100  
  21818125.052   -14132301.628 6 -11012169.286 5  21818124.043    21818125.725  
        39.300          34.600  
  22247011.014   -12355899.488 5  -9627966.220 5  22247010.602    22247009.612  
        35.700          32.000  
  20277765.336   -22593123.987 7 -17605016.712 8  20277764.293    20277763.685  
        44.000          50.100  
  23680720.623    -5036394.401 4  -3924454.256 2  23680719.598    23680721.820  
        28.400          17.800  
  20426985.956   -22268020.216 7 -17351693.491 7  20426984.650    20426981.818  
        47.300          45.400  
  22030712.087   -12733409.956 6  -9922123.955 5  22030711.542    22030711.855  
        39.900          34.800  
 06  6  7  0 20 30.0000000  0  9G 1G 3G 6G 7G13G16G20G23G25
  23252027.479    -5071985.173 4  -3952193.685 4  23252027.498    23252029.881  
        28.800          25.900  
  22949681.350    -8292743.722 4  -6461870.245 4  22949680.253    22949682.637  
        29.200          24.200  
  24443942.707     -777180.514 3   -605576.721 2  24443941.307    24443940.842  
        21.600          13.900  
  21813716.785   -14155467.636 6 -11030220.671 5  21813715.686    21813717.319  
        39.500          35.500  
  22231089.116   -12439569.786 6  -9693163.817 5  22231088.663    22231087.622  
        36.000          32.100  
  20280710.636   -22577646.595 7 -17592956.368 8  20280709.454    20280708.849  
        43.900          50.100  
  23697648.337    -4947440.688 4  -3855139.723 2  23697647.183    23697648.630  
        28.800          12.600  
  20422583.433   -22291156.025 7 -17369721.371 7  20422582.148    20422579.197  
        47.400          45.500  
  22042299.650   -12672517.685 6  -9874675.430 5  22042298.838    22042299.196  
        39.200          34.600  
 06  6  7  0 21  0.0000000  0  9G 1G 3G 6G 7G13G16G20G23G25
  23271687.995    -4968669.049 4  -3871687.665 4  23271687.749    23271690.221  
        28.400          26.500  
  22929691.829    -8397789.717 5  -6543724.246 4  22929690.795    22929693.001  
        30.200          24.900  
  24457809.354     -704305.347 3   -548790.909 1  24457808.412    24457808.755  
        21.100           9.000  
  21809408.788   -14178108.271 6 -11047862.672 5  21809407.360    21809408.812  
        39.500          35.500  
  22215232.181   -12522896.380 6  -9758093.603 5  22215231.959    22215231.124  
        36.200          32.000  
  20283746.247   -22561694.721 7 -17580526.297 8  20283745.159    20283744.315  
        44.100          50.000  
  23714617.217    -4858267.893 4  -3785654.484 2  23714616.017    23714617.895  
        26.500          17.800  
  20418289.782   -22313718.389 7 -17387302.412 7  20418288.467    20418285.777  
        47.400          45.600  
  22053926.444   -12611418.571 6  -9827065.719 5  22053925.613    22053925.817  
        39.500          34.300  
 06  6  7  0 21 30.0000000  0  9G 1G 3G 6G 7G13G16G20G23G25
  23291392.464    -4865128.594 4  -3791006.856 4  23291391.412    23291393.799  
        27.100          27.900  
  22909741.516    -8502626.325 4  -6625415.100 4  22909740.620    22909743.209  
        29.500          25.300  
  24471747.414     -631060.504 3   -491717.017 2  24471746.409    24471746.301  
        19.300          13.900  
  21805200.116   -14200222.772 6 -11065094.690 5  21805199.013    21805200.502  
        39.800          35.400  
  22199441.763   -12605877.044 6  -9822753.894 5  22199441.374    22199440.222  
        36.100          31.300  
  20286871.809   -22545269.453 7 -17567727.344 8  20286870.706    20286869.936  
        44.000          50.000  
  23731627.301    -4768879.801 4  -3716001.482 2  23731626.177    23731627.536  
        25.600          12.600  
  20414105.565   -22335706.023 7 -17404435.614 7  20414104.335    20414101.635  
        47.400          45.600  
  22065592.174   -12550112.913 6  -9779295.067 5  22065591.535    22065592.130  
        39.200          34.700  
 06  6  7  0 22  0.0000000  0  9G 1G 3G 6G 7G13G16G20G23G25
  23311137.488    -4761365.634 4  -3710152.696 4  23311136.406    23311139.232  
        25.900          27.600  
  22889832.094    -8607250.889 5  -6706940.692 4  22889831.504    22889833.667  
        30.100          25.600  
  24485754.101     -557448.126 3   -434356.745 1  24485753.724    24485754.264  
        19.300           6.500  
  21801092.069   -14221810.007 6 -11081915.850 5  21801091.087    21801092.607  
        39.700          35.600  
  22183717.265   -12688508.399 6  -9887141.927 5  22183716.955    22183716.035  
        36.700          31.800  
  20290087.231   -22528372.098 7 -17554560.539 8  20290086.058    20290085.375  
        44.000          50.000  
  23748678.052    -4679279.223 4  -3646182.930 2  23748676.612    23748678.616  
        24.900          13.900  
  20410031.236   -22357117.199 7 -17421119.626 7  20410029.940    20410027.148  
        47.300          45.600  
  22077297.523   -12488600.866 6  -9731363.596 5  22077296.850    22077297.446  
        38.900          34.400  
 06  6  7  0 22 30.0000000  0  9G 1G 3G 6G 7G13G16G20G23G25
  23330925.403    -4657382.260 4  -3629126.757 4  23330924.343    23330926.821  
        27.400          26.200  
  22869963.503    -8711660.114 4  -6788298.499 4  22869962.864    22869964.967  
        29.900          24.200  
  24499831.420     -483470.012 3   -376711.505 2  24499831.119    24499832.508  
        21.600          15.100  
  21797084.904   -14242869.073 6 -11098325.444 5  21797083.724    21797085.033  
        39.700          35.400  
  22168059.915   -12770788.249 6  -9951256.045 5  22168059.670    22168058.717  
        36.000          31.500  
  20293392.150   -22511003.983 7 -17541026.901 8  20293391.012    20293390.433  
        44.100          50.000  
  23765767.305    -4589469.186 4  -3576201.169 2  23765766.492    23765768.985  
        24.600          15.100  
  20406066.771   -22377950.661 7 -17437353.472 7  20406065.514    20406062.631  
        47.400          45.700  
  22089042.196   -12426882.742 6  -9683271.537 5  22089041.511    22089042.084  
        39.100          34.600  
 06  6  7  0 23  0.0000000  0  9G 1G 3G 6G 7G13G16G20G23G25
  23350753.937    -4553180.421 4  -3547930.590 4  23350752.957    23350755.583  
        27.600          24.900  
  22850136.140    -8815851.033 4  -6869486.184 4  22850135.763    22850138.071  
        29.000          25.600  
  24513978.117     -409128.755 2   -318783.310 2  24513978.006    24513979.230  
        17.000          15.100  
  21793177.838   -14263399.189 6 -11114322.866 5  21793176.684    21793178.304  
        39.800          35.200  
  22152469.838   -12852713.753 6 -10015093.996 5  22152469.514    22152468.660  
        36.000          31.800  
  20296786.376   -22493166.518 7 -17527127.540 8  20296785.284    20296784.812  
        44.000          50.100  
  23782897.706    -4499452.874 4  -3506058.654 2  23782896.567    23782898.496  
        25.900          16.100  
  20402212.379   -22398205.392 7 -17453136.363 7  20402211.185    20402208.311  
        47.600          45.600  
  22100826.102   -12364958.816 6  -9635019.118 5  22100825.415    22100825.768  
        39.200          34.400  
 06  6  7  0 23 30.0000000  0  9G 1G 3G 6G 7G13G16G20G23G25
  23370623.856    -4448762.060 4  -3466565.672 4  23370623.048    23370625.541  
        26.200          24.900  
  22830351.366    -8919820.560 4  -6950501.360 4  22830351.048    22830353.503  
        29.200          24.900  
  24528193.822     -334426.466 3   -260573.786 1  24528193.227    24528194.611  
        20.500           9.000  
  21789372.225   -14283399.585 6 -11129907.527 5  21789370.976    21789372.317  
        40.200          35.600  
  22136947.664   -12934282.882 6 -10078654.316 5  22136947.323    22136946.599  
        36.100          32.100  
  20300269.799   -22474860.752 7 -17512863.274 8  20300268.698    20300268.226  
        43.900          49.900  
  23800066.247    -4409233.508 4  -3435757.899 1  23800064.821    23800066.373  
        26.200           9.000  
  20398468.773   -22417880.105 7 -17468467.286 7  20398467.371    20398464.407  
        47.700          45.900  
  22112648.779   -12302829.281 6  -9586606.497 5  22112648.231    22112648.699  
        39.000          34.100  
 06  6  7  0 24  0.0000000  0  9G 1G 3G 6G 7G13G16G20G23G25
  23390534.676    -4344129.223 4  -3385033.649 3  23390533.979    23390536.374  
        26.200          22.100  
  22810610.662    -9023565.681 4  -7031341.664 4  22810609.284    22810611.177  
        29.700          25.300  
  24542478.679     -259365.229 3   -202084.520 1  24542477.543    24542478.334  
        21.100          11.000  
  21785667.029   -14302869.298 6 -11145078.664 6  21785665.825    21785667.437  
        40.000          36.100  
  22121493.989   -13015492.512 6 -10141934.451 5  22121493.711    22121492.999  
        36.600          32.600  
  20303842.099   -22456087.872 7 -17498235.019 8  20303841.060    20303840.546  
        44.100          50.000  
  23817271.989    -4318814.499 4  -3365301.600 2  23817270.789    23817272.825  
        27.100          13.900  
  20394835.086   -22436973.537 7 -17483345.271 7  20394833.798    20394831.065  
        47.500          45.700  
  22124510.884   -12240494.357 6  -9538033.825 5  22124510.077    22124510.522  
        38.900          34.800  
 06  6  7  0 24 30.0000000  0  9G 1G 3G 6G 7G13G16G20G23G25
  23410487.081    -4239283.825 4  -3303335.994 3  23410485.634    23410488.218  
        25.300          23.800  
  22790911.972    -9127083.461 5  -7112004.833 4  22790910.621    22790912.264  
        30.600          24.900  
  24556830.335     -183947.282 3   -143317.348 1  24556829.304    24556829.661  
        19.900          11.000  
  21782062.962   -14321807.722 6 -11159835.813 6  21782062.000    21782063.368  
        40.400          36.100  
  22106109.069   -13096340.132 6 -10204932.560 5  22106108.777    22106108.116  
        36.500          32.700  
  20307503.281   -22436849.281 7 -17483243.877 8  20307502.113    20307501.464  
        44.100          49.900  
  23834515.640    -4228198.574 4  -3294691.849 2  23834514.356    23834516.535  
        25.900          13.900  
  20391312.378   -22455484.372 7 -17497769.287 7  20391311.157    20391308.519  
        47.500          45.900  
  22136411.722   -12177954.392 6  -9489301.381 5  22136411.126    22136411.588  
        39.100          34.800  
 06  6  7  0 25  0.0000000  0  9G 1G 3G 6G 7G13G16G20G23G25
  23430479.014    -4134227.923 4  -3221474.313 4  23430477.426    23430479.972  
        27.400          25.300  
  22771256.821    -9230370.912 4  -7192488.509 4  22771255.335    22771257.862  
        29.900          26.200  
  24571248.823     -108174.892 3    -84273.920 1  24571248.083    24571248.315  
        19.300           9.000  
  21778560.568   -14340213.810 6 -11174178.159 5  21778559.355    21778560.714  
        40.200          35.900  
  22090793.846   -13176823.251 6 -10267646.641 5  22090793.490    22090792.477  
        36.900          32.000  
  20311252.571   -22417146.490 7 -17467891.025 8  20311251.479    20311250.717  
        44.100          49.800  
  23851796.447    -4137389.116 3  -3223931.305 2  23851794.878    23851797.372  
        23.400          17.800  
  20387901.061   -22473411.281 7 -17511738.286 7  20387899.825    20387897.145  
        47.500          45.900  
  22148351.580   -12115209.575 6  -9440409.326 5  22148351.081    22148351.643  
        38.900          34.500  
 06  6  7  0 25 30.0000000  0  9G 1G 3G 6G 7G13G16G20G23G25
  23450508.930    -4028963.485 4  -3139450.136 4  23450508.269    23450511.163  
        26.200          24.600  
  22751646.657    -9333424.869 5  -7272790.253 4  22751645.140    22751647.156  
        31.000          26.800  
  24585734.476      -32050.263 3    -24956.047 1  24585734.009    24585734.119  
        20.500           6.500  
  21775159.382   -14358086.746 6 -11188105.051 5  21775158.165    21775159.478  
        40.000          35.800  
  22075548.351   -13256939.064 6 -10330074.485 5  22075547.963    22075546.937  
        37.100          32.600  
  20315090.034   -22396980.605 7 -17452177.317 8  20315088.884    20315088.170  
        44.300          49.900  
  23869112.833    -4046389.338 4  -3153022.439 3  23869111.752    23869113.946  
        27.600          19.300  
  20384601.137   -22490753.365 7 -17525251.590 7  20384599.817    20384596.980  
        47.500          45.700  
  22160331.199   -12052260.149 6  -9391357.827 5  22160330.129    22160330.374  
        39.100          34.300  
 06  6  7  0 26  0.0000000  0  9G 1G 3G 6G 7G13G16G20G23G25
  23470578.445    -3923492.381 4  -3057264.891 4  23470578.820    23470581.495  
        27.100          24.900  
  22732080.270    -9436242.459 5  -7352907.823 4  22732079.460    22732081.454  
        31.300          27.400  
  24600287.832       44424.357 3     34634.523    24600287.146    24600287.302  
        21.100           3.000  
  21771859.507   -14375426.282 6 -11201616.320 6  21771858.521    21771860.037  
        40.100          36.100  
  22060372.927   -13336685.100 6 -10392214.232 5  22060372.708    22060371.938  
        37.500          33.200  
  20319015.240   -22376353.243 7 -17436104.015 8  20319014.145    20319013.414  
        44.300          49.800  
  23886465.475    -3955202.306 4  -3081967.644 2  23886464.142    23886466.570  
        27.600          17.800  
  20381412.397   -22507509.309 7 -17538308.164 7  20381411.126    20381408.379  
        47.500          46.000  
  22172348.177   -11989106.469 6  -9342147.178 5  22172347.665    22172348.139  
        38.800          33.900  
 06  6  7  0 26 30.0000000  0  9G 1G 3G 6G 7G13G16G20G23G25
  23490689.039    -3817816.408 4  -2974920.013 3  23490688.116    23490690.924  
        25.600          23.400  
  22712559.387    -9538820.550 5  -7432838.743 4  22712559.355    22712561.375  
        31.500          27.100  
  24614907.152      121246.840 3     94496.201 9  24614906.006    24614906.232  
        21.100          -3.000  
  21768661.594   -14392231.302 6 -11214711.083 6  21768660.483    21768662.036  
        40.300          36.500  
  22045268.953   -13416058.465 6 -10454063.553 5  22045268.546    22045267.553  
        37.400          33.200  
  20323028.154   -22355265.165 7 -17419671.720 8  20323026.989    20323026.284  
        44.400          49.800  
  23903852.893    -3863830.963 4  -3010769.237 2  23903851.432    23903854.231  
        26.200          17.000  
  20378335.610   -22523678.017 7 -17550907.152 7  20378334.395    20378331.591  
        47.400          45.800  
  22184405.045   -11925748.636 6  -9292777.443 5  22184404.335    22184404.657  
        39.000          33.800  
 06  6  7  0 27  0.0000000  0  9G 1G 3G 6G 7G13G16G20G23G25
  23510838.236    -3711937.633 4  -2892417.109 3  23510836.580    23510838.853  
        25.900          22.600  
  22693085.625    -9641156.184 5  -7512580.735 4  22693085.585    22693087.547  
        31.800          27.100  
  24629590.973      198414.677 3    154626.897 1  24629590.415    24629590.780  
        20.500           6.500  
  21765565.634   -14408501.104 6 -11227388.789 6  21765564.480    21765565.962  
        40.200          36.100  
  22030236.346   -13495056.833 6 -10515620.653 5  22030235.825    22030234.608  
        37.500          33.500  
  20327128.390   -22333718.095 7 -17402881.760 8  20327127.218    20327126.561  
        44.400          49.800  
  23921274.723    -3772278.558 4  -2939429.730 2  23921273.378    23921275.779  
        25.600          13.900  
  20375370.803   -22539258.233 7 -17563047.577 7  20375369.517    20375366.812  
        47.400          45.900  
  22196500.394   -11862186.885 6  -9243248.814 5  22196499.666    22196500.165  
        38.700          33.600  
 06  6  7  0 27 30.0000000  0  9G 1G 3G 6G 7G13G16G20G23G25
  23531024.397    -3605858.232 4  -2809757.901 4  23531022.707    23531025.541  
        24.900          24.200  
  22673659.086    -9743246.346 5  -7592131.452 4  22673658.197    22673660.342  
        30.100          26.200  
  24644341.269      275925.932 2    215025.256 9  24644340.686    24644340.470  
        17.000          -3.000  
  21762571.675   -14424235.112 6 -11239649.006 6  21762570.541    21762571.760  
        40.300          36.300  
  22015274.918   -13573677.641 6 -10576883.622 5  22015274.552    22015273.637  
        37.600          33.000  
  20331315.687   -22311713.529 7 -17385735.313 8  20331314.563    20331313.858  
        44.300          49.600  
  23938730.639    -3680548.565 4  -2867951.862 2  23938729.506    23938731.391  
        25.900          15.100  
  20372518.113   -22554248.664 7 -17574728.422 7  20372516.896    20372514.212  
        47.400          45.900  
  22208634.619   -11798421.649 6  -9193561.624 5  22208633.963    22208634.316  
        38.600          34.100  
 06  6  7  0 28  0.0000000  0  9G 1G 3G 6G 7G13G16G20G23G25
  23551247.801    -3499580.124 4  -2726943.828 4  23551246.647    23551249.402  
        25.300          24.900  
  22654280.367    -9845088.206 5  -7671488.710 4  22654278.928    22654280.236  
        31.000          25.300  
  24659156.219      353778.352 2    275689.433 2  24659155.196    24659155.730  
        17.000          12.600  
  21759679.664   -14439432.955 6 -11251491.422 6  21759678.396    21759679.728  
        40.200          36.500  
  22000386.120   -13651918.152 6 -10637850.181 5  22000385.728    22000384.860  
        37.500          34.100  
  20335589.816   -22289252.737 7 -17368233.362 8  20335588.715    20335587.923  
        44.400          49.700  
  23956219.437    -3588644.225 4  -2796338.154 2  23956218.065    23956220.166  
        24.600          16.100  
  20369778.139   -22568648.727 7 -17585949.249 7  20369776.708    20369774.034  
        47.300          46.000  
  22220807.340   -11734453.054 6  -9143715.969 5  22220806.625    22220807.210  
        38.200          33.900  
 06  6  7  0 28 30.0000000  0  9G 1G 3G 6G 7G13G16G20G23G25
  23571509.146    -3393105.497 4  -2643976.637 4  23571508.294    23571511.002  
        25.900          25.300  
  22634948.500    -9946678.666 5  -7750650.057 4  22634946.885    22634948.430  
        31.300          26.500  
  24674035.262      431969.559 2    336617.591 9  24674034.378    24674034.854  
        17.000          -3.000  
  21756889.496   -14454093.404 6 -11262915.089 6  21756888.453    21756889.805  
        40.200          36.100  
  21985570.153   -13729775.789 6 -10698518.437 5  21985569.820    21985568.746  
        38.100          33.400  
  20339950.494   -22266337.113 7 -17350376.999 8  20339949.425    20339948.606  
        44.700          49.700  
  23973740.774    -3496568.278 4  -2724590.710 2  23973739.536    23973741.881  
        25.600          17.000  
  20367150.113   -22582457.264 7 -17596709.138 7  20367148.879    20367146.347  
        47.200          46.200  
  22233019.119   -11670281.371 6  -9093712.072 5  22233018.085    22233018.389  
        37.700          33.000  
 06  6  7  0 29  0.0000000  0  9G 1G 3G 6G 7G13G16G20G23G25
  23591808.161    -3286436.320 4  -2560857.869 4  23591807.115    23591809.828  
        25.300          26.200  
  22615663.711   -10048014.582 5  -7829613.075 4  22615662.741    22615664.545  
        30.200          25.300  
  24688978.582      510497.080 2    397807.818    24688977.417    24688978.367  
        17.000           3.000  
  21754201.857   -14468216.399 6 -11273919.967 6  21754200.925    21754202.029  
        40.900          36.100  
  21970827.089   -13807247.962 6 -10758886.320 5  21970827.009    21970826.268  
        37.200          33.100  
  20344397.562   -22242967.878 7 -17332167.180 8  20344396.452    20344395.591  
        44.700          49.600  
  23991294.475    -3404323.900 4  -2652712.024 2  23991293.209    23991295.138  
        24.900          15.100  
  20364635.223   -22595672.943 7 -17607007.061 7  20364634.076    20364631.466  
        47.300          46.100  
  22245268.939   -11605906.895 6  -9043550.157 5  22245268.255    22245268.627  
        38.000          33.200  
 06  6  7  0 29 30.0000000  0  9G 1G 3G 6G 7G13G16G20G23G25
  23612143.942    -3179574.421 4  -2477588.941 4  23612142.478    23612145.126  
        25.600          25.900  
  22596428.885   -10149092.929 5  -7908375.354 4  22596428.053    22596429.937  
        30.800          27.400  
  24703986.239      589358.894 2    459258.489    24703985.284    24703985.368  
        13.900           3.000  
  21751617.318   -14481801.079 6 -11284505.384 5  21751616.056    21751616.908  
        40.600          35.700  
  21956158.550   -13884332.268 6 -10818952.015 5  21956158.267    21956157.701  
        37.700          33.800  
  20348930.420   -22219146.794 7 -17313605.257 8  20348929.299    20348928.566  
        44.400          49.500  
  24008879.785    -3311914.253 4  -2580704.550 2  24008878.229    24008880.374  
        25.600          12.600  
  20362233.717   -22608294.638 7 -17616842.142 7  20362232.343    20362229.617  
        47.400          46.100  
  22257557.346   -11541329.963 6  -8993230.477 5  22257556.687    22257557.339  
        38.000          34.000  
 06  6  7  0 30  0.0000000  0  8G 1G 3G 7G13G16G20G23G25
  23632514.175    -3072521.841 4  -2394171.410 3  23632513.545    23632516.306  
        25.600          22.100  
  22577243.811   -10249910.640 5  -7986934.560 4  22577243.113    22577245.291  
        31.100          27.900  
  21749134.487   -14494846.837 6 -11294670.870 5  21749133.435    21749134.493  
        40.600          35.800  
  21941564.581   -13961026.055 6 -10878713.380 5  21941564.178    21941563.277  
        37.900          33.500  
  20353549.022   -22194874.866 7 -17294692.034 8  20353548.003    20353547.365  
        44.300          49.400  
  24026495.602    -3219342.783 4  -2508570.956 2  24026494.334    24026496.039  
        24.900          12.600  
  20359944.803   -22620321.894 7 -17626214.023 7  20359943.488    20359940.764  
        47.300          45.900  
  22269884.470   -11476550.774 6  -8942753.201 5  22269883.792    22269884.505  
        38.100          34.000  
 06  6  7  0 30 30.0000000  0  8G 1G 3G 7G13G16G20G23G25
  23652920.378    -2965280.633 4  -2310606.851 3  23652920.310    23652923.742  
        24.200          21.100  
  22558109.815   -10350464.885 5  -8065288.460 4  22558108.369    22558110.307  
        31.500          27.600  
  21746754.159   -14507353.232 6 -11304416.066 6  21746753.273    21746754.401  
        40.500          36.000  
  21927045.147   -14037326.694 6 -10938168.411 5  21927044.837    21927043.622  
        38.100          33.400  
  20358253.599   -22170153.555 7 -17275428.636 8  20358252.470    20358251.621  
        44.700          49.400  
  24044140.744    -3126612.417 4  -2436313.561 2  24044140.017    24044142.591  
        24.900          17.800  
  20357769.453   -22631753.483 7 -17635121.753 7  20357768.144    20357765.406  
        47.300          46.100  
  22282250.187   -11411569.514 6  -8892118.467 5  22282249.410    22282249.864  
        38.100          33.000  
 06  6  7  0 31  0.0000000  0  8G 1G 3G 7G13G16G20G23G25
  23673365.107    -2857852.824 3  -2226896.929 3  23673363.798    23673367.070  
        23.400          23.000  
  22539025.946   -10450752.550 5  -8143434.655 4  22539024.275    22539026.068  
        31.000          27.900  
  21744477.144   -14519319.694 6 -11313740.532 6  21744476.102    21744477.431  
        40.400          36.300  
  21912600.828   -14113231.293 6 -10997314.795 5  21912600.483    21912599.272  
        38.100          33.400  
  20363042.971   -22144984.477 7 -17255816.336 8  20363041.895    20363041.069  
        44.500          49.200  
  24061816.609    -3033726.278 4  -2363934.802 2  24061815.980    24061818.247  
        26.500          15.100  
  20355707.593   -22642588.238 7 -17643564.410 7  20355706.367    20355703.669  
        47.300          46.000  
  22294653.922   -11346386.532 6  -8841326.544 5  22294653.273    22294653.757  
        37.600          33.500  
 06  6  7  0 31 30.0000000  0  8G 1G 3G 7G13G16G20G23G25
  23693842.790    -2750240.582 4  -2143043.283 3  23693841.962    23693844.355  
        24.900          19.900  
  22519992.483   -10550770.734 5  -8221370.855 4  22519991.195    22519993.074  
        31.600          27.600  
  21742302.984   -14530745.675 6 -11322643.847 5  21742301.787    21742303.040  
        40.300          35.900  
  21898232.391   -14188737.621 6 -11056150.875 5  21898232.048    21898231.031  
        38.400          34.100  
  20367917.361   -22119369.113 7 -17235856.274 8  20367916.305    20367915.487  
        44.600          49.200  
  24079521.626    -2940687.501 4  -2291437.086 2  24079520.429    24079522.815  
        25.600          15.100  
  20353759.769   -22652825.429 7 -17651541.432 7  20353758.394    20353755.541  
        47.400          46.100  
  22307096.535   -11281002.071 6  -8790377.618 5  22307095.702    22307096.186  
        37.800          33.400  
 06  6  7  0 32  0.0000000  0  8G 1G 3G 7G13G16G20G23G25
  23714354.615    -2642445.886 3  -2059047.479 3  23714354.617    23714357.218  
        23.800          22.100  
  22501010.431   -10650516.401 5  -8299094.698 4  22501010.077    22501012.061  
        32.100          28.600  
  21740231.199   -14541630.810 6 -11331125.724 5  21740230.296    21740231.621  
        40.100          35.900  
  21883940.506   -14263843.013 6 -11114674.513 5  21883940.116    21883939.038  
        38.600          34.500  
  20372876.541   -22093308.854 7 -17215549.540 8  20372875.365    20372874.547  
        44.600          49.100  
  24097255.126    -2847499.373 4  -2218823.000 2  24097253.750    24097255.945  
        27.400          12.600  
  20351925.232   -22662464.230 7 -17659052.179 7  20351924.021    20351921.441  
        47.100          46.200  
  22319576.887   -11215416.382 6  -8739271.904 5  22319576.115    22319576.796  
        37.700          33.000  
 06  6  7  0 32 30.0000000  0  8G 1G 3G 7G13G16G20G23G25
  23734902.190    -2534470.813 3  -1974911.110 3  23734901.728    23734904.370  
        23.800          22.600  
  22482081.532   -10749986.406 5  -8376603.732 4  22482081.368    22482083.668  
        31.800          28.400  
  21738262.807   -14551974.508 6 -11339185.697 6  21738261.887    21738263.117  
        40.500          36.300  
  21869725.056   -14338544.935 6 -11172883.796 5  21869724.782    21869723.749  
        38.700          34.300  
  20377919.890   -22066805.137 7 -17194897.252 8  20377918.823    20377917.947  
        44.500          48.900  
  24115015.520    -2754165.030 4  -2146094.971 1  24115014.727    24115017.158  
        24.900          11.000  
  20350205.333   -22671503.634 7 -17666095.868 7  20350203.901    20350201.275  
        47.200          46.300  
  22332095.456   -11149629.776 6  -8688009.625 5  22332094.861    22332095.418  
        37.600          33.500  
 06  6  7  0 33  0.0000000  0  8G 1G 3G 7G13G16G20G23G25
  23755483.228    -2426317.320 3  -1890635.712 3  23755482.191    23755485.307  
        23.000          22.100  
  22463207.251   -10849177.555 5  -8453895.491 4  22463206.237    22463207.887  
        33.400          27.900  
  21736397.617   -14561776.329 6 -11346823.439 6  21736396.662    21736397.907  
        40.500          36.000  
  21855586.770   -14412840.496 6 -11230776.399 5  21855586.682    21855585.801  
        38.900          34.900  
  20383047.659   -22039859.288 7 -17173900.459 8  20383046.493    20383045.548  
        44.600          49.000  
  24132804.323    -2660687.475 4  -2073255.351 2  24132803.038    24132805.180  
        24.900          13.900  
  20348599.414   -22679942.876 7 -17672671.890 7  20348598.079    20348595.406  
        47.200          46.200  
  22344652.305   -11083642.627 6  -8636591.084 5  22344651.764    22344652.467  
        37.400          33.100  
 06  6  7  0 33 30.0000000  0  8G 1G 3G 7G13G16G20G23G25
  23776097.868    -2317987.385 3  -1806222.841 3  23776096.527    23776099.329  
        23.000          19.300  
  22444385.401   -10948087.260 5  -8530967.934 4  22444384.207    22444386.174  
        32.700          29.000  
  21734635.411   -14571035.996 6 -11354038.717 6  21734634.353    21734635.932  
        40.400          36.500  
  21841526.790   -14486727.556 6 -11288350.707 5  21841526.508    21841525.594  
        38.800          35.100  
  20388258.917   -22012473.046 7 -17152560.503 8  20388257.819    20388256.999  
        44.500          48.900  
  24150618.523    -2567070.034 3  -2000306.745 1  24150617.661    24150620.147  
        22.100          11.000  
  20347107.769   -22687780.955 7 -17678779.475 7  20347106.535    20347103.828  
        47.400          46.200  
  22357247.624   -11017455.012 6  -8585016.342 5  22357246.974    22357247.308  
        37.300          32.800  
 06  6  7  0 34  0.0000000  0  8G 1G 3G 7G13G16G20G23G25
  23796745.787    -2209483.124 3  -1721674.123 3  23796744.533    23796747.469  
        23.000          22.100  
  22425617.600   -11046712.380 5  -8607818.607 4  22425616.383    22425618.330  
        32.300          28.800  
  21732976.646   -14579753.079 6 -11360831.205 6  21732975.713    21732976.953  
        40.200          36.400  
  21827544.905   -14560203.355 6 -11345604.535 5  21827544.464    21827543.511  
        38.700          34.800  
  20393553.881   -21984647.546 7 -17130878.265 8  20393552.759    20393551.988  
        44.500          49.000  
  24168460.013    -2473315.624 4  -1927251.417 2  24168458.563    24168461.018  
        24.600          13.900  
  20345730.788   -22695017.064 7 -17684417.999 7  20345729.531    20345726.765  
        47.100          46.100  
  22369880.934   -10951067.355 6  -8533285.718 5  22369880.188    22369880.571  
        37.400          33.100  
 06  6  7  0 34 30.0000000  0  8G 1G 3G 7G13G16G20G23G25
  23817425.205    -2100806.562 3  -1636991.116 3  23817424.519    23817427.678  
        22.600          22.600  
  22406904.101   -11145050.202 5  -8684445.419 4  22406903.304    22406905.179  
        32.700          28.400  
  21731421.338   -14587927.164 6 -11367200.586 6  21731420.368    21731421.233  
        40.600          36.100  
  21813641.343   -14633265.370 6 -11402535.953 5  21813641.054    21813640.167  
        38.600          34.800  
  20398932.148   -21956384.735 7 -17108855.277 8  20398930.989    20398930.174  
        44.700          48.800  
  24186325.931    -2379427.479 3  -1854091.883 1  24186324.563    24186327.340  
        22.600          11.000  
  20344468.492   -22701650.411 7 -17689586.840 7  20344467.228    20344464.515  
        47.400          46.400  
  22382551.809   -10884479.857 6  -8481399.391 5  22382551.188    22382552.051  
        36.800          33.200  
 06  6  7  0 35  0.0000000  0  8G 1G 3G 7G13G16G20G23G25
  23838138.783    -1991959.837 3  -1552175.526 3  23838137.626    23838140.613  
        21.600          20.500  
  22388246.979   -11243097.464 5  -8760845.820 4  22388245.826    22388247.351  
        33.200          29.000  
  21729969.215   -14595557.851 6 -11373146.541 6  21729968.268    21729969.263  
        40.700          36.200  
  21799817.245   -14705911.151 6 -11459143.017 5  21799816.918    21799816.156  
        38.700          34.800  
  20404393.534   -21927685.751 7 -17086492.421 8  20404392.291    20404391.349  
        44.600          48.800  
  24204217.401    -2285408.732 3  -1780830.560 1  24204215.928    24204218.545  
        21.100          11.000  
  20343320.952   -22707680.574 7 -17694285.667 7  20343319.753    20343317.146  
        47.500          46.400  
  22395261.200   -10817692.851 6  -8429357.606 5  22395260.436    22395261.013  
        36.600          32.600  
 06  6  7  0 35 30.0000000  0  8G 1G 3G 7G13G16G20G23G25
  23858884.164    -1882945.037 3  -1467228.979 3  23858882.811    23858885.219  
        23.000          21.100  
  22369644.549   -11340851.047 5  -8837017.374 4  22369643.445    22369645.547  
        32.100          29.000  
  21728620.801   -14602644.840 6 -11378668.837 6  21728619.606    21728620.776  
        40.500          36.500  
  21786072.942   -14778138.124 6 -11515423.754 5  21786072.673    21786071.715  
        39.100          34.800  
  20409937.030   -21898552.246 7 -17063790.970 8  20409936.028    20409935.293  
        44.600          48.700  
  24222132.462    -2191262.437 3  -1707469.869 1  24222131.377    24222134.030  
        22.600          11.000  
  20342288.495   -22713106.303 7 -17698513.507 7  20342287.210    20342284.615  
        47.300          46.400  
  22408008.144   -10750706.543 6  -8377160.511 5  22408007.603    22408008.014  
        36.900          31.600  
 06  6  7  0 36  0.0000000  0  8G 1G 3G 7G13G16G20G23G25
  23879660.181    -1773764.226 4  -1382153.077 3  23879659.100    23879662.366  
        24.600          22.100  
  22351099.292   -11438308.201 5  -8912957.945 4  22351098.070    22351099.726  
        33.500          28.100  
  21727375.470   -14609187.991 6 -11383767.358 6  21727374.454    21727375.644  
        40.300          36.500  
  21772408.889   -14849943.684 6 -11571376.139 5  21772408.620    21772407.410  
        39.300          35.200  
  20415563.620   -21868985.629 7 -17040752.034 8  20415562.457    20415561.638  
        44.600          48.700  
  24240071.920    -2096991.981 3  -1634012.424 2  24240070.548    24240072.814  
        22.100          12.600  
  20341371.006   -22717927.227 7 -17702270.072 7  20341369.839    20341367.124  
        47.400          46.200  
  22420793.288   -10683521.235 6  -8324808.364 5  22420792.528    22420793.044  
        36.300          32.300  
 06  6  7  0 36 30.0000000  0  8G 1G 3G 7G13G16G20G23G25
  23900466.781    -1664419.517 3  -1296949.439 3  23900466.656    23900470.287  
        23.800          21.100  
  22332610.942   -11535465.886 5  -8988665.179 4  22332609.792    22332611.104  
        33.600          29.700  
  21726233.722   -14615186.829 6 -11388441.738 6  21726232.765    21726234.024  
        40.300          36.700  
  21758825.382   -14921325.261 6 -11626998.121 5  21758825.014    21758824.131  
        39.400          35.600  
  20421272.013   -21838987.398 7 -17017376.781 8  20421270.980    20421270.113  
        44.700          48.700  
  24258034.245    -2002600.052 3  -1560460.337 2  24258032.629    24258035.421  
        21.600          15.100  
  20340568.987   -22722142.106 7 -17705554.395 7  20340567.670    20340565.029  
        47.100          46.200  
  22433615.880   -10616137.285 6  -8272301.422 5  22433615.324    22433615.827  
        36.500          32.300  
 06  6  7  0 37  0.0000000  0  8G 1G 3G 7G13G16G20G23G25
  23921306.706    -1554912.852 3  -1211619.626 3  23921305.461    23921308.230  
        23.000          22.100  
  22314179.158   -11632321.076 5  -9064136.697 4  22314178.553    22314179.997  
        33.600          29.500  
  21725195.670   -14620641.004 6 -11392691.708 6  21725194.810    21725196.100  
        40.200          36.700  
  21745322.729   -14992280.420 6 -11682287.799 5  21745322.531    21745321.760  
        39.100          35.500  
  20427062.218   -21808559.354 7 -16993666.607 8  20427061.175    20427060.358  
        44.700          48.600  
  24276018.898    -1908090.229 3  -1486816.395 2  24276017.215    24276019.807  
        23.400          15.100  
  20339881.931   -22725750.822 7 -17708366.384 7  20339880.809    20339878.385  
        47.100          46.300  
  22446476.347   -10548554.930 6  -8219639.881 5  22446475.660    22446476.244  
        36.200          31.300  
 06  6  7  0 37 30.0000000  0  8G 1G 3G 7G13G16G20G23G25
  23942174.974    -1445246.441 3  -1126165.360 3  23942174.264    23942177.171  
        20.500          19.900  
  22295806.825   -11728870.810 5  -9139370.204 5  22295805.684    22295807.599  
        33.900          30.400  
  21724261.532   -14625550.690 6 -11396517.405 6  21724260.474    21724261.852  
        40.300          36.700  
  21731902.231   -15062806.596 6 -11737243.220 5  21731901.918    21731900.853  
        39.300          35.100  
  20432934.155   -21777702.948 7 -16969622.643 8  20432933.001    20432932.057  
        44.700          48.400  
  24294024.846    -1813465.339 4  -1413082.774 1  24294023.972    24294026.254  
        25.900           6.500  
  20339311.118   -22728752.519 7 -17710705.374 7  20339309.812    20339307.170  
        47.300          46.300  
  22459374.488   -10480774.424 6  -8166823.950 5  22459373.891    22459374.655  
        36.000          31.800  
 06  6  7  0 38  0.0000000  0  8G 1G 3G 7G13G16G20G23G25
  23963073.418    -1335422.508 3  -1040588.328 3  23963072.923    23963075.993  
        21.100          19.900  
  22277492.994   -11825112.083 5  -9214363.338 5  22277491.810    22277493.597  
        34.500          30.400  
  21723430.706   -14629915.103 6 -11399918.212 6  21723429.689    21723431.182  
        40.000          36.800  
  21718563.782   -15132901.332 6 -11791862.484 5  21718563.486    21718562.165  
        39.400          35.200  
  20438887.014   -21746419.641 7 -16945246.041 8  20438885.962    20438885.051  
        45.000          48.300  
  24312053.719    -1718728.638 3  -1339262.019 1  24312052.118    24312054.037  
        23.400          11.000  
  20338855.570   -22731146.528 7 -17712570.838 7  20338854.262    20338851.580  
        47.300          46.400  
  22472310.532   -10412796.115 6  -8113853.873 5  22472309.810    22472310.360  
        36.000          31.500  
 06  6  7  0 38 30.0000000  0  8G 1G 3G 7G13G16G20G23G25
  23984003.250    -1225443.038 3   -954890.095 3  23984001.884    23984004.189  
        21.100          18.600  
  22259237.510   -11921042.137 5  -9289113.974 5  22259236.607    22259238.436  
        34.000          30.100  
  21722703.829   -14633734.392 6 -11402894.242 6  21722702.887    21722704.412  
        40.200          36.600  
  21705307.592   -15202562.071 6 -11846143.554 5  21705307.370    21705306.126  
        39.400          35.300  
  20444921.126   -21714710.882 7 -16920537.908 8  20444920.024    20444919.039  
        45.000          48.200  
  24330102.118    -1623883.233 4  -1265356.553 2  24330100.793    24330102.854  
        24.600          13.900  
  20338515.634   -22732932.244 7 -17713962.308 7  20338514.473    20338511.803  
        47.300          46.500  
  22485284.237   -10344620.305 5  -8060729.908 5  22485283.389    22485283.752  
        35.900          31.000  
 06  6  7  0 39  0.0000000  0  8G 1G 3G 7G13G16G20G23G25
  24004961.844    -1115309.898 3   -869072.122 2  24004960.046    24004962.162  
        21.600          17.800  
  22241042.245   -12016658.113 5  -9363619.871 5  22241041.473    22241043.249  
        33.600          30.200  
  21722080.964   -14637008.273 6 -11405445.279 6  21722080.090    21722081.317  
        40.400          36.600  
  21692135.086   -15271786.501 6 -11900084.670 5  21692134.642    21692133.161  
        39.700          35.100  
  20451035.873   -21682578.204 7 -16895499.451 8  20451034.777    20451033.673  
        44.900          48.200  
  24348170.569    -1528932.166 4  -1191368.773 1  24348169.240    24348171.770  
        24.600           9.000  
  20338291.756   -22734109.016 7 -17714879.277 7  20338290.498    20338287.934  
        47.300          46.400  
  22498295.296   -10276247.271 6  -8007452.264 5  22498294.458    22498294.831  
        36.300          31.000  
 06  6  7  0 39 30.0000000  0  8G 1G 3G 7G13G16G20G23G25
  24025947.646    -1005025.280 3   -783136.109 2  24025946.405    24025948.631  
        23.800          17.000  
  22222908.412   -12111956.674 5  -9437878.444 5  22222907.051    22222908.531  
        33.800          30.400  
  21721561.889   -14639736.636 6 -11407571.236 6  21721560.969    21721562.060  
        40.300          36.900  
  21679045.689   -15340571.582 6 -11953683.400 5  21679045.360    21679043.869  
        40.600          35.500  
  20457230.876   -21650023.469 7 -16870132.121 8  20457229.671    20457228.680  
        44.800          48.100  
  24366258.636    -1433878.450 4  -1117300.993 1  24366257.520    24366259.733  
        25.300          11.000  
  20338183.826   -22734676.289 7 -17715321.312 7  20338182.545    20338179.968  
        47.000          46.400  
  22511343.333   -10207677.337 5  -7954021.184 5  22511342.743    22511343.631  
        35.700          31.600  
 06  6  7  0 40  0.0000000  0  8G 1G 3G 7G13G16G20G23G25
  24046961.327     -894591.398 3   -697083.795 2  24046960.467    24046963.525  
        21.600          17.000  
  22204833.605   -12206935.027 5  -9511887.493 5  22204832.732    22204834.826  
        33.900          30.400  
  21721146.526   -14641919.260 6 -11409271.948 6  21721145.571    21721146.674  
        40.500          36.700  
  21666039.752   -15408915.184 6 -12006938.143 5  21666039.528    21666038.577  
        40.000          35.800  
  20463505.594   -21617048.047 7 -16844436.978 8  20463504.485    20463503.754  
        44.800          48.100  
  24384365.130    -1338725.313 3  -1043155.742 1  24384363.820    24384366.708  
        19.900          11.000  
  20338191.772   -22734633.821 7 -17715288.223 7  20338190.546    20338188.081  
        47.100          46.300  
  22524429.511   -10138910.737 5  -7900436.877 5  22524428.615    22524429.434  
        35.700          31.600  
 06  6  7  0 40 30.0000000  0  8G 1G 3G 7G13G16G20G23G25
  24068003.581     -784010.343 3   -610916.776 3  24068003.385    24068006.590  
        22.100          18.600  
  22186821.474   -12301590.222 5  -9585644.740 5  22186820.728    22186822.352  
        34.000          30.400  
  21720835.118   -14643556.213 6 -11410547.453 6  21720834.115    21720835.088  
        40.300          36.500  
  21653118.955   -15476814.816 6 -12059846.932 6  21653118.704    21653117.656  
        40.200          36.100  
  20469860.407   -21583653.615 7 -16818415.337 8  20469859.224    20469858.474  
        44.700          48.100  
  24402490.601    -1243475.686 3   -968935.323 1  24402489.278    24402492.398  
        21.600           9.000  
  20338316.172   -22733981.086 7 -17714779.608 7  20338314.911    20338312.315  
        47.300          46.500  
  22537552.483   -10069947.909 5  -7846699.649 5  22537551.978    22537552.505  
        35.700          30.800  
 06  6  7  0 41  0.0000000  0  8G 1G 3G 7G13G16G20G23G25
  24089075.222     -673284.179 3   -524636.685 3  24089074.564    24089077.037  
        23.400          18.600  
  22168871.511   -12395919.362 5  -9659147.916 5  22168870.508    22168872.059  
        34.900          30.600  
  21720627.515   -14644647.149 6 -11411397.498 6  21720626.405    21720627.536  
        40.400          36.500  
  21640283.414   -15544268.336 6 -12112408.105 6  21640282.937    21640281.740  
        40.200          36.200  
  20476294.468   -21549841.538 7 -16792068.261 7  20476293.397    20476292.690  
        44.700          47.900  
  24420634.772    -1148132.953 3   -894642.326 2  24420632.809    24420635.418  
        19.900          12.600  
  20338556.788   -22732717.253 7 -17713794.806 7  20338555.422    20338552.745  
        47.200          46.300  
  22550713.257   -10000788.934 5  -7792809.586 5  22550712.338    22550713.367  
        35.300          31.500  
 06  6  7  0 41 30.0000000  0  8G 1G 3G 7G13G16G20G23G25
  24110172.276     -562415.011 3   -438245.160 3  24110172.060    24110174.806  
        21.600          21.100  
  22150984.039   -12489919.521 5  -9732394.758 5  22150982.611    22150984.410  
        34.300          31.000  
  21720523.787   -14645192.103 6 -11411822.098 6  21720522.743    21720523.658  
        40.500          36.500  
  21627532.498   -15611272.932 6 -12164619.452 6  21627532.214    21627531.291  
        40.200          36.500  
  20482808.027   -21515613.498 7 -16765397.055 7  20482806.826    20482806.076  
        44.600          47.900  
  24438794.393    -1052700.056 3   -820279.098 2  24438793.610    24438795.709  
        21.100          15.100  
  20338913.528   -22730841.864 7 -17712333.474 7  20338912.269    20338909.587  
        47.500          46.400  
  22563910.543    -9931434.279 5  -7738767.041 5  22563910.173    22563911.098  
        34.900          31.600  
 06  6  7  0 42  0.0000000  0  8G 1G 3G 7G13G16G20G23G25
  24131297.564     -451404.884 3   -351743.792 3  24131296.281    24131299.589  
        21.600          20.500  
  22133158.771   -12583587.987 5  -9805383.122 5  22133157.944    22133159.683  
        35.100          30.200  
  21720524.057   -14645191.166 6 -11411821.330 6  21720522.980    21720523.745  
        40.300          36.300  
  21614867.814   -15677826.074 6 -12216479.056 6  21614867.569    21614866.537  
        40.600          36.200  
  20489400.240   -21480971.133 7 -16738402.995 7  20489399.162    20489398.263  
        45.100          47.800  
  24456970.780     -957180.062 2   -745847.974 1  24456969.733    24456972.678  
        17.800           9.000  
  20339386.953   -22728354.737 7 -17710395.462 7  20339385.643    20339382.906  
        47.300          46.200  
  22577146.109    -9861884.226 5  -7684572.248 5  22577145.193    22577146.002  
        35.200          31.300  
 06  6  7  0 42 30.0000000  0  8G 1G 3G 7G13G16G20G23G25
  24152447.805     -340255.870 3   -265134.229 3  24152447.065    24152450.331  
        23.000          20.500  
  22115398.138   -12676921.756 5  -9878110.679 5  22115397.106    22115399.002  
        35.600          31.300  
  21720627.773   -14644644.174 6 -11411395.060 6  21720626.904    21720627.764  
        40.500          36.700  
  21602289.799   -15743925.232 6 -12267984.887 6  21602289.374    21602288.253  
        40.300          36.500  
  20496070.923   -21445916.213 7 -16711087.464 7  20496069.845    20496068.965  
        44.900          47.700  
  24475164.149     -861576.141 3   -671351.470 1  24475163.072    24475165.334  
        19.900           6.500  
  20339976.776   -22725255.080 7 -17707980.151 7  20339975.537    20339972.805  
        47.400          46.200  
  22590417.419    -9792139.057 5  -7630225.409 5  22590417.217    22590417.964  
        34.900          31.000  
 06  6  7  0 43  0.0000000  0  8G 1G 3G 7G13G16G20G23G25
  24173623.846     -228970.212 3   -178418.151 3  24173624.096    24173627.389  
        19.900          19.300  
  22097701.964   -12769917.711 5  -9950575.014 5  22097700.647    22097702.214  
        35.200          31.300  
  21720836.113   -14643551.173 6 -11410543.332 6  21720835.053    21720835.978  
        40.400          36.900  
  21589798.138   -15809568.216 6 -12319135.272 6  21589797.831    21589796.795  
        40.500          36.500  
  20502819.846   -21410450.131 7 -16683451.537 7  20502818.759    20502817.946  
        44.900          47.700  
  24493372.556     -765891.249 3   -596791.887 1  24493371.202    24493374.730  
        20.500           6.500  
  20340683.384   -22721542.642 7 -17705087.350 7  20340682.086    20340679.298  
        47.500          46.300  
  22603727.944    -9722199.086 5  -7575726.791 5  22603726.660    22603727.192  
        34.800          30.400  
 06  6  7  0 43 30.0000000  0  8G 1G 3G 7G13G16G20G23G25
  24194828.208     -117549.915 3    -91597.160 2  24194826.696    24194829.721  
        19.300          16.100  
  22080069.868   -12862573.181 5 -10022774.044 5  22080068.853    22080070.344  
        35.700          31.000  
  21721147.869   -14641912.182 6 -11409266.156 6  21721146.878    21721148.100  
        40.100          37.300  
  21577394.101   -15874752.502 6 -12369928.241 6  21577393.769    21577392.713  
        40.600          36.600  
  20509646.664   -21374574.722 7 -16655496.660 7  20509645.676    20509644.752  
        45.100          47.600  
  24511595.496     -670128.462 3   -522171.554    24511594.469    24511596.770  
        19.300           3.000  
  20341506.387   -22717217.104 7 -17701716.798 7  20341505.135    20341502.436  
        47.600          46.400  
  22617072.863    -9652064.621 5  -7521076.600 5  22617072.678    22617073.210  
        34.800          30.100  
 06  6  7  0 44  0.0000000  0  8G 1G 3G 7G13G16G20G23G25
  24216055.457       -5997.190 3     -4672.993 3  24216054.012    24216057.766  
        19.900          19.300  
  22062502.870   -12954885.100 5 -10094705.363 5  22062502.224    22062504.040  
        35.500          31.000  
  21721563.476   -14639727.208 6 -11407563.537 6  21721562.475    21721563.740  
        40.200          37.300  
  21565077.858   -15939475.463 6 -12420361.707 6  21565077.504    21565076.321  
        40.800          37.000  
  20516551.357   -21338291.346 7 -16627223.885 7  20516550.199    20516549.189  
        45.000          47.700  
  24529832.982     -574290.953 3   -447493.028 9  24529831.573    24529833.608  
        20.500          -3.000  
  20342446.175   -22712278.146 7 -17697868.264 7  20342444.931    20342442.143  
        47.500          46.300  
  22630456.794    -9581735.998 5  -7466275.118 5  22630455.935    22630456.613  
        35.100          31.300  
 06  6  7  0 44 30.0000000  0  8G 1G 3G 7G13G16G20G23G25
  24237306.045      105685.774 3     82352.672 2  24237306.646    24237310.454  
        19.300          16.100  
  22045003.077   -13046850.439 5 -10166366.605 5  22045001.881    22045003.779  
        35.300          32.300  
  21722082.837   -14636996.235 6 -11405435.464 6  21722081.922    21722083.193  
        40.200          37.000  
  21552849.655   -16003734.991 6 -12470434.056 6  21552849.293    21552848.049  
        40.900          36.700  
  20523532.931   -21301601.878 7 -16598634.677 7  20523531.820    20523530.996  
        44.800          47.500  
  24548083.763     -478381.762 3   -372758.683 1  24548082.607    24548085.079  
        19.900           6.500  
  20343502.936   -22706725.448 7 -17693541.489 7  20343501.621    20343498.767  
        47.600          46.200  
  22643876.593    -9511213.519 5  -7411322.602 5  22643875.953    22643877.011  
        34.800          31.100  
 06  6  7  0 45  0.0000000  0  8G 1G 3G 7G13G16G20G23G25
  24258585.094      217496.872 3    169478.193 2  24258584.035    24258587.364  
        19.300          16.100  
  22027568.943   -13138466.535 5 -10237755.720 5  22027567.953    22027569.688  
        35.900          31.600  
  21722706.348   -14633719.527 6 -11402882.146 6  21722705.574    21722706.644  
        40.200          36.800  
  21540709.903   -16067528.649 6 -12520143.425 6  21540709.723    21540708.437  
        41.000          36.900  
  20530591.838   -21264507.801 7 -16569730.189 7  20530590.586    20530589.758  
        44.800          47.400  
  24566347.751     -382403.830 3   -297970.729 1  24566346.098    24566348.932  
        19.300          11.000  
  20344676.450   -22700558.611 7 -17688736.164 7  20344675.227    20344672.345  
        47.600          46.100  
  22657333.012    -9440497.609 5  -7356219.331 5  22657332.651    22657333.621  
        34.400          31.000  
 06  6  7  0 45 30.0000000  0  8G 1G 3G 7G13G16G20G23G25
  24279886.547      329434.125 3    256702.005 3  24279885.457    24279888.168  
        21.600          19.300  
  22010201.868   -13229730.458 5 -10308870.401 5  22010200.966    22010202.716  
        35.500          32.100  
  21723434.008   -14629897.038 6 -11399903.540 6  21723432.962    21723434.057  
        39.900          37.000  
  21528659.646   -16130853.935 6 -12569487.798 6  21528659.424    21528658.221  
        41.200          37.100  
  20537727.200   -21227010.708 7 -16540511.659 7  20537726.079    20537725.209  
        45.100          47.300  
  24584624.506     -286360.321 3   -223131.712    24584623.352    24584625.529  
        22.600           3.000  
  20345966.934   -22693777.581 7 -17683452.246 7  20345965.610    20345962.784  
        47.500          46.100  
  22670827.430    -9369588.464 5  -7300965.505 5  22670826.301    22670826.980  
        34.300          30.600  
 06  6  7  0 46  0.0000000  0  8G 1G 3G 7G13G16G20G23G25
  24301211.294      441495.160 3    344022.295 2  24301209.823    24301213.069  
        21.100          15.100  
  21992902.869   -13320639.311 5 -10379708.419 5  21992901.651    21992903.093  
        35.400          31.600  
  21724265.155   -14625528.893 6 -11396499.751 6  21724264.130    21724265.392  
        40.100          37.000  
  21516699.090   -16193708.275 6 -12618465.200 6  21516698.650    21516697.500  
        41.200          37.300  
  20544939.141   -21189112.175 7 -16510980.326 7  20544937.952    20544937.021  
        44.700          47.000  
  24602912.321     -190254.253 3   -148243.907 1  24602911.570    24602914.672  
        19.900           6.500  
  20347373.941   -22686382.158 7 -17677689.581 7  20347372.719    20347370.025  
        47.400          46.100  
  22684356.738    -9298486.545 5  -7245561.449 5  22684356.440    22684357.313  
        34.300          30.400  
 06  6  7  0 46 30.0000000  0  8G 1G 3G 7G13G16G20G23G25
  24322558.039      553677.982 2    431437.455 2  24322557.043    24322560.876  
        15.100          15.100  
  21975671.068   -13411190.294 6 -10450267.570 5  21975670.291    21975671.828  
        36.100          32.300  
  21725200.083   -14620615.424 6 -11392671.032 6  21725199.061    21725200.229  
        40.000          37.000  
  21504827.988   -16256089.478 6 -12667073.914 6  21504827.704    21504826.746  
        41.200          37.400  
  20552226.804   -21150814.017 7 -16481137.577 7  20552225.697    20552224.815  
        44.600          47.000  
  24621212.184      -94088.666 3    -73309.761 1  24621210.880    24621213.818  
        21.600           6.500  
  20348898.468   -22678371.809 7 -17671447.755 7  20348897.081    20348894.361  
        47.300          46.200  
  22697924.395    -9227192.041 5  -7190007.342 4  22697923.608    22697924.295  
        33.900          29.700  
 06  6  7  0 47  0.0000000  0  8G 1G 3G 7G13G16G20G23G25
  24343928.336      665980.543 3    518945.960 2  24343927.784    24343930.977  
        19.900          15.100  
  21958508.344   -13501380.576 5 -10520545.653 5  21958507.403    21958509.197  
        35.700          32.300  
  21726238.552   -14615156.561 6 -11388417.331 6  21726237.784    21726238.998  
        39.800          36.900  
  21493047.882   -16317995.237 6 -12715312.158 6  21493047.491    21493046.393  
        41.300          37.300  
  20559590.504   -21112118.036 7 -16450984.846 7  20559589.325    20559588.364  
        44.700          46.800  
  24639522.194        2133.263 3      1668.310 1  24639521.597    24639523.878  
        20.500           6.500  
  20350539.613   -22669746.377 7 -17664726.638 7  20350538.404    20350535.740  
        47.300          46.100  
  22711527.585    -9155705.345 5  -7134303.478 5  22711527.066    22711527.815  
        34.300          30.400  
 06  6  7  0 47 30.0000000  0  9G 1G 3G 7G13G16G19G20G23G25
  24365321.859      778400.812 3    606546.168 2  24365320.907    24365323.986  
        19.300          13.900  
  21941414.904   -13591207.299 5 -10590540.447 5  21941414.021    21941415.681  
        35.800          32.600  
  21727381.423   -14609152.536 6 -11383738.836 6  21727380.495    21727381.388  
        40.000          36.800  
  21481358.806   -16379423.025 6 -12763177.967 6  21481358.431    21481357.046  
        41.400          37.300  
  20567029.410   -21073025.623 7 -16420523.210 7  20567028.333    20567027.407  
        44.900          46.900  
  24568397.691     -194360.639 3   -151449.418 3  24568396.569    24568398.041  
        19.900          19.300  
  24657843.844       98408.868 3     76688.192    24657842.637    24657845.452  
        18.600           3.000  
  20352298.064   -22660505.691 7 -17657526.103 7  20352296.824    20352294.141  
        47.300          46.100  
  22725167.900    -9084026.783 5  -7078450.095 4  22725167.085    22725167.840  
        33.800          29.900  
 06  6  7  0 48  0.0000000  0  9G 1G 3G 7G13G16G19G20G23G25
  24386736.999      890936.573 3    694236.363 2  24386736.139    24386738.245  
        19.900          12.600  
  21924390.962   -13680667.559 6 -10660249.668 5  21924390.093    21924391.766  
        36.100          32.400  
  21728627.409   -14602603.668 6 -11378635.782 6  21728626.530    21728627.598  
        40.200          36.800  
  21469760.751   -16440370.549 6 -12810669.502 6  21469760.393    21469758.920  
        41.600          37.500  
  20574543.612   -21033538.596 7 -16389754.080 7  20574542.509    20574541.601  
        45.000          46.900  
  24547062.306     -306481.263 3   -238816.091 2  24547060.355    24547062.081  
        21.600          17.000  
  24676174.082      194734.554 3    151747.112 1  24676172.508    24676175.400  
        19.900           9.000  
  20354173.657   -22650649.538 7 -17649845.979 7  20354172.434    20354169.685  
        47.200          46.100  
  22738844.201    -9012156.720 5  -7022447.498 5  22738843.492    22738844.405  
        34.100          30.600  
 06  6  7  0 48 30.0000000  0  9G 1G 3G 7G13G16G19G20G23G25
  24408173.074     1003585.561 3    782014.795 2  24408172.201    24408175.172  
        20.500          15.100  
  21907438.335   -13769758.430 6 -10729671.069 5  21907436.969    21907438.307  
        36.200          33.200  
  21729977.455   -14595510.066 6 -11373108.266 6  21729976.426    21729977.410  
        40.200          36.900  
  21458254.387   -16500835.672 6 -12857785.214 6  21458254.041    21458252.844  
        41.600          37.400  
  20582132.651   -20993658.300 7 -16358678.498 7  20582131.519    20582130.605  
        44.900          46.700  
  24525728.874     -418590.559 3   -326173.959 2  24525726.403    24525728.151  
        22.100          15.100  
  24694513.597      291107.413 3    226842.764 9  24694512.304    24694514.142  
        21.600          -3.000  
  20356166.355   -22640177.917 7 -17641686.271 7  20356165.034    20356162.463  
        47.100          46.100  
  22752556.313    -8940095.431 5  -6966295.893 5  22752556.059    22752557.440  
        33.500          30.800  
 06  6  7  0 49  0.0000000  0  9G 1G 3G 7G13G16G19G20G23G25
  24429630.431     1116345.690 3    869879.830 3  24429629.757    24429632.799  
        18.600          19.300  
  21890554.934   -13858477.120 6 -10798802.460 5  21890554.295    21890555.523  
        37.200          33.000  
  21731430.684   -14587872.156 6 -11367156.610 6  21731429.802    21731430.688  
        40.000          36.700  
  21446840.442   -16560815.739 6 -12904522.889 6  21446840.151    21446838.997  
        41.300          37.700  
  20589795.871   -20953386.820 7 -16327298.104 7  20589794.888    20589794.002  
        45.100          46.800  
  24504398.166     -530685.953 3   -413520.972 2  24504395.994    24504397.087  
        23.000          16.100  
  24712860.892      387524.618 3    301973.012 9  24712859.545    24712861.723  
        19.300          -3.000  
  20358276.104   -22629090.724 7 -17633046.899 7  20358274.860    20358272.303  
        47.100          46.000  
  22766305.963    -8867843.377 5  -6909995.640 4  22766305.167    22766306.516  
        33.200          29.900  
 06  6  7  0 49 30.0000000  0  9G 1G 3G 7G13G16G19G20G23G25
  24451107.440     1229214.748 3    957829.729 3  24451107.556    24451110.985  
        19.300          18.600  
  21873743.876   -13946821.085 6 -10867641.845 5  21873742.824    21873744.218  
        36.800          33.100  
  21732987.742   -14579690.085 6 -11360780.941 6  21732986.832    21732987.690  
        40.200          36.600  
  21435519.508   -16620308.947 6 -12950881.246 6  21435519.062    21435517.852  
        41.300          37.700  
  20597533.712   -20912725.671 7 -16295614.068 7  20597532.541    20597531.532  
        45.100          46.600  
  24483070.074     -642764.714 3   -500855.050 3  24483067.280    24483069.309  
        23.800          18.600  
  24731215.804      483983.207 3    377135.492    24731214.321    24731217.220  
        18.600           3.000  
  20360503.060   -22617388.006 7 -17623927.893 7  20360501.835    20360499.214  
        47.100          46.000  
  22780091.301    -8795400.859 5  -6853546.969 4  22780090.706    22780091.810  
        33.500          29.700  
 06  6  7  0 50  0.0000000  0  9G 1G 3G 7G13G16G19G20G23G25
  24472607.896     1342190.564 2   1045862.818 2  24472606.285    24472609.373  
        13.900          16.100  
  21857004.392   -14034787.324 6 -10936186.901 5  21857003.394    21857004.859  
        36.800          33.100  
  21734648.282   -14570964.053 6 -11353981.397 6  21734647.381    21734647.980  
        40.300          36.900  
  21424291.398   -16679312.359 6 -12996857.900 6  21424291.066    21424289.988  
        41.400          37.700  
  20605344.890   -20871676.669 7 -16263627.814 7  20605343.842    20605342.896  
        45.200          46.700  
  24461744.772     -754824.197 3   -588174.101 2  24461743.338    24461744.792  
        23.800          13.900  
  24749578.829      580480.169 3    452327.882    24749577.657    24749580.740  
        19.900           3.000  
  20362847.086   -22605069.518 7 -17614329.067 7  20362845.873    20362843.426  
        47.100          46.100  
  22793913.194    -8722768.125 5  -6796950.065 4  22793912.539    22793913.252  
        33.900          29.500  
 06  6  7  0 50 30.0000000  0  8G 1G 3G 7G13G16G19G23G25
  24494126.522     1455271.016 2   1133977.425 2  24494125.732    24494127.852  
        13.900          16.100  
  21840337.121   -14122372.944 6 -11004435.365 5  21840336.345    21840337.828  
        36.800          32.800  
  21736412.410   -14561694.410 6 -11346758.268 6  21736411.403    21736411.994  
        40.500          36.800  
  21413156.955   -16737823.819 6 -13042451.216 6  21413156.707    21413155.669  
        41.800          38.300  
  20613229.951   -20830241.481 7 -16231340.638 7  20613228.724    20613227.759  
        45.300          46.500  
  24440424.796     -866861.883 3   -675476.179 2  24440422.898    24440424.671  
        20.500          12.600  
  20365308.432   -22592135.127 7 -17604250.317 7  20365307.300    20365304.769  
        47.100          46.000  
  22807771.376    -8649945.653 5  -6740205.324 4  22807770.273    22807771.274  
        33.200          29.900  
 06  6  7  0 51  0.0000000  0  8G 1G 3G 7G13G16G19G23G25
  24515663.296     1568453.934 3   1222171.886 2  24515662.933    24515666.129  
        19.900          12.600  
  21823743.804   -14209575.291 6 -11072385.182 5  21823742.401    21823743.645  
        37.200          33.200  
  21738279.696   -14551881.729 6 -11339111.989 6  21738278.570    21738279.332  
        40.600          37.000  
  21402116.895   -16795841.221 6 -13087659.594 6  21402116.542    21402115.274  
        41.900          38.200  
  20621187.765   -20788421.609 7 -16198753.706 7  20621186.652    20621185.764  
        45.100          46.500  
  24419110.082     -978874.784 3   -762758.910 2  24419108.155    24419109.602  
        22.600          17.000  
  20367887.154   -22578584.973 7 -17593691.752 7  20367885.838    20367883.111  
        47.000          45.900  
  22821664.310    -8576933.727 5  -6683312.957 4  22821663.807    22821664.636  
        33.100          28.600  
 06  6  7  0 51 30.0000000  0  8G 1G 3G 7G13G16G19G23G25
  24537221.458     1681737.277 2   1310444.633 1  24537220.224    24537222.746  
        17.000           9.000  
  21807222.311   -14296391.397 6 -11140034.037 5  21807221.491    21807222.968  
        37.000          33.200  
  21740249.914   -14541526.239 6 -11331042.737 6  21740249.104    21740250.007  
        40.700          37.200  
  21391170.800   -16853362.005 6 -13132480.943 6  21391170.518    21391169.368  
        41.900          38.300  
  20629218.687   -20746218.780 7 -16165868.361 7  20629217.600    20629216.656  
        45.300          46.300  
  24397799.573    -1090860.440 3   -850020.426 2  24397797.970    24397799.442  
        22.600          17.800  
  20370582.468   -22564418.962 7 -17582653.296 7  20370581.313    20370578.837  
        46.900          45.700  
  22835594.708    -8503732.749 5  -6626273.266 4  22835593.632    22835594.374  
        32.600          28.400  
 06  6  7  0 52  0.0000000  0  8G 1G 3G 7G13G16G19G23G25
  24558795.829     1795118.851 2   1398793.889 1  24558795.645    24558798.260  
        17.000           9.000  
  21790776.021   -14382818.645 6 -11207379.876 5  21790774.986    21790776.681  
        37.200          34.000  
  21742323.963   -14530628.158 6 -11322550.690 6  21742322.961    21742323.814  
        40.500          37.200  
  21380319.976   -16910384.159 7 -13176913.773 6  21380319.633    21380318.287  
        42.000          38.100  
  20637322.290   -20703634.348 7 -16132685.668 7  20637321.126    20637320.200  
        45.000          46.300  
  24376494.962    -1202815.952 3   -937258.454 2  24376493.867    24376494.894  
        21.600          17.000  
  20373395.433   -22549637.399 7 -17571135.191 7  20373394.221    20373391.810  
        46.900          46.000  
  22849560.257    -8430343.020 5  -6569086.506 4  22849559.215    22849559.892  
        32.300          27.900  
 06  6  7  0 52 30.0000000  0  8G 1G 3G 7G13G16G19G23G25
  24580390.713     1908596.449 3   1487217.994 2  24580389.614    24580392.744  
        18.600          12.600  
  21774403.925   -14468854.303 6 -11274420.590 5  21774402.906    21774404.336  
        37.300          33.500  
  21744501.171   -14519187.982 6 -11313636.220 6  21744500.050    21744500.846  
        40.200          37.400  
  21369564.362   -16966905.526 7 -13220956.394 6  21369563.953    21369562.634  
        42.000          38.100  
  20645497.908   -20660670.539 7 -16099207.355 7  20645496.767    20645495.903  
        45.000          46.200  
  24355197.776    -1314738.868 3  -1024471.090 2  24355195.769    24355196.715  
        21.600          17.800  
  20376325.536   -22534240.242 7 -17559137.404 7  20376324.331    20376321.846  
        47.000          46.100  
  22863560.521    -8356764.911 5  -6511752.943 4  22863560.538    22863561.288  
        32.000          27.400  
 06  6  7  0 53  0.0000000  0  8G 1G 3G 7G13G16G19G23G25
  24602001.790     2022168.033 3   1575715.296 2  24602001.226    24602004.940  
        18.600          12.600  
  21758106.483   -14554495.333 6 -11341153.787 5  21758105.761    21758107.291  
        37.100          33.900  
  21746780.995   -14507206.235 6 -11304299.745 6  21746780.014    21746780.940  
        40.600          37.400  
  21358904.301   -17022923.722 7 -13264606.930 6  21358904.054    21358902.825  
        42.300          38.400  
  20653745.542   -20617329.000 7 -16065434.704 7  20653744.372    20653743.487  
        44.900          46.100  
  24333905.938    -1426626.637 3  -1111656.333 2  24333903.774    24333904.841  
        22.600          17.800  
  20379372.585   -22518227.760 7 -17546660.142 7  20379371.379    20379368.845  
        47.100          46.000  
  22877598.092    -8282998.815 5  -6454272.901 4  22877597.705    22877598.946  
        32.300          28.100  
 06  6  7  0 53 30.0000000  0  7G 3G 7G13G16G19G23G25
  21741885.465   -14639739.051 6 -11407577.414 5  21741884.476    21741885.754  
        37.400          33.800  
  21749163.917   -14494683.298 6 -11294541.571 6  21749162.995    21749164.014  
        40.700          37.300  
  21348340.506   -17078436.401 7 -13307863.562 6  21348340.210    21348339.122  
        42.100          38.500  
  20662064.675   -20573611.531 7 -16031369.119 7  20662063.469    20662062.591  
        44.800          46.100  
  24312621.595    -1538476.264 3  -1198811.847 2  24312619.171    24312620.541  
        22.600          15.100  
  20382536.825   -22501599.746 7 -17533703.242 7  20382535.598    20382532.977  
        47.100          45.800  
  22891671.998    -8209045.140 5  -6396646.691 4  22891670.993    22891671.705  
        32.100          28.400  
 06  6  7  0 54  0.0000000  0  7G 3G 7G13G16G19G23G25
  21725740.471   -14724582.885 6 -11473689.433 5  21725739.453    21725740.665  
        38.100          34.100  
  21751649.685   -14481619.601 6 -11284362.026 6  21751648.888    21751649.766  
        40.600          37.300  
  21337873.392   -17133441.274 7 -13350724.479 6  21337873.062    21337871.953  
        42.200          38.700  
  20670455.019   -20529519.711 7 -15997011.836 7  20670453.857    20670452.955  
        44.800          45.900  
  24291343.559    -1650285.100 3  -1285935.569 2  24291343.083    24291344.333  
        21.100          16.100  
  20385818.061   -22484356.489 7 -17520266.932 7  20385816.839    20385814.296  
        46.900          45.800  
  22905780.280    -8134904.244 5  -6338874.599 4  22905779.438    22905780.493  
        31.800          28.800  
 06  6  7  0 54 30.0000000  0  7G 3G 7G13G16G19G23G25
  21709672.061   -14809024.024 6 -11539487.672 5  21709670.928    21709671.891  
        38.100          34.100  
  21754238.664   -14468015.399 6 -11273761.293 6  21754237.602    21754238.362  
        40.700          37.200  
  21327503.445   -17187936.490 7 -13393188.273 6  21327503.108    21327501.883  
        42.100          38.600  
  20678916.423   -20485054.912 7 -15962363.906 7  20678915.271    20678914.288  
        45.100          45.800  
  24270075.616    -1762050.423 3  -1373025.378 3  24270074.609    24270075.857  
        21.100          19.300  
  20389216.453   -22466498.140 7 -17506351.326 7  20389215.187    20389212.614  
        47.000          45.600  
  22919924.437    -8060576.383 5  -6280956.830 4  22919923.556    22919924.628  
        32.400          29.000  
 06  6  7  0 55  0.0000000  0  7G 3G 7G13G16G19G23G25
  21693680.158   -14893059.804 6 -11604970.038 5  21693679.120    21693680.500  
        38.100          34.100  
  21756930.087   -14453871.588 6 -11262740.095 6  21756929.143    21756929.863  
        40.200          37.200  
  21317230.735   -17241919.589 7 -13435253.045 6  21317230.494    21317229.343  
        42.400          39.100  
  20687448.268   -20440219.204 7 -15927426.971 7  20687447.172    20687446.255  
        45.100          45.800  
  24248816.631    -1873769.604 3  -1460079.214 3  24248814.842    24248816.045  
        23.400          18.600  
  20392731.911   -22448024.885 7 -17491956.575 7  20392730.651    20392727.897  
        47.000          45.500  
  22934104.332    -7986062.165 5  -6222893.827 4  22934103.438    22934103.861  
        32.400          27.900  
 06  6  7  0 55 30.0000000  0  7G 3G 7G13G16G19G23G25
  21677766.347   -14976687.579 6 -11670134.488 5  21677765.316    21677766.533  
        38.400          34.400  
  21759724.039   -14439188.468 6 -11251298.651 6  21759723.170    21759723.926  
        40.300          37.300  
  21307055.952   -17295388.327 7 -13476916.979 6  21307055.619    21307054.682  
        42.000          39.400  
  20696050.453   -20395014.459 7 -15892202.480 7  20696049.296    20696048.414  
        45.200          45.800  
  24227566.664    -1985439.856 4  -1547094.945 3  24227564.896    24227565.974  
        24.600          19.300  
  20396364.200   -22428936.883 7 -17477082.801 7  20396362.899    20396360.188  
        46.900          45.700  
  22948318.534    -7911361.742 5  -6164685.723 4  22948318.295    22948319.037  
        32.000          27.100  
 06  6  7  0 56  0.0000000  0  7G 3G 7G13G16G19G23G25
  21661930.600   -15059904.556 6 -11734978.834 5  21661929.494    21661930.863  
        38.300          34.300  
  21762620.616   -14423966.631 6 -11239437.427 6  21762619.604    21762620.513  
        40.200          37.400  
  21296979.273   -17348340.642 7 -13518178.510 6  21296979.008    21296978.268  
        42.100          39.700  
  20704722.411   -20349442.119 7 -15856691.535 7  20704721.355    20704720.526  
        45.100          45.600  
  24206326.339    -2097058.414 3  -1634070.399 2  24206324.218    24206325.475  
        23.000          17.800  
  20400113.338   -22409234.328 7 -17461730.155 7  20400112.118    20400109.515  
        47.000          45.600  
  22962568.975    -7836475.636 5  -6106332.945 4  22962568.267    22962569.513  
        31.500          28.400  
 06  6  7  0 56 30.0000000  0  7G 3G 7G13G16G19G23G25
  21646173.212   -15142707.946 6 -11799500.907 5  21646172.242    21646173.964  
        37.900          34.900  
  21765619.685   -14408206.766 6 -11227156.962 6  21765618.562    21765619.494  
        39.800          37.000  
  21287001.621   -17400774.395 7 -13559035.956 6  21287001.297    21287000.325  
        42.400          39.300  
  20713464.358   -20303503.931 7 -15820895.511 7  20713463.177    20713462.260  
        45.000          45.600  
  24185097.758    -2208622.838 4  -1721003.659 3  24185094.993    24185095.786  
        24.600          21.100  
  20403979.432   -22388917.761 7 -17445899.061 7  20403978.154    20403975.551  
        46.800          45.500  
  22976854.927    -7761404.141 5  -6047835.708 4  22976854.137    22976855.406  
        31.500          29.200  
 06  6  7  0 57  0.0000000  0  7G 3G 7G13G16G19G23G25
  21630495.679   -15225095.094 6 -11863698.630 5  21630494.622    21630495.924  
        38.400          34.500  
  21768720.931   -14391909.121 6 -11214457.450 6  21768719.921    21768720.886  
        40.000          37.500  
  21277122.933   -17452687.412 7 -13599487.627 6  21277122.493    21277121.454  
        42.200          39.500  
  20722275.322   -20257201.493 7 -15784815.658 7  20722274.193    20722273.275  
        45.000          45.500  
  24163877.205    -2320130.309 4  -1807892.536 3  24163875.802    24163876.734  
        24.600          19.900  
  20407962.455   -22367987.457 7 -17429589.730 7  20407961.237    20407958.418  
        46.900          45.500  
  22991175.581    -7686147.778 5  -5989194.422 4  22991175.027    22991176.361  
        30.400          28.100  
 06  6  7  0 57 30.0000000  0  7G 3G 7G13G16G19G23G25
  21614897.736   -15307063.369 6 -11927569.973 5  21614896.801    21614897.651  
        38.900          34.600  
  21771924.481   -14375074.782 6 -11201339.737 6  21771923.494    21771924.250  
        40.100          37.400  
  21267343.584   -17504077.840 7 -13639532.102 6  21267343.252    21267342.041  
        42.400          39.300  
  20731155.160   -20210536.945 7 -15748453.647 7  20731154.016    20731153.100  
        44.900          45.200  
  24142669.969    -2431578.014 3  -1894734.836 2  24142667.490    24142668.495  
        23.400          17.800  
  20412062.251   -22346443.624 7 -17412802.318 7  20412060.958    20412058.095  
        47.100          45.500  
  23005531.606    -7610706.782 5  -5930409.255 4  23005531.186    23005531.702  
        32.600          26.800  
 06  6  7  0 58  0.0000000  0  7G 3G 7G13G16G19G23G25
  21599379.683   -15388610.100 6 -11991112.834 5  21599378.834    21599379.909  
        38.400          34.600  
  21775230.022   -14357703.873 6 -11187803.911 6  21775228.978    21775229.675  
        40.100          37.100  
  21257664.204   -17554943.084 7 -13679167.346 6  21257663.877    21257662.639  
        42.500          39.400  
  20740103.908   -20163511.629 7 -15711810.514 7  20740102.732    20740101.743  
        45.100          45.200  
  24121473.751    -2542963.288 3  -1981528.519 3  24121471.642    24121472.572  
        23.000          19.300  
  20416278.630   -22324286.589 7 -17395537.090 7  20416277.403    20416274.522  
        47.200          45.600  
  23019922.653    -7535081.656 5  -5871480.612 4  23019921.966    23019922.734  
        31.000          26.200  
 06  6  7  0 58 30.0000000  0  7G 3G 7G13G16G19G23G25
  21583942.730   -15469732.633 6 -12054325.145 5  21583941.671    21583942.799  
        38.500          34.700  
  21778637.190   -14339797.462 6 -11173850.818 6  21778636.223    21778636.941  
        39.900          37.100  
  21248085.120   -17605281.333 7 -13718391.960 6  21248084.785    21248083.719  
        42.300          39.500  
  20749120.846   -20116127.358 7 -15674887.681 7  20749119.747    20749118.690  
        45.100          45.100  
  24100290.266    -2654283.400 3  -2068271.366 3  24100287.966    24100288.656  
        22.100          21.100  
  20420611.505   -22301516.723 7 -17377794.330 7  20420610.221    20420607.405  
        47.100          45.500  
  23034348.292    -7459272.842 5  -5812408.832 4  23034347.871    23034348.823  
        31.300          26.800  
 06  6  7  0 59  0.0000000  0  7G 3G 7G13G16G19G23G25
  21568586.958   -15550428.546 6 -12117205.036 5  21568585.877    21568586.851  
        38.900          35.200  
  21782146.723   -14321355.882 6 -11159480.705 6  21782145.581    21782146.305  
        40.000          37.200  
  21238606.717   -17655090.395 7 -13757204.203 6  21238606.430    21238605.395  
        42.700          39.500  
  20758205.575   -20068386.067 7 -15637686.657 7  20758204.547    20758203.503  
        45.100          45.000  
  24079118.796    -2765535.411 4  -2154961.164 3  24079117.531    24079118.158  
        24.200          19.300  
  20425060.965   -22278134.309 7 -17359574.259 7  20425059.759    20425056.905  
        46.900          45.500  
  23048808.931    -7383280.590 5  -5753194.110 4  23048808.651    23048809.284  
        30.800          25.300  
 06  6  7  0 59 30.0000000  0  7G 3G 7G13G16G19G23G25
  21553312.582   -15630695.101 6 -12179750.358 5  21553311.554    21553312.502  
        38.900          34.800  
  21785757.539   -14302379.838 6 -11144694.135 6  21785756.659    21785757.291  
        40.100          37.100  
  21229229.704   -17704368.298 7 -13795602.545 6  21229229.292    21229228.002  
        42.700          39.500  
  20767358.093   -20020289.497 7 -15600208.794 7  20767357.025    20767356.048  
        45.100          45.100  
  24057961.841    -2876716.755 4  -2241595.902 3  24057960.143    24057960.961  
        24.600          20.500  
  20429626.904   -22254139.978 7 -17340877.371 7  20429625.586    20429622.941  
        46.900          45.500  
  23063304.994    -7307105.381 5  -5693836.833 4  23063304.479    23063305.411  
        31.100          26.500  
 06  6  7  1  0  0.0000000  0  7G 3G 7G13G16G19G23G25
  21538120.270   -15710529.585 6 -12241959.009 5  21538119.370    21538120.575  
        38.700          34.900  
  21789470.087   -14282870.236 6 -11129491.789 6  21789469.066    21789469.858  
        40.000          36.700  
  21219953.827   -17753112.885 7 -13833585.322 6  21219953.451    21219952.156  
        42.900          39.700  
  20776577.807   -19971839.148 7 -15562455.254 7  20776576.715    20776575.907  
        45.100          45.000  
  24036818.384    -2987824.338 4  -2328173.141 3  24036817.040    24036818.181  
        25.300          22.100  
  20434309.031   -22229534.060 7 -17321703.919 7  20434307.842    20434305.319  
        46.800          45.400  
  23077834.821    -7230747.689 5  -5634337.352 4  23077834.624    23077836.133  
        31.100          27.600  
 06  6  7  1  0 30.0000000  0  7G 3G 7G13G16G19G23G25
  21523011.377   -15789929.355 6 -12303828.918 5  21523010.092    21523011.032  
        38.900          34.600  
  21793283.806   -14262827.782 6 -11113874.255 6  21793282.867    21793283.721  
        39.800          36.800  
  21210779.795   -17801322.217 7 -13871151.021 6  21210779.468    21210778.216  
        43.000          39.500  
  20785864.593   -19923036.874 7 -15524427.492 7  20785863.464    20785862.644  
        45.200          45.200  
  24015690.306    -3098856.079 3  -2414691.280 3  24015688.156    24015689.480  
        23.400          21.600  
  20439107.822   -22204317.097 7 -17302054.334 7  20439106.580    20439103.834  
        46.800          45.300  
  23092400.830    -7154207.816 5  -5574695.939 4  23092400.086    23092401.124  
        31.300          27.100  
 06  6  7  1  1  0.0000000  0  8G 3G 7G13G16G19G23G25G27
  21507984.618   -15868891.726 6 -12365358.001 5  21507983.965    21507985.080  
        39.300          35.300  
  21797199.090   -14242253.049 6 -11097841.949 6  21797198.169    21797198.767  
        40.100          37.000  
  21201708.341   -17848994.042 7 -13908297.872 6  21201707.877    21201706.573  
        42.800          39.500  
  20795218.149   -19873884.431 7 -15486126.871 7  20795216.936    20795216.010  
        45.100          45.000  
  23994576.765    -3209809.176 4  -2501148.144 3  23994575.303    23994575.194  
        27.400          19.300  
  20444022.609   -22178489.349 7 -17281928.807 7  20444021.417    20444018.730  
        46.600          45.100  
  23107000.149    -7077486.251 4  -5514912.941 4  23106999.623    23107000.967  
        29.900          27.100  
  25130961.499     -114267.990 3    -89039.454 3  25130960.446    25130962.348  
        21.100          19.900  
 06  6  7  1  1 30.0000000  0  8G 3G 7G13G16G19G23G25G27
  21493042.355   -15947414.299 6 -12426544.379 5  21493041.492    21493042.896  
        39.400          35.600  
  21801215.498   -14221146.979 6 -11081395.625 6  21801214.468    21801215.198  
        39.500          37.300  
  21192739.110   -17896126.576 7 -13945024.479 6  21192738.729    21192737.509  
        42.700          39.800  
  20804637.683   -19824383.486 7 -15447554.703 7  20804636.616    20804635.667  
        45.200          44.700  
  23973478.025    -3320680.356 4  -2587541.191 3  23973476.559    23973477.120  
        26.200          21.100  
  20449053.519   -22152051.667 7 -17261328.013 7  20449052.334    20449049.636  
        46.600          45.100  
  23121634.426    -7000583.381 5  -5454988.676 4  23121633.850    23121634.804  
        30.400          26.200  
  25114647.832     -199997.840 3   -155841.815 2  25114646.832    25114648.280  
        19.900          13.900  
 06  6  7  1  2  0.0000000  0  8G 3G 7G13G16G19G23G25G27
  21478184.435   -16025494.528 6 -12487386.065 5  21478183.472    21478184.433  
        39.100          35.300  
  21805332.789   -14199510.257 6 -11064535.803 6  21805331.865    21805332.552  
        40.000          37.000  
  21183872.882   -17942717.799 7 -13981329.329 6  21183872.646    21183871.473  
        43.100          39.900  
  20814123.447   -19774535.826 7 -15408712.351 7  20814122.349    20814121.296  
        45.100          44.700  
  23952397.088    -3431467.217 4  -2673868.503 3  23952394.447    23952395.522  
        25.600          21.600  
  20454200.503   -22125004.353 7 -17240252.180 7  20454199.226    20454196.566  
        46.600          45.100  
  23136302.897    -6923499.630 5  -5394923.449 4  23136302.217    23136303.230  
        30.200          26.200  
  25098328.994     -285751.924 3   -222663.082 1  25098327.807    25098329.323  
        18.600           9.000  
 06  6  7  1  2 30.0000000  0  8G 3G 7G13G16G19G23G25G27
  21463410.878   -16103129.712 6 -12547880.976 5  21463410.063    21463410.969  
        39.700          35.800  
  21809550.843   -14177343.597 6 -11047263.042 6  21809549.908    21809550.735  
        40.200          37.200  
  21175110.446   -17988765.720 7 -14017210.796 6  21175110.213    21175108.822  
        43.200          40.200  
  20823674.938   -19724343.156 7 -15369601.154 7  20823673.736    20823672.608  
        45.200          44.500  
  23931331.082    -3542167.030 4  -2760127.995 3  23931328.692    23931329.513  
        25.300          20.500  
  20459463.068   -22097348.410 7 -17218702.088 7  20459461.960    20459459.296  
        46.500          45.000  
  23151006.362    -6846235.478 5  -5334717.662 4  23151005.348    23151006.418  
        30.600          27.600  
  25082005.286     -371530.005 2   -289503.032 1  25082004.789    25082006.662  
        16.100          11.000  
 06  6  7  1  3  0.0000000  0  8G 3G 7G13G16G19G23G25G27
  21448722.865   -16180317.472 6 -12608027.232 6  21448721.675    21448722.663  
        39.400          36.000  
  21813869.540   -14154648.062 6 -11029578.174 6  21813868.733    21813869.496  
        40.200          37.200  
  21166451.570   -18034268.319 7 -14052667.360 6  21166451.234    21166449.956  
        42.800          40.000  
  20833291.488   -19673807.414 7 -15330222.635 7  20833290.318    20833289.237  
        45.300          44.300  
  23910282.315    -3652776.868 4  -2846317.362 3  23910280.428    23910281.132  
        24.900          23.000  
  20464841.871   -22069084.146 7 -17196677.983 7  20464840.596    20464837.898  
        46.800          45.100  
  23165742.761    -6768791.273 5  -5274371.559 4  23165742.463    23165743.611  
        30.200          27.100  
  25065678.748     -457331.555 2   -356361.333 9  25065677.587    25065678.354  
        17.000          -3.000  
 06  6  7  1  3 30.0000000  0  8G 3G 7G13G16G19G23G25G27
  21434119.820   -16257055.152 6 -12667822.778 6  21434118.949    21434119.932  
        39.800          36.200  
  21818289.206   -14131424.246 6 -11011481.649 6  21818288.161    21818288.757  
        40.100          36.900  
  21157896.753   -18079223.602 7 -14087697.426 6  21157896.422    21157895.233  
        42.900          40.300  
  20842973.114   -19622930.133 7 -15290577.975 7  20842971.954    20842970.855  
        45.400          44.400  
  23889251.478    -3763294.062 4  -2932434.526 3  23889249.520    23889250.552  
        27.100          23.000  
  20470336.157   -22040211.799 7 -17174180.046 7  20470334.830    20470331.979  
        46.800          44.800  
  23180514.481    -6691167.458 5  -5213885.506 4  23180514.224    23180515.096  
        30.200          27.100  
  25049346.494     -543155.770 3   -423237.229 1  25049345.527    25049347.100  
        18.600          11.000  
 06  6  7  1  4  0.0000000  0  8G 3G 7G13G16G19G23G25G27
  21419603.240   -16333340.167 6 -12727265.600 5  21419602.168    21419603.205  
        39.800          35.700  
  21822808.971   -14107673.036 6 -10992974.178 6  21822807.961    21822808.262  
        40.200          37.000  
  21149446.771   -18123629.786 7 -14122299.620 6  21149446.343    21149445.009  
        43.100          40.500  
  20852719.252   -19571712.971 7 -15250668.476 7  20852718.161    20852717.169  
        45.500          44.100  
  23868237.440    -3873715.685 4  -3018477.235 3  23868236.773    23868237.690  
        24.600          22.100  
  20475945.755   -22010732.450 7 -17151209.115 7  20475944.438    20475941.644  
        46.800          44.700  
  23195320.178    -6613364.552 5  -5153259.906 4  23195319.361    23195320.706  
        30.400          27.600  
  25033010.921     -629002.043 3   -490130.314 1  25033009.676    25033010.864  
        18.600           6.500  
 06  6  7  1  4 30.0000000  0  8G 3G 7G13G16G19G23G25G27
  21405173.302   -16409170.043 6 -12786353.761 6  21405172.240    21405173.256  
        39.900          36.300  
  21827428.429   -14083395.439 6 -10974056.533 6  21827427.505    21827428.075  
        40.200          36.900  
  21141101.165   -18167484.959 7 -14156472.467 6  21141100.905    21141099.741  
        43.200          40.600  
  20862529.815   -19520157.942 7 -15210495.707 7  20862528.739    20862527.778  
        45.300          44.200  
  23847244.851    -3984039.396 4  -3104443.666 3  23847242.813    23847243.800  
        26.800          21.600  
  20481670.748   -21980646.741 7 -17127765.694 7  20481669.569    20481666.854  
        46.800          44.900  
  23210159.862    -6535382.927 5  -5092495.060 4  23210158.947    23210160.007  
        30.400          27.100  
  25016670.788     -714869.849 3   -557040.181 2  25016669.779    25016671.164  
        20.500          12.600  
 06  6  7  1  5  0.0000000  0  8G 3G 7G13G16G19G23G25G27
  21390830.070   -16484542.501 6 -12845085.495 6  21390829.204    21390830.217  
        39.800          36.300  
  21832148.235   -14058592.316 6 -10954729.393 6  21832147.328    21832148.005  
        39.900          37.100  
  21132861.213   -18210786.938 7 -14190214.268 6  21132860.836    21132859.610  
        43.300          40.700  
  20872404.544   -19468266.775 7 -15170061.023 7  20872403.436    20872402.290  
        45.300          44.100  
  23826269.648    -4094262.285 4  -3190331.524 3  23826267.800    23826268.737  
        24.900          23.800  
  20487511.355   -21949955.334 7 -17103850.303 7  20487510.020    20487507.314  
        46.700          44.800  
  23225032.814    -6457223.049 4  -5031591.319 4  23225032.266    23225033.317  
        28.800          25.900  
  25000326.569     -800758.738 3   -623966.512    25000325.377    25000326.269  
        19.300           3.000  
 06  6  7  1  5 30.0000000  0  8G 3G 7G13G16G19G23G25G27
  21376574.675   -16559455.006 6 -12903458.814 6  21376573.839    21376574.992  
        39.800          36.800  
  21836968.313   -14033264.388 6 -10934993.317 6  21836967.227    21836967.978  
        40.000          37.300  
  21124726.580   -18253533.835 7 -14223523.512 6  21124726.287    21124725.008  
        43.200          40.300  
  20882342.575   -19416041.195 7 -15129365.752 7  20882341.562    20882340.386  
        45.200          43.900  
  23805314.161    -4204381.560 4  -3276138.601 3  23805312.853    23805313.885  
        25.300          23.800  
  20493466.635   -21918658.771 7 -17079463.363 7  20493465.384    20493462.739  
        46.700          44.600  
  23239939.155    -6378885.335 4  -4970549.000 4  23239939.035    23239940.596  
        29.500          25.600  
  24983977.469     -886668.046 3   -690908.739 2  24983977.192    24983978.435  
        19.900          12.600  
 06  6  7  1  6  0.0000000  0  8G 3G 7G13G16G19G23G25G27
  21362407.528   -16633904.985 6 -12961471.727 6  21362406.396    21362407.385  
        39.700          36.400  
  21841887.341   -14007412.766 6 -10914849.164 6  21841886.592    21841887.292  
        40.100          37.200  
  21116698.020   -18295724.202 7 -14256399.102 6  21116697.691    21116696.310  
        43.200          40.600  
  20892344.222   -19363482.794 7 -15088411.143 7  20892343.043    20892341.875  
        45.200          43.800  
  23784379.552    -4314394.209 4  -3361862.637 3  23784378.547    23784378.414  
        26.800          22.100  
  20499537.147   -21886758.047 7 -17054605.642 7  20499535.948    20499533.172  
        46.700          44.600  
  23254880.572    -6300370.308 4  -4909368.513 4  23254880.177    23254881.412  
        28.800          25.300  
  24967625.916     -972597.275 2   -757866.526 2  24967625.341    24967626.520  
        17.800          13.900  
 06  6  7  1  6 30.0000000  0  8G 3G 7G13G16G19G23G25G27
  21348328.444   -16707889.894 6 -13019122.247 6  21348327.471    21348328.567  
        40.200          36.300  
  21846906.557   -13981038.437 6 -10894297.709 6  21846905.504    21846905.940  
        40.300          36.500  
  21108775.740   -18337356.188 7 -14288839.602 6  21108775.428    21108774.076  
        43.500          40.600  
  20902408.780   -19310593.480 7 -15047198.684 7  20902407.629    20902406.420  
        45.300          43.800  
  23763466.151    -4424297.595 4  -3447501.552 3  23763464.211    23763465.118  
        26.200          22.600  
  20505722.506   -21854253.730 7 -17029277.596 7  20505721.264    20505718.616  
        46.500          44.500  
  23269855.474    -6221678.334 4  -4848050.156 4  23269854.601    23269856.015  
        28.800          24.900  
  24951270.276    -1058545.816 2   -824839.309 2  24951269.215    24951271.567  
        17.000          13.900  
 06  6  7  1  7  0.0000000  0  8G 3G 7G13G16G19G23G25G27
  21334338.627   -16781407.466 6 -13076408.613 6  21334337.668    21334338.529  
        40.200          36.500  
  21852024.615   -13954142.392 6 -10873339.725 6  21852023.697    21852023.871  
        40.000          36.400  
  21100960.111   -18378427.721 7 -14320843.385 6  21100959.843    21100958.540  
        43.400          41.100  
  20912535.994   -19257375.143 7 -15005729.838 7  20912534.703    20912533.551  
        45.000          43.700  
  23742573.181    -4534088.989 4  -3533053.177 3  23742571.225    23742572.359  
        27.400          23.400  
  20512022.586   -21821146.735 7 -17003479.925 7  20512021.348    20512018.581  
        46.700          44.300  
  23284864.050    -6142809.911 5  -4786594.297 4  23284863.217    23284864.145  
        30.200          24.200  
  24934910.944    -1144512.578 3   -891826.307 1  24934910.254    24934912.118  
        18.600           9.000  
 06  6  7  1  7 30.0000000  0  8G 3G 7G13G16G19G23G25G27
  21320438.156   -16854455.283 6 -13133328.933 6  21320437.056    21320438.076  
        40.400          36.800  
  21857242.219   -13926725.440 6 -10851975.840 6  21857241.033    21857241.109  
        40.200          36.500  
  21093251.719   -18418936.816 7 -14352408.901 6  21093251.295    21093249.983  
        43.400          41.100  
  20922724.943   -19203829.294 7 -14964005.784 7  20922723.924    20922722.988  
        44.900          43.400  
  23721701.868    -4643765.601 4  -3618515.386 4  23721700.510    23721701.763  
        27.600          25.300  
  20518437.158   -21787437.876 7 -16977213.272 7  20518435.934    20518433.099  
        46.600          44.300  
  23299905.689    -6063765.476 4  -4725001.271 4  23299904.670    23299906.459  
        29.900          26.200  
  24918548.238    -1230497.292 3   -958827.330 2  24918547.552    24918549.547  
        18.600          12.600  
 06  6  7  1  8  0.0000000  0  8G 3G 7G13G16G19G23G25G27
  21306627.285   -16927030.814 6 -13189881.241 6  21306626.317    21306627.220  
        40.600          36.900  
  21862558.132   -13898788.556 6 -10830206.799 6  21862557.101    21862557.481  
        39.700          36.500  
  21085650.059   -18458881.860 7 -14383534.891 6  21085649.785    21085648.647  
        43.600          41.000  
  20932976.634   -19149957.534 7 -14922027.776 7  20932975.480    20932974.454  
        44.900          43.500  
  23700854.417    -4753324.787 4  -3703886.087 3  23700852.146    23700852.858  
        26.200          23.800  
  20524966.066   -21753128.099 7 -16950478.372 7  20524964.858    20524962.135  
        46.600          44.400  
  23314980.213    -5984545.506 4  -4663271.476 4  23314979.832    23314980.911  
        29.000          24.600  
  24902183.721    -1316499.133 3  -1025841.728 1  24902182.892    24902183.589  
        18.600          11.000  
 06  6  7  1  8 30.0000000  0  8G 3G 7G13G16G19G23G25G27
  21292906.866   -16999131.920 6 -13246063.873 6  21292905.972    21292906.715  
        40.900          36.700  
  21867973.095   -13870332.984 6 -10808033.599 6  21867972.013    21867972.468  
        39.800          37.100  
  21078156.572   -18498261.161 7 -14414220.053 6  21078156.240    21078154.915  
        43.800          41.300  
  20943289.616   -19095761.875 7 -14879797.378 7  20943288.545    20943287.564  
        44.900          43.300  
  23680028.367    -4862763.872 4  -3789163.186 4  23680026.582    23680027.151  
        27.900          25.300  
  20531609.124   -21718218.074 7 -16923275.743 7  20531607.998    20531605.416  
        46.500          44.400  
  23330088.590    -5905150.462 4  -4601405.251 3  23330088.274    23330089.231  
        28.600          23.400  
  24885814.180    -1402517.857 3  -1092869.251 2  24885813.345    24885814.749  
        18.600          13.900  
 06  6  7  1  9  0.0000000  0  8G 3G 7G13G16G19G23G25G27
  21279277.366   -17070756.264 6 -13301875.001 6  21279276.244    21279277.065  
        40.600          36.900  
  21873486.093   -13841359.766 6 -10785457.027 6  21873485.264    21873485.904  
        39.800          36.700  
  21070771.173   -18537072.944 7 -14444463.009 6  21070770.803    21070769.263  
        43.900          41.100  
  20953663.897   -19041244.088 7 -14837315.966 7  20953662.841    20953661.891  
        44.900          43.200  
  23659226.007    -4972079.723 4  -3874344.290 3  23659224.496    23659224.962  
        27.100          23.800  
  20538366.558   -21682708.718 7 -16895606.107 7  20538365.326    20538362.449  
        46.400          44.300  
  23345231.522    -5825580.796 4  -4539402.967 4  23345230.117    23345230.990  
        28.400          24.900  
  24869442.831    -1488552.320 2  -1159909.027 2  24869441.605    24869443.425  
        17.000          13.900  
 06  6  7  1  9 30.0000000  0  8G 3G 7G13G16G19G23G25G27
  21265738.610   -17141901.235 6 -13357312.581 6  21265737.774    21265738.534  
        40.700          36.800  
  21879097.951   -13811869.785 6 -10762477.790 6  21879096.995    21879097.632  
        39.600          37.000  
  21063493.659   -18575315.249 7 -14474262.200 6  21063493.376    21063492.013  
        43.600          41.100  
  20964099.454   -18986405.853 7 -14794584.866 7  20964098.322    20964097.169  
        44.900          43.100  
  23638448.189    -5081269.887 4  -3959427.448 3  23638446.494    23638446.514  
        26.500          23.400  
  20545237.496   -21646601.050 7 -16867470.252 7  20545236.390    20545233.419  
        46.500          44.000  
  23360405.681    -5745837.095 4  -4477265.084 4  23360404.750    23360406.253  
        28.600          26.200  
  24853067.100    -1574601.907 3  -1226960.531 2  24853066.140    24853068.613  
        19.900          16.100  
 06  6  7  1 10  0.0000000  0  8G 3G 7G13G16G19G23G25G27
  21252291.988   -17212564.352 6 -13412374.703 6  21252290.935    21252291.817  
        40.500          37.100  
  21884807.969   -13781864.246 6 -10739096.813 6  21884806.977    21884807.369  
        39.700          37.200  
  21056324.815   -18612986.481 7 -14503616.396 6  21056324.579    21056323.562  
        43.600          41.500  
  20974595.368   -18931248.780 7 -14751605.305 7  20974594.298    20974593.165  
        45.100          43.100  
  23617694.970    -5190331.384 4  -4044410.364 4  23617692.873    23617692.419  
        27.400          24.600  
  20552222.282   -21609895.898 7 -16838868.827 7  20552221.037    20552218.322  
        46.400          44.200  
  23375613.624    -5665919.729 4  -4414991.868 4  23375612.570    23375613.981  
        29.000          25.300  
  24836689.952    -1660666.137 3  -1294023.441 2  24836688.956    24836691.040  
        21.100          15.100  
 06  6  7  1 10 30.0000000  0  8G 3G 7G13G16G19G23G25G27
  21238937.599   -17282743.178 6 -13467059.439 6  21238936.460    21238937.190  
        41.000          37.600  
  21890615.956   -13751344.069 6 -10715314.816 6  21890614.846    21890615.151  
        40.000          36.700  
  21049265.405   -18650084.984 7 -14532524.302 6  21049265.107    21049263.917  
        43.800          41.600  
  20985151.627   -18875774.836 7 -14708378.824 7  20985150.577    20985149.515  
        44.900          42.900  
  23596965.469    -5299261.513 4  -4129290.877 4  23596963.823    23596963.986  
        26.500          24.600  
  20559320.492   -21572594.353 7 -16809802.679 7  20559319.247    20559316.549  
        46.200          44.300  
  23390852.900    -5585829.192 4  -4352583.715 4  23390853.122    23390854.661  
        28.600          24.200  
  24820310.160    -1746744.668 2  -1361097.576 2  24820309.549    24820310.617  
        17.800          16.100  
 06  6  7  1 11  0.0000000  0  8G 3G 7G13G16G19G23G25G27
  21225675.197   -17352435.542 6 -13521365.123 6  21225674.285    21225675.075  
        41.100          37.200  
  21896521.110   -13720310.542 6 -10691132.819 6  21896520.233    21896520.679  
        40.000          36.900  
  21042315.123   -18686609.091 7 -14560984.635 6  21042314.788    21042313.365  
        43.800          41.300  
  20995767.929   -18819985.631 7 -14664906.692 7  20995766.926    20995765.780  
        44.900          42.800  
  23576262.148    -5408057.334 4  -4214066.759 4  23576260.518    23576260.666  
        26.500          25.300  
  20566532.061   -21534697.331 7 -16780272.528 7  20566530.745    20566528.027  
        46.000          43.800  
  23406127.194    -5505566.052 4  -4290041.049 4  23406126.837    23406128.451  
        28.600          25.900  
  24803927.424    -1832836.542 3  -1428182.045 2  24803926.311    24803927.557  
        19.900          17.800  
 06  6  7  1 11 30.0000000  0  8G 3G 7G13G16G19G23G25G27
  21212506.147   -17421639.231 6 -13575290.027 6  21212505.218    21212505.985  
        41.100          37.200  
  21902523.907   -13688764.836 6 -10666551.718 6  21902523.022    21902523.758  
        39.500          37.200  
  21035474.567   -18722557.069 7 -14588996.051 6  21035474.227    21035472.782  
        43.900          41.600  
  21006443.986   -18763882.936 7 -14621190.276 7  21006442.962    21006441.766  
        44.900          42.700  
  23555586.035    -5516716.421 4  -4298736.078 4  23555583.542    23555583.520  
        28.600          25.300  
  20573856.593   -21496205.579 7 -16750278.947 7  20573855.356    20573852.804  
        45.900          44.000  
  23421433.437    -5425130.670 4  -4227364.170 4  23421433.370    23421434.652  
        29.500          26.200  
  24787541.790    -1918941.167 3  -1495276.483 2  24787541.417    24787542.135  
        18.600          15.100  
 06  6  7  1 12  0.0000000  0  8G 3G 7G13G16G19G23G25G27
  21199430.689   -17490352.077 6 -13628832.444 6  21199429.604    21199430.351  
        40.900          37.500  
  21908624.182   -13656707.978 6 -10641572.329 6  21908623.207    21908623.842  
        39.600          37.000  
  21028743.741   -18757927.227 7 -14616557.222 6  21028743.443    21028742.129  
        43.700          41.800  
  21017179.335   -18707468.648 7 -14577231.065 7  21017178.234    21017177.093  
        44.900          42.500  
  23534935.111    -5625235.587 4  -4383296.371 3  23534932.778    23534932.436  
        29.900          23.800  
  20581294.195   -21457120.587 7 -16719823.106 7  20581293.085    20581290.466  
        46.100          44.000  
  23436772.542    -5344523.684 4  -4164553.580 4  23436772.287    23436773.986  
        28.400          24.900  
  24771155.015    -2005057.601 3  -1562380.109 2  24771153.930    24771154.914  
        21.100          16.100  
 06  6  7  1 12 30.0000000  0  8G 3G 7G13G16G19G23G25G27
  21186448.566   -17558571.967 6 -13681990.749 6  21186447.704    21186448.411  
        41.100          37.600  
  21914821.661   -13624141.169 6 -10616195.572 6  21914820.624    21914820.890  
        39.500          36.800  
  21022123.345   -18792718.106 7 -14643666.985 7  21022122.955    21022121.790  
        43.900          42.000  
  21027973.557   -18650744.184 7 -14533030.170 7  21027972.459    21027971.335  
        44.700          42.300  
  23514310.520    -5733612.301 4  -4467745.686 4  23514309.168    23514309.529  
        29.500          25.300  
  20588844.850   -21417443.230 7 -16688905.683 7  20588843.538    20588840.833  
        46.100          44.000  
  23452144.439    -5263745.462 4  -4101609.546 4  23452144.070    23452145.309  
        28.400          24.600  
  24754764.576    -2091184.959 3  -1629492.241 2  24754763.508    24754765.607  
        21.100          17.000  
 06  6  7  1 13  0.0000000  0  8G 3G 7G13G16G19G23G25G27
  21173560.989   -17626296.207 6 -13734762.826 6  21173560.132    21173561.081  
        41.500          37.700  
  21921115.286   -13591065.504 6 -10590422.306 6  21921114.379    21921114.931  
        39.300          36.600  
  21015613.498   -18826928.037 7 -14670324.060 6  21015613.170    21015611.781  
        44.100          41.900  
  21038826.398   -18593711.726 7 -14488589.278 7  21038825.317    21038824.120  
        44.800          42.400  
  23493715.104    -5841843.607 4  -4552081.680 4  23493713.566    23493713.440  
        29.700          25.600  
  20596507.630   -21377174.497 7 -16657527.450 7  20596506.390    20596503.700  
        46.100          43.700  
  23467548.828    -5182796.520 4  -4038532.487 4  23467547.927    23467549.295  
        27.100          24.200  
  24738373.832    -2177322.928 3  -1696612.672 2  24738372.632    24738374.147  
        21.600          17.800  
 06  6  7  1 13 30.0000000  0  8G 3G 7G13G16G19G23G25G27
  21160768.214   -17693522.492 6 -13787146.894 6  21160767.289    21160768.226  
        41.100          37.700  
  21927505.964   -13557482.262 6 -10564253.522 6  21927505.110    21927505.687  
        39.300          36.500  
  21009214.226   -18860555.433 7 -14696527.218 6  21009213.902    21009212.548  
        44.100          41.800  
  21049737.755   -18536372.739 7 -14443909.533 7  21049736.621    21049735.360  
        44.600          42.100  
  23473148.035    -5949926.830 4  -4636302.263 4  23473145.738    23473146.116  
        29.900          25.300  
  20604282.791   -21336315.664 7 -16625689.395 7  20604281.609    20604278.927  
        46.100          44.000  
  23482985.198    -5101677.439 4  -3975322.849 3  23482984.411    23482985.851  
        27.400          23.400  
  24721980.057    -2263470.811 3  -1763740.813 2  24721978.830    24721980.152  
        19.900          13.900  
 06  6  7  1 14  0.0000000  0  8G 3G 7G13G16G19G23G25G27
  21148070.732   -17760248.912 6 -13839141.450 6  21148069.716    21148070.732  
        41.500          38.200  
  21933993.246   -13523392.728 6 -10537690.231 6  21933992.271    21933992.754  
        39.400          36.500  
  21002926.217   -18893598.546 7 -14722275.092 6  21002925.942    21002924.567  
        44.000          41.900  
  21060706.929   -18478728.972 7 -14398992.299 7  21060705.868    21060704.667  
        44.700          42.200  
  23452608.259    -6057859.376 4  -4720405.439 4  23452606.458    23452607.098  
        28.100          27.600  
  20612170.004   -21294867.751 7 -16593392.323 7  20612168.841    20612166.196  
        46.200          44.000  
  23498454.536    -5020388.646 4  -3911980.949 3  23498453.225    23498454.053  
        26.200          20.500  
  24705584.934    -2349627.949 3  -1830876.148 3  24705584.009    24705585.128  
        19.300          19.300  
 06  6  7  1 14 30.0000000  0  8G 3G 7G13G16G19G23G25G27
  21135468.745   -17826473.050 6 -13890744.620 6  21135467.658    21135468.413  
        41.300          37.900  
  21940576.257   -13488798.114 6 -10510733.383 6  21940575.275    21940575.724  
        39.100          36.400  
  20996749.979   -18926055.842 7 -14747566.474 6  20996749.556    20996748.201  
        44.100          41.800  
  21071733.780   -18420782.267 7 -14353839.014 7  21071732.765    21071731.569  
        44.700          42.100  
  23432097.877    -6165638.358 4  -4804388.963 4  23432097.339    23432097.152  
        28.100          25.900  
  20620169.198   -21252831.893 7 -16560637.109 7  20620167.874    20620165.302  
        45.900          43.600  
  23513955.036    -4938930.698 4  -3848507.233 3  23513954.132    23513955.271  
        27.600          22.600  
  24689188.131    -2435793.265 3  -1898017.857 3  24689187.199    24689188.025  
        22.100          19.300  
 06  6  7  1 15  0.0000000  0  8G 3G 7G13G16G19G23G25G27
  21122962.343   -17892192.790 6 -13941954.746 6  21122961.444    21122962.233  
        41.400          38.100  
  21947255.246   -13453699.554 6 -10483383.840 6  21947254.166    21947254.803  
        38.700          36.600  
  20990685.099   -18957925.990 7 -14772400.350 6  20990684.825    20990683.618  
        43.900          41.900  
  21082817.826   -18362534.385 7 -14308451.036 7  21082816.837    21082815.692  
        44.700          42.100  
  23411619.741    -6273260.814 5  -4888250.530 4  23411617.652    23411617.063  
        30.100          27.100  
  20628280.109   -21210209.312 7 -16527424.710 7  20628278.836    20628276.073  
        46.000          43.700  
  23529487.193    -4857304.076 4  -3784902.064 3  23529487.233    23529488.778  
        26.500          21.100  
  24672789.408    -2521966.320 2  -1965165.604 2  24672788.743    24672789.760  
        17.800          17.800  
 06  6  7  1 15 30.0000000  0  8G 3G 7G13G16G19G23G25G27
  21110552.670   -17957406.062 6 -13992770.230 6  21110551.731    21110552.457  
        41.400          37.700  
  21954029.833   -13418098.381 6 -10455642.651 6  21954028.829    21954029.456  
        38.900          36.500  
  20984732.727   -18989207.431 7 -14796775.504 7  20984732.339    20984730.966  
        44.200          42.100  
  21093958.925   -18303987.092 7 -14262829.765 7  21093957.989    21093956.983  
        44.900          42.100  
  23391171.069    -6380724.136 4  -4971988.061 4  23391168.040    23391167.607  
        28.800          27.400  
  20636502.392   -21167001.385 7 -16493756.202 7  20636501.089    20636498.187  
        46.000          43.400  
  23545052.406    -4775509.390 4  -3721165.969 4  23545052.144    23545053.736  
        26.200          24.200  
  24656390.518    -2608146.439 3  -2032318.846 3  24656389.530    24656390.223  
        20.500          19.300  
 06  6  7  1 16  0.0000000  0  8G 3G 7G13G16G19G23G25G27
  21098239.987   -18022110.635 6 -14043189.330 6  21098238.927    21098239.588  
        41.700          38.100  
  21960899.907   -13381995.904 6 -10427510.841 6  21960898.985    21960899.656  
        38.800          36.500  
  20978892.326   -19019898.638 7 -14820690.739 7  20978891.976    20978890.601  
        44.300          42.100  
  21105157.035   -18245141.928 7 -14216976.380 7  21105155.931    21105154.897  
        44.800          42.100  
  23370751.332    -6488025.446 4  -5055599.381 4  23370748.850    23370748.341  
        29.500          25.900  
  20644835.646   -21123209.109 7 -16459632.352 7  20644834.360    20644831.601  
        45.700          43.400  
  23560650.505    -4693547.097 4  -3657299.270 3  23560649.401    23560650.825  
        27.100          23.800  
  24639989.318    -2694332.808 3  -2099476.973 2  24639988.750    24639989.195  
        21.100          17.000  
 06  6  7  1 16 30.0000000  0  8G 3G 7G13G16G19G23G25G27
  21086024.211   -18086304.396 6 -14093210.394 6  21086023.179    21086023.943  
        41.800          38.100  
  21967865.063   -13345393.304 6 -10398989.329 6  21967864.256    21967864.842  
        38.800          36.500  
  20973164.474   -19049998.234 7 -14844144.989 7  20973164.154    20973162.789  
        44.200          42.000  
  21116411.220   -18186000.938 7 -14170892.485 7  21116410.027    21116409.011  
        44.700          42.000  
  23350362.219    -6595161.774 4  -5139082.132 4  23350361.493    23350361.087  
        29.500          26.200  
  20653280.048   -21078833.687 7 -16425054.108 7  20653278.810    20653276.100  
        46.100          43.400  
  23576279.441    -4611417.808 4  -3593302.429 3  23576278.217    23576279.128  
        26.200          22.600  
  24623587.317    -2780524.452 3  -2166639.210 3  24623586.305    24623587.860  
        23.800          21.100  
 06  6  7  1 17  0.0000000  0  8G 3G 7G13G16G19G23G25G27
  21073905.985   -18149985.272 6 -14142831.808 6  21073905.039    21073905.713  
        41.900          38.200  
  21974925.455   -13308292.023 6 -10370079.216 6  21974924.446    21974924.810  
        38.900          36.300  
  20967549.513   -19079504.727 7 -14867137.087 7  20967549.206    20967547.898  
        44.000          42.000  
  21127721.240   -18126565.334 7 -14124579.000 6  21127720.166    21127719.149  
        44.700          41.900  
  23330008.170    -6702130.612 4  -5222434.405 4  23330005.715    23330005.890  
        29.000          26.200  
  20661835.008   -21033876.398 7 -16390022.456 7  20661833.826    20661831.123  
        45.800          43.200  
  23591939.634    -4529121.986 4  -3529175.836 3  23591938.641    23591939.267  
        25.900          21.100  
  24607185.504    -2866721.294 4  -2233805.498 3  24607184.418    24607185.117  
        24.600          18.600  
 06  6  7  1 17 30.0000000  0  8G 3G 7G13G16G19G23G25G27
  21061885.983   -18213150.753 7 -14192051.620 6  21061885.144    21061885.849  
        42.100          38.500  
  21982080.080   -13270693.300 6 -10340781.476 6  21982079.096    21982079.479  
        39.000          36.000  
  20962047.627   -19108416.469 7 -14889665.734 7  20962047.367    20962046.222  
        43.900          42.100  
  21139087.089   -18066837.462 7 -14078037.775 6  21139086.019    21139084.997  
        44.500          41.500  
  23309685.905    -6808929.330 4  -5305654.070 4  23309682.826    23309682.780  
        28.800          27.900  
  20670500.438   -20988338.651 7 -16354538.506 7  20670499.348    20670496.573  
        45.800          42.900  
  23607631.041    -4446660.168 4  -3464919.898 3  23607630.407    23607631.729  
        27.100          22.600  
  24590781.514    -2952921.790 4  -2300974.631 2  24590780.694    24590781.725  
        24.200          17.800  
 06  6  7  1 18  0.0000000  0  8G 3G 7G13G16G19G23G25G27
  21049964.553   -18275799.069 6 -14240868.445 6  21049963.502    21049964.199  
        41.800          38.900  
  21989329.423   -13232598.656 6 -10311097.309 6  21989328.307    21989328.745  
        38.600          36.300  
  20956659.580   -19136732.184 7 -14911729.946 7  20956659.182    20956658.062  
        43.900          42.400  
  21150508.618   -18006818.719 7 -14031269.910 6  21150507.358    21150506.120  
        44.600          41.500  
  23289394.326    -6915554.953 4  -5388738.872 4  23289392.042    23289392.404  
        29.500          26.200  
  20679276.662   -20942221.656 7 -16318603.189 7  20679275.272    20679272.401  
        45.900          43.000  
  23623355.353    -4364032.936 4  -3400535.067 3  23623354.191    23623354.952  
        26.500          21.100  
  24574376.031    -3039125.540 3  -2368146.286 2  24574375.669    24574377.012  
        21.600          16.100  
 06  6  7  1 18 30.0000000  0  8G 3G 7G13G16G19G23G25G27
  21038141.578   -18337927.976 7 -14289280.539 6  21038140.689    21038141.305  
        42.200          38.600  
  21996672.706   -13194009.149 6 -10281027.539 6  21996671.567    21996672.232  
        38.700          36.400  
  20951385.021   -19164450.765 7 -14933328.857 7  20951384.614    20951383.272  
        44.000          42.200  
  21161984.578   -17946510.726 7 -13984276.646 6  21161983.501    21161982.313  
        44.500          41.300  
  23269136.030    -7022004.655 5  -5471686.614 4  23269135.380    23269135.361  
        31.000          27.600  
  20688161.954   -20895527.027 7 -16282217.767 7  20688160.927    20688158.167  
        46.100          42.900  
  23639109.457    -4281240.800 4  -3336021.736 3  23639108.477    23639109.934  
        25.300          21.600  
  24557972.459    -3125331.730 3  -2435319.870 2  24557972.052    24557972.284  
        22.100          15.100  
 06  6  7  1 19  0.0000000  0  8G 3G 7G13G16G19G23G25G27
  21026418.162   -18399535.698 7 -14337286.511 6  21026417.091    21026417.776  
        42.200          38.900  
  22004110.075   -13154926.367 6 -10250573.406 6  22004108.974    22004109.354  
        38.900          36.100  
  20946224.095   -19191570.705 7 -14954461.295 7  20946223.793    20946222.430  
        44.100          42.200  
  21173515.497   -17885915.353 7 -13937059.451 6  21173514.388    21173513.227  
        44.400          41.400  
  23248913.845    -7128275.560 5  -5554495.027 4  23248912.676    23248912.847  
        30.400          27.600  
  20697157.596   -20848255.749 7 -16245383.009 7  20697156.278    20697153.496  
        45.800          42.700  
  23654895.136    -4198284.267 4  -3271380.330 3  23654894.477    23654895.605  
        25.600          21.600  
  24541567.772    -3211539.722 3  -2502494.856 2  24541567.100    24541567.277  
        22.600          16.100  
 06  6  7  1 19 30.0000000  0  8G 3G 7G13G16G19G23G25G27
  21014793.927   -18460620.318 7 -14384884.869 6  21014793.071    21014793.720  
        42.400          38.900  
  22011640.722   -13115351.692 6 -10219735.968 6  22011639.691    22011640.093  
        38.900          36.300  
  20941177.605   -19218090.487 7 -14975126.088 7  20941177.332    20941176.010  
        44.300          42.200  
  21185100.559   -17825034.516 7 -13889619.824 6  21185099.494    21185098.455  
        44.400          41.200  
  23228726.532    -7234365.348 5  -5637162.305 4  23228724.113    23228724.239  
        30.100          27.100  
  20706262.239   -20800409.230 7 -16208100.011 7  20706261.066    20706258.399  
        45.600          42.700  
  23670712.901    -4115163.949 4  -3206611.305 3  23670712.241    23670713.164  
        25.900          22.100  
  24525162.628    -3297748.302 3  -2569670.305 2  24525161.823    24525162.389  
        20.500          16.100  
 06  6  7  1 20  0.0000000  0  8G 3G 7G13G16G19G23G25G27
  21003269.999   -18521179.705 7 -14432073.956 6  21003268.984    21003269.663  
        42.500          39.100  
  22019264.428   -13075286.562 6 -10188516.341 6  22019263.527    22019264.376  
        38.500          36.300  
  20936245.650   -19244008.840 7 -14995322.223 7  20936245.292    20936243.935  
        44.300          42.500  
  21196739.964   -17763869.654 7 -13841958.872 6  21196738.758    21196737.798  
        44.100          41.100  
  23208573.625    -7340270.885 5  -5719686.015 4  23208571.051    23208571.119  
        30.800          27.900  
  20715476.228   -20751988.867 7 -16170369.866 7  20715475.064    20715472.617  
        45.500          42.900  
  23686561.389    -4031880.473 4  -3141715.111 3  23686560.450    23686561.547  
        26.200          21.100  
  24508757.640    -3383957.035 3  -2636845.842 2  24508757.062    24508757.507  
        22.600          16.100  
 06  6  7  1 20 30.0000000  0  8G 3G 7G13G16G19G23G25G27
  20991845.790   -18581211.724 7 -14478852.108 6  20991845.053    20991845.936  
        42.500          39.300  
  22026981.748   -13034732.340 6 -10156915.620 6  22026980.762    22026981.510  
        38.600          36.100  
  20931428.210   -19269324.516 7 -15015048.736 7  20931427.871    20931426.458  
        44.300          42.500  
  21208432.925   -17702422.642 7 -13794078.073 6  21208431.823    21208430.662  
        44.300          41.200  
  23188455.142    -7445989.331 5  -5802063.940 4  23188453.166    23188453.440  
        30.200          28.100  
  20724799.510   -20702996.429 7 -16132193.942 7  20724798.235    20724795.631  
        45.700          42.900  
  23702440.250    -3948434.296 4  -3076692.163 3  23702439.348    23702441.285  
        26.200          19.900  
  24492352.871    -3470165.188 3  -2704020.971 3  24492352.087    24492353.216  
        22.100          19.300  
 06  6  7  1 21  0.0000000  0  8G 3G 7G13G16G19G23G25G27
  20980523.224   -18640714.414 7 -14525217.804 6  20980522.185    20980522.828  
        42.800          39.200  
  22034791.766   -12993690.325 6 -10124934.792 6  22034790.770    22034791.427  
        38.300          36.000  
  20926725.686   -19294036.221 7 -15034304.619 7  20926725.325    20926723.985  
        44.200          42.600  
  21220179.112   -17640695.148 7 -13745978.713 6  21220178.071    21220177.015  
        44.100          40.900  
  23168373.612    -7551517.966 5  -5884293.958 4  23168371.750    23168371.881  
        30.800          28.600  
  20734230.802   -20653433.114 7 -16093573.184 7  20734229.802    20734227.073  
        45.800          42.700  
  23718350.584    -3864826.036 4  -3011542.920 3  23718349.732    23718351.003  
        25.600          20.500  
  24475948.251    -3556372.043 3  -2771195.044 3  24475947.435    24475948.378  
        23.400          19.300  
 06  6  7  1 21 30.0000000  0  8G 3G 7G13G16G19G23G25G27
  20969301.072   -18699685.790 7 -14571169.488 6  20969300.254    20969300.815  
        42.700          39.400  
  22042694.257   -12952162.300 6 -10092575.253 6  22042693.345    22042693.892  
        38.400          36.100  
  20922138.213   -19318142.695 7 -15053088.890 7  20922137.873    20922136.719  
        44.000          42.500  
  21231978.592   -17578688.849 7 -13697662.093 6  21231977.547    21231976.341  
        44.200          40.600  
  23148329.061    -7656853.783 5  -5966373.754 4  23148327.071    23148327.173  
        31.000          29.500  
  20743770.993   -20603300.313 7 -16054508.670 7  20743769.795    20743767.069  
        45.700          42.700  
  23734291.252    -3781056.250 4  -2946267.790 3  23734290.288    23734291.840  
        24.600          19.300  
  24459544.094    -3642576.341 3  -2838367.128 3  24459543.369    24459543.903  
        23.800          22.100  
 06  6  7  1 22  0.0000000  0  8G 3G 7G13G16G19G23G25G27
  20958181.130   -18758123.806 7 -14616705.574 6  20958180.113    20958180.541  
        43.000          39.400  
  22050689.046   -12910149.451 6 -10059837.922 6  22050688.117    22050688.740  
        38.400          36.000  
  20917666.223   -19341642.592 7 -15071400.506 7  20917665.984    20917664.860  
        44.100          42.500  
  21243831.183   -17516405.413 7 -13649129.522 6  21243829.868    21243828.470  
        44.300          40.600  
  23128320.569    -7761994.545 5  -6048301.527 4  23128319.419    23128319.479  
        30.800          29.000  
  20753419.019   -20552599.654 7 -16015001.673 7  20753417.838    20753415.082  
        45.700          42.400  
  23750263.028    -3697125.496 4  -2880867.242 3  23750262.226    23750263.453  
        25.600          19.900  
  24443139.764    -3728777.498 3  -2905536.757 3  24443138.871    24443140.722  
        23.000          23.000  
 06  6  7  1 22 30.0000000  0  8G 3G 7G13G16G19G23G25G27
  20947162.482   -18816026.596 7 -14661824.597 6  20947161.475    20947161.974  
        43.000          39.300  
  22058775.432   -12867653.291 6 -10026723.990 5  22058774.646    22058775.247  
        38.100          35.400  
  20913310.298   -19364535.100 7 -15089238.829 7  20913309.906    20913308.588  
        44.200          42.600  
  21255735.501   -17453846.692 7 -13600382.434 6  21255734.404    21255732.833  
        44.300          40.400  
  23108351.680    -7866937.108 5  -6130074.861 4  23108349.674    23108349.456  
        32.000          28.800  
  20763174.679   -20501332.548 7 -15975053.285 7  20763173.548    20763170.876  
        45.500          42.300  
  23766264.571    -3613034.367 4  -2815341.719 3  23766264.128    23766265.531  
        26.200          19.900  
  24426736.672    -3814974.825 3  -2972703.424 3  24426736.025    24426738.143  
        23.400          22.100  
 06  6  7  1 23  0.0000000  0  8G 3G 7G13G16G19G23G25G27
  20936246.222   -18873392.221 7 -14706525.052 6  20936245.135    20936245.518  
        43.000          39.400  
  22066954.376   -12824675.287 6  -9993234.589 5  22066953.347    22066953.630  
        38.200          35.800  
  20909069.685   -19386818.825 7 -15106602.778 7  20909069.380    20909068.171  
        44.300          42.800  
  21267691.999   -17391014.550 7 -13551422.291 6  21267690.904    21267689.442  
        44.500          40.400  
  23088420.538    -7971678.816 5  -6211691.698 4  23088418.121    23088417.828  
        32.400          29.700  
  20773037.911   -20449500.643 7 -15934664.794 7  20773036.888    20773034.067  
        45.600          42.000  
  23782296.718    -3528783.409 4  -2749691.667 3  23782296.394    23782297.886  
        25.900          22.100  
  24410334.500    -3901167.174 3  -3039866.191 3  24410334.198    24410335.614  
        23.000          23.400  
 06  6  7  1 23 30.0000000  0  8G 3G 7G13G16G19G23G25G27
  20925432.409   -18930218.849 7 -14750805.510 6  20925431.414    20925431.800  
        43.100          39.300  
  22075224.191   -12781217.226 6  -9959371.122 5  22075223.103    22075223.340  
        38.600          35.900  
  20904945.222   -19408492.534 7 -15123491.391 7  20904944.920    20904943.962  
        44.000          42.900  
  21279700.312   -17327909.989 7 -13502249.883 6  21279699.216    21279697.865  
        44.300          40.500  
  23068527.220    -8076216.885 5  -6293149.844 4  23068524.758    23068524.730  
        32.400          29.200  
  20783008.357   -20397105.501 7 -15893837.419 7  20783007.161    20783004.734  
        45.300          42.300  
  23798359.457    -3444373.315 4  -2683917.603 3  23798359.579    23798360.766  
        24.600          20.500  
  24393933.966    -3987353.915 3  -3107024.595 3  24393933.140    24393934.018  
        23.000          19.900  
 06  6  7  1 24  0.0000000  0  8G 3G 7G13G16G19G23G25G27
  20914721.506   -18986504.732 7 -14794664.606 6  20914720.514    20914720.918  
        43.400          39.800  
  22083584.742   -12737280.270 6  -9925134.497 5  22083583.857    22083584.257  
        38.100          35.800  
  20900937.355   -19429555.221 7 -15139903.887 7  20900936.946    20900935.858  
        44.100          42.800  
  21291760.395   -17264535.525 7 -13452867.139 6  21291759.063    21291757.600  
        44.000          40.600  
  23048671.331    -8180548.637 5  -6374447.238 4  23048671.004    23048670.504  
        32.100          27.900  
  20793085.977   -20344148.706 7 -15852572.393 7  20793084.595    20793082.078  
        45.300          42.300  
  23814452.278    -3359804.521 4  -2618019.884 3  23814452.413    23814453.868  
        24.200          20.500  
  24377534.619    -4073534.216 3  -3174177.982 2  24377533.884    24377534.640  
        22.600          17.000  
 06  6  7  1 24 30.0000000  0  8G 3G 7G13G16G19G23G25G27
  20904114.031   -19042248.007 7 -14838100.893 6  20904112.964    20904113.077  
        43.400          39.300  
  22092036.815   -12692866.130 6  -9890526.058 5  22092035.687    22092036.069  
        37.800          35.700  
  20897045.700   -19450005.487 7 -15155839.159 7  20897045.347    20897044.144  
        44.000          42.700  
  21303870.738   -17200892.699 7 -13403275.316 6  21303869.649    21303868.440  
        44.000          40.300  
  23028857.778    -8284671.159 5  -6455581.586 4  23028857.388    23028856.796  
        32.100          28.600  
  20803269.958   -20290631.772 7 -15810870.892 7  20803268.747    20803265.966  
        45.600          42.000  
  23830575.747    -3275077.776 4  -2551999.099 3  23830575.317    23830576.769  
        24.200          19.900  
  24361136.683    -4159707.288 3  -3241325.775 2  24361135.437    24361135.880  
        21.600          16.100  
 06  6  7  1 25  0.0000000  0  8G 3G 7G13G16G19G23G25G27
  20893609.726   -19097446.759 7 -14881112.886 6  20893608.773    20893609.156  
        43.100          39.500  
  22100578.791   -12647976.581 6  -9855547.180 5  22100577.802    22100578.348  
        37.700          35.600  
  20893270.563   -19469842.704 7 -15171296.739 7  20893270.351    20893269.175  
        44.300          42.600  
  21316032.299   -17136982.969 7 -13353475.500 6  21316031.229    21316030.029  
        44.000          40.300  
  23009085.471    -8388581.491 5  -6536550.601 4  23009083.557    23009083.419  
        32.400          29.900  
  20813560.147   -20236556.436 7 -15768734.277 6  20813558.854    20813556.162  
        45.600          41.900  
  23846728.299    -3190193.550 3  -2485855.602 3  23846728.021    23846729.730  
        23.800          19.900  
  24344740.252    -4245872.206 3  -3308467.219 2  24344739.570    24344739.519  
        22.600          16.100  
 06  6  7  1 25 30.0000000  0  8G 3G 7G13G16G19G23G25G27
  20883209.883   -19152099.113 7 -14923699.105 6  20883208.849    20883209.147  
        43.300          39.800  
  22109211.420   -12602612.957 6  -9820198.875 5  22109210.254    22109210.603  
        37.700          35.400  
  20889612.965   -19489065.385 7 -15186275.448 7  20889612.681    20889611.286  
        44.500          42.800  
  21328244.749   -17072808.106 7 -13303469.093 6  21328243.433    21328242.066  
        43.800          40.200  
  22989352.773    -8492277.284 5  -6617352.424 4  22989350.735    22989350.604  
        32.100          29.500  
  20823956.212   -20181924.083 7 -15726163.616 7  20823955.033    20823952.433  
        45.500          42.000  
  23862912.270    -3105152.467 3  -2419589.858 3  23862911.120    23862912.386  
        23.800          18.600  
  24328346.277    -4332028.114 3  -3375601.627 3  24328345.123    24328344.691  
        23.800          18.600  
 06  6  7  1 26  0.0000000  0  8G 3G 7G13G16G19G23G25G27
  20872914.045   -19206203.353 7 -14965858.231 6  20872913.099    20872913.521  
        43.100          39.800  
  22117933.624   -12556776.725 6  -9784482.291 5  22117932.579    22117932.853  
        38.100          35.300  
  20886072.141   -19507672.704 7 -15200774.656 7  20886071.821    20886070.468  
        44.500          42.800  
  21340506.541   -17008369.882 7 -13253257.470 6  21340505.451    21340504.209  
        43.900          40.000  
  22969662.057    -8595755.578 5  -6697984.746 4  22969659.493    22969659.260  
        32.600          29.200  
  20834458.095   -20126736.596 7 -15683160.391 7  20834456.899    20834454.288  
        45.600          42.000  
  23879124.529    -3019955.240 4  -2353202.446 3  23879123.433    23879125.134  
        25.300          18.600  
  24311952.493    -4418173.861 4  -3442728.103 3  24311951.385    24311951.615  
        24.900          19.300  
 06  6  7  1 26 30.0000000  0  8G 3G 7G13G16G19G23G25G27
  20862723.139   -19259757.731 7 -15007588.893 6  20862722.003    20862722.510  
        43.200          39.900  
  22126745.419   -12510469.615 6  -9748398.793 5  22126744.475    22126744.731  
        38.100          34.900  
  20882648.444   -19525663.493 7 -15214793.450 7  20882648.150    20882646.882  
        44.600          42.900  
  21352818.422   -16943669.774 7 -13202841.763 6  21352817.340    21352816.189  
        43.600          39.700  
  22950012.293    -8699013.571 5  -6778445.441 4  22950009.820    22950009.709  
        32.100          29.200  
  20845065.262   -20070995.589 7 -15639725.846 6  20845064.071    20845061.412  
        45.400          41.900  
  23895366.554    -2934602.354 4  -2286693.748 3  23895365.543    23895367.770  
        24.200          19.300  
  24295561.114    -4504308.830 3  -3509846.178 3  24295559.995    24295561.253  
        23.800          21.100  
 06  6  7  1 27  0.0000000  0  8G 3G 7G13G16G19G23G25G27
  20852636.861   -19312760.417 7 -15048889.661 6  20852635.821    20852636.346  
        43.200          39.900  
  22135646.382   -12463693.293 6  -9711949.693 5  22135645.628    22135646.095  
        37.700          35.400  
  20879342.347   -19543036.896 7 -15228331.167 7  20879342.105    20879340.803  
        44.400          42.700  
  21365179.794   -16878709.621 7 -13152223.442 6  21365178.837    21365177.793  
        43.500          40.000  
  22930405.326    -8802048.661 5  -6858732.429 5  22930403.108    22930403.082  
        32.700          30.600  
  20855777.387   -20014702.997 7 -15595861.500 6  20855776.246    20855773.652  
        45.300          41.900  
  23911638.853    -2849094.462 4  -2220064.253 3  23911637.735    23911639.389  
        24.200          20.500  
  24279171.860    -4590432.080 4  -3576955.079 3  24279171.016    24279172.209  
        24.900          23.000  
 06  6  7  1 27 30.0000000  0  8G 3G 7G13G16G19G23G25G27
  20842655.906   -19365209.659 7 -15089759.173 6  20842654.958    20842655.518  
        43.300          40.000  
  22144637.134   -12416449.276 6  -9675136.134 5  22144636.011    22144636.244  
        37.700          35.400  
  20876154.125   -19559791.922 7 -15241387.027 7  20876153.749    20876152.444  
        44.400          42.700  
  21377590.814   -16813491.061 7 -13101403.769 6  21377589.581    21377588.371  
        43.500          39.800  
  22910840.969    -8904858.038 5  -6938843.524 5  22910839.053    22910838.627  
        33.000          30.100  
  20866594.508   -19957860.116 7 -15551568.354 6  20866593.106    20866590.412  
        45.300          41.700  
  23927939.993    -2763432.288 3  -2153314.546 3  23927938.574    23927940.397  
        23.400          21.100  
  24262786.264    -4676542.522 4  -3644054.033 3  24262784.920    24262785.732  
        25.900          22.600  
 06  6  7  1 28  0.0000000  0  8G 3G 7G13G16G19G23G25G27
  20832780.915   -19417103.858 7 -15130196.186 6  20832779.889    20832780.339  
        43.400          40.000  
  22153715.899   -12368739.045 6  -9637959.294 5  22153714.888    22153715.213  
        37.900          35.300  
  20873083.391   -19575927.799 7 -15253960.436 7  20873083.106    20873081.752  
        44.400          42.700  
  21390050.257   -16748015.896 7 -13050384.136 6  21390049.122    21390047.819  
        43.600          39.500  
  22891319.725    -9007438.678 5  -7018776.417 5  22891318.424    22891318.131  
        32.700          30.100  
  20877515.260   -19900468.902 7 -15506847.931 6  20877514.223    20877511.553  
        45.300          41.600  
  23944269.672    -2677616.285 3  -2086444.959 2  23944268.897    23944270.091  
        22.600          17.800  
  24246402.055    -4762639.687 3  -3711142.614 3  24246400.969    24246401.613  
        23.400          23.000  
 06  6  7  1 28 30.0000000  0  8G 3G 7G13G16G19G23G25G27
  20823011.683   -19468441.290 7 -15170199.350 6  20823010.651    20823011.175  
        43.400          40.300  
  22162883.340   -12320564.613 6  -9600420.743 5  22162882.236    22162882.391  
        37.900          35.400  
  20870130.782   -19591443.294 7 -15266050.428 7  20870130.542    20870129.196  
        44.300          42.700  
  21402558.360   -16682285.509 7 -12999165.624 6  21402557.242    21402555.915  
        43.400          39.300  
  22871842.951    -9109788.013 5  -7098529.049 5  22871842.175    22871841.800  
        33.100          30.800  
  20888540.810   -19842531.012 7 -15461701.530 6  20888539.493    20888536.759  
        45.300          41.600  
  23960629.251    -2591647.154 4  -2019456.045 2  23960628.177    23960629.393  
        25.300          16.100  
  24230020.961    -4848722.699 4  -3778220.220 3  24230020.175    24230020.875  
        25.300          23.400  
 06  6  7  1 29  0.0000000  0  8G 3G 7G13G16G19G23G25G27
  20813348.760   -19519220.358 7 -15209767.428 6  20813347.782    20813348.166  
        43.600          40.200  
  22172138.552   -12271927.547 6  -9562521.716 5  22172137.578    22172137.720  
        38.100          34.800  
  20867296.762   -19606337.144 7 -15277656.017 7  20867296.351    20867295.177  
        44.300          43.100  
  21415114.969   -16616301.829 7 -12947749.756 6  21415113.639    21415112.305  
        43.400          39.500  
  22852410.917    -9211903.453 5  -7178099.442 5  22852410.349    22852409.486  
        33.500          30.200  
  20899669.622   -19784048.316 7 -15416130.604 6  20899668.366    20899665.676  
        45.200          41.600  
  23977018.172    -2505525.611 3  -1952348.357 2  23977016.730    23977017.884  
        23.000          17.000  
  24213642.634    -4934790.359 4  -3845285.820 3  24213641.802    24213642.751  
        24.600          23.800  
 06  6  7  1 29 30.0000000  0  8G 3G 7G13G16G19G23G25G27
  20803792.317   -19569439.367 7 -15248899.101 6  20803791.385    20803791.793  
        43.800          40.300  
  22181481.638   -12222829.223 6  -9524263.263 5  22181480.518    22181480.597  
        37.700          34.700  
  20864580.894   -19620609.337 7 -15288777.195 7  20864580.514    20864579.353  
        44.300          43.200  
  21427718.755   -16550066.431 7 -12896137.770 6  21427717.809    21427716.429  
        43.500          39.300  
  22833024.914    -9313782.098 5  -7257485.317 5  22833023.431    22833022.558  
        32.700          30.600  
  20910901.616   -19725022.814 7 -15370136.716 6  20910900.492    20910897.782  
        45.200          41.300  
  23993435.910    -2419252.233 3  -1885122.355 2  23993434.210    23993435.183  
        23.400          17.000  
  24197267.237    -5020841.881 3  -3912338.869 3  24197266.386    24197267.203  
        21.100          21.600  
 06  6  7  1 30  0.0000000  0  8G 3G 7G13G16G19G23G25G27
  20794342.804   -19619096.537 7 -15287592.978 6  20794341.920    20794342.216  
        43.900          40.400  
  22190911.632   -12173271.564 6  -9485646.857 5  22190910.684    22190911.219  
        37.300          34.500  
  20861983.203   -19634258.678 7 -15299413.033 7  20861982.939    20861981.868  
        44.500          43.100  
  21440370.867   -16483580.742 7 -12844330.740 6  21440369.654    21440368.186  
        43.600          39.100  
  22813683.259    -9415421.344 5  -7336684.655 5  22813681.864    22813681.206  
        33.600          30.800  
  20922236.949   -19665456.164 7 -15323721.148 6  20922235.696    20922232.999  
        45.100          41.300  
  24009881.651    -2332827.614 3  -1817778.530 3  24009880.158    24009881.557  
        22.600          18.600  
  24180895.417    -5106876.100 3  -3979378.385 3  24180894.830    24180895.046  
        23.400          20.500  
 06  6  7  1 30 30.0000000  0  8G 3G 7G13G16G19G23G25G27
  20785000.416   -19668190.537 7 -15325848.018 6  20784999.544    20785000.134  
        43.800          40.500  
  22200429.203   -12123256.351 6  -9446673.934 5  22200428.343    22200428.844  
        37.700          34.700  
  20859504.858   -19647284.216 7 -15309562.787 7  20859504.542    20859503.172  
        44.600          43.000  
  21453069.840   -16416846.831 7 -12792330.269 6  21453068.552    21453067.279  
        43.400          39.300  
  22794388.536    -9516818.357 5  -7415695.229 5  22794386.933    22794386.132  
        34.400          31.300  
  20933674.591   -19605350.434 7 -15276885.526 6  20933673.375    20933670.890  
        45.100          41.400  
  24026356.288    -2246252.458 3  -1750317.382 3  24026354.762    24026356.697  
        23.800          20.500  
  24164527.663    -5192892.214 4  -4046403.781 3  24164526.598    24164526.635  
        25.300          19.300  
 06  6  7  1 31  0.0000000  0  8G 3G 7G13G16G19G23G25G27
  20775765.782   -19716719.740 7 -15363662.953 6  20775764.796    20775765.246  
        43.600          40.600  
  22210033.772   -12072785.053 6  -9407345.620 5  22210032.847    22210033.248  
        37.500          35.100  
  20857145.161   -19659685.280 7 -15319225.943 7  20857144.758    20857143.348  
        44.600          43.100  
  21465815.635   -16349866.189 7 -12740137.563 6  21465814.557    21465813.256  
        43.100          38.900  
  22775140.015    -9617970.436 5  -7494514.970 4  22775137.878    22775137.155  
        33.500          29.900  
  20945214.897   -19544706.905 7 -15229630.834 6  20945213.688    20945210.947  
        45.300          41.400  
  24042859.486    -2159527.485 3  -1682739.492 3  24042857.823    24042859.745  
        22.600          20.500  
  24148162.147    -5278889.287 4  -4113414.408 3  24148161.558    24148161.740  
        26.200          19.300  
 06  6  7  1 31 30.0000000  0  8G 3G 7G13G16G19G23G25G27
  20766638.837   -19764682.493 7 -15401036.500 6  20766637.822    20766638.169  
        44.000          40.800  
  22219724.997   -12021859.636 6  -9367663.451 5  22219723.849    22219723.896  
        37.100          34.600  
  20854904.063   -19671460.997 7 -15328401.822 7  20854903.704    20854902.548  
        44.500          43.100  
  21478608.164   -16282640.368 7 -12687753.772 6  21478607.074    21478605.846  
        43.100          38.600  
  22755937.731    -9718874.812 5  -7573141.671 5  22755936.177    22755935.574  
        33.400          30.200  
  20956856.857   -19483527.844 7 -15181958.843 6  20956855.633    20956852.926  
        45.300          41.100  
  24059390.932    -2072653.182 3  -1615045.229 3  24059389.533    24059391.800  
        23.400          21.100  
  24131801.626    -5364866.464 4  -4180409.556 3  24131800.795    24131801.243  
        25.600          19.300  
 06  6  7  1 32  0.0000000  0  8G 3G 7G13G16G19G23G25G27
  20757619.917   -19812077.295 7 -15437967.492 6  20757618.906    20757619.312  
        43.800          40.900  
  22229501.476   -11970481.845 6  -9327628.785 5  22229500.432    22229500.846  
        37.200          35.100  
  20852782.234   -19682610.811 7 -15337089.974 7  20852781.974    20852780.866  
        44.500          43.400  
  21491447.134   -16215171.322 7 -12635180.481 6  21491446.000    21491444.682  
        43.200          38.500  
  22736784.739    -9819528.596 5  -7651573.140 5  22736782.614    22736781.720  
        34.300          30.400  
  20968600.456   -19421815.264 7 -15133871.121 6  20968599.160    20968596.441  
        45.200          41.200  
  24075951.327    -1985630.374 3  -1547235.274 2  24075949.422    24075951.259  
        19.900          17.000  
  24115445.177    -5450822.596 4  -4247388.307 3  24115444.313    24115443.883  
        26.800          21.100  
 06  6  7  1 32 30.0000000  0  8G 3G 7G13G16G19G23G25G27
  20748709.331   -19858902.561 7 -15474454.689 6  20748708.322    20748708.677  
        44.000          40.900  
  22239363.797   -11918653.232 6  -9287242.826 5  22239362.955    22239363.432  
        37.100          34.900  
  20850779.924   -19693133.898 7 -15345289.772 7  20850779.539    20850778.535  
        44.500          43.600  
  21504332.042   -16147460.552 7 -12582418.807 6  21504330.912    21504329.659  
        42.900          38.600  
  22717678.981    -9919929.457 5  -7729807.517 5  22717677.042    22717676.335  
        34.500          31.500  
  20980445.094   -19359570.737 7 -15085368.900 6  20980443.890    20980441.277  
        45.000          41.200  
  24092539.406    -1898459.598 3  -1479310.029 2  24092537.649    24092539.019  
        23.000          17.800  
  24099092.097    -5536756.601 4  -4314349.817 3  24099091.012    24099091.400  
        25.900          22.100  
 06  6  7  1 33  0.0000000  0  8G 3G 7G13G16G19G23G25G27
  20739907.228   -19905156.920 7 -15510497.026 6  20739906.254    20739906.813  
        44.000          41.100  
  22249312.375   -11866375.443 6  -9246506.874 5  22249311.278    22249311.410  
        36.600          34.600  
  20848896.856   -19703029.281 7 -15353000.452 7  20848896.518    20848895.314  
        44.500          43.500  
  21517262.835   -16079509.601 7 -12529470.003 6  21517261.650    21517260.303  
        43.000          38.600  
  22698621.997   -10020074.309 5  -7807842.406 5  22698620.015    22698619.424  
        34.700          31.500  
  20992390.467   -19296796.413 7 -15036453.852 6  20992389.271    20992386.637  
        44.800          40.900  
  24109155.369    -1811141.580 3  -1411270.011 2  24109153.983    24109155.108  
        22.600          17.000  
  24082743.487    -5622667.801 4  -4381293.527 4  24082742.432    24082743.047  
        25.600          24.600  
 06  6  7  1 33 30.0000000  0  8G 3G 7G13G16G19G23G25G27
  20731214.212   -19950838.671 7 -15546093.170 6  20731213.290    20731213.720  
        44.000          41.000  
  22259345.385   -11813650.600 6  -9205422.562 5  22259344.500    22259344.566  
        37.100          34.400  
  20847133.142   -19712296.461 7 -15360221.627 7  20847132.913    20847131.805  
        44.600          43.500  
  21530238.898   -16011320.182 7 -12476335.370 6  21530237.766    21530236.298  
        43.100          38.500  
  22679614.491   -10119960.540 5  -7885675.771 5  22679612.182    22679611.574  
        35.100          32.600  
  21004436.521   -19233494.316 7 -14987127.547 6  21004435.312    21004432.746  
        44.700          41.000  
  24125800.114    -1723677.056 3  -1343115.827 2  24125798.564    24125798.635  
        22.100          13.900  
  24066399.744    -5708555.249 4  -4448218.754 3  24066398.735    24066399.110  
        24.900          23.400  
 06  6  7  1 34  0.0000000  0  8G 3G 7G13G16G19G23G25G27
  20722630.674   -19995946.467 7 -15581242.073 6  20722629.616    20722630.030  
        44.100          41.100  
  22269463.451   -11760480.088 6  -9163990.966 5  22269462.609    22269462.666  
        37.000          34.600  
  20845489.396   -19720934.902 7 -15366952.877 7  20845489.104    20845487.818  
        44.300          43.000  
  21543260.085   -15942893.644 7 -12423015.975 6  21543258.791    21543257.498  
        42.800          38.200  
  22660656.221   -10219585.192 5  -7963305.308 5  22660654.260    22660653.794  
        35.400          32.600  
  21016582.476   -19169666.418 7 -14937391.532 6  21016581.332    21016578.702  
        44.800          41.000  
  24142470.157    -1636066.625 3  -1274847.994 2  24142469.218    24142470.563  
        22.600          16.100  
  24050060.002    -5794417.899 4  -4515124.632 4  24050059.533    24050060.086  
        24.200          25.300  
 06  6  7  1 34 30.0000000  0  8G 3G 7G13G16G19G23G25G27
  20714156.357   -20040478.770 7 -15615942.543 6  20714155.391    20714155.699  
        44.300          41.000  
  22279665.526   -11706866.184 6  -9122213.890 5  22279664.714    22279665.040  
        37.200          34.900  
  20843965.312   -19728944.140 7 -15373193.839 7  20843964.965    20843963.729  
        44.400          43.200  
  21556325.847   -15874231.603 7 -12369513.071 6  21556324.739    21556323.419  
        42.800          38.400  
  22641748.387   -10318946.053 5  -8040729.299 5  22641746.476    22641745.850  
        35.400          32.400  
  21028828.270   -19105314.572 7 -14887247.244 6  21028827.099    21028824.525  
        44.700          40.700  
  24159169.397    -1548310.918 3  -1206466.944 2  24159168.158    24159169.837  
        22.100          17.800  
  24033726.428    -5880255.028 4  -4582010.625 4  24033725.455    24033725.501  
        25.900          24.600  
 06  6  7  1 35  0.0000000  0  8G 3G 7G13G16G19G23G25G27
  20705791.914   -20084434.460 7 -15650193.705 6  20705790.858    20705791.242  
        44.400          41.200  
  22289952.240   -11652810.175 6  -9080092.312 5  22289951.287    22289951.407  
        36.600          33.800  
  20842561.021   -19736323.338 7 -15378943.858 7  20842560.692    20842559.419  
        44.300          43.100  
  21569435.984   -15805336.450 7 -12315828.517 6  21569434.859    21569433.705  
        42.500          38.400  
  22622891.492   -10418040.191 5  -8117945.459 5  22622889.232    22622888.778  
        34.900          32.400  
  21041173.688   -19040440.796 7 -14836696.253 6  21041172.306    21041169.459  
        44.600          40.400  
  24175896.631    -1460410.753 3  -1137973.356 2  24175895.570    24175896.726  
        23.000          15.100  
  24017397.004    -5966065.186 4  -4648875.609 4  24017395.932    24017396.622  
        25.900          25.600  
 06  6  7  1 35 30.0000000  0  8G 3G 7G13G16G19G23G25G27
  20697537.368   -20127812.145 7 -15683994.468 6  20697536.288    20697536.756  
        44.300          41.100  
  22300322.250   -11598314.422 6  -9037628.079 5  22300321.395    22300321.607  
        36.800          34.300  
  20841277.114   -19743071.743 7 -15384202.358 7  20841276.706    20841275.389  
        44.600          43.100  
  21582590.502   -15736209.178 7 -12261963.108 6  21582589.365    21582588.165  
        42.500          38.200  
  22604085.875   -10516864.971 5  -8194951.736 5  22604083.451    22604083.141  
        34.700          33.100  
  21053617.055   -18975047.396 7 -14785740.362 6  21053616.064    21053613.503  
        44.300          40.600  
  24192650.468    -1372366.776 3  -1069367.667 2  24192650.019    24192651.628  
        22.100          16.100  
  24001072.865    -6051847.261 4  -4715718.715 4  24001071.955    24001072.590  
        25.900          24.600  
 06  6  7  1 36  0.0000000  0  8G 3G 7G13G16G19G23G25G27
  20689392.940   -20170610.372 7 -15717343.705 6  20689391.976    20689392.558  
        44.200          41.200  
  22310776.150   -11543380.295 6  -8994822.290 5  22310775.145    22310775.311  
        36.700          34.300  
  20840112.692   -19749188.997 7 -15388969.046 7  20840112.454    20840111.329  
        44.100          43.200  
  21595788.986   -15666851.430 7 -12207918.100 6  21595787.797    21595786.524  
        42.500          38.100  
  22585332.053   -10615417.456 5  -8271745.815 5  22585329.549    22585329.075  
        34.700          32.700  
  21066159.967   -18909135.954 7 -14734380.816 6  21066158.642    21066156.086  
        44.400          40.500  
  24209430.719    -1284179.646 3  -1000650.461 2  24209430.869    24209433.044  
        21.100          17.800  
  23984754.158    -6137600.537 4  -4782539.364 4  23984753.358    23984754.310  
        24.900          24.600  
 06  6  7  1 36 30.0000000  0  8G 3G 7G13G16G19G23G25G27
  20681359.439   -20212827.700 7 -15750240.301 6  20681358.384    20681358.662  
        44.600          41.100  
  22321312.883   -11488009.763 6  -8951676.408 5  22321311.906    22321311.931  
        36.900          33.900  
  20839068.814   -19754674.557 7 -15393243.502 7  20839068.513    20839067.474  
        44.100          43.400  
  21609030.785   -15597264.738 7 -12153694.689 6  21609029.608    21609028.242  
        42.500          38.000  
  22566630.092   -10713695.036 5  -8348325.690 5  22566627.670    22566627.402  
        34.900          33.100  
  21078800.802   -18842708.788 7 -14682619.388 6  21078799.441    21078796.611  
        44.600          40.000  
  24226240.520    -1195850.013 3   -931822.221 3  24226240.109    24226241.362  
        21.600          18.600  
  23968442.088    -6223323.868 4  -4849336.671 4  23968441.427    23968441.604  
        25.600          24.200  
 06  6  7  1 37  0.0000000  0  8G 3G 7G13G16G19G23G25G27
  20673436.447   -20254462.826 7 -15782683.230 6  20673435.462    20673435.718  
        44.300          41.100  
  22331932.514   -11432204.876 6  -8908192.072 5  22331931.406    22331931.198  
        36.600          33.600  
  20838145.614   -19759528.184 7 -15397025.554 7  20838145.210    20838143.869  
        44.500          43.400  
  21622315.897   -15527450.943 7 -12099294.318 6  21622314.779    21622313.399  
        42.500          37.700  
  22547981.347   -10811695.189 5  -8424689.388 5  22547979.068    22547978.310  
        35.100          32.100  
  21091538.928   -18775768.003 7 -14630457.741 6  21091537.806    21091535.094  
        44.500          40.100  
  24243076.203    -1107378.749 3   -862883.593 2  24243075.603    24243076.527  
        21.600          13.900  
  23952135.009    -6309016.286 4  -4916109.926 4  23952134.309    23952134.917  
        26.500          24.200  
 06  6  7  1 37 30.0000000  0  8G 3G 7G13G16G19G23G25G27
  20665624.727   -20295514.530 7 -15814671.535 6  20665623.608    20665623.897  
        44.300          41.500  
  22342633.812   -11375967.071 6  -8864370.400 5  22342632.850    22342633.111  
        36.900          34.300  
  20837342.167   -19763749.039 7 -15400314.535 7  20837341.857    20837340.797  
        44.700          43.500  
  21635643.766   -15457411.628 7 -12044718.227 6  21635642.722    21635641.602  
        42.200          37.900  
  22529385.848   -10909415.071 5  -8500834.705 5  22529383.619    22529382.674  
        35.800          32.600  
  21104374.376   -18708315.787 7 -14577897.581 6  21104373.390    21104370.861  
        44.300          40.200  
  24259938.572    -1018766.438 3   -793835.051 2  24259937.305    24259939.637  
        20.500          17.000  
  23935834.274    -6394677.154 4  -4982858.594 3  23935833.337    23935834.166  
        25.900          23.800  
 06  6  7  1 38  0.0000000  0  8G 3G 7G13G16G19G23G25G27
  20657923.886   -20335981.444 7 -15846204.166 6  20657922.900    20657923.243  
        44.200          41.300  
  22353417.232   -11319298.639 6  -8820213.183 5  22353416.348    22353416.742  
        36.500          34.000  
  20836659.535   -19767336.861 7 -15403110.241 7  20836659.145    20836657.730  
        44.400          43.200  
  21649014.351   -15387148.383 7 -11989967.665 6  21649013.395    21649012.184  
        42.300          37.800  
  22510843.962   -11006851.951 6  -8576759.504 5  22510842.029    22510841.005  
        36.000          32.100  
  21117307.689   -18640354.241 7 -14524940.537 6  21117306.279    21117303.543  
        44.600          39.900  
  24276827.896     -930013.778 3   -724677.155 2  24276826.115    24276828.655  
        21.100          13.900  
  23919540.519    -6480304.963 4  -5049581.538 3  23919539.316    23919539.146  
        27.400          22.100  
 06  6  7  1 38 30.0000000  0  8G 3G 7G13G16G19G23G25G27
  20650334.791   -20375862.336 7 -15877280.158 6  20650333.745    20650334.203  
        44.400          41.300  
  22364282.749   -11262201.078 6  -8775721.574 5  22364281.631    22364281.812  
        36.300          33.400  
  20836097.303   -19770291.314 7 -15405412.420 7  20836096.985    20836095.642  
        44.600          43.400  
  21662427.461   -15316662.746 6 -11935043.782 6  21662426.364    21662425.087  
        41.900          37.600  
  22492356.745   -11104003.465 5  -8652461.931 5  22492354.629    22492353.690  
        35.200          32.400  
  21130336.482   -18571885.043 7 -14471587.916 6  21130335.346    21130332.752  
        44.300          39.700  
  24293743.658     -841121.539 3   -655410.539 2  24293742.223    24293744.480  
        18.600          15.100  
  23903251.980    -6565898.600 4  -5116277.818 3  23903251.115    23903250.583  
        27.600          19.300  
 06  6  7  1 39  0.0000000  0  8G 3G 7G13G16G19G23G25G27
  20642857.445   -20415156.065 7 -15907898.626 6  20642856.475    20642856.726  
        44.400          41.500  
  22375229.545   -11204676.592 6  -8730897.302 5  22375228.502    22375228.275  
        36.600          32.700  
  20835655.597   -19772611.874 7 -15407220.661 7  20835655.321    20835654.007  
        44.500          43.400  
  21675882.636   -15245956.358 6 -11879947.907 6  21675881.431    21675880.094  
        41.700          37.600  
  22473924.345   -11200866.647 6  -8727939.687 5  22473922.332    22473921.292  
        36.800          32.700  
  21143461.699   -18502910.762 7 -14417841.727 6  21143460.751    21143458.224  
        44.600          39.900  
  24310684.449     -752090.450 3   -586035.663 2  24310684.175    24310686.076  
        21.600          12.600  
  23886970.884    -6651457.231 4  -5182946.874 3  23886970.036    23886969.543  
        28.600          21.100  
 06  6  7  1 39 30.0000000  0  8G 3G 7G13G16G19G23G25G27
  20635491.914   -20453861.491 7 -15938058.664 6  20635490.894    20635491.362  
        44.300          41.600  
  22386256.821   -11146727.022 6  -8685741.805 5  22386255.764    22386255.814  
        36.100          33.100  
  20835334.902   -19774298.117 7 -15408534.625 7  20835334.612    20835333.233  
        44.600          43.200  
  21689379.391   -15175030.494 6 -11824681.010 6  21689378.203    21689376.999  
        41.900          37.500  
  22455547.392   -11297438.640 6  -8803190.551 5  22455545.271    22455544.203  
        36.900          32.800  
  21156683.518   -18433433.496 7 -14363703.605 6  21156682.098    21156679.237  
        44.600          39.800  
  24327652.839     -662921.182 3   -516553.165 3  24327652.643    24327655.020  
        21.100          18.600  
  23870696.673    -6736979.457 4  -5249587.591 3  23870695.728    23870695.206  
        28.600          22.600  
 06  6  7  1 40  0.0000000  0  8G 3G 7G13G16G19G23G25G27
  20628238.593   -20491977.444 7 -15967759.376 6  20628237.667    20628238.084  
        44.600          41.600  
  22397364.434   -11088353.978 5  -8640256.317 5  22397363.603    22397364.007  
        35.800          34.000  
  20835134.891   -19775349.766 7 -15409354.104 7  20835134.547    20835133.058  
        44.700          43.500  
  21702917.293   -15103887.061 7 -11769244.576 6  21702916.261    21702914.991  
        42.000          36.900  
  22437224.930   -11393717.294 6  -8878212.844 5  22437223.804    22437222.945  
        37.100          33.000  
  21169999.677   -18363455.471 7 -14309175.272 6  21169998.318    21169995.660  
        44.100          39.800  
  24344648.082     -573614.479 3   -446963.533 2  24344647.591    24344648.997  
        19.900          13.900  
  23854429.400    -6822464.462 4  -5316199.263 3  23854428.319    23854428.095  
        27.100          20.500  
 06  6  7  1 40 30.0000000  0  8G 3G 7G13G16G19G23G25G27
  20621097.795   -20529502.586 7 -15996999.713 6  20621096.891    20621097.377  
        44.700          41.700  
  22408552.897   -11029559.674 5  -8594442.575 5  22408551.793    22408552.201  
        35.600          33.600  
  20835055.407   -19775766.684 7 -15409678.989 7  20835055.125    20835053.796  
        44.800          43.500  
  21716496.640   -15032527.475 6 -11713639.728 6  21716495.504    21716494.274  
        41.800          36.900  
  22418959.959   -11489699.934 6  -8953004.465 5  22418958.774    22418958.136  
        37.000          33.600  
  21183410.652   -18292978.985 7 -14254258.536 6  21183409.669    21183406.797  
        44.300          39.600  
  24361669.216     -484171.148 3   -377267.468 2  24361667.960    24361669.669  
        19.300          13.900  
  23838169.328    -6907911.120 4  -5382781.062 4  23838168.418    23838168.964  
        28.400          24.600  
 06  6  7  1 41  0.0000000  0  8G 3G 7G13G16G19G23G25G27
  20614069.746   -20566435.824 7 -16025778.835 6  20614068.765    20614069.101  
        44.600          41.800  
  22419820.980   -10970346.072 6  -8548302.106 5  22419820.021    22419820.281  
        36.100          34.000  
  20835097.287   -19775548.466 7 -15409508.962 7  20835096.872    20835095.326  
        44.700          43.600  
  21730116.950   -14960953.292 6 -11657867.632 6  21730115.680    21730114.309  
        41.400          37.200  
  22400751.924   -11585383.699 6  -9027563.201 5  22400750.844    22400750.186  
        36.900          33.800  
  21196916.524   -18222005.978 7 -14198954.901 6  21196915.442    21196912.577  
        44.100          39.500  
  24378715.671     -394591.858 3   -307465.446 2  24378714.465    24378715.649  
        21.100          17.000  
  23821916.442    -6993318.204 4  -5449331.984 4  23821915.654    23821916.150  
        26.800          24.600  
 06  6  7  1 41 30.0000000  0  8G 3G 7G13G16G19G23G25G27
  20607154.262   -20602776.075 7 -16054095.885 6  20607153.391    20607153.787  
        44.800          41.700  
  22431168.206   -10910714.970 6  -8501836.322 5  22431167.411    22431167.716  
        36.000          34.100  
  20835259.484   -19774694.727 7 -15408843.735 7  20835259.178    20835257.716  
        44.900          43.200  
  21743777.809   -14889166.113 6 -11601929.576 6  21743776.537    21743775.085  
        41.600          36.900  
  22382601.407   -11680765.891 6  -9101886.929 5  22382600.041    22382599.739  
        36.400          34.800  
  21210516.353   -18150539.078 7 -14143266.416 6  21210515.001    21210512.166  
        44.000          39.000  
  24395787.597     -304877.340 3   -237558.059 2  24395786.250    24395788.249  
        21.100          15.100  
  23805672.720    -7078684.865 4  -5515851.461 4  23805671.535    23805671.603  
        27.400          24.600  
 06  6  7  1 42  0.0000000  0  8G 3G 7G13G16G19G23G25G27
  20600352.035   -20638522.382 7 -16081950.124 6  20600351.063    20600351.454  
        44.800          41.900  
  22442594.893   -10850668.244 6  -8455046.657 5  22442593.995    22442594.016  
        36.100          33.200  
  20835542.889   -19773205.315 7 -15407683.177 7  20835542.567    20835541.186  
        44.600          43.400  
  21757478.360   -14817167.815 6 -11545827.014 6  21757477.135    21757475.977  
        41.600          36.700  
  22364508.443   -11775843.867 6  -9175973.600 5  22364507.212    22364507.011  
        36.500          35.300  
  21224209.389   -18078580.426 7 -14087194.745 6  21224208.142    21224205.556  
        43.900          39.100  
  24412885.282     -215028.418 3   -167545.934 2  24412884.254    24412885.759  
        21.600          12.600  
  23789435.826    -7164010.002 4  -5582338.532 4  23789434.926    23789434.377  
        27.600          24.900  
 06  6  7  1 42 30.0000000  0  8G 3G 7G13G16G19G23G25G27
  20593663.023   -20673673.604 7 -16109340.655 6  20593662.037    20593662.369  
        44.800          41.900  
  22454100.243   -10790207.821 6  -8407934.613 5  22454099.198    22454099.094  
        36.000          33.100  
  20835947.406   -19771079.981 7 -15406027.094 7  20835947.064    20835945.714  
        44.600          43.500  
  21771219.146   -14744959.687 6 -11489560.968 6  21771217.880    21771216.864  
        41.200          37.300  
  22346474.671   -11870615.123 6  -9249821.277 5  22346472.940    22346472.336  
        37.100          35.100  
  21237995.636   -18006131.876 7 -14030741.337 6  21237994.801    21237991.966  
        43.900          39.200  
  24430009.746     -125045.857 3    -97429.682 2  24430007.864    24430009.211  
        19.300          12.600  
  23773206.669    -7249292.170 4  -5648792.105 4  23773205.728    23773205.870  
        27.900          26.500  
 06  6  7  1 43  0.0000000  0  8G 3G 7G13G16G19G23G25G27
  20587087.333   -20708228.833 7 -16136266.782 7  20587086.372    20587086.750  
        45.000          42.300  
  22465683.790   -10729335.797 5  -8360501.835 5  22465682.685    22465682.730  
        35.500          33.400  
  20836473.044   -19768318.526 7 -15403875.335 7  20836472.652    20836471.281  
        44.800          43.600  
  21784999.762   -14672542.786 6 -11433132.202 6  21784998.524    21784997.253  
        41.500          37.000  
  22328499.747   -11965076.868 6  -9323427.799 5  22328497.506    22328496.792  
        37.700          34.300  
  21251874.982   -17933196.207 7 -13973908.364 6  21251873.918    21251871.289  
        43.800          39.200  
  24447159.240      -34930.318 3    -27209.809    24447157.034    24447156.941  
        19.900           3.000  
  23756986.350    -7334530.501 4  -5715211.542 4  23756985.461    23756985.553  
        29.000          27.600  
 06  6  7  1 43 30.0000000  0  8G 3G 7G13G16G19G23G25G27
  20580625.452   -20742186.693 7 -16162727.429 7  20580624.457    20580624.782  
        45.000          42.100  
  22477345.049   -10668054.231 5  -8312749.921 5  22477344.028    22477344.526  
        35.600          33.900  
  20837119.477   -19764920.964 7 -15401227.903 7  20837119.143    20837117.819  
        44.700          43.400  
  21798819.629   -14599919.239 6 -11376542.402 6  21798818.424    21798816.912  
        41.500          36.500  
  22310583.500   -12059226.633 6  -9396791.217 5  22310581.139    22310580.521  
        37.100          34.700  
  21265846.771   -17859775.595 7 -13916697.514 6  21265845.481    21265842.799  
        43.600          39.200  
  24464332.516       55317.345 3     43113.031 2  24464330.537    24464330.615  
        21.100          13.900  
  23740774.415    -7419724.038 4  -5781596.106 4  23740773.634    23740773.927  
        28.800          28.100  
 06  6  7  1 44  0.0000000  0  8G 3G 7G13G16G19G23G25G27
  20574277.281   -20775546.327 7 -16188721.917 7  20574276.256    20574276.580  
        45.000          42.100  
  22489084.092   -10606364.774 6  -8264680.164 5  22489083.167    22489083.491  
        36.100          32.800  
  20837886.913   -19760887.035 7 -15398084.605 7  20837886.606    20837885.486  
        44.300          43.600  
  21812678.173   -14527090.540 6 -11319792.747 6  21812677.183    21812675.824  
        41.500          36.500  
  22292727.043   -12153061.625 6  -9469909.355 5  22292724.784    22292724.011  
        37.200          34.100  
  21279910.168   -17785872.195 7 -13859110.455 6  21279908.858    21279906.064  
        43.900          39.000  
  24481530.053      145696.377 2    113538.225 1  24481528.293    24481529.007  
        17.800           9.000  
  23724571.460    -7504871.407 4  -5847944.654 4  23724570.521    23724570.627  
        28.100          27.600  
 06  6  7  1 44 30.0000000  0  8G 3G 7G13G16G19G23G25G27
  20568043.072   -20808306.907 7 -16214249.618 7  20568042.072    20568042.387  
        45.200          42.200  
  22500900.084   -10544269.830 5  -8216294.473 5  22500899.391    22500899.746  
        35.800          32.300  
  20838775.980   -19756216.698 7 -15394445.401 7  20838775.597    20838774.174  
        44.800          43.700  
  21826575.446   -14454058.020 6 -11262884.278 6  21826574.526    21826573.426  
        41.200          36.100  
  22274930.689   -12246579.505 6  -9542780.391 5  22274928.831    22274928.223  
        37.600          33.800  
  21294064.861   -17711488.270 7 -13801148.964 6  21294063.532    21294060.921  
        43.500          39.200  
  24498753.049      236206.076 3    184065.247 1  24498751.236    24498752.607  
        19.900          11.000  
  23708377.476    -7589971.755 4  -5914256.565 4  23708376.306    23708376.379  
        27.900          26.500  
 06  6  7  1 45  0.0000000  0  8G 3G 7G13G16G19G23G25G27
  20561923.233   -20840467.459 7 -16239309.757 7  20561922.269    20561922.353  
        45.300          42.400  
  22512793.028   -10481771.007 5  -8167594.039 5  22512792.268    22512792.761  
        35.300          32.400  
  20839785.771   -19750910.093 7 -15390310.401 7  20839785.423    20839783.970  
        44.800          43.600  
  21840512.170   -14380823.352 6 -11205818.294 6  21840510.917    21840509.161  
        41.000          36.000  
  22257195.845   -12339777.557 6  -9615402.211 5  22257194.076    22257193.269  
        38.000          34.700  
  21308310.054   -17636626.427 7 -13742815.081 6  21308309.224    21308306.572  
        43.600          38.700  
  24516000.730      326845.638 3    254693.426 2  24515999.119    24516001.027  
        19.300          12.600  
  23692191.992    -7675023.506 4  -5980530.635 4  23692191.258    23692191.349  
        28.400          25.900  
 06  6  7  1 45 30.0000000  0  8G 3G 7G13G16G19G23G25G27
  20555917.512   -20872026.874 7 -16263901.481 7  20555916.625    20555916.740  
        45.200          42.300  
  22524762.728   -10418870.481 5  -8118580.627 5  22524761.801    22524762.160  
        34.700          31.800  
  20840916.573   -19744966.784 7 -15385679.269 7  20840916.271    20840914.883  
        44.600          43.400  
  21854486.285   -14307388.242 6 -11148596.099 5  21854485.199    21854483.583  
        41.300          35.700  
  22239521.867   -12432653.118 6  -9687772.740 5  22239520.328    22239519.635  
        38.100          34.500  
  21322646.175   -17561289.113 7 -13684110.702 6  21322645.465    21322642.829  
        43.500          38.400  
  24533272.606      417614.200 3    325422.147 1  24533271.959    24533274.043  
        21.100          11.000  
  23676016.226    -7760025.506 4  -6046765.916 4  23676015.379    23676015.979  
        27.400          24.600  
 06  6  7  1 46  0.0000000  0  8G 3G 7G13G16G19G23G25G27
  20550026.534   -20902984.409 7 -16288024.203 7  20550025.586    20550025.811  
        45.500          42.200  
  22536808.834   -10355570.280 5  -8069255.752 5  22536807.801    22536807.576  
        35.700          31.300  
  20842168.635   -19738386.923 7 -15380552.117 7  20842168.335    20842167.164  
        44.600          43.600  
  21868498.068   -14233753.779 6 -11091218.563 5  21868497.246    21868495.756  
        41.000          35.500  
  22221910.177   -12525203.615 6  -9759889.972 5  22221908.555    22221907.908  
        38.100          34.900  
  21337072.700   -17485478.423 7 -13625037.452 6  21337071.823    21337069.186  
        43.500          38.600  
  24550570.593      508511.045 3    396250.783 2  24550569.242    24550571.443  
        19.300          16.100  
  23659851.140    -7844976.523 4  -6112961.475 4  23659850.136    23659850.691  
        28.400          25.900  
 06  6  7  1 46 30.0000000  0  8G 3G 7G13G16G19G23G25G27
  20544250.204   -20933339.207 7 -16311677.258 7  20544249.156    20544249.465  
        45.400          42.500  
  22548930.336   -10291872.523 5  -8019621.099 5  22548929.321    22548928.867  
        35.800          31.600  
  20843542.064   -19731170.509 7 -15374928.946 7  20843541.685    20843540.472  
        44.700          43.800  
  21882548.016   -14159921.590 6 -11033686.962 6  21882546.800    21882545.495  
        40.500          36.000  
  22204361.014   -12617426.499 6  -9831751.922 5  22204359.170    22204358.516  
        38.400          35.900  
  21351588.912   -17409196.722 7 -13565597.188 6  21351587.748    21351585.226  
        43.300          38.900  
  24567891.363      599535.371 3    467178.766 2  24567890.750    24567892.069  
        18.600          13.900  
  23643695.129    -7929875.812 4  -6179116.734 4  23643694.288    23643694.570  
        29.000          25.600  
 06  6  7  1 47  0.0000000  0  8G 3G 7G13G16G19G23G25G27
  20538588.530   -20963090.660 7 -16334860.177 7  20538587.565    20538587.771  
        45.300          42.000  
  22561126.686   -10227779.029 5  -7969678.088 5  22561125.642    22561125.527  
        35.400          32.100  
  20845036.391   -19723317.506 7 -15368809.733 7  20845036.062    20845034.819  
        44.600          43.700  
  21896635.291   -14085893.308 6 -10976002.579 5  21896634.013    21896632.727  
        40.700          35.900  
  22186874.850   -12709319.177 6  -9903356.574 5  22186872.680    22186871.843  
        38.100          35.400  
  21366194.071   -17332446.646 7 -13505791.949 6  21366192.731    21366190.207  
        43.100          38.500  
  24585236.803      690686.406 3    538205.482 2  24585235.995    24585237.837  
        20.500          13.900  
  23627549.586    -8014722.110 4  -6245230.729 4  23627548.805    23627548.810  
        29.700          25.300  
 06  6  7  1 47 30.0000000  0  8G 3G 7G13G16G19G23G25G27
  20533042.084   -20992237.866 7 -16357572.253 7  20533041.130    20533041.154  
        45.500          42.400  
  22573397.734   -10163291.843 5  -7919428.304 5  22573396.859    22573397.139  
        34.800          31.800  
  20846651.654   -19714828.077 7 -15362194.598 7  20846651.350    20846650.337  
        44.400          43.600  
  21910759.137   -14011670.430 6 -10918166.557 5  21910758.047    21910756.791  
        40.500          35.900  
  22169451.509   -12800878.990 6  -9974701.846 5  22169449.534    22169448.449  
        38.500          35.100  
  21380888.046   -17255230.443 7 -13445623.498 6  21380886.621    21380884.066  
        42.900          38.400  
  24602605.541      781963.333 3    609330.287 1  24602605.700    24602607.296  
        18.600          11.000  
  23611414.340    -8099514.434 4  -6311302.627 4  23611413.517    23611413.377  
        29.900          26.800  
 06  6  7  1 48  0.0000000  0  8G 3G 7G13G16G19G23G25G27
  20527610.842   -21020779.828 7 -16379812.709 7  20527609.762    20527609.751  
        45.600          42.300  
  22585743.724   -10098413.119 5  -7868873.437 5  22585742.834    22585743.000  
        34.800          32.000  
  20848388.312   -19705702.230 7 -15355083.555 7  20848387.945    20848387.060  
        44.500          43.800  
  21924920.305   -13937254.429 6 -10860180.050 5  21924918.937    21924917.780  
        40.600          35.800  
  22152091.252   -12892103.817 6 -10045786.091 5  22152089.765    22152088.853  
        38.300          35.500  
  21395669.799   -17177550.356 7 -13385093.578 6  21395668.528    21395666.088  
        43.100          38.400  
  24619998.448      873365.397 2    680552.636    24619999.151    24620000.325  
        17.800           3.000  
  23595289.658    -8184251.115 4  -6377331.165 4  23595288.591    23595288.250  
        28.600          26.800  
 06  6  7  1 48 30.0000000  0  8G 3G 7G13G16G19G23G25G27
  20522294.619   -21048715.734 7 -16401580.915 7  20522293.651    20522293.739  
        45.600          42.300  
  22598164.103   -10033144.824 5  -7818015.024 5  22598162.898    22598163.251  
        34.600          32.000  
  20850246.110   -19695940.282 7 -15347476.844 7  20850245.743    20850244.552  
        44.600          43.600  
  21939117.381   -13862646.808 6 -10802044.210 5  21939116.343    21939114.891  
        40.500          35.400  
  22134795.563   -12982990.597 6 -10116606.916 5  22134794.297    22134793.553  
        38.600          35.400  
  21410539.287   -17099409.240 7 -13324204.416 6  21410538.224    21410535.828  
        42.700          38.400  
  24637415.445      964891.682 2    751871.746 1  24637415.618    24637417.835  
        17.800           9.000  
  23579175.669    -8268930.915 5  -6443315.395 4  23579174.527    23579174.251  
        30.100          27.600  
 06  6  7  1 49  0.0000000  0  8G 3G 7G13G16G19G23G25G27
  20517094.038   -21076045.029 7 -16422876.436 7  20517093.026    20517093.138  
        45.600          42.600  
  22610658.195    -9967489.167 5  -7766854.739 5  22610657.094    22610656.943  
        34.800          32.100  
  20852224.871   -19685542.211 7 -15339374.450 7  20852224.567    20852223.251  
        44.700          43.600  
  21953351.274   -13787848.931 6 -10743760.149 5  21953350.107    21953348.651  
        40.500          35.300  
  22117565.540   -13073536.933 6 -10187162.463 5  22117563.980    22117563.162  
        38.600          35.400  
  21425496.122   -17020809.428 7 -13262957.832 6  21425495.264    21425492.874  
        42.500          37.800  
  24654855.426     1056541.475 2    823287.093 1  24654856.161    24654857.945  
        16.100           9.000  
  23563072.002    -8353553.093 4  -6509254.696 4  23563071.265    23563071.415  
        29.900          27.400  
 06  6  7  1 49 30.0000000  0  8G 3G 7G13G16G19G23G25G27
  20512008.994   -21102766.943 7 -16443698.676 7  20512007.992    20512008.078  
        45.600          42.500  
  22623225.430    -9901448.055 5  -7715394.157 5  22623224.482    22623224.069  
        35.200          31.500  
  20854324.452   -19674508.232 7 -15330776.541 7  20854324.097    20854322.899  
        44.500          43.700  
  21967620.780   -13712862.277 6 -10685328.985 5  21967619.676    21967618.116  
        40.000          35.200  
  22100400.787   -13163740.450 6 -10257450.881 6  22100398.966    22100398.193  
        38.700          36.300  
  21440540.098   -16941753.279 7 -13201355.650 6  21440539.280    21440536.607  
        42.500          37.500  
  24672319.160     1148313.932 2    894798.023    24672319.973    24672321.606  
        16.100           3.000  
  23546981.189    -8438116.197 5  -6575148.004 4  23546979.982    23546978.982  
        30.200          26.800  
 06  6  7  1 50  0.0000000  0  8G 3G 7G13G16G19G23G25G27
  20507039.650   -21128881.068 7 -16464047.309 7  20507038.682    20507038.784  
        45.800          42.700  
  22635865.491    -9835023.483 5  -7663634.724 5  22635864.416    22635864.411  
        34.600          32.000  
  20856545.036   -19662838.606 7 -15321683.325 7  20856544.684    20856543.623  
        44.400          43.500  
  21981926.011   -13637688.356 6 -10626751.886 5  21981924.713    21981923.175  
        40.300          35.100  
  22083301.399   -13253598.451 6 -10327470.065 6  22083299.621    22083298.770  
        39.500          36.500  
  21455670.270   -16862243.421 7 -13139399.937 6  21455669.400    21455667.097  
        42.300          37.900  
  24689806.372     1240208.204 3    966403.876 1  24689806.956    24689808.753  
        21.100           6.500  
  23530899.689    -8522619.249 4  -6640994.527 4  23530898.923    23530898.927  
        29.700          28.100  
 06  6  7  1 50 30.0000000  0  7G 3G 7G13G16G19G23G27
  20502186.119   -21154386.469 7 -16483921.620 7  20502185.150    20502185.211  
        45.600          42.600  
  22648578.087    -9768217.772 5  -7611578.341 5  22648577.097    22648577.174  
        33.900          32.000  
  20858886.590   -19650533.329 7 -15312094.795 7  20858886.211    20858885.188  
        44.100          43.400  
  21996266.113   -13562328.764 6 -10568030.120 5  21996265.045    21996263.320  
        40.200          34.700  
  22066268.132   -13343108.202 6 -10397217.882 6  22066266.494    22066265.495  
        39.600          36.300  
  21470886.246   -16782282.369 7 -13077092.643 6  21470885.644    21470883.327  
        42.600          38.100  
  23514830.926    -8607060.662 4  -6706792.986 4  23514829.998    23514830.405  
        29.500          28.400  
 06  6  7  1 51  0.0000000  0  8G 3G 7G13G15G16G19G23G27
  20497448.600   -21179282.466 7 -16503321.065 7  20497447.631    20497447.641  
        45.900          42.800  
  22661363.361    -9701032.801 5  -7559226.413 5  22661362.185    22661361.940  
        34.400          31.100  
  20861349.112   -19637592.812 7 -15302011.270 7  20861348.765    20861347.619  
        44.200          43.500  
  24623778.561      -73094.610 3    -56957.047 1  24623777.258    24623777.843  
        21.100           6.500  
  22010641.479   -13486784.982 6 -10509164.845 5  22010640.496    22010638.804  
        40.000          34.700  
  22049302.038   -13432267.634 6 -10466692.725 6  22049300.109    22049299.067  
        39.800          36.500  
  21486188.147   -16701872.473 7 -13014435.604 6  21486187.206    21486184.820  
        42.700          37.600  
  23498774.205    -8691439.199 4  -6772542.430 4  23498773.481    23498773.615  
        29.700          27.900  
 06  6  7  1 51 30.0000000  0  8G 3G 7G13G15G16G19G23G27
  20492827.100   -21203568.366 7 -16522245.111 7  20492826.098    20492826.106  
        45.600          42.800  
  22674219.708    -9633470.600 5  -7506580.530 5  22674218.625    22674218.750  
        34.300          31.300  
  20863932.634   -19624017.315 7 -15291432.957 7  20863932.334    20863930.883  
        44.700          43.400  
  24613432.014     -127467.393 3    -99325.369 1  24613430.601    24613430.707  
        19.900           6.500  
  22025051.576   -13411058.234 6 -10450156.994 5  22025050.677    22025049.312  
        39.800          34.000  
  22032402.880   -13521074.285 6 -10535892.678 6  22032400.618    22032399.513  
        39.500          36.200  
  21501574.837   -16621016.292 7 -12951430.801 6  21501573.700    21501571.210  
        42.700          37.600  
  23482730.339    -8775753.542 5  -6838241.829 4  23482729.429    23482729.238  
        30.400          27.600  
 06  6  7  1 52  0.0000000  0  8G 3G 7G13G15G16G19G23G27
  20488321.690   -21227243.588 7 -16540693.303 7  20488320.812    20488320.883  
        45.900          42.700  
  22687147.692    -9565533.378 5  -7453642.393 5  22687146.683    22687146.686  
        33.900          30.800  
  20866636.566   -19609807.154 7 -15280360.101 7  20866636.254    20866635.156  
        44.500          43.700  
  24603158.100     -181453.638 3   -141392.491 1  24603157.242    24603157.643  
        20.500           6.500  
  22039497.118   -13335149.955 6 -10391007.674 5  22039495.863    22039494.145  
        39.900          34.300  
  22015570.940   -13609525.436 6 -10604815.610 6  22015568.914    22015567.776  
        40.000          36.500  
  21517045.315   -16539716.378 7 -12888080.234 6  21517044.568    21517042.040  
        42.400          37.500  
  23466698.461    -8860002.482 5  -6903890.308 4  23466697.341    23466696.884  
        31.300          29.000  
 06  6  7  1 52 30.0000000  0  8G 3G 7G13G15G16G19G23G27
  20483932.883   -21250307.702 7 -16558665.304 7  20483931.776    20483931.836  
        45.800          42.700  
  22700146.449    -9497223.248 5  -7400413.693 5  22700145.495    22700145.712  
        34.100          31.500  
  20869461.338   -19594962.639 7 -15268792.947 7  20869461.006    20869459.968  
        44.500          43.600  
  24592958.395     -235050.835 3   -183156.446 2  24592957.236    24592957.664  
        19.900          15.100  
  22053975.670   -13259061.693 6 -10331718.087 5  22053974.736    22053973.417  
        39.800          34.500  
  21998806.474   -13697618.546 6 -10673459.550 6  21998805.090    21998804.202  
        40.000          36.500  
  21532600.363   -16457975.431 7 -12824386.009 6  21532599.395    21532596.868  
        42.300          37.400  
  23450677.732    -8944185.004 5  -6969487.027 4  23450677.213    23450677.410  
        30.400          28.100  
 06  6  7  1 53  0.0000000  0  8G 3G 7G13G15G16G19G23G27
  20479660.199   -21272759.952 7 -16576160.529 7  20479659.246    20479659.315  
        45.600          42.800  
  22713215.784    -9428542.247 5  -7346895.981 5  22713214.895    22713215.173  
        34.300          31.500  
  20872406.992   -19579484.146 7 -15256731.776 7  20872406.649    20872405.364  
        44.500          43.400  
  24582833.375     -288256.293 2   -224615.140 1  24582832.362    24582833.140  
        16.100          11.000  
  22068488.598   -13182795.026 6 -10272289.468 5  22068487.528    22068486.464  
        39.500          34.100  
  21982111.637   -13785350.946 6 -10741822.423 6  21982110.013    21982109.181  
        40.000          36.600  
  21548238.621   -16375795.756 7 -12760349.915 6  21548237.696    21548235.133  
        42.300          37.400  
  23434671.641    -9028300.051 5  -7035031.201 4  23434670.677    23434671.113  
        30.100          29.000  
 06  6  7  1 53 30.0000000  0  8G 3G 7G13G15G16G19G23G27
  20475504.202   -21294599.996 7 -16593178.708 7  20475503.172    20475503.330  
        45.900          43.000  
  22726355.629    -9359492.523 5  -7293090.948 5  22726354.647    22726354.799  
        33.800          31.300  
  20875472.774   -19563372.178 7 -15244176.995 7  20875472.464    20875471.328  
        44.400          43.400  
  24572784.717     -341067.564 3   -265766.667 1  24572783.367    24572783.447  
        19.900          11.000  
  22083035.417   -13106351.272 6 -10212722.902 5  22083034.398    22083033.090  
        39.400          34.100  
  21965486.337   -13872720.538 6 -10809902.590 6  21965484.193    21965483.224  
        40.000          36.800  
  21563959.793   -16293180.070 7 -12695974.064 6  21563958.830    21563956.306  
        42.300          37.600  
  23418678.350    -9112345.607 4  -7100521.203 4  23418677.447    23418677.765  
        29.900          28.800  
 06  6  7  1 54  0.0000000  0  8G 3G 7G13G15G16G19G23G27
  20471464.653   -21315827.337 7 -16609719.455 7  20471463.732    20471463.792  
        45.800          42.800  
  22739565.205    -9290076.180 5  -7239000.245 5  22739564.027    22739564.245  
        33.100          31.000  
  20878659.495   -19546627.050 7 -15231128.838 7  20878659.086    20878657.894  
        44.400          43.400  
  24562808.655     -393482.183 2   -306609.097 1  24562807.774    24562809.269  
        17.800          11.000  
  22097616.068   -13029731.753 6 -10153019.361 5  22097614.857    22097613.071  
        39.400          34.100  
  21948929.740   -13959724.694 6 -10877697.998 6  21948927.864    21948926.987  
        39.900          36.700  
  21579763.844   -16210130.942 7 -12631260.476 6  21579762.796    21579760.239  
        42.600          37.900  
  23402698.752    -9196320.820 5  -7165956.442 4  23402697.810    23402697.543  
        30.400          28.600  
 06  6  7  1 54 30.0000000  0  8G 3G 7G13G15G16G19G23G27
  20467541.907   -21336441.421 7 -16625782.343 7  20467541.000    20467540.924  
        45.800          42.800  
  22752844.172    -9220295.373 5  -7184625.586 5  22752843.072    22752842.874  
        33.200          30.800  
  20881966.285   -19529248.991 7 -15217587.487 7  20881965.974    20881964.707  
        44.500          43.400  
  24552910.033     -445497.673 2   -347140.516 2  24552909.201    24552911.258  
        17.000          17.000  
  22112229.177   -12952937.938 6 -10093180.018 5  22112228.192    22112226.483  
        39.400          33.800  
  21932443.216   -14046361.016 6 -10945206.788 6  21932441.527    21932440.342  
        40.500          36.200  
  21595649.407   -16126650.889 6 -12566211.096 6  21595648.244    21595645.947  
        41.800          37.700  
  23386732.427    -9280224.169 5  -7231335.621 4  23386731.220    23386731.237  
        30.400          28.800  
 06  6  7  1 55  0.0000000  0  8G 3G 7G13G15G16G19G23G27
  20463735.788   -21356441.955 7 -16641367.136 7  20463734.922    20463734.965  
        45.900          42.900  
  22766191.892    -9150152.184 5  -7129968.508 5  22766190.965    22766190.712  
        34.300          31.100  
  20885393.477   -19511238.586 7 -15203553.401 7  20885393.192    20885392.088  
        44.500          43.300  
  24543089.108     -497111.604 2   -387359.016 2  24543087.617    24543089.093  
        15.100          15.100  
  22126875.495   -12875971.342 6 -10033206.037 5  22126874.298    22126872.697  
        39.100          33.900  
  21916027.335   -14132627.343 6 -11012427.260 6  21916025.631    21916024.534  
        40.600          36.800  
  21611616.478   -16042742.694 7 -12500828.099 6  21611615.502    21611613.163  
        42.000          37.600  
  23370779.419    -9364054.709 5  -7296658.094 4  23370778.663    23370778.797  
        31.300          28.800  
 06  6  7  1 55 30.0000000  0  8G 3G 7G13G15G16G19G23G27
  20460046.653   -21375828.484 7 -16656473.482 7  20460045.761    20460045.863  
        45.800          43.100  
  22779608.405    -9079648.956 5  -7075030.895 5  22779607.358    22779606.966  
        33.600          30.400  
  20888940.969   -19492596.571 7 -15189027.147 7  20888940.684    20888939.672  
        44.400          43.500  
  24533344.961     -548321.615 2   -427262.807 2  24533343.690    24533344.180  
        17.000          15.100  
  22141554.221   -12798833.359 6  -9973098.468 5  22141553.090    22141551.856  
        38.600          33.600  
  21899682.631   -14218520.752 6 -11079357.146 6  21899680.573    21899679.593  
        40.500          37.200  
  21627664.457   -15958408.906 6 -12435113.465 6  21627663.595    21627661.107  
        41.800          36.900  
  23354841.324    -9447811.308 5  -7361922.939 4  23354840.630    23354840.367  
        31.500          28.600  
 06  6  7  1 56  0.0000000  0  8G 3G 7G13G15G16G19G23G27
  20456474.587   -21394600.520 7 -16671101.004 7  20456473.532    20456473.548  
        45.900          43.000  
  22793092.843    -9008787.434 5  -7019814.122 5  22793091.816    22793091.859  
        34.000          31.000  
  20892608.473   -19473323.390 7 -15174009.081 7  20892608.199    20892607.124  
        44.400          43.400  
  24523676.700     -599125.301 3   -466850.018 1  24523676.092    24523676.088  
        19.900           6.500  
  22156265.656   -12721525.315 6  -9912858.406 5  22156264.376    22156262.894  
        38.800          34.000  
  21883408.902   -14304039.083 6 -11145994.765 6  21883406.971    21883405.950  
        40.400          37.200  
  21643793.262   -15873652.120 6 -12369069.228 6  21643792.269    21643789.697  
        41.200          36.500  
  23338918.153    -9531492.130 5  -7427128.724 4  23338916.827    23338916.721  
        30.800          29.700  
 06  6  7  1 56 30.0000000  0  8G 3G 7G13G15G16G19G23G27
  20453019.315   -21412757.776 7 -16685249.472 7  20453018.346    20453018.394  
        45.800          43.200  
  22806644.661    -8937570.076 5  -6964320.043 4  22806643.828    22806643.556  
        33.500          29.700  
  20896396.204   -19453419.510 7 -15158499.564 7  20896395.836    20896394.627  
        44.400          43.200  
  24514087.308     -649520.012 3   -506118.598 1  24514086.464    24514086.111  
        20.500          11.000  
  22171008.882   -12644048.628 6  -9852486.966 5  22171007.790    22171006.199  
        39.100          33.600  
  21867206.820   -14389179.748 6 -11212338.091 6  21867205.250    21867204.079  
        40.600          37.600  
  21660002.030   -15788474.937 6 -12302697.406 6  21660000.977    21659998.487  
        41.100          36.900  
  23323008.658    -9615096.019 5  -7492274.580 4  23323007.498    23323007.085  
        31.300          28.600  
 06  6  7  1 57  0.0000000  0  8G 3G 7G13G15G16G19G23G27
  20449681.304   -21430299.900 7 -16698918.616 7  20449680.238    20449680.186  
        46.000          43.200  
  22820264.389    -8865998.860 5  -6908550.234 5  22820263.357    22820263.445  
        33.000          30.100  
  20900303.730   -19432885.508 7 -15142499.034 7  20900303.405    20900302.181  
        44.600          43.200  
  24504575.560     -699503.638 3   -545066.850 1  24504574.713    24504574.923  
        19.900          11.000  
  22185784.310   -12566404.580 6  -9791985.087 5  22185783.086    22185781.497  
        38.600          34.000  
  21851077.303   -14473940.560 6 -11278385.433 6  21851075.619    21851074.672  
        40.800          37.500  
  21676290.339   -15702880.237 6 -12236000.251 6  21676289.274    21676286.514  
        41.400          36.200  
  23307113.694    -9698621.846 5  -7557359.579 4  23307112.927    23307112.750  
        32.700          29.200  
 06  6  7  1 57 30.0000000  0  8G 3G 7G13G15G16G19G23G27
  20446460.244   -21447226.397 7 -16712108.050 7  20446459.216    20446458.988  
        46.100          43.100  
  22833951.176    -8794076.185 5  -6852506.602 5  22833950.068    22833949.860  
        33.500          30.400  
  20904330.835   -19411722.020 7 -15126008.003 7  20904330.569    20904329.443  
        44.700          43.100  
  24495142.945     -749073.654 3   -583692.810 1  24495141.790    24495141.537  
        20.500          11.000  
  22200590.422   -12488594.582 6  -9731353.895 5  22200589.497    22200588.111  
        38.500          33.800  
  21835020.673   -14558318.970 6 -11344134.801 6  21835019.015    21835017.821  
        41.100          37.200  
  21692657.278   -15616870.298 6 -12168979.521 5  21692656.354    21692653.691  
        41.400          35.900  
  23291234.511    -9782067.903 5  -7622382.435 4  23291233.518    23291233.339  
        32.100          28.400  
 06  6  7  1 58  0.0000000  0  8G 3G 7G13G15G16G19G23G27
  20443356.318   -21463537.101 7 -16724817.650 7  20443355.331    20443355.108  
        46.100          42.900  
  22847704.201    -8721803.899 5  -6796190.533 5  22847703.157    22847702.735  
        33.800          30.600  
  20908478.192   -19389929.449 7 -15109026.773 7  20908477.802    20908476.319  
        44.800          43.000  
  24485788.973     -798227.673 3   -621994.633    24485787.800    24485788.112  
        19.900           3.000  
  22215428.495   -12410620.138 6  -9670594.579 5  22215427.415    22215426.208  
        38.400          33.100  
  21819036.967   -14642312.528 6 -11409584.286 6  21819035.456    21819034.406  
        41.200          37.500  
  21709102.849   -15530448.218 6 -12101637.644 6  21709101.848    21709099.459  
        40.600          36.200  
  23275370.243    -9865433.097 5  -7687342.275 4  23275369.444    23275369.358  
        32.000          29.200  
 06  6  7  1 58 30.0000000  0  8G 3G 7G13G15G16G19G23G27
  20440369.702   -21479231.829 7 -16737047.262 7  20440368.730    20440368.567  
        46.100          43.000  
  22861523.073    -8649184.252 5  -6739603.783 5  22861522.025    22861521.607  
        33.100          30.100  
  20912744.577   -19367508.740 7 -15091556.081 7  20912744.196    20912742.683  
        44.700          42.800  
  24476515.097     -846963.328 3   -659970.481    24476513.605    24476513.798  
        21.600           3.000  
  22230298.060   -12332482.687 6  -9609708.249 5  22230296.842    22230295.287  
        38.700          33.800  
  21803127.560   -14725919.039 6 -11474732.175 6  21803125.704    21803124.514  
        41.100          37.300  
  21725626.660   -15443616.538 6 -12033976.608 5  21725625.457    21725622.911  
        41.000          35.900  
  23259522.410    -9948716.219 5  -7752238.201 5  23259521.446    23259521.386  
        32.100          30.100  
 06  6  7  1 59  0.0000000  0  8G 3G 7G13G15G16G19G23G27
  20437500.112   -21494310.171 7 -16748796.576 7  20437499.203    20437499.208  
        46.100          43.100  
  22875407.943    -8576219.399 5  -6682748.037 5  22875406.764    22875406.496  
        32.800          30.100  
  20917130.443   -19344460.531 7 -15073596.431 7  20917130.076    20917128.773  
        44.700          42.900  
  24467319.833     -895278.330 3   -697618.506 1  24467319.468    24467319.739  
        19.300           6.500  
  22245197.579   -12254183.406 6  -9548695.827 5  22245196.590    22245195.138  
        38.300          33.100  
  21787291.659   -14809136.339 6 -11539576.784 6  21787289.856    21787288.849  
        41.300          37.700  
  21742227.872   -15356378.006 6 -11965998.532 6  21742226.488    21742224.038  
        41.500          36.100  
  23243689.941   -10031915.602 5  -7817068.859 5  23243688.901    23243688.817  
        32.000          30.100  
 06  6  7  1 59 30.0000000  0  8G 3G 7G13G15G16G19G23G27
  20434748.200   -21508772.207 7 -16760065.647 7  20434747.209    20434747.138  
        46.200          43.300  
  22889357.832    -8502911.687 5  -6625625.168 5  22889356.893    22889356.698  
        33.000          30.200  
  20921635.465   -19320785.378 7 -15055148.255 7  20921635.170    20921634.137  
        44.600          43.100  
  24458207.303     -943170.213 3   -734936.800 1  24458206.564    24458206.438  
        19.900           9.000  
  22260127.474   -12175723.728 6  -9487558.410 5  22260126.750    22260125.453  
        38.300          32.600  
  21771530.334   -14891961.780 6 -11604116.048 6  21771528.685    21771527.583  
        41.800          38.100  
  21758905.353   -15268735.160 6 -11897705.411 6  21758904.226    21758901.830  
        41.200          36.400  
  23227873.587   -10115029.879 5  -7881833.174 4  23227872.700    23227872.716  
        32.400          29.200  
 06  6  7  2  0  0.0000000  0  8G 3G 7G13G15G16G19G23G27
  20432113.469   -21522617.701 7 -16770854.299 7  20432112.493    20432112.433  
        46.100          43.200  
  22903372.775    -8429263.103 5  -6568236.668 4  22903371.750    22903371.137  
        32.400          29.000  
  20926259.789   -19296484.237 7 -15036212.298 7  20926259.544    20926258.366  
        44.500          42.900  
  24449174.060     -990636.661 3   -771923.559 1  24449173.255    24449173.820  
        19.900          11.000  
  22275088.461   -12097105.070 6  -9426297.120 5  22275087.496    22275086.165  
        38.300          33.200  
  21755844.203   -14974393.081 6 -11668348.184 6  21755842.530    21755841.400  
        41.500          37.700  
  21775659.998   -15180690.760 6 -11829099.396 6  21775658.675    21775656.017  
        41.000          36.100  
  23212074.452   -10198057.601 5  -7946530.083 4  23212073.335    23212073.001  
        33.200          29.700  
 06  6  7  2  0 30.0000000  0  8G 3G 7G13G15G16G19G23G27
  20429596.211   -21535846.274 7 -16781162.233 7  20429595.267    20429595.067  
        46.000          43.200  
  22917452.047    -8355275.762 5  -6510584.188 4  22917451.052    22917450.308  
        32.100          28.800  
  20931003.606   -19271557.142 7 -15016788.585 7  20931003.237    20931001.814  
        44.700          42.900  
  24440224.288    -1037675.351 2   -808577.022 2  24440222.754    24440222.377  
        17.000          12.600  
  22290079.673   -12018328.428 6  -9364912.721 5  22290078.515    22290076.571  
        38.100          33.100  
  21740233.922   -15056427.649 6 -11732271.190 6  21740231.903    21740230.707  
        41.800          38.000  
  21792489.861   -15092247.641 6 -11760182.682 5  21792488.748    21792486.153  
        40.600          35.700  
  23196290.820   -10280997.644 5  -8011158.651 5  23196289.973    23196290.042  
        33.100          30.600  
 06  6  7  2  1  0.0000000  0  8G 3G 7G13G15G16G19G23G27
  20427196.153   -21548457.765 7 -16790989.328 7  20427195.205    20427195.077  
        46.300          43.300  
  22931595.123    -8280952.098 5  -6452669.631 4  22931594.190    22931593.718  
        32.700          29.900  
  20935865.861   -19246005.845 7 -14996878.475 7  20935865.465    20935864.111  
        44.600          42.900  
  24431354.244    -1084284.130 2   -844895.427 2  24431352.817    24431353.255  
        16.100          16.100  
  22305099.742   -11939395.488 6  -9303406.540 5  22305098.707    22305097.163  
        38.100          32.100  
  21724698.528   -15138063.608 6 -11795883.582 6  21724696.907    21724695.968  
        41.300          38.300  
  21809395.106   -15003408.470 6 -11690957.362 5  21809394.092    21809391.747  
        40.200          35.800  
  23180525.361   -10363848.524 5  -8075717.763 5  23180524.244    23180524.182  
        32.000          31.800  
 06  6  7  2  1 30.0000000  0  8G 3G 7G13G15G16G19G23G27
  20424913.612   -21560452.294 7 -16800335.663 7  20424912.676    20424912.571  
        46.400          43.400  
  22945801.956    -8206293.909 5  -6394494.398 4  22945800.924    22945800.979  
        31.600          29.500  
  20940846.453   -19219830.863 7 -14976482.376 7  20940846.224    20940845.063  
        44.400          42.900  
  24422567.165    -1130460.624 2   -880877.023 1  24422565.859    24422565.730  
        17.000          11.000  
  22320149.645   -11860307.405 6  -9241779.460 5  22320148.624    22320147.182  
        37.600          32.700  
  21709240.451   -15219298.318 6 -11859183.312 6  21709238.380    21709237.497  
        41.400          38.100  
  21826375.789   -14914175.934 6 -11621425.519 5  21826374.728    21826372.157  
        40.500          35.500  
  23164776.692   -10446609.105 5  -8140206.504 5  23164775.506    23164775.103  
        32.600          30.800  
 06  6  7  2  2  0.0000000  0  8G 3G 7G13G15G16G19G23G27
  20422748.744   -21571829.504 7 -16809200.982 7  20422747.691    20422747.560  
        46.400          43.400  
  22960072.274    -8131303.696 5  -6336060.477 4  22960071.215    22960070.909  
        32.000          29.200  
  20945946.185   -19193032.973 7 -14955600.897 7  20945945.743    20945944.513  
        44.400          42.900  
  24413862.009    -1176202.549 2   -916519.985 2  24413861.189    24413861.432  
        17.800          16.100  
  22335229.165   -11781065.963 6  -9180032.852 5  22335227.866    22335226.256  
        37.900          32.700  
  21693858.949   -15300129.615 7 -11922168.700 6  21693856.961    21693855.839  
        42.000          38.400  
  21843431.028   -14824552.767 6 -11551589.300 5  21843429.600    21843426.943  
        40.500          35.700  
  23149044.496   -10529277.746 5  -8204623.557 5  23149043.775    23149043.507  
        32.600          30.800  
 06  6  7  2  2 30.0000000  0  8G 3G 7G13G15G16G19G23G27
  20420701.211   -21582589.484 7 -16817585.330 7  20420700.240    20420699.914  
        46.700          43.400  
  22974405.166    -8055983.675 5  -6277369.539 4  22974403.956    22974403.953  
        31.600          29.200  
  20951164.010   -19165612.826 7 -14934234.533 7  20951163.699    20951162.403  
        44.700          42.800  
  24405241.189    -1221507.564 3   -951822.516 2  24405240.298    24405240.149  
        20.500          17.000  
  22350336.854   -11701672.072 6  -9118167.463 5  22350335.738    22350334.641  
        36.800          32.300  
  21678554.396   -15380555.415 7 -11984838.111 6  21678552.417    21678550.970  
        42.000          38.200  
  21860559.670   -14734541.895 6 -11481450.966 5  21860558.071    21860555.341  
        40.000          35.200  
  23133331.317   -10611853.207 5  -8268968.106 5  23133330.127    23133329.947  
        33.100          30.400  
 06  6  7  2  3  0.0000000  0  8G 3G 7G13G15G16G19G23G27
  20418771.007   -21592732.106 7 -16825488.632 7  20418769.995    20418769.805  
        46.600          43.400  
  22988799.956    -7980335.749 5  -6218423.106 4  22988799.284    22988799.483  
        31.800          29.700  
  20956500.083   -19137571.568 7 -14912384.183 7  20956499.762    20956498.371  
        44.600          42.400  
  24396703.366    -1266373.486 2   -986782.893 2  24396701.694    24396702.411  
        16.100          16.100  
  22365473.742   -11622127.123 6  -9056184.380 5  22365472.799    22365471.338  
        37.700          32.000  
  21663327.549   -15460573.095 7 -12047189.515 6  21663325.531    21663324.083  
        42.200          38.600  
  21877760.624   -14644146.042 6 -11411012.657 5  21877759.509    21877757.276  
        39.400          35.400  
  23117635.869   -10694333.620 5  -8333238.544 5  23117634.905    23117634.508  
        33.100          31.000  
 06  6  7  2  3 30.0000000  0  8G 3G 7G13G15G16G19G23G27
  20416958.256   -21602257.420 7 -16832910.909 7  20416957.334    20416957.064  
        46.600          43.400  
  23003258.049    -7904362.342 5  -6159223.015 4  23003256.941    23003256.639  
        32.000          28.800  
  20961954.001   -19108910.111 7 -14890050.565 7  20961953.658    20961952.399  
        44.300          42.400  
  24388248.944    -1310798.115 3  -1021399.416 2  24388248.199    24388248.332  
        21.100          13.900  
  22380639.177   -11542432.493 6  -8994084.664 5  22380638.036    22380636.667  
        37.200          32.400  
  21648178.036   -15540180.691 7 -12109221.366 6  21648176.488    21648175.069  
        42.000          38.400  
  21895034.785   -14553368.000 6 -11340276.535 5  21895034.036    21895031.822  
        39.700          35.900  
  23101958.729   -10776717.987 5  -8397434.141 5  23101957.621    23101957.312  
        33.200          30.800  
 06  6  7  2  4  0.0000000  0  8G 3G 7G13G15G16G19G23G27
  20415263.019   -21611165.387 7 -16839852.140 7  20415262.073    20415261.941  
        46.600          43.500  
  23017776.431    -7828065.683 5  -6099771.052 4  23017775.446    23017775.285  
        31.800          29.000  
  20967526.009   -19079629.534 7 -14867234.521 7  20967525.643    20967524.400  
        44.300          42.400  
  24379880.365    -1354779.300 3  -1055670.419 2  24379878.903    24379879.308  
        19.300          16.100  
  22395832.990   -11462589.186 6  -8931869.078 5  22395831.939    22395830.083  
        37.100          32.000  
  21633107.923   -15619375.829 7 -12170931.828 6  21633106.070    21633104.913  
        42.300          38.600  
  21912381.413   -14462210.515 6 -11269244.738 5  21912380.650    21912378.478  
        39.400          35.300  
  23086299.551   -10859004.888 5  -8461553.758 5  23086298.839    23086298.723  
        33.200          30.400  
 06  6  7  2  4 30.0000000  0  8G 3G 7G13G15G16G19G23G27
  20413685.425   -21619456.098 7 -16846312.390 7  20413684.469    20413684.115  
        46.600          43.400  
  23032356.171    -7751447.949 5  -6040068.948 4  23032355.084    23032355.443  
        31.500          29.500  
  20973215.367   -19049730.387 7 -14843936.470 7  20973215.069    20973214.079  
        44.200          42.600  
  24371595.286    -1398314.850 3  -1089594.194 1  24371594.196    24371594.495  
        22.100           6.500  
  22411054.937   -11382598.652 6  -8869538.752 5  22411053.933    22411051.969  
        37.100          32.300  
  21618116.118   -15698156.089 7 -12232319.002 6  21618114.547    21618113.530  
        42.300          39.000  
  21929799.808   -14370676.116 6 -11197919.247 5  21929799.056    21929797.036  
        39.500          35.500  
  23070659.559   -10941192.771 5  -8525596.168 5  23070658.913    23070658.709  
        33.000          31.000  
 06  6  7  2  5  0.0000000  0  8G 3G 7G13G15G16G19G23G27
  20412225.164   -21627129.664 7 -16852291.752 7  20412224.181    20412223.929  
        46.500          43.400  
  23046997.270    -7674511.125 5  -5980118.162 4  23046996.165    23046995.635  
        32.400          28.400  
  20979022.743   -19019213.978 7 -14820157.441 7  20979022.393    20979020.988  
        44.300          42.400  
  24363396.034    -1441402.725 3  -1123169.137 1  24363394.829    24363395.028  
        21.100           9.000  
  22426304.371   -11302462.364 6  -8807094.879 5  22426303.184    22426301.299  
        36.800          32.000  
  21603204.179   -15776519.363 7 -12293381.249 6  21603202.472    21603201.441  
        42.000          38.600  
  21947290.269   -14278768.103 6 -11126302.634 5  21947288.769    21947286.438  
        39.400          35.100  
  23055038.770   -11023280.314 5  -8589560.506 5  23055038.181    23055037.976  
        33.400          31.000  
 06  6  7  2  5 30.0000000  0  8G 3G 7G13G15G16G19G23G27
  20410882.449   -21634186.165 7 -16857790.284 7  20410881.426    20410881.000  
        46.600          43.400  
  23061698.172    -7597257.527 5  -5919920.529 4  23061697.012    23061696.316  
        32.000          28.400  
  20984946.950   -18988081.416 7 -14795898.291 7  20984946.612    20984945.388  
        44.400          42.500  
  24355282.080    -1484040.680 3  -1156393.539 1  24355281.043    24355281.174  
        19.900           9.000  
  22441580.808   -11222181.355 6  -8744538.235 5  22441579.807    22441578.176  
        36.500          32.100  
  21588371.999   -15854463.370 7 -12354116.799 6  21588370.495    21588369.191  
        42.700          38.900  
  21964850.500   -14186489.079 6 -11054396.922 5  21964849.161    21964846.414  
        39.800          34.700  
  23039437.538   -11105265.585 5  -8653445.047 5  23039436.933    23039436.555  
        33.800          31.000  
 06  6  7  2  6  0.0000000  0  8G 3G 7G13G15G16G19G23G27
  20409657.069   -21640625.687 7 -16862808.048 7  20409655.991    20409655.604  
        46.700          43.500  
  23076458.095    -7519689.587 5  -5859477.973 4  23076457.328    23076456.946  
        31.800          26.800  
  20990988.263   -18956333.454 7 -14771159.610 7  20990988.013    20990986.940  
        44.300          42.400  
  24347255.047    -1526226.486 3  -1189265.628 2  24347253.613    24347254.209  
        19.300          12.600  
  22456885.482   -11141756.961 6  -8681869.845 5  22456884.156    22456882.656  
        36.400          32.000  
  21573619.997   -15931986.208 7 -12414524.165 6  21573618.246    21573617.050  
        42.400          39.200  
  21982479.634   -14093841.966 6 -10982204.368 5  21982479.200    21982476.523  
        39.500          34.000  
  23023856.413   -11187147.735 5  -8717249.254 5  23023855.439    23023854.796  
        34.500          31.100  
 06  6  7  2  6 30.0000000  0  8G 3G 7G13G15G16G19G23G27
  20408549.006   -21646448.218 7 -16867345.045 7  20408547.944    20408547.676  
        46.600          43.500  
  23091279.039    -7441809.283 5  -5798792.030 4  23091277.795    23091277.304  
        32.100          27.100  
  20997146.811   -18923971.297 7 -14745942.336 7  20997146.464    20997145.081  
        44.400          42.100  
  24339313.188    -1567957.874 3  -1221783.595 1  24339312.245    24339312.421  
        20.500           6.500  
  22472216.619   -11061190.584 6  -8619090.849 5  22472215.478    22472213.717  
        36.700          31.500  
  21558948.649   -16009085.496 7 -12474601.491 6  21558946.855    21558945.465  
        42.500          39.300  
  22000180.146   -14000829.504 6 -10909727.137 5  22000178.884    22000176.234  
        39.100          34.000  
  23008294.691   -11268924.815 5  -8780971.663 5  23008293.570    23008293.427  
        33.100          31.600  
 06  6  7  2  7  0.0000000  0  8G 3G 7G13G15G16G19G23G27
  20407558.353   -21651654.013 7 -16871401.464 7  20407557.278    20407556.930  
        46.500          43.600  
  23106157.320    -7363618.982 5  -5737864.489 4  23106156.296    23106156.805  
        30.200          28.400  
  21003421.452   -18890995.974 7 -14720247.264 7  21003421.127    21003419.909  
        44.100          42.000  
  24331458.561    -1609232.913 3  -1253946.014 1  24331457.752    24331457.989  
        18.600           6.500  
  22487574.392   -10980483.468 6  -8556202.157 5  22487573.269    22487571.719  
        36.200          31.100  
  21544357.959   -16085759.018 7 -12534347.050 6  21544356.156    21544355.015  
        43.000          39.300  
  22017949.633   -13907454.404 6 -10836967.348 5  22017947.758    22017944.922  
        39.100          33.900  
  22992753.001   -11350595.207 5  -8844610.836 5  22992751.943    22992751.879  
        33.900          31.600  
 06  6  7  2  7 30.0000000  0  8G 3G 7G13G15G16G19G23G27
  20406685.036   -21656243.398 7 -16874977.563 7  20406684.006    20406683.561  
        46.700          43.600  
  23121095.169    -7285120.650 5  -5676696.949 4  23121094.236    23121094.330  
        30.200          27.600  
  21009813.104   -18857408.630 7 -14694075.291 7  21009812.817    21009811.534  
        44.300          42.100  
  24323692.164    -1650049.532 3  -1285751.250 2  24323690.841    24323690.969  
        19.300          12.600  
  22502959.453   -10899636.925 6  -8493204.839 5  22502958.203    22502956.604  
        36.500          30.600  
  21529848.980   -16162004.611 7 -12593759.153 6  21529847.011    21529845.790  
        42.500          39.100  
  22035785.835   -13813719.810 6 -10763927.425 5  22035784.667    22035782.109  
        38.900          34.000  
  22977232.168   -11432158.220 5  -8908166.414 5  22977231.113    22977230.793  
        33.800          31.000  
 06  6  7  2  8  0.0000000  0  8G 3G 7G13G15G16G19G23G27
  20405928.673   -21660216.449 7 -16878073.402 7  20405927.731    20405927.483  
        46.600          43.500  
  23136091.069    -7206316.729 5  -5615291.290 4  23136090.195    23136090.086  
        30.600          26.500  
  21016320.685   -18823210.737 7 -14667427.570 7  21016320.380    21016319.247  
        44.000          42.100  
  24316012.214    -1690405.581 3  -1317197.560 1  24316011.344    24316011.223  
        19.300           6.500  
  22518370.020   -10818651.957 6  -8430099.663 5  22518369.043    22518367.378  
        36.300          31.000  
  21515421.656   -16237820.127 7 -12652836.133 6  21515419.778    21515418.550  
        42.900          39.400  
  22053690.526   -13719628.238 6 -10690609.325 5  22053689.702    22053687.180  
        38.900          33.500  
  22961732.083   -11513611.716 5  -8971636.637 5  22961730.968    22961730.706  
        34.300          31.800  
 06  6  7  2  8 30.0000000  0  8G 3G 7G13G15G16G19G23G27
  20405290.130   -21663573.399 7 -16880689.160 7  20405289.022    20405288.670  
        46.800          43.600  
  23151144.801    -7127209.454 5  -5553649.241 4  23151144.072    23151143.640  
        30.400          27.600  
  21022944.542   -18788403.174 7 -14640304.784 6  21022944.138    21022942.793  
        44.100          41.900  
  24308419.799    -1730298.831 2  -1348283.148 2  24308418.995    24308419.868  
        13.900          12.600  
  22533806.813   -10737529.997 5  -8366887.735 5  22533805.763    22533804.438  
        35.800          31.100  
  21501076.609   -16313203.218 7 -12711576.157 6  21501074.944    21501073.647  
        43.300          39.400  
  22071663.162   -13625182.951 6 -10617015.605 5  22071662.072    22071659.602  
        39.100          34.500  
  22946252.935   -11594954.403 5  -9035020.540 5  22946252.115    22946251.927  
        34.700          32.300  
 06  6  7  2  9  0.0000000  0  8G 3G 7G13G15G16G19G23G27
  20404768.361   -21666314.503 7 -16882825.041 7  20404767.341    20404766.943  
        46.700          43.400  
  23166255.533    -7047800.784 5  -5491772.343 4  23166254.589    23166254.650  
        30.100          26.500  
  21029683.987   -18752987.126 7 -14612707.852 6  21029683.649    21029682.240  
        44.200          41.900  
  24300917.511    -1769727.387 3  -1379006.608 2  24300916.711    24300916.995  
        19.300          12.600  
  22549269.843   -10656272.237 5  -8303569.988 5  22549268.623    22549267.476  
        35.600          31.300  
  21486814.484   -16388152.490 7 -12769978.145 6  21486812.582    21486811.038  
        43.300          39.500  
  22089702.825   -13530386.478 6 -10543148.239 5  22089701.361    22089698.927  
        38.600          34.300  
  22930795.393   -11676184.695 5  -9098316.834 5  22930794.499    22930794.423  
        34.800          32.700  
 06  6  7  2  9 30.0000000  0  8G 3G 7G13G15G16G19G23G27
  20404363.738   -21668440.189 7 -16884481.377 7  20404362.779    20404362.305  
        46.600          43.500  
  23181423.706    -6968093.203 5  -5429662.553 4  23181422.463    23181422.607  
        30.600          26.800  
  21036538.783   -18716963.754 7 -14584637.686 6  21036538.478    21036537.206  
        44.000          41.900  
  24293503.693    -1808689.293 3  -1409366.467 2  24293502.460    24293502.603  
        18.600          13.900  
  22564758.641   -10574880.096 5  -8240147.515 5  22564757.451    22564755.896  
        35.500          31.100  
  21472635.166   -16462665.369 7 -12828040.081 6  21472633.195    21472631.868  
        43.400          40.000  
  22107807.889   -13435241.869 6 -10469009.610 5  22107806.899    22107804.508  
        38.600          34.300  
  22915359.471   -11757301.015 5  -9161524.348 5  22915358.527    22915358.200  
        35.100          32.100  
 06  6  7  2 10  0.0000000  0  8G 3G 7G13G15G16G19G23G27
  20404076.254   -21669950.694 7 -16885658.354 7  20404075.181    20404074.919  
        46.700          43.600  
  23196647.920    -6888088.978 5  -5367321.572 4  23196646.901    23196646.578  
        30.400          26.200  
  21043509.238   -18680334.547 7 -14556095.438 6  21043508.852    21043507.446  
        44.200          41.600  
  24286178.608    -1847182.321 3  -1439360.974 2  24286177.829    24286178.001  
        22.600          17.000  
  22580272.230   -10493354.567 5  -8176621.134 5  22580271.090    22580269.713  
        35.400          31.100  
  21458538.792   -16536739.656 7 -12885760.264 6  21458537.209    21458535.950  
        43.400          39.800  
  22125978.378   -13339751.838 6 -10394601.814 5  22125977.694    22125975.562  
        37.900          34.000  
  22899945.539   -11838301.907 5  -9224641.878 5  22899944.670    22899944.129  
        34.800          32.300  
 06  6  7  2 10 30.0000000  0  8G 3G 7G13G15G16G19G23G27
  20403905.657   -21670846.391 7 -16886356.261 7  20403904.693    20403904.478  
        46.600          43.700  
  23211928.452    -6807790.056 4  -5304751.002 4  23211927.401    23211927.326  
        29.700          27.400  
  21050594.518   -18643100.593 7 -14527081.959 6  21050594.141    21050592.879  
        43.900          41.600  
  24278943.533    -1885204.533 3  -1468988.594 2  24278942.018    24278942.346  
        21.600          17.000  
  22595810.863   -10411697.027 5  -8112991.891 5  22595809.779    22595808.389  
        35.400          31.000  
  21444527.372   -16610373.121 7 -12943136.945 6  21444525.306    21444523.954  
        43.300          40.200  
  22144216.281   -13243919.222 6 -10319927.074 5  22144214.485    22144211.792  
        38.000          33.800  
  22884553.768   -11919186.033 5  -9287668.405 5  22884552.917    22884552.214  
        34.700          31.800  
 06  6  7  2 11  0.0000000  0  8G 3G 7G13G15G16G19G23G27
  20403852.278   -21671127.531 7 -16886575.291 7  20403851.277    20403851.029  
        46.700          43.700  
  23227264.232    -6727198.824 4  -5241952.653 4  23227263.218    23227263.402  
        28.800          27.400  
  21057794.662   -18605263.314 7 -14497598.358 6  21057794.384    21057793.059  
        44.100          41.400  
  24271797.830    -1922753.956 4  -1498247.786 2  24271797.146    24271797.004  
        25.600          17.800  
  22611374.561   -10329908.544 5  -8049260.609 4  22611373.426    22611372.116  
        35.200          29.700  
  21430599.000   -16683563.741 7 -13000168.549 6  21430597.464    21430596.238  
        43.300          40.200  
  22162515.806   -13147747.304 6 -10244987.944 5  22162515.088    22162512.630  
        38.100          33.400  
  22869184.839   -11999951.813 5  -9350602.800 5  22869183.886    22869182.926  
        35.800          31.500  
 06  6  7  2 11 30.0000000  0  8G 3G 7G13G15G16G19G23G27
  20403915.593   -21670794.470 7 -16886315.725 7  20403914.576    20403914.397  
        46.700          43.800  
  23242654.968    -6646317.662 4  -5178928.400 4  23242654.108    23242654.419  
        29.500          26.200  
  21065109.635   -18566823.866 7 -14467645.533 6  21065109.296    21065107.911  
        44.100          41.500  
  24264743.393    -1959828.534 4  -1527136.991 3  24264742.173    24264741.924  
        24.200          21.100  
  22626963.011   -10247990.355 5  -7985428.250 4  22626961.997    22626960.329  
        34.600          29.900  
  21416756.440   -16756309.851 7 -13056853.789 6  21416754.218    21416753.077  
        43.100          40.300  
  22180881.311   -13051238.889 6 -10169786.591 5  22180880.054    22180877.670  
        37.200          33.600  
  22853838.549   -12080597.690 5  -9413443.727 5  22853837.429    22853836.685  
        34.900          32.600  
 06  6  7  2 12  0.0000000  0  8G 3G 7G13G15G16G19G23G27
  20404095.686   -21669847.802 7 -16885578.014 7  20404094.682    20404094.412  
        46.700          43.800  
  23258100.678    -6565148.492 4  -5115679.693 4  23258100.047    23258100.209  
        28.800          25.900  
  21072538.743   -18527783.591 7 -14437224.541 6  21072538.384    21072536.938  
        44.000          41.400  
  24257778.532    -1996426.408 3  -1555654.672 2  24257777.234    24257777.251  
        22.600          17.800  
  22642575.959   -10165943.722 5  -7921495.805 4  22642574.768    22642573.513  
        34.500          29.900  
  21402997.802   -16828609.158 7 -13113190.863 6  21402996.223    21402995.058  
        43.400          40.600  
  22199310.144   -12954396.644 6 -10094325.144 5  22199308.706    22199306.156  
        38.500          33.500  
  22838514.741   -12161121.803 5  -9476189.733 5  22838513.660    22838513.790  
        35.100          32.800  
 06  6  7  2 12 30.0000000  0  8G 3G 7G13G15G16G19G23G27
  20404392.500   -21668287.599 7 -16884362.228 7  20404391.563    20404391.203  
        46.700          43.700  
  23273601.879    -6483693.876 4  -5052208.576 4  23273600.796    23273600.754  
        29.200          26.200  
  21080081.708   -18488144.233 7 -14406336.727 6  21080081.344    21080080.023  
        43.800          41.300  
  24250904.544    -2032545.703 3  -1583799.403 3  24250903.590    24250904.187  
        23.000          21.100  
  22658213.225   -10083769.699 5  -7857464.083 4  22658212.336    22658210.622  
        35.300          28.600  
  21389325.487   -16900459.655 7 -13169178.224 6  21389323.540    21389322.160  
        43.500          40.500  
  22217800.125   -12857223.663 6 -10018605.950 5  22217799.911    22217797.452  
        37.700          33.200  
  22823214.917   -12241522.851 5  -9538839.813 5  22823213.928    22823213.850  
        34.700          33.100  
 06  6  7  2 13  0.0000000  0  8G 3G 7G13G15G16G19G23G27
  20404806.145   -21666114.497 7 -16882668.867 7  20404805.184    20404804.577  
        46.800          43.800  
  23289155.719    -6401955.797 4  -4988516.581 4  23289154.995    23289154.991  
        29.500          26.200  
  21087738.564   -18447906.840 7 -14374982.915 6  21087738.239    21087737.044  
        43.600          41.400  
  24244123.357    -2068184.767 3  -1611569.964 3  24244122.011    24244122.165  
        21.600          21.600  
  22673874.567   -10001469.635 5  -7793334.136 5  22673873.464    22673872.022  
        35.300          30.200  
  21375738.157   -16971859.344 7 -13224814.293 6  21375736.506    21375735.246  
        43.600          40.600  
  22236356.252   -12759722.538 6  -9942631.073 5  22236354.192    22236351.233  
        37.600          32.400  
  22807939.174   -12321799.299 5  -9601392.950 5  22807938.105    22807937.769  
        35.800          33.800  
 06  6  7  2 13 30.0000000  0  8G 3G 7G13G15G16G19G23G27
  20405336.143   -21663329.141 7 -16880498.421 7  20405335.290    20405334.631  
        47.000          43.700  
  23304763.373    -6319936.530 4  -4924605.515 4  23304762.666    23304762.631  
        29.500          25.900  
  21095509.228   -18407072.935 7 -14343164.291 6  21095508.885    21095507.531  
        43.900          41.400  
  24237432.754    -2103341.324 3  -1638964.603 3  24237431.614    24237431.543  
        22.100          19.900  
  22689559.207    -9919044.612 5  -7729106.862 5  22689558.190    22689557.004  
        34.900          30.200  
  21362237.626   -17042805.991 7 -13280097.354 6  21362235.731    21362234.511  
        43.300          40.700  
  22254970.567   -12661896.683 6  -9866403.166 5  22254969.640    22254967.048  
        37.500          32.300  
  22792687.003   -12401949.521 5  -9663847.656 5  22792685.893    22792685.447  
        35.400          33.100  
 06  6  7  2 14  0.0000000  0  8G 3G 7G13G15G16G19G23G27
  20405982.587   -21659932.007 7 -16877851.258 7  20405981.597    20405981.136  
        47.000          43.800  
  23320424.848    -6237638.350 5  -4860477.093 4  23320423.968    23320423.347  
        30.100          25.300  
  21103392.840   -18365643.758 7 -14310881.813 6  21103392.482    21103391.167  
        43.800          41.200  
  24230834.681    -2138013.801 3  -1665982.047 3  24230833.813    24230833.660  
        21.100          19.900  
  22705268.536    -9836495.857 5  -7664783.142 5  22705267.178    22705265.498  
        34.600          30.200  
  21348823.331   -17113297.868 7 -13335026.042 6  21348821.556    21348820.345  
        43.500          40.800  
  22273647.052   -12563748.672 6  -9789924.214 5  22273646.515    22273643.938  
        37.200          32.000  
  22777459.474   -12481971.909 5  -9726202.695 5  22777458.204    22777457.582  
        35.300          33.100  
 06  6  7  2 14 30.0000000  0  8G 3G 7G13G15G16G19G23G27
  20406745.413   -21655923.565 7 -16874727.762 7  20406744.387    20406743.968  
        46.800          44.000  
  23336138.317    -6155063.600 4  -4796133.164 4  23336137.454    23336137.247  
        29.000          26.200  
  21111389.515   -18323621.057 7 -14278136.850 6  21111389.175    21111387.879  
        43.800          41.100  
  24224328.937    -2172200.291 3  -1692620.854 3  24224327.852    24224328.424  
        19.300          19.300  
  22720999.711    -9753824.517 5  -7600363.901 4  22720998.726    22720997.205  
        34.500          29.900  
  21335496.159   -17183332.801 7 -13389598.677 6  21335494.300    21335492.921  
        43.600          40.600  
  22292385.885   -12465281.652 6  -9713196.695 5  22292384.375    22292381.609  
        37.400          32.100  
  22762255.869   -12561865.045 5  -9788457.063 5  22762254.772    22762254.420  
        35.500          32.700  
 06  6  7  2 15  0.0000000  0  8G 3G 7G13G15G16G19G23G27
  20407624.317   -21651304.191 7 -16871128.209 7  20407623.349    20407622.854  
        46.900          44.000  
  23351903.509    -6072214.262 4  -4731575.276 4  23351902.659    23351902.600  
        29.000          25.600  
  21119498.550   -18281006.437 7 -14244930.656 6  21119498.328    21119497.221  
        43.900          41.400  
  24217916.879    -2205898.890 3  -1718879.446 3  24217915.312    24217915.480  
        18.600          19.300  
  22736755.005    -9671031.825 5  -7535850.122 4  22736753.778    22736751.975  
        33.900          29.500  
  21322256.334   -17252909.223 7 -13443814.034 6  21322254.361    21322252.852  
        44.000          40.500  
  22311182.492   -12366498.584 6  -9636222.906 5  22311181.735    22311179.448  
        36.500          32.000  
  22747077.849   -12641627.518 6  -9850609.621 5  22747076.630    22747076.339  
        36.000          33.800  
 06  6  7  2 15 30.0000000  0  8G 3G 7G13G15G16G19G23G27
  20408619.348   -21646074.634 7 -16867053.181 7  20408618.420    20408617.880  
        46.900          43.800  
  23367721.844    -5989092.640 4  -4666805.210 4  23367720.737    23367720.338  
        29.700          25.300  
  21127720.581   -18237801.157 7 -14211264.207 6  21127720.162    21127718.566  
        43.800          40.700  
  24211597.513    -2239107.666 3  -1744756.420 2  24211596.036    24211595.856  
        18.600          17.800  
  22752532.357    -9588118.832 5  -7471242.599 4  22752531.331    22752529.772  
        33.500          29.500  
  21309103.946   -17322024.950 7 -13497670.406 6  21309102.198    21309100.588  
        44.200          40.900  
  22330040.841   -12267402.186 6  -9559004.963 5  22330039.381    22330036.902  
        36.700          31.800  
  22731924.543   -12721257.292 6  -9912658.780 5  22731923.652    22731922.998  
        36.400          33.600  
 06  6  7  2 16  0.0000000  0  8G 3G 7G13G15G16G19G23G27
  20409730.555   -21640235.590 7 -16862503.241 7  20409729.494    20409729.053  
        46.900          43.800  
  23383590.363    -5905701.150 5  -4601824.844 4  23383589.554    23383589.046  
        30.200          25.600  
  21136054.434   -18194007.030 7 -14177138.913 6  21136054.099    21136052.528  
        43.900          41.100  
  24205371.394    -2271824.820 3  -1770250.300 2  24205370.444    24205369.754  
        20.500          17.800  
  22768332.638    -9505086.863 5  -7406542.347 4  22768331.629    22768330.435  
        33.800          29.200  
  21296039.798   -17390678.015 7 -13551166.265 6  21296037.792    21296036.463  
        44.100          41.100  
  22348956.668   -12167995.514 6  -9481545.262 5  22348955.775    22348953.482  
        36.600          32.000  
  22716797.190   -12800753.011 6  -9974603.497 5  22716796.143    22716795.537  
        36.500          33.600  
 06  6  7  2 16 30.0000000  0  8G 3G 7G13G15G16G19G23G27
  20410957.449   -21633787.534 7 -16857478.729 7  20410956.553    20410956.045  
        47.000          43.900  
  23399510.318    -5822041.833 4  -4536635.813 4  23399509.346    23399509.368  
        28.100          25.600  
  21144499.774   -18149625.236 7 -14142555.700 6  21144499.468    21144498.493  
        43.800          41.300  
  24199238.211    -2304048.652 2  -1795359.847 2  24199236.982    24199237.795  
        12.600          17.800  
  22784155.594    -9421937.101 5  -7341750.322 4  22784154.491    22784153.255  
        33.400          29.000  
  21283063.805   -17458866.471 7 -13604300.088 6  21283061.883    21283060.486  
        44.000          40.900  
  22367932.322   -12068281.591 6  -9403846.125 5  22367931.149    22367928.396  
        37.200          32.100  
  22701695.704   -12880112.980 6 -10036442.427 5  22701694.519    22701693.585  
        36.500          33.500  
 06  6  7  2 17  0.0000000  0  8G 3G 7G13G15G16G19G23G27
  20412300.293   -21626731.061 7 -16851980.131 7  20412299.313    20412298.806  
        47.000          44.000  
  23415480.529    -5738117.038 4  -4471239.927 4  23415479.722    23415479.448  
        28.400          24.900  
  21153056.924   -18104657.444 7 -14107515.864 6  21153056.610    21153055.366  
        43.800          40.900  
  24193201.078    -2335777.333 2  -1820083.530 2  24193199.161    24193200.500  
        16.100          16.100  
  22800001.329    -9338670.374 5  -7276867.155 4  22800000.256    22799998.410  
        33.900          29.000  
  21270176.542   -17526588.470 7 -13657070.439 6  21270174.719    21270173.392  
        44.100          41.200  
  22386964.888   -11968263.512 6  -9325910.007 5  22386964.012    22386961.360  
        36.800          32.000  
  22686619.775   -12959335.507 6 -10098174.237 5  22686618.747    22686617.936  
        36.800          33.100  
 06  6  7  2 17 30.0000000  0  8G 3G 7G13G15G16G19G23G27
  20413758.816   -21619066.993 7 -16846008.085 7  20413757.750    20413757.199  
        47.100          44.000  
  23431501.950    -5653928.809 4  -4405638.746 4  23431500.700    23431500.098  
        28.400          24.200  
  21161725.276   -18059105.408 7 -14072020.772 6  21161724.888    21161723.321  
        43.400          40.400  
  24187256.891    -2367009.148 2  -1844419.990 2  24187256.044    24187256.780  
        17.000          16.100  
  22815868.722    -9255287.965 5  -7211893.844 4  22815867.382    22815865.493  
        33.500          27.600  
  21257378.634   -17593842.197 7 -13709475.904 6  21257376.770    21257375.359  
        44.100          41.000  
  22406055.449   -11867943.997 6  -9247738.973 5  22406053.981    22406051.403  
        36.900          31.300  
  22671570.495   -13038419.220 6 -10159797.886 5  22671569.596    22671568.790  
        36.600          33.500  
 06  6  7  2 18  0.0000000  0  9G 3G 7G 8G13G15G16G19G23G27
  20415332.595   -21610795.991 7 -16839563.103 7  20415331.574    20415331.046  
        47.000          43.900  
  23447572.113    -5569479.598 4  -4339834.214 4  23447570.762    23447570.439  
        27.900          25.600  
  24744753.263     -183179.805 2   -142737.185 2  24744752.390    24744753.120  
        17.800          12.600  
  21170504.507   -18012970.515 7 -14036071.505 6  21170504.058    21170502.745  
        43.400          40.700  
  24181410.179    -2397742.620 2  -1868368.142 1  24181408.374    24181408.304  
        17.800           9.000  
  22831757.811    -9171790.865 5  -7146831.157 4  22831756.552    22831754.363  
        34.000          28.600  
  21244670.134   -17660625.709 7 -13761514.973 6  21244668.242    21244666.946  
        44.000          41.200  
  22425202.159   -11767325.893 6  -9169335.300 5  22425201.218    22425198.548  
        36.900          32.000  
  22656548.085   -13117362.571 6 -10221312.166 5  22656546.971    22656546.610  
        36.700          34.400  
 06  6  7  2 18 30.0000000  0  9G 3G 7G 8G13G15G16G19G23G27
  20417021.646   -21601918.720 7 -16832645.708 7  20417020.726    20417020.295  
        46.800          43.700  
  23463690.875    -5484771.653 4  -4273828.094 4  23463689.712    23463690.004  
        27.400          24.900  
  24724640.402     -288869.175 2   -225092.426    24724639.456    24724640.819  
        13.900           3.000  
  21179394.203   -17966254.751 7 -13999669.614 6  21179393.892    21179392.576  
        43.700          40.700  
  24175655.399    -2427975.944 2  -1891926.631 2  24175654.666    24175654.960  
        17.000          13.900  
  22847668.166    -9088180.403 5  -7081680.155 4  22847666.897    22847665.146  
        33.500          28.400  
  21232051.317   -17726937.151 7 -13813186.191 6  21232049.587    21232048.187  
        44.100          41.100  
  22444405.534   -11666412.482 6  -9090701.498 5  22444404.402    22444401.863  
        36.500          31.500  
  22641552.692   -13196163.430 6 -10282715.414 5  22641551.670    22641551.364  
        36.600          34.600  
 06  6  7  2 19  0.0000000  0  9G 3G 7G 8G13G15G16G19G23G27
  20418826.204   -21592435.900 7 -16825256.455 7  20418825.215    20418824.761  
        46.900          43.800  
  23479858.728    -5399807.042 4  -4207621.964 4  23479858.148    23479858.157  
        28.800          25.900  
  24704529.150     -394562.722 3   -307450.887 1  24704527.565    24704527.885  
        19.300           6.500  
  21188394.005   -17918959.693 7 -13962816.323 6  21188393.696    21188392.345  
        43.300          40.500  
  24169998.494    -2457707.274 3  -1915093.987 1  24169997.566    24169996.827  
        19.300          11.000  
  22863599.617    -9004457.583 5  -7016441.580 4  22863598.539    22863597.251  
        33.100          29.200  
  21219522.932   -17792774.381 7 -13864487.890 6  21219520.990    21219519.717  
        43.800          41.500  
  22463664.392   -11565206.665 6  -9011839.875 5  22463663.206    22463660.754  
        36.500          32.400  
  22626584.819   -13274820.493 6 -10344006.616 5  22626583.784    22626583.509  
        37.100          34.400  
 06  6  7  2 19 30.0000000  0  9G 3G 7G 8G13G15G16G19G23G27
  20420745.756   -21582348.353 7 -16817395.978 7  20420744.771    20420744.347  
        47.000          43.800  
  23496075.344    -5314588.104 4  -4141217.642 4  23496074.752    23496074.748  
        28.400          24.600  
  24684415.360     -500259.519 3   -389812.006    24684414.311    24684414.443  
        19.300           3.000  
  21197504.009   -17871086.895 7 -13925512.846 6  21197503.644    21197502.290  
        43.500          40.500  
  24164437.355    -2486935.048 2  -1937868.978 2  24164436.238    24164435.255  
        17.000          12.600  
  22879553.060    -8920623.652 5  -6951116.437 4  22879551.670    22879549.936  
        32.800          28.400  
  21207084.995   -17858136.268 7 -13915419.203 6  21207083.179    21207081.772  
        44.200          41.600  
  22482978.314   -11463711.525 5  -8932752.794 5  22482976.919    22482974.639  
        35.700          32.100  
  22611644.512   -13353331.856 6 -10405184.256 5  22611643.576    22611643.044  
        36.700          34.300  
 06  6  7  2 20  0.0000000  0  9G 3G 7G 8G13G15G16G19G23G27
  20422780.326   -21571656.857 7 -16809064.891 7  20422779.285    20422778.756  
        46.900          44.000  
  23512340.318    -5229116.878 4  -4074616.726 3  23512339.260    23512339.250  
        28.100          23.000  
  24664301.015     -605957.773 3   -472174.141 1  24664299.855    24664300.266  
        20.500          11.000  
  21206723.373   -17822638.187 7 -13887760.606 6  21206723.062    21206721.957  
        43.300          40.700  
  24158971.472    -2515657.438 3  -1960250.132 2  24158970.570    24158970.611  
        18.600          13.900  
  22895526.581    -8836679.744 5  -6885705.630 4  22895525.585    22895523.794  
        33.600          28.100  
  21194738.001   -17923020.753 7 -13965978.505 6  21194736.064    21194734.502  
        44.200          41.400  
  22502345.983   -11361929.771 6  -8853442.384 5  22502345.365    22502343.019  
        36.000          31.300  
  22596732.982   -13431696.026 6 -10466247.237 5  22596731.636    22596730.472  
        36.800          34.100  
 06  6  7  2 20 30.0000000  0  9G 3G 7G 8G13G15G16G19G23G27
  20424929.629   -21560362.258 7 -16800263.861 7  20424928.634    20424928.046  
        47.100          43.900  
  23528653.374    -5143395.661 4  -4007821.006 4  23528652.005    23528651.765  
        28.400          24.900  
  24644187.659     -711656.534 3   -554536.682 2  24644186.529    24644186.347  
        22.100          17.000  
  21216052.117   -17773615.433 7 -13849561.055 6  21216051.785    21216050.502  
        43.100          40.300  
  24153602.569    -2543872.860 3  -1982236.172 1  24153601.369    24153600.975  
        19.300          11.000  
  22911521.305    -8752626.676 5  -6820209.735 4  22911520.523    22911518.991  
        32.700          28.600  
  21182482.000   -17987425.794 7 -14016164.211 6  21182480.149    21182478.822  
        44.200          41.800  
  22521768.682   -11259864.623 6  -8773911.125 5  22521767.702    22521765.670  
        36.300          31.100  
  22581848.544   -13509911.422 6 -10527194.293 5  22581847.634    22581846.887  
        37.200          34.600  
 06  6  7  2 21  0.0000000  0  9G 3G 7G 8G13G15G16G19G23G27
  20427193.556   -21548465.405 7 -16790993.540 7  20427192.599    20427191.925  
        47.000          43.600  
  23545012.019    -5057426.793 4  -3940832.326 4  23545010.799    23545011.053  
        28.600          24.200  
  24624074.142     -817354.206 3   -636898.322 1  24624073.048    24624072.614  
        23.000          11.000  
  21225489.829   -17724020.282 7 -13810915.481 6  21225489.472    21225488.125  
        43.400          40.200  
  24148329.923    -2571579.692 3  -2003825.952 1  24148328.671    24148328.683  
        21.100           9.000  
  22927537.395    -8668465.726 5  -6754629.766 4  22927536.122    22927534.421  
        32.700          28.400  
  21170317.578   -18051349.948 7 -14065975.205 6  21170315.929    21170314.361  
        44.500          41.700  
  22541244.906   -11157519.246 5  -8694161.525 5  22541243.598    22541241.206  
        35.200          30.400  
  22566993.019   -13587976.071 6 -10588023.832 5  22566992.194    22566991.745  
        37.100          34.700  
 06  6  7  2 21 30.0000000  0  9G 3G 7G 8G13G15G16G19G23G27
  20429571.994   -21535966.922 7 -16781254.419 7  20429570.939    20429570.230  
        47.400          44.100  
  23561418.357    -4971212.497 4  -3873652.404 3  23561416.961    23561417.207  
        27.400          23.800  
  24603960.839     -923049.426 3   -719258.118 2  24603959.313    24603959.930  
        23.800          16.100  
  21235035.721   -17673854.902 7 -13771825.565 6  21235035.408    21235034.448  
        43.100          40.300  
  24143154.826    -2598776.517 3  -2025018.371 2  24143153.726    24143153.401  
        21.600          13.900  
  22943573.101    -8584198.001 5  -6688966.581 4  22943571.774    22943569.811  
        32.400          27.600  
  21158245.010   -18114791.412 7 -14115410.077 6  21158243.383    21158241.789  
        44.600          41.800  
  22560773.636   -11054896.056 5  -8614195.438 5  22560772.371    22560769.786  
        35.300          30.100  
  22552166.749   -13665888.551 6 -10648734.804 5  22552166.063    22552165.371  
        37.700          34.900  
 06  6  7  2 22  0.0000000  0  9G 3G 7G 8G13G15G16G19G23G27
  20432064.546   -21522867.706 7 -16771047.189 7  20432063.575    20432062.829  
        47.400          44.000  
  23577870.336    -4884754.943 4  -3806282.911 3  23577869.566    23577869.403  
        28.400          23.400  
  24583847.485    -1028740.895 3   -801614.960 2  24583846.820    24583847.354  
        21.100          17.000  
  21244690.423   -17623120.094 7 -13732291.957 6  21244690.017    21244688.750  
        43.200          40.200  
  24138077.396    -2625461.704 3  -2045812.107 3  24138075.852    24138075.621  
        21.100          18.600  
  22959628.284    -8499824.522 5  -6623221.001 4  22959627.073    22959625.617  
        32.800          27.400  
  21146265.028   -18177747.778 7 -14164466.948 6  21146263.174    21146261.464  
        44.800          41.900  
  22580354.090   -10951998.369 5  -8534015.462 4  22580352.991    22580350.309  
        34.800          29.500  
  22537370.432   -13743647.321 6 -10709326.068 5  22537369.254    22537368.326  
        37.800          34.700  
 06  6  7  2 22 30.0000000  0  9G 3G 7G 8G13G15G16G19G23G27
  20434671.335   -21509168.874 7 -16760372.734 7  20434670.309    20434669.650  
        47.300          44.000  
  23594368.391    -4798056.441 4  -3738725.680 4  23594367.412    23594367.810  
        27.100          25.300  
  24563737.145    -1134427.099 3   -883967.736 2  24563735.615    24563735.652  
        21.600          13.900  
  21254452.818   -17571818.804 7 -13692316.922 6  21254452.528    21254451.040  
        43.100          39.900  
  24133096.500    -2651633.683 3  -2066205.963 2  24133095.438    24133095.252  
        23.800          17.000  
  22975704.007    -8415345.854 5  -6557393.447 4  22975702.926    22975701.196  
        32.600          27.400  
  21134377.020   -18240218.194 7 -14213145.159 7  21134375.230    21134373.820  
        44.700          42.000  
  22599986.327   -10848829.146 5  -8453623.900 5  22599985.170    22599983.010  
        34.100          30.200  
  22522602.942   -13821250.608 6 -10769796.166 5  22522601.795    22522600.730  
        38.300          35.100  
 06  6  7  2 23  0.0000000  0  9G 3G 7G 8G13G15G16G19G23G27
  20437391.971   -21494871.217 7 -16749231.661 7  20437391.003    20437390.386  
        47.000          43.800  
  23610912.555    -4711119.057 4  -3670982.301 4  23610911.335    23610911.699  
        27.400          24.200  
  24543626.316    -1240106.786 3   -966315.471 2  24543625.388    24543624.768  
        22.600          13.900  
  21264322.859   -17519952.136 7 -13651901.346 6  21264322.411    21264321.009  
        42.900          39.900  
  24128214.220    -2677290.706 3  -2086198.463 2  24128213.267    24128212.998  
        23.000          16.100  
  22991799.575    -8330763.830 5  -6491485.387 4  22991798.345    22991796.515  
        32.800          27.400  
  21122582.267   -18302200.186 7 -14261442.774 7  21122580.449    21122578.924  
        44.800          42.100  
  22619670.209   -10745391.638 5  -8373023.280 4  22619668.761    22619666.335  
        34.700          29.500  
  22507865.334   -13898696.435 6 -10830143.513 5  22507864.258    22507863.410  
        38.000          35.600  
 06  6  7  2 23 30.0000000  0  9G 3G 7G 8G13G15G16G19G23G27
  20440226.392   -21479975.858 7 -16737624.852 7  20440225.366    20440224.877  
        47.000          44.100  
  23627501.342    -4623945.138 4  -3603054.631 4  23627500.222    23627500.015  
        27.600          24.200  
  24523517.411    -1345778.434 3  -1048656.959 1  24523516.469    24523515.809  
        22.600           9.000  
  21274299.897   -17467522.356 7 -13611046.978 6  21274299.506    21274297.954  
        43.200          39.400  
  24123430.479    -2702431.557 3  -2105788.773 2  24123429.475    24123428.748  
        23.800          17.800  
  23007914.720    -8246079.333 5  -6425497.448 4  23007913.485    23007911.536  
        33.000          27.100  
  21110880.725   -18363692.747 7 -14309359.022 7  21110878.912    21110877.273  
        44.800          42.100  
  22639403.918   -10641688.608 5  -8292215.766 5  22639402.919    22639400.731  
        34.900          30.200  
  22493157.918   -13975983.341 6 -10890367.054 5  22493156.936    22493156.305  
        38.100          35.700  
 06  6  7  2 24  0.0000000  0  9G 3G 7G 8G13G15G16G19G23G27
  20443174.310   -21464483.685 7 -16725552.985 7  20443173.348    20443172.954  
        47.100          44.400  
  23644133.988    -4536536.889 4  -3534944.340 3  23644133.319    23644133.363  
        27.100          22.600  
  24503410.263    -1451440.268 3  -1130990.775 1  24503409.151    24503409.327  
        21.100          11.000  
  21284383.492   -17414531.272 7 -13569755.221 6  21284383.163    21284381.776  
        43.000          39.500  
  24118745.111    -2727054.642 3  -2124975.599 2  24118743.953    24118743.628  
        22.600          16.100  
  23024048.340    -8161293.206 5  -6359430.319 4  23024047.372    23024045.745  
        32.700          27.100  
  21099272.716   -18424693.627 7 -14356892.139 7  21099270.780    21099269.125  
        45.000          42.200  
  22659188.597   -10537722.980 5  -8211203.621 5  22659186.966    22659184.811  
        34.300          31.500  
  22478481.460   -14053109.587 6 -10950465.418 5  22478480.304    22478479.575  
        38.400          35.300  
 06  6  7  2 24 30.0000000  0  9G 3G 7G 8G13G15G16G19G23G27
  20446235.793   -21448395.726 7 -16713016.880 7  20446234.793    20446234.335  
        46.800          44.200  
  23660811.229    -4448896.421 4  -3466653.073 3  23660810.693    23660810.735  
        25.300          22.100  
  24483305.840    -1557090.770 3  -1213315.781 1  24483304.459    24483305.301  
        19.900           6.500  
  21294573.736   -17360980.810 7 -13528027.597 6  21294573.520    21294572.217  
        43.000          39.500  
  24114157.972    -2751158.592 4  -2143757.938 2  24114157.035    24114156.466  
        24.200          17.800  
  23040201.352    -8076406.787 5  -6293285.058 4  23040200.388    23040199.236  
        31.000          28.400  
  21087758.444   -18485201.533 7 -14404041.119 7  21087756.513    21087754.807  
        45.000          42.200  
  22679021.020   -10433498.026 5  -8129989.409 5  22679020.078    22679018.314  
        34.300          31.300  
  22463835.616   -14130073.600 6 -11010437.364 5  22463834.588    22463833.751  
        38.400          35.300  
 06  6  7  2 25  0.0000000  0  9G 3G 7G 8G13G15G16G19G23G27
  20449410.267   -21431712.736 7 -16700017.126 7  20449409.388    20449408.945  
        47.000          44.200  
  23677532.445    -4361026.018 4  -3398182.640 3  23677531.727    23677532.030  
        27.100          23.400  
  24463204.399    -1662728.575 3  -1295630.980 2  24463203.356    24463202.983  
        23.000          13.900  
  21304870.218   -17306873.066 7 -13485865.730 6  21304869.912    21304868.608  
        42.800          39.600  
  24109670.761    -2774741.950 4  -2162134.619 3  24109669.420    24109669.567  
        24.900          19.900  
  23056373.978    -7991420.798 5  -6227062.228 4  23056372.878    23056371.600  
        31.300          27.900  
  21076338.353   -18545214.790 7 -14450804.657 7  21076336.480    21076334.662  
        45.100          42.300  
  22698903.423   -10329016.634 5  -8048575.378 4  22698902.154    22698900.293  
        33.500          29.900  
  22449220.576   -14206873.340 6 -11070281.288 5  22449219.841    22449219.294  
        38.100          35.500  
 06  6  7  2 25 30.0000000  0  9G 3G 7G 8G13G15G16G19G23G27
  20452698.093   -21414435.903 7 -16686554.632 7  20452697.087    20452696.582  
        46.800          43.800  
  23694297.410    -4272927.923 4  -3329534.782 3  23694296.608    23694296.978  
        26.500          23.400  
  24443103.821    -1768352.369 3  -1377935.220 2  24443102.784    24443103.644  
        23.000          17.000  
  21315272.181   -17252209.655 7 -13443270.874 6  21315271.917    21315270.670  
        42.600          39.500  
  24105282.066    -2797802.959 4  -2180104.242 3  24105280.959    24105281.070  
        25.900          19.900  
  23072564.992    -7906336.411 5  -6160762.700 4  23072564.020    23072562.622  
        31.800          26.800  
  21065012.396   -18604731.965 7 -14497181.637 7  21065010.558    21065008.841  
        44.900          42.500  
  22718834.633   -10224281.724 5  -7966963.803 4  22718833.075    22718830.622  
        33.200          28.600  
  22434638.247   -14283507.278 6 -11129996.046 5  22434637.066    22434636.304  
        38.000          35.600  
 06  6  7  2 26  0.0000000  0  9G 3G 7G 8G13G15G16G19G23G27
  20456098.632   -21396566.313 7 -16672630.247 7  20456097.590    20456096.979  
        46.900          44.300  
  23711104.258    -4184604.430 4  -3260711.310 3  23711103.723    23711103.898  
        26.500          21.100  
  24423008.214    -1873960.471 3  -1460227.207 2  24423006.747    24423006.754  
        20.500          12.600  
  21325779.760   -17196992.946 7 -13400244.886 6  21325779.419    21325778.157  
        42.600          39.600  
  24100993.178    -2820340.528 4  -2197666.033 2  24100991.916    24100991.919  
        24.200          17.800  
  23088775.036    -7821154.516 5  -6094387.205 4  23088773.896    23088771.940  
        31.300          26.200  
  21053781.099   -18663751.254 7 -14543170.665 7  21053779.373    21053777.911  
        44.900          42.500  
  22738811.674   -10119296.341 5  -7885157.051 4  22738811.107    22738808.780  
        34.800          28.800  
  22420087.394   -14359973.440 6 -11189580.048 5  22420086.243    22420085.198  
        38.700          35.600  
 06  6  7  2 26 30.0000000  0  9G 3G 7G 8G13G15G16G19G23G27
  20459611.640   -21378105.153 7 -16658244.910 7  20459610.567    20459609.976  
        46.900          44.100  
  23727953.995    -4096057.468 4  -3191713.677 3  23727953.346    23727953.854  
        24.200          22.600  
  24402914.162    -1979551.478 3  -1542505.892 2  24402913.210    24402913.981  
        18.600          16.100  
  21336392.081   -17141224.968 7 -13356789.336 6  21336391.818    21336390.352  
        42.600          39.100  
  24096804.409    -2842353.219 3  -2214818.750 3  24096803.258    24096802.690  
        22.600          18.600  
  23105002.987    -7735876.379 5  -6027936.709 4  23105001.778    23105000.171  
        31.800          27.600  
  21042645.314   -18722270.902 7 -14588770.356 7  21042643.554    21042641.914  
        45.200          42.700  
  22758837.966   -10014063.532 5  -7803157.486 4  22758836.426    22758833.746  
        34.500          28.800  
  22405568.409   -14436270.626 6 -11249032.421 5  22405567.194    22405566.367  
        38.300          35.500  
 06  6  7  2 27  0.0000000  0  9G 3G 7G 8G13G15G16G19G23G27
  20463236.908   -21359053.221 7 -16643399.224 7  20463235.978    20463235.398  
        46.900          44.000  
  23744846.816    -4007289.692 4  -3122544.009 3  23744845.921    23744846.090  
        27.100          22.600  
  24382824.464    -2085124.004 3  -1624770.179 2  24382823.347    24382823.701  
        22.100          15.100  
  21347108.825   -17084907.321 7 -13312905.474 6  21347108.592    21347107.062  
        42.400          38.400  
  24092715.097    -2863839.872 3  -2231561.648 2  24092714.180    24092714.143  
        21.600          17.800  
  23121248.224    -7650502.740 5  -5961411.788 4  23121247.347    23121246.388  
        31.100          27.600  
  21031604.792   -18780289.581 7 -14633979.686 7  21031602.966    21031601.244  
        45.100          42.700  
  22778909.025    -9908586.423 5  -7720967.564 4  22778907.967    22778905.700  
        34.900          29.500  
  22391081.651   -14512396.466 6 -11308351.215 5  22391080.672    22391079.799  
        38.300          35.200  
 06  6  7  2 27 30.0000000  0  9G 3G 7G 8G13G15G16G19G23G27
  20466974.606   -21339411.991 7 -16628094.347 7  20466973.657    20466972.984  
        47.000          43.900  
  23761779.683    -3918302.880 4  -3053203.643 3  23761779.310    23761779.713  
        26.800          23.000  
  24362739.337    -2190676.022 3  -1707018.390 2  24362738.113    24362737.537  
        23.000          16.100  
  21357930.072   -17028042.123 7 -13268594.938 6  21357929.765    21357928.326  
        42.700          38.600  
  24088726.135    -2884799.014 3  -2247893.455 2  24088725.358    24088725.707  
        23.400          17.800  
  23137511.836    -7565034.752 5  -5894813.322 4  23137510.970    23137510.185  
        30.600          27.600  
  21020659.831   -18837805.777 7 -14678797.466 7  21020658.016    21020656.339  
        45.200          42.800  
  22799026.388    -9802868.171 5  -7638589.736 4  22799025.281    22799023.084  
        34.100          29.700  
  22376628.045   -14588349.804 6 -11367535.655 5  22376627.152    22376626.581  
        38.400          35.600  
 06  6  7  2 28  0.0000000  0  9G 3G 7G 8G13G15G16G19G23G27
  20470824.190   -21319182.460 7 -16612331.076 7  20470823.240    20470822.523  
        47.100          43.900  
  23778755.262    -3829099.515 4  -2983694.552 4  23778754.234    23778754.751  
        25.900          24.200  
  24342656.701    -2296206.101 3  -1789249.485 2  24342655.945    24342655.567  
        22.600          17.000  
  21368854.980   -16970631.714 7 -13223859.574 6  21368854.609    21368853.299  
        42.700          38.700  
  24084839.160    -2905229.471 3  -2263813.320 2  24084837.803    24084838.257  
        23.000          17.000  
  23153794.414    -7479473.520 5  -5828142.264 4  23153793.155    23153791.795  
        31.000          26.500  
  21009810.693   -18894817.847 7 -14723222.428 7  21009808.866    21009807.227  
        45.300          42.700  
  22819189.294    -9696911.550 5  -7556026.180 4  22819188.227    22819185.724  
        33.400          28.600  
  22362207.912   -14664128.702 6 -11426584.151 6  22362206.859    22362206.448  
        38.600          36.100  
 06  6  7  2 28 30.0000000  0  9G 3G 7G 8G13G15G16G19G23G27
  20474785.449   -21298365.872 7 -16596110.338 7  20474784.487    20474783.795  
        47.200          43.900  
  23795770.369    -3739681.698 4  -2914018.340 3  23795769.683    23795769.985  
        24.600          21.100  
  24322579.107    -2401713.184 3  -1871462.698 2  24322578.088    24322578.074  
        20.500          17.800  
  21379883.104   -16912678.090 7 -13178700.918 6  21379882.824    21379881.193  
        42.600          38.100  
  24081051.535    -2925129.675 3  -2279319.964 2  24081050.957    24081051.288  
        22.100          17.000  
  23170093.949    -7393820.089 5  -5761399.316 4  23170092.636    23170090.905  
        30.800          25.900  
  20999057.929   -18951324.079 7 -14767253.226 7  20999056.060    20999054.484  
        45.000          42.900  
  22839397.115    -9590719.643 5  -7473279.257 4  22839395.979    22839393.559  
        33.400          28.600  
  22347821.461   -14739731.354 6 -11485495.350 6  22347820.395    22347819.942  
        38.900          36.800  
