     2.00           Observation         G (GPS)             RINEX VERSION / TYPE
GEOTRACER GPS Decoder Ver. 2.2          07/20/2004 19:18:15 PGM / RUN BY / DATE
EUSK                                                        MARKER NAME
Automatic           BKG Wettzell/MilGeo                     OBSERVER / AGENCY
3450A09057          TRIMBLE 4000SSI     7.29                REC # / TYPE / VERS
0220180419          TRM29659.00     NONE                    ANT # / TYPE
  4022106.4147   477010.5823  4910838.9964                  APPROX POSITION XYZ
        0.0510        0.0000        0.0000                  ANTENNA: DELTA H/E/N
     1     1                                                WAVELENGTH FACT L1/2
     6    C1    P2    L1    L2    D1    D2                  # / TYPES OF OBSERV
    30.000                                                  INTERVAL
  2001    10    22     0     0    0.0750000     GPS         TIME OF FIRST OBS
  2001    10    22    23    59   30.0000000     GPS         TIME OF LAST OBS
14258M003                                                   MARKER NUMBER
Edited by GPSTK Rinex Editor ver 3.0 9/8/2003 on 2004/07/20 COMMENT
                                                            END OF HEADER
 01 10 22  0  0  0.0750000  0  1G17
  47062836.230 5  47062841.118 4  22697036.623 4  17810627.258 4     -4693.196  
     -3657.037  
 01 10 22  0  0 30.0750000  0  1G17
  47089637.491 5  47089640.433 5  22837872.692 5  17920369.692 5     -4696.081  
     -3659.296  
 01 10 22  0  1  0.0750000  0  1G17
  47116451.989 4  47116460.933 4  22978784.379 4  18030171.042 4     -4697.962  
     -3660.729  
 01 10 22  0  1 30.0750000  0  1G17
  47143278.394 5  47143277.691 4  23119761.566 4  18140023.489 4     -4700.230  
     -3662.484  
 01 10 22  0  2  0.0750000  0  1G17
  47170115.772 4  47170120.461 5  23260801.966 5  18249925.075 5     -4702.201  
     -3664.045  
 01 10 22  0  3  0.0750000  0  1G17
  47223829.607 5         0.000 1    136445.981 1         0.00011     -4706.068  
         0.000  
 01 10 22  0  3 30.0750000  0  1G17
  47250701.145 5  47250705.833 5    277661.728 5     18338.809 5     -4708.312  
     -3668.815  
 01 10 22  0  4  0.0750000  0  1G17
  47277584.281 5  47277593.353 5    418935.500 5    128422.425 5     -4710.249  
     -3670.316  
 01 10 22  0  4 30.0750000  0  1G17
  47304478.489 5         0.000 1     23554.611 1         0.00011     -4712.096  
         0.000  
 01 10 22  0  5  0.0750000  0  1G17
  47331384.609 5         0.000 1    164945.965 1         0.00011     -4714.141  
         0.000  
 01 10 22  0  5 30.0750000  0  1G17
  47358299.699 4         0.000 1     23573.820 1         0.00011     -4715.895  
         0.000  
 01 10 22  0  6  0.0750000  0  1G17
  47385227.529 5         0.000 1    165073.294 1         0.00011     -4717.456  
         0.000  
 01 10 22  0  6 30.0000000  0  1G17
  24627934.937 4         0.000 1    306627.340 1         0.00011     -4719.253  
         0.000  
 01 10 22  0  7  0.0000000  0  1G17
  24654882.202 4  24654889.857 4    448231.615 4     84594.837 4     -4720.913  
     -3678.635  
 01 10 22  0  7 30.0000000  0  1G17
  24681841.804 4  24681846.094 4    589888.809 4    194977.113 4     -4722.679  
     -3680.000  
 01 10 22  0  8  0.0000000  0  1G17
  24708803.253 4  24708803.757 4    731592.743 4    305395.750 4     -4724.180  
     -3681.161  
 01 10 22  0  8 30.0000000  0  1G17
  24735779.097 4  24735788.756 4    873346.257 4    415853.101 4     -4725.858  
     -3682.463  
 01 10 22  0  9  0.0000000  0  1G17
  24762764.737 4  24762767.562 4   1015152.572 4    526351.407 4     -4727.662  
     -3683.867  
 01 10 22  0  9 30.0000000  0  1G17
  24789761.532 5  24789768.155 5   1157010.646 5    636890.219 5     -4729.284  
     -3685.158  
 01 10 22  0 10  0.0000000  0  1G17
  24816764.601 4  24816764.730 4   1298921.311 4    747470.157 4     -4731.140  
     -3686.613  
 01 10 22  0 10 30.0000000  0  1G17
  24843777.686 5  24843785.341 5   1440876.047 5    858084.392 5     -4732.502  
     -3687.663  
 01 10 22  0 11  0.0000000  0  1G17
  24870800.045 4  24870806.515 4   1582876.177 4    968733.767 4     -4733.917  
     -3688.773  
 01 10 22  0 11 30.0000000  0  1G17
  24897826.774 4  24897833.808 4   1724915.764 4   1079414.127 4     -4735.592  
     -3690.087  
 01 10 22  0 12  0.0000000  0  1G17
  24924864.550 4  24924867.317 5   1867000.481 5   1190129.574 5     -4736.781  
     -3691.007  
 01 10 22  9 54  0.0310000  0  1G17
  34693066.629 5         0.000 1    -47422.978 1         0.00011      1630.038  
         0.000  
 01 10 22  9 54 30.0310000  0  1G17
  34683793.290 4         0.000 1    -17827.452 1         0.00011      1618.749  
         0.000  
 01 10 22  9 55  0.0310000  0  1G17
  34674579.835 4         0.000 1    -66222.666 1         0.00011      1607.500  
         0.000  
 01 10 22  9 55 30.0310000  0  1G17
  34665437.229 4         0.000 1   -114275.100 1         0.00011      1595.906  
         0.000  
 01 10 22  9 56  0.0310000  0  1G17
  34656359.365 4         0.000 1   -161982.901 1         0.00011      1584.568  
         0.000  
 01 10 22  9 56 30.0310000  0  1G17
  34647346.056 4         0.000 1   -209347.518 1         0.00011      1573.076  
         0.000  
 01 10 22  9 57  0.0310000  0  1G17
  34638399.996 4  34638419.466 4   -256367.819 4    -12182.004 4      1561.603  
      1216.835  
 01 10 22  9 57 30.0310000  0  1G17
  34629519.550 5  34629527.380 5   -303040.244 5    -48550.253 5      1549.920  
      1207.704  
 01 10 22  9 58  0.0310000  0  1G17
  34620705.669 5  34620714.543 5   -349353.803 5    -84638.649 5      1537.873  
      1198.351  
 01 10 22  9 58 30.0310000  0  1G17
  34611959.835 4  34611965.661 4   -395310.385 4   -120448.918 4      1525.755  
      1188.916  
 01 10 22  9 59  0.0310000  0  1G17
  34603283.345 4  34603297.646 4   -440905.043 4   -155977.121 4      1514.182  
      1179.903  
 01 10 22  9 59 30.0310000  0  1G17
  34594674.319 4         0.000 1    -24080.660 1         0.00011      1501.868  
         0.000  
 01 10 22 10  0  0.0310000  0  1G17
  34586136.604 4         0.000 1    -68952.444 1         0.00011      1489.726  
         0.000  
 01 10 22 10  0 30.0310000  0  1G17
  34577668.817 4         0.000 1   -113455.138 1         0.00011      1477.246  
         0.000  
 01 10 22 10  1  0.0310000  0  1G17
  34569271.474 4         0.000 1   -157583.065 1         0.00011      1464.717  
         0.000  
 01 10 22 10  1 30.0310000  0  1G17
  34560942.260 4         0.000 1   -201337.140 1         0.00011      1452.446  
         0.000  
 01 10 22 10  2  0.0310000  0  1G17
  34552687.977 4         0.000 1   -244726.133 1         0.00011      1440.015  
         0.000  
 01 10 22 10  2 30.0310000  0  1G17
  34544504.530 4         0.000 1   -287732.284 1         0.00011      1427.377  
         0.000  
 01 10 22 10  3  0.0310000  0  1G17
  34536394.355 4         0.000 1   -330355.674 1         0.00011      1414.202  
         0.000  
 01 10 22 10  3 30.0310000  0  1G17
  34528355.600 4  34528365.927 4   -372596.547 4    -18615.540 4      1401.711  
      1092.227  
 01 10 22 10  4  0.0310000  0  1G17
  34520389.917 4  34520397.607 4   -414454.174 4    -51232.069 4      1388.604  
      1082.082  
 01 10 22 10  4 30.0310000  0  1G17
  34512499.372 5  34512508.211 4   -455918.607 4    -83541.881 4      1375.834  
      1072.086  
 01 10 22 10  5  0.0310000  0  1G17
  34504683.028 5  34504697.458 4   -496999.486 4   -115553.046 4      1362.680  
      1061.865  
 01 10 22 10  5 30.0310000  0  1G17
  34496940.228 4  34496944.812 4   -537682.454 4   -147253.973 4      1349.535  
      1051.597  
 01 10 22 10  6  0.0310000  0  1G17
  34489275.655 5  34489277.460 4   -577967.703 4   -178645.148 4      1335.998  
      1041.040  
 01 10 22 10  6 30.0310000  0  1G17
  34481684.571 4  34481692.659 4   -617850.681 4   -209722.519 4      1322.822  
      1030.741  
 01 10 22 10  7  0.0310000  0  1G17
  34474172.578 5         0.000 1   -657329.331 1         0.00011      1309.192  
         0.000  
 01 10 22 10  7 30.0310000  0  1G17
  34466735.623 5         0.000 1   -696408.679 1         0.00011      1295.869  
         0.000  
 01 10 22 10  8  0.0310000  0  1G17
  34459376.338 5         0.000 1   -735077.948 1         0.00011      1282.435  
         0.000  
 01 10 22 10  8 30.0310000  0  1G17
  34452095.092 4         0.000 1   -773339.084 1         0.00011      1268.555  
         0.000  
 01 10 22 10  9  0.0310000  0  1G17
  34444894.794 5  34444902.577 5   -811186.768 5    -14706.034 5      1254.702  
       977.686  
 01 10 22 10  9 30.0310000  0  1G17
  34437770.983 5         0.000 1   -848619.346 1         0.00011      1240.741  
         0.000  
 01 10 22 10 10  0.0310000  0  1G17
  34430724.295 4         0.000 1   -885640.264 1         0.00011      1226.922  
         0.000  
 01 10 22 10 10 30.0310000  0  1G17
  34423761.814 5         0.000 1   -922239.689 1         0.00011      1213.106  
         0.000  
 01 10 22 10 11  0.0310000  0  1G17
  34416875.879 5  34416881.259 4   -958419.482 4    -20641.641 4      1198.934  
       934.245  
 01 10 22 10 11 30.0320000  0  1G17
  34410072.156 4  34410074.348 3   -994173.571 3    -48501.851 3      1184.628  
       923.057  
 01 10 22 10 12  0.0320000  0  1G17
  34403352.101 5  34403361.279 4  -1029494.265 4    -76024.553 4      1170.339  
       911.918  
 01 10 22 10 12 30.0320000  0  1G17
  34396710.175 5  34396716.927 4  -1064385.969 4   -103212.816 4      1155.916  
       900.721  
 01 10 22 10 13  0.0320000  0  1G17
  34390154.042 5  34390162.669 5  -1098846.027 5   -130064.775 5      1141.529  
       889.511  
 01 10 22 10 13 30.0320000  0  1G17
  34383678.901 5  34383685.923 4  -1132873.655 4   -156579.832 4      1127.077  
       878.231  
 01 10 22 10 14  0.0320000  0  1G17
  34377287.122 5  34377293.265 5  -1166457.767 5   -182749.183 5      1111.627  
       866.206  
 01 10 22 10 14 30.0320000  0  1G17
  34370982.854 4  34370993.627 4  -1199590.221 4   -208566.652 4      1097.010  
       854.804  
 01 10 22 10 15  0.0320000  0  1G17
  34364764.763 5  34364773.086 4  -1232276.498 4   -234036.377 4      1081.938  
       843.070  
 01 10 22 10 15 30.0320000  0  1G17
  34358628.011 5  34358636.650 5  -1264515.931 5   -259157.964 5      1067.306  
       831.674  
 01 10 22 10 16  0.0320000  0  1G17
  34352577.504 4  34352586.916 5  -1296309.584 5   -283932.197 5      1052.234  
       819.918  
 01 10 22 10 16 30.0320000  0  1G17
  34346613.925 5  34346618.789 5  -1327652.982 5   -308355.642 5      1037.126  
       808.131  
 01 10 22 10 17  0.0320000  0  1G17
  34340735.516 4  34340750.181 4  -1358539.224 4   -332422.806 4      1021.958  
       796.289  
 01 10 22 10 17 30.0320000  0  1G17
  34334942.362 5  34334950.005 4  -1388980.320 4   -356143.267 4      1007.306  
       784.913  
 01 10 22 10 18  0.0320000  0  1G17
  34329236.105 5  34329244.896 5  -1418975.677 5   -379516.210 5       992.094  
       773.062  
 01 10 22 10 18 30.0320000  0  1G17
  34323614.488 5  34323619.798 4  -1448511.311 4   -402530.939 4       976.804  
       761.166  
 01 10 22 10 19  0.0320000  0  1G17
  34318083.472 5  34318085.898 5  -1477584.754 5   -425185.689 5       961.358  
       749.116  
 01 10 22 10 19 30.0320000  0  1G17
  34312637.317 5  34312641.397 4  -1506193.197 4   -447477.935 4       945.884  
       737.068  
 01 10 22 10 20  0.0320000  0  1G17
  34307282.886 5  34307288.865 5  -1534338.173 5   -469409.186 5       930.262  
       724.896  
 01 10 22 10 20 30.0320000  0  1G17
  34302018.028 5  34302025.296 5  -1562004.760 5   -490967.573 5       914.099  
       712.297  
 01 10 22 10 21  0.0320000  0  1G17
  34296843.930 4  34296854.878 5  -1589195.776 5   -512155.423 5       898.735  
       700.307  
 01 10 22 10 21 30.0320000  0  1G17
  34291759.641 5  34291766.287 5  -1615913.011 5   -532973.996 5       882.750  
       687.874  
 01 10 22 10 22  0.0320000  0  1G17
  34286764.629 4  34286772.929 5  -1642157.464 5   -553424.199 5       867.168  
       675.690  
 01 10 22 10 22 30.0320000  0  1G17
  34281861.892 5  34281871.410 5  -1667925.328 5   -573503.078 5       850.663  
       662.838  
 01 10 22 10 23  0.0320000  0  1G17
  34277050.652 5  34277059.162 5  -1693203.739 5   -593200.464 5       834.648  
       650.385  
 01 10 22 10 23 30.0320000  0  1G17
  34272331.246 5  34272341.725 5  -1718007.520 5   -612528.083 5       818.825  
       638.055  
 01 10 22 10 24  0.0320000  0  1G17
  34267702.525 5  34267710.930 5  -1742329.854 5   -631480.520 5       802.750  
       625.498  
 01 10 22 10 24 30.0320000  0  1G17
  34263168.013 5  34263169.983 5  -1766164.687 5   -650053.148 5       786.337  
       612.722  
 01 10 22 10 25  0.0320000  0  1G17
  34258725.738 5  34258732.244 5  -1789507.458 5   -668242.220 5       769.924  
       599.940  
 01 10 22 10 25 30.0320000  0  1G17
  34254376.131 5  34254381.559 5  -1812363.167 5   -686051.873 5       753.546  
       587.214  
 01 10 22 10 26  0.0320000  0  1G17
  34250119.573 5  34250123.582 5  -1834727.399 5   -703478.437 5       737.374  
       574.595  
 01 10 22 10 26 30.0320000  0  1G17
  34245959.182 5  34245966.708 5  -1856595.557 5   -720518.553 5       720.672  
       561.568  
 01 10 22 10 27  0.0320000  0  1G17
  34241892.540 5  34241898.648 5  -1877965.557 5   -737170.499 5       703.689  
       548.334  
 01 10 22 10 27 30.0320000  0  1G17
  34237922.471 5  34237929.505 5  -1898827.950 5   -753426.817 5       687.035  
       535.363  
 01 10 22 10 28  0.0320000  0  1G17
  34234047.016 5  34234053.428 5  -1919190.203 5   -769293.442 5       670.553  
       522.518  
 01 10 22 10 28 30.0320000  0  1G17
  34230267.938 5  34230276.811 4  -1939052.858 4   -784770.724 4       653.675  
       509.381  
 01 10 22 10 29  0.0320000  0  1G17
  34226583.195 5  34226589.009 4  -1958413.356 4   -799856.828 4       636.998  
       496.362  
 01 10 22 10 29 30.0320000  0  1G17
  34222994.681 5  34223001.187 5  -1977268.358 5   -814549.016 5       619.791  
       482.956  
 01 10 22 10 30  0.0320000  0  1G17
  34219506.847 5  34219517.045 5  -1995600.151 5   -828833.515 5       602.245  
       469.279  
 01 10 22 10 30 30.0330000  0  1G17
  34216114.880 5  34216122.429 5  -2013418.217 5   -842717.799 5       585.520  
       456.243  
 01 10 22 10 31  0.0330000  0  1G17
  34212823.019 5  34212829.325 5  -2030721.526 5   -856200.855 5       568.175  
       442.734  
 01 10 22 10 31 30.0330000  0  1G17
  34209627.968 5  34209635.271 5  -2047512.137 5   -869284.399 5       551.008  
       429.345  
 01 10 22 10 32  0.0330000  0  1G17
  34206532.429 5  34206537.481 5  -2063779.771 5   -881960.572 5       533.471  
       415.701  
 01 10 22 10 32 30.0330000  0  1G17
  34203536.058 5  34203543.912 5  -2079530.502 5   -894233.801 5       516.457  
       402.439  
 01 10 22 10 33  0.0330000  0  1G17
  34200637.401 5  34200642.911 5  -2094759.834 5   -906100.848 5       498.865  
       388.735  
 01 10 22 10 33 30.0330000  0  1G17
  34197840.350 5  34197846.000 5  -2109460.270 5   -917555.743 5       481.516  
       375.203  
 01 10 22 10 34  0.0330000  0  1G17
  34195142.753 5  34195147.817 5  -2123636.988 5   -928602.580 5       463.697  
       361.324  
 01 10 22 10 34 30.0330000  0  1G17
  34192547.335 5  34192554.720 5  -2137276.500 5   -939230.817 5       445.602  
       347.225  
 01 10 22 10 35  0.0330000  0  1G17
  34190052.371 5  34190058.185 5  -2150386.363 5   -949446.315 5       428.336  
       333.760  
 01 10 22 10 35 30.0330000  0  1G17
  34187657.798 5  34187664.714 5  -2162968.630 5   -959250.638 5       410.419  
       319.817  
 01 10 22 10 36  0.0330000  0  1G17
  34185364.862 5  34185373.830 5  -2175018.605 5   -968640.252 5       392.837  
       306.102  
 01 10 22 10 36 30.0330000  0  1G17
  34183172.477 5  34183180.214 5  -2186539.557 5   -977617.608 5       375.090  
       292.284  
 01 10 22 10 37  0.0330000  0  1G17
  34181082.437 5  34181090.044 5  -2197520.719 5   -986174.387 5       356.877  
       278.071  
 01 10 22 10 37 30.0330000  0  1G17
  34179096.421 6  34179101.755 5  -2207959.088 5   -994308.187 5       339.069  
       264.217  
 01 10 22 10 38  0.0330000  0  1G17
  34177212.860 6  34177218.862 5  -2217857.825 5  -1002021.538 5       321.055  
       250.177  
 01 10 22 10 38 30.0330000  0  1G17
  34175432.869 6  34175439.093 5  -2227213.852 5  -1009311.980 5       302.795  
       235.947  
 01 10 22 10 39  0.0330000  0  1G17
  34173756.099 6  34173762.195 5  -2236028.113 5  -1016180.264 5       284.578  
       221.747  
 01 10 22 10 39 30.0330000  0  1G17
  34172182.616 5  34172190.845 5  -2244291.944 5  -1022619.636 5       266.326  
       207.523  
 01 10 22 10 40  0.0330000  0  1G17
  34170713.752 6  34170721.079 5  -2252011.582 5  -1028635.037 5       248.174  
       193.385  
 01 10 22 10 40 30.0330000  0  1G17
  34169349.400 5  34169357.488 5  -2259183.423 5  -1034223.536 5       229.995  
       179.223  
 01 10 22 10 41  0.0330000  0  1G17
  34168089.046 5  34168096.947 5  -2265803.903 5  -1039382.409 5       211.431  
       164.757  
 01 10 22 10 41 30.0330000  0  1G17
  34166934.090 6  34166940.408 5  -2271873.804 5  -1044112.290 5       193.120  
       150.480  
 01 10 22 10 42  0.0330000  0  1G17
  34165883.360 6  34165890.815 5  -2277394.727 5  -1048414.338 5       174.867  
       136.255  
 01 10 22 10 42 30.0330000  0  1G17
  34164939.517 6  34164944.780 5  -2282355.819 5  -1052280.193 5       156.220  
       121.736  
 01 10 22 10 43  0.0330000  0  1G17
  34164101.401 6  34164109.125 5  -2286761.555 5  -1055713.282 5       137.661  
       107.269  
 01 10 22 10 43 30.0330000  0  1G17
  34163369.611 6  34163376.269 5  -2290607.237 5  -1058709.985 5       118.537  
        92.365  
 01 10 22 10 44  0.0330000  0  1G17
  34162744.655 6  34162750.915 5  -2293891.370 5  -1061269.084 5       100.393  
        78.224  
 01 10 22 10 44 30.0330000  0  1G17
  34162226.813 6  34162234.151 5  -2296616.109 5  -1063392.297 5        81.284  
        63.335  
 01 10 22 10 45  0.0330000  0  1G17
  34161815.176 6  34161824.694 5  -2298776.978 5  -1065076.099 5        62.532  
        48.725  
 01 10 22 10 45 30.0330000  0  1G17
  34161511.082 6  34161518.362 5  -2300369.706 5  -1066317.234 5        43.533  
        33.924  
 01 10 22 10 46  0.0330000  0  1G17
  34161317.292 6  34161324.970 5  -2301390.771 5  -1067112.858 5        24.402  
        19.019  
 01 10 22 10 46 30.0330000  0  1G17
  34161231.097 6  34161237.708 5  -2301843.594 5  -1067465.742 5         5.537  
         4.308  
 01 10 22 10 47  0.0330000  0  1G17
  34161254.883 6  34161261.916 5  -2301722.753 5  -1067371.641 5       -13.595  
       -10.601  
 01 10 22 10 47 30.0330000  0  1G17
  34161386.721 6  34161394.048 5  -2301027.189 5  -1066829.703 5       -32.447  
       -25.291  
 01 10 22 10 48  0.0330000  0  1G17
  34161628.055 6  34161634.818 5  -2299761.497 5  -1065843.451 5       -51.890  
       -40.438  
 01 10 22 10 48 30.0330000  0  1G17
  34161978.162 6  34161986.098 5  -2297920.590 5  -1064408.954 5       -70.870  
       -55.221  
 01 10 22 10 49  0.0330000  0  1G17
  34162437.733 6  34162445.727 5  -2295505.964 5  -1062527.433 5       -90.158  
       -70.254  
 01 10 22 10 49 30.0340000  0  1G17
  34163006.547 5  34163015.737 5  -2292511.559 5  -1060194.196 5      -109.615  
       -85.402  
 01 10 22 10 50  0.0340000  0  1G17
  34163687.946 6  34163695.296 5  -2288936.992 5  -1057408.821 5      -128.743  
      -100.322  
 01 10 22 10 50 30.0340000  0  1G17
  34164478.910 6  34164487.948 5  -2284779.640 5  -1054169.364 5      -148.350  
      -115.592  
 01 10 22 10 51  0.0340000  0  1G17
  34165380.485 6  34165387.283 5  -2280041.648 5  -1050477.467 5      -167.536  
      -130.554  
 01 10 22 10 51 30.0340000  0  1G17
  34166392.103 6  34166398.855 5  -2274725.635 5  -1046335.111 5      -187.006  
      -145.736  
 01 10 22 10 52  0.0340000  0  1G17
  34167515.314 5  34167520.284 5  -2268821.595 5  -1041734.615 5      -206.595  
      -160.975  
 01 10 22 10 52 30.0340000  0  1G17
  34168750.305 5  34168758.077 5  -2262331.919 5  -1036677.680 5      -226.080  
      -176.166  
 01 10 22 10 53  0.0340000  0  1G17
  34170097.411 5  34170105.440 5  -2255251.698 5  -1031160.640 5      -245.751  
      -191.485  
 01 10 22 10 53 30.0340000  0  1G17
  34171557.326 5  34171565.883 5  -2247582.540 5  -1025184.703 5      -265.250  
      -206.697  
 01 10 22 10 54  0.0340000  0  1G17
  34173128.665 5  34173137.551 5  -2239324.528 5  -1018749.921 5      -285.174  
      -222.197  
 01 10 22 10 54 30.0340000  0  1G17
  34174814.075 6  34174822.292 5  -2230468.996 5  -1011849.613 5      -304.867  
      -237.554  
 01 10 22 10 55  0.0340000  0  1G17
  34176611.382 6  34176615.145 5  -2221025.292 5  -1004490.854 5      -324.721  
      -253.021  
 01 10 22 10 55 30.0340000  0  1G17
  34178520.813 5  34178532.301 5  -2210989.553 5   -996670.852 5      -344.130  
      -268.148  
 01 10 22 10 56  0.0340000  0  1G17
  34180543.632 5  34180547.523 5  -2200361.690 5   -988389.446 5      -364.209  
      -283.786  
 01 10 22 10 56 30.0340000  0  1G17
  34182678.921 5  34182685.497 5  -2189136.262 5   -979642.390 5      -383.944  
      -299.165  
 01 10 22 10 57  0.0340000  0  1G17
  34184927.714 5  34184935.615 5  -2177318.484 5   -970433.761 5      -403.556  
      -314.464  
 01 10 22 10 57 30.0340000  0  1G17
  34187290.434 5  34187296.975 5  -2164906.196 5   -960761.887 5      -423.351  
      -329.897  
 01 10 22 10 58  0.0340000  0  1G17
  34189765.879 5  34189770.228 5  -2151893.702 5   -950622.448 5      -443.777  
      -345.782  
 01 10 22 10 58 30.0340000  0  1G17
  34192357.188 5  34192366.625 5  -2138275.374 5   -940010.825 5      -463.779  
      -361.365  
 01 10 22 10 59  0.0340000  0  1G17
  34195063.218 5  34195071.400 5  -2124055.577 5   -928930.468 5      -484.075  
      -377.205  
 01 10 22 10 59 30.0340000  0  1G17
  34197884.869 5  34197892.864 4  -2109229.977 4   -917378.142 4      -504.337  
      -392.953  
 01 10 22 11  0  0.0340000  0  1G17
  34200822.115 5  34200829.664 5  -2093800.688 5   -905355.383 5      -524.412  
      -408.635  
 01 10 22 11  0 30.0340000  0  1G17
  34203871.490 5  34203877.340 5  -2077773.921 5   -892867.048 5      -544.198  
      -424.049  
 01 10 22 11  1  0.0340000  0  1G17
  34207036.568 5  34207041.679 5  -2061142.945 5   -879907.961 5      -564.648  
      -440.004  
 01 10 22 11  1 30.0340000  0  1G17
  34210316.220 5  34210320.100 5  -2043907.477 5   -866477.760 5      -584.679  
      -455.595  
 01 10 22 11  2  0.0340000  0  1G17
  34213711.799 5  34213717.238 5  -2026065.564 5   -852575.063 5      -604.382  
      -470.943  
 01 10 22 11  2 30.0340000  0  1G17
  34217221.187 5  34217228.009 5  -2007623.597 5   -838204.790 5      -624.603  
      -486.676  
 01 10 22 11  3  0.0340000  0  1G17
  34220844.752 5  34220852.923 5  -1988578.957 5   -823364.889 5      -644.951  
      -502.552  
 01 10 22 11  3 30.0340000  0  1G17
  34224585.081 5  34224596.405 5  -1968922.931 5   -808048.579 5      -664.996  
      -518.181  
 01 10 22 11  4  0.0340000  0  1G17
  34228441.426 5  34228449.081 5  -1948657.390 5   -792257.362 5      -685.905  
      -534.464  
 01 10 22 11  4 30.0340000  0  1G17
  34232415.199 5  34232423.416 5  -1927776.639 5   -775986.704 5      -706.145  
      -550.246  
 01 10 22 11  5  0.0340000  0  1G17
  34236503.585 5  34236515.096 5  -1906292.080 5   -759245.609 5      -726.324  
      -565.958  
 01 10 22 11  5 30.0340000  0  1G17
  34240707.618 5  34240715.319 5  -1884201.171 5   -742031.967 5      -746.334  
      -581.591  
 01 10 22 11  6  0.0340000  0  1G17
  34245027.078 5  34245034.932 5  -1861504.459 5   -724346.294 5      -766.817  
      -597.514  
 01 10 22 11  6 30.0340000  0  1G17
  34249463.455 5  34249470.394 5  -1838189.310 5   -706178.820 5      -787.468  
      -613.623  
 01 10 22 11  7  0.0340000  0  1G17
  34254017.445 5  34254027.186 5  -1814258.390 5   -687531.522 5      -807.852  
      -629.486  
 01 10 22 11  7 30.0340000  0  1G17
  34258686.959 5  34258695.399 5  -1789718.614 5   -668409.734 5      -828.149  
      -645.321  
 01 10 22 11  8  0.0340000  0  1G17
  34263472.821 5  34263483.007 5  -1764566.207 5   -648810.517 5      -848.577  
      -661.242  
 01 10 22 11  8 30.0350000  0  1G17
  34268376.614 5  34268385.007 4  -1738803.520 4   -628735.738 4      -869.292  
      -677.362  
 01 10 22 11  9  0.0350000  0  1G17
  34273395.658 4  34273404.426 5  -1712422.745 5   -608179.459 5      -889.447  
      -693.079  
 01 10 22 11  9 30.0350000  0  1G17
  34278533.217 5  34278541.798 5  -1685427.612 5   -587144.264 5      -910.129  
      -709.185  
 01 10 22 11 10  0.0350000  0  1G17
  34283786.297 5  34283795.534 4  -1657818.420 4   -565630.688 4      -930.820  
      -725.312  
 01 10 22 11 10 30.0350000  0  1G17
  34289157.544 4  34289165.878 5  -1629592.681 5   -543636.584 5      -950.776  
      -740.870  
 01 10 22 11 11  0.0350000  0  1G17
  34294644.824 4  34294654.014 5  -1600756.979 5   -521167.361 5      -971.376  
      -756.929  
 01 10 22 11 11 30.0350000  0  1G17
  34300249.108 4  34300261.205 4  -1571311.027 4   -498222.409 4      -991.970  
      -772.966  
 01 10 22 11 12  0.0350000  0  1G17
  34305969.149 4  34305979.347 4  -1541249.416 4   -474797.867 4     -1012.457  
      -788.936  
 01 10 22 11 12 30.0350000  0  1G17
  34311807.553 4  34311814.211 5  -1510570.996 5   -450892.606 5     -1032.791  
      -804.771  
 01 10 22 11 13  0.0350000  0  1G17
  34317763.873 5  34317775.782 5  -1479272.822 5   -426504.519 5     -1053.607  
      -820.982  
 01 10 22 11 13 30.0350000  0  1G17
  34323835.064 5  34323842.004 4  -1447364.516 4   -401640.946 4     -1073.627  
      -836.597  
 01 10 22 11 14  0.0350000  0  1G17
  34330025.161 4  34330032.933 5  -1414839.814 5   -376297.132 5     -1094.487  
      -852.835  
 01 10 22 11 14 30.0350000  0  1G17
  34336330.505 4  34336345.603 4  -1381701.065 4   -350474.836 4     -1115.010  
      -868.833  
 01 10 22 11 15  0.0350000  0  1G17
  34342753.570 5  34342765.245 5  -1347950.758 5   -324175.929 5     -1135.346  
      -884.670  
 01 10 22 11 15 30.0350000  0  1G17
  34349292.956 4  34349300.752 4  -1313580.752 4   -297394.150 4     -1156.108  
      -900.934  
 01 10 22 11 16  0.0350000  0  1G17
  34355950.958 4  34355960.793 4  -1278596.267 4   -270133.695 4     -1176.037  
      -916.395  
 01 10 22 11 16 30.0350000  0  1G17
  34362724.594 4  34362731.592 5  -1243004.389 5   -242399.737 5     -1196.757  
      -932.536  
 01 10 22 11 17  0.0350000  0  1G17
  34369614.710 4  34369620.641 5  -1206792.948 5   -214183.130 5     -1217.289  
      -948.533  
 01 10 22 11 17 30.0350000  0  1G17
  34376623.824 4  34376637.504 5  -1169963.842 5   -185485.201 5     -1237.624  
      -964.378  
 01 10 22 11 18  0.0350000  0  1G17
  34383747.653 5  34383754.265 5  -1132526.008 5   -156313.046 5     -1258.270  
      -980.449  
 01 10 22 11 18 30.0350000  0  1G17
  34390989.194 4  34390995.020 5  -1094470.187 5   -126659.241 5     -1278.613  
      -996.329  
 01 10 22 11 19  0.0350000  0  1G17
  34398348.417 4  34398353.903 4  -1055801.943 4    -96528.238 4     -1299.106  
     -1012.317  
 01 10 22 11 19 30.0350000  0  1G17
  34405823.490 5  34405830.465 5  -1016521.564 5    -65920.154 5     -1319.576  
     -1028.231  
 01 10 22 11 20  0.0350000  0  1G17
  34413413.365 4  34413421.559 5   -976629.133 5    -34835.346 5     -1339.991  
     -1044.149  
 01 10 22 11 20 30.0350000  0  1G17
  34421122.992 4  34421134.104 5   -936124.899 5     -3273.671 5     -1360.369  
     -1060.014  
 01 10 22 11 21  0.0350000  0  1G17
  34428948.283 5  34428959.419 5   -895004.527 5     28767.932 5     -1380.913  
     -1076.037  
 01 10 22 11 21 30.0350000  0  1G17
  34436888.557 5  34436896.938 5   -853275.395 5     61283.877 5     -1400.989  
     -1091.670  
 01 10 22 11 22  0.0350000  0  1G17
  34444946.246 5  34444952.975 5   -810932.719 5     94278.076 5     -1421.533  
     -1107.677  
 01 10 22 11 22 30.0350000  0  1G17
  34453121.605 5  34453127.759 5   -767975.512 5    127751.177 5     -1442.442  
     -1123.976  
 01 10 22 11 23  0.0350000  0  1G17
  34461411.786 5  34461422.957 5   -724403.174 5    161703.524 5     -1462.760  
     -1139.809  
 01 10 22 11 23 30.0350000  0  1G17
  34469821.167 5  34469830.229 5   -680217.720 5    196133.638 5     -1483.054  
     -1155.622  
 01 10 22 11 24  0.0350000  0  1G17
  34478344.556 5  34478352.492 5   -635424.637 5    231037.199 5     -1503.024  
     -1171.175  
 01 10 22 11 24 30.0350000  0  1G17
  34486985.199 5  34486993.299 5   -590020.758 5    266416.805 5     -1523.595  
     -1187.204  
 01 10 22 11 25  0.0350000  0  1G17
  34495740.965 5  34495750.940 4   -544007.296 4    302271.351 4     -1543.609  
     -1202.821  
 01 10 22 11 25 30.0350000  0  1G17
  34504612.661 5  34504618.956 5   -497384.954 5    338600.343 5     -1564.487  
     -1219.077  
 01 10 22 11 26  0.0350000  0  1G17
  34513601.605 5  34513612.483 5   -450154.072 5    375403.494 5     -1584.369  
     -1234.583  
 01 10 22 11 26 30.0350000  0  1G17
  34522703.765 5  34522715.135 5   -402315.076 5    412680.572 5     -1604.652  
     -1250.371  
 01 10 22 11 27  0.0350000  0  1G17
  34531923.614 4  34531932.816 5   -353870.776 5    450429.310 5     -1624.989  
     -1266.218  
 01 10 22 11 27 30.0360000  0  1G17
  34541258.067 5  34541263.060 5   -304817.714 5    488652.194 5     -1644.994  
     -1281.807  
 01 10 22 11 28  0.0360000  0  1G17
  34550707.353 5  34550716.343 5   -255158.107 5    527347.850 5     -1665.481  
     -1297.763  
 01 10 22 11 28 30.0360000  0  1G17
  34560273.805 4  34560280.920 5   -204890.231 5    566517.515 5     -1685.597  
     -1313.437  
 01 10 22 11 29  0.0360000  0  1G17
  34569953.266 4  34569960.780 4   -154017.533 4    606158.485 4     -1705.808  
     -1329.198  
 01 10 22 11 29 30.0360000  0  1G17
  34579750.239 4  34579759.007 5   -102541.776 5    646269.300 5     -1725.986  
     -1344.908  
 01 10 22 11 30  0.0360000  0  1G17
  34589660.237 5  34589670.083 5    -50465.602 5    686847.991 5     -1745.729  
     -1360.310  
 01 10 22 11 30 30.0360000  0  1G17
  34599682.747 5  34599691.996 5      2207.628 5    727891.885 5     -1766.183  
     -1376.236  
 01 10 22 11 31  0.0360000  0  1G17
  34609822.731 5  34609830.784 5     55485.408 5    769406.922 5     -1785.907  
     -1391.618  
 01 10 22 11 31 30.0360000  0  1G17
  34620073.439 4  34620090.120 5    109361.364 5    811388.062 5     -1805.912  
     -1407.200  
 01 10 22 11 32  0.0360000  0  1G17
  34630441.658 5  34630450.907 5    163840.656 5    853839.380 5     -1825.782  
     -1422.677  
 01 10 22 11 32 30.0360000  0  1G17
  34640923.726 5  34640930.912 5    218921.417 5    896759.246 5     -1846.069  
     -1438.493  
 01 10 22 11 33  0.0360000  0  1G17
  34651517.826 5  34651525.480 5    274598.211 5    940143.613 5     -1865.758  
     -1453.839  
 01 10 22 11 33 30.0360000  0  1G17
  34662225.673 5  34662234.335 5    330868.806 5    983990.690 5     -1885.527  
     -1469.218  
 01 10 22 11 34  0.0360000  0  1G17
  34673047.990 5  34673058.915 5    387734.605 5   1028301.624 5     -1905.449  
     -1484.763  
 01 10 22 11 34 30.0360000  0  1G17
  34683981.358 4  34683988.227 5    445193.880 5   1073074.882 5     -1925.148  
     -1500.100  
 01 10 22 11 35  0.0360000  0  1G17
  34695027.891 5  34695034.444 5    503245.441 5   1118309.722 5     -1945.057  
     -1515.617  
 01 10 22 11 35 30.0360000  0  1G17
  34706189.225 5  34706200.783 5    561894.858 5   1164010.435 5     -1964.852  
     -1531.053  
 01 10 22 11 36  0.0360000  0  1G17
  34717461.987 5  34717465.468 4    621131.938 4   1210169.122 4     -1984.367  
     -1546.274  
 01 10 22 11 36 30.0360000  0  1G17
  34728846.083 4  34728853.034 5    680956.927 5   1256785.734 5     -2003.880  
     -1561.470  
 01 10 22 11 37  0.0360000  0  1G17
  34740342.559 4  34740351.128 5    741371.179 5   1303861.663 5     -2023.721  
     -1576.924  
 01 10 22 11 37 30.0360000  0  1G17
  34751950.299 5  34751960.274 5    802369.925 5   1351392.987 5     -2043.076  
     -1592.007  
 01 10 22 11 38  0.0360000  0  1G17
  34763669.944 5  34763678.478 5    863955.156 5   1399381.379 5     -2062.864  
     -1607.424  
 01 10 22 11 38 30.0360000  0  1G17
  34775502.909 5  34775509.954 5    926129.838 5   1447828.978 5     -2082.128  
     -1622.440  
 01 10 22 11 39  0.0360000  0  1G17
  34787443.695 5  34787451.677 5    988885.589 5   1496729.419 5     -2101.491  
     -1637.521  
 01 10 22 11 39 30.0360000  0  1G17
  34799496.091 5  34799505.468 5   1052222.566 5   1546082.744 5     -2120.815  
     -1652.603  
 01 10 22 11 40  0.0360000  0  1G17
  34811660.421 5  34811675.296 5   1116141.515 5   1595889.536 5     -2140.198  
     -1667.696  
 01 10 22 11 40 30.0360000  0  1G17
  34823932.864 5  34823941.457 5   1180640.032 5   1646147.959 5     -2159.688  
     -1682.863  
 01 10 22 11 41  0.0360000  0  1G17
  34836317.397 5  34836328.310 5   1245716.470 5   1696856.701 5     -2178.811  
     -1697.762  
 01 10 22 11 41 30.0360000  0  1G17
  34848809.947 5  34848820.626 5   1311369.919 5   1748015.049 5     -2198.086  
     -1712.785  
 01 10 22 11 42  0.0360000  0  1G17
  34861414.471 5  34861423.275 4   1377596.423 4   1799619.932 4     -2217.062  
     -1727.526  
 01 10 22 11 42 30.0360000  0  1G17
  34874124.884 5  34874134.285 5   1444397.132 5   1851672.262 5     -2236.571  
     -1742.800  
 01 10 22 11 43  0.0360000  0  1G17
  34886945.992 4  34886952.873 4   1511770.978 4   1904171.301 4     -2255.250  
     -1757.415  
 01 10 22 11 43 30.0360000  0  1G17
  34899875.047 5  34899888.375 5   1579707.913 5   1957108.935 5     -2273.839  
     -1771.807  
 01 10 22 11 44  0.0360000  0  1G17
  34912910.024 4  34912923.458 5   1648209.131 5   2010486.224 5     -2292.854  
     -1786.632  
 01 10 22 11 44 30.0360000  0  1G17
  34926054.508 4  34926066.758 4   1717278.130 4   2064306.031 4     -2311.858  
     -1801.464  
 01 10 22 11 45  0.0360000  0  1G17
  34939302.641 4  34939318.243 4   1786913.120 4   2118566.896 4     -2330.678  
     -1816.115  
 01 10 22 11 45 30.0360000  0  1G17
  34952663.478 4  34952679.373 4   1857116.598 4   2173270.707 4     -2349.554  
     -1830.857  
 01 10 22 11 46  0.0360000  0  1G17
  34966125.703 4  34966134.249 4   1927872.326 4   2228404.847 4     -2368.100  
     -1845.254  
 01 10 22 11 46 30.0370000  0  1G17
  34979701.618 4  34979705.135 4   1999196.538 4   2283982.001 4     -2386.817  
     -1859.926  
 01 10 22 11 47  0.0370000  0  1G17
  34993380.975 4  34993392.193 4   2071079.668 4   2339994.653 4     -2405.214  
     -1874.195  
 01 10 22 11 47 30.0370000  0  1G17
  35007164.559 4  35007172.706 4   2143516.560 4   2396438.741 4     -2423.974  
     -1888.746  
 01 10 22 11 48  0.0370000  0  1G17
  35021055.693 4  35021070.123 4   2216509.248 4   2453315.955 4     -2442.273  
     -1903.059  
 01 10 22 11 48 30.0370000  0  1G17
  35035049.090 4  35035058.280 4   2290051.364 4   2510621.308 4     -2460.685  
     -1917.401  
 01 10 22 11 49  0.0370000  0  1G17
  35049151.142 4  35049166.885 4   2364145.823 4   2568357.091 4     -2479.115  
     -1931.793  
 01 10 22 11 49 30.0370000  0  1G17
  35063354.693 4         0.000 1   2438794.236 1         0.00011     -2497.635  
         0.000  
 01 10 22 11 50  0.0370000  0  1G17
  35077663.524 4         0.000 1   2513989.765 1         0.00011     -2515.670  
         0.000  
 01 10 22 11 50 30.0370000  0  1G17
  35092076.728 4         0.000 1   2589725.509 1         0.00011     -2533.457  
         0.000  
 01 10 22 11 51  0.0370000  0  1G17
  35106592.870 4         0.000 1   2666005.547 1         0.00011     -2551.724  
         0.000  
 01 10 22 11 51 30.0370000  0  1G17
  35121210.977 4         0.000 1   2742827.525 1         0.00011     -2569.913  
         0.000  
 01 10 22 11 52  0.0370000  0  1G17
  35135931.484 4         0.000 1   2820189.685 1         0.00011     -2587.739  
         0.000  
 01 10 22 11 52 30.0370000  0  1G17
  35150757.573 4         0.000 1   2898088.637 1         0.00011     -2605.520  
         0.000  
 01 10 22 11 53  0.0370000  0  1G17
  35165683.465 4  35165691.495 4   2976526.669 4     12255.085 4     -2623.451  
     -2044.252  
 01 10 22 11 53 30.0370000  0  1G17
  35180710.646 4         0.000 1   3055499.037 1         0.00011     -2641.038  
         0.000  
 01 10 22 11 54  0.0370000  0  1G17
  35195840.264 4         0.000 1   3135001.352 1         0.00011     -2658.993  
         0.000  
 01 10 22 11 54 30.0370000  0  1G17
  35211070.665 4         0.000 1   3215038.952 1         0.00011     -2676.861  
         0.000  
 01 10 22 11 55  0.0370000  0  1G17
  35226403.958 5         0.000 1   3295606.956 1         0.00011     -2694.326  
         0.000  
 01 10 22 11 55 30.0370000  0  1G17
  35241834.134 5         0.000 1   3376696.921 1         0.00011     -2711.605  
         0.000  
 01 10 22 11 56  0.0370000  0  1G17
  35257365.966 5         0.000 1   3458312.474 1         0.00011     -2729.224  
         0.000  
 01 10 22 11 56 30.0370000  0  1G17
  35272995.090 4  35273005.312 4   3540449.886 4     57618.087 4     -2746.605  
     -2140.209  
 01 10 22 11 57  0.0370000  0  1G17
  35288726.363 5  35288735.119 4   3623109.949 4    122028.262 4     -2763.826  
     -2153.629  
 01 10 22 11 57 30.0370000  0  1G17
  35304551.770 4  35304562.566 4   3706283.371 4    186838.419 4     -2781.188  
     -2167.155  
 01 10 22 11 58  0.0370000  0  1G17
  35320479.968 5  35320494.175 4   3789976.242 4    252053.334 4     -2798.138  
     -2180.346  
 01 10 22 11 58 30.0370000  0  1G17
  35336501.753 4  35336509.360 4   3874178.740 4    317665.450 4     -2815.505  
     -2193.908  
 01 10 22 11 59  0.0370000  0  1G17
  35352625.259 5  35352634.578 4   3958895.255 4    383677.949 4     -2832.351  
     -2206.984  
 01 10 22 11 59 30.0370000  0  1G17
  35368842.666 4  35368852.079 5   4044121.462 5    450087.837 5     -2849.533  
     -2220.396  
 01 10 22 12  0  0.0370000  0  1G17
  35385159.696 5         0.000 1   4129857.396 1         0.00011     -2866.176  
         0.000  
 01 10 22 12  0 30.0370000  0  1G17
  35401566.981 4         0.000 1   4216097.500 1         0.00011     -2883.053  
         0.000  
 01 10 22 12  1  0.0370000  0  1G17
  35418075.420 5         0.000 1   4302841.707 1         0.00011     -2899.729  
         0.000  
 01 10 22 12  1 30.0370000  0  1G17
  35434677.876 4         0.000 1   4390091.310 1         0.00011     -2916.620  
         0.000  
 01 10 22 12  2  0.0370000  0  1G17
  35451376.726 5         0.000 1   4477830.867 1         0.00011     -2933.031  
         0.000  
 01 10 22 12  2 30.0370000  0  1G17
  35468168.120 4  35468184.859 4   4566068.549 4     61895.016 4     -2949.353  
     -2298.162  
 01 10 22 12  3  0.0370000  0  1G17
  35485051.311 5  35485061.064 5   4654796.036 5    131032.971 5     -2965.852  
     -2311.028  
 01 10 22 12  3 30.0370000  0  1G17
  35502031.154 4  35502048.233 4   4744021.885 4    200559.244 4     -2982.008  
     -2323.646  
 01 10 22 12  4  0.0370000  0  1G17
  35519102.113 5  35519115.640 5   4833727.434 5    270459.431 5     -2998.525  
     -2336.490  
 01 10 22 12  4 30.0370000  0  1G17
  35536267.241 5  35536281.002 4   4923923.772 4    340741.904 4     -3014.835  
     -2349.194  
 01 10 22 12  5  0.0370000  0  1G17
  35553519.722 5  35553531.409 5   5014606.138 5    411403.266 5     -3030.866  
     -2361.698  
 01 10 22 12  5 30.0380000  0  1G17
  35570872.393 5  35570878.652 5   5105775.802 5    482444.140 5     -3046.875  
     -2374.167  
 01 10 22 12  6  0.0380000  0  1G17
  35588309.455 4  35588324.049 5   5197421.579 5    553856.177 5     -3062.753  
     -2386.578  
 01 10 22 12  6 30.0380000  0  1G17
  35605842.285 5  35605853.222 4   5289543.606 4    625639.183 4     -3078.544  
     -2398.889  
 01 10 22 12  7  0.0380000  0  1G17
  35623460.647 5  35623469.333 5   5382134.281 5    697787.467 5     -3094.444  
     -2411.226  
 01 10 22 12  7 30.0380000  0  1G17
  35641170.645 5  35641182.941 4   5475198.406 4    770304.590 4     -3109.886  
     -2423.279  
 01 10 22 12  8  0.0380000  0  1G17
  35658970.694 5  35658984.819 5   5568731.686 5    843187.400 5     -3125.506  
     -2435.445  
 01 10 22 12  8 30.0380000  0  1G17
  35676856.846 5  35676873.984 5   5662728.710 5    916431.439 5     -3140.761  
     -2447.326  
 01 10 22 12  9  0.0380000  0  1G17
  35694834.043 5  35694841.921 4   5757196.955 4    990042.719 4     -3156.661  
     -2459.737  
 01 10 22 12  9 30.0380000  0  1G17
  35712899.790 5  35712913.880 5   5852128.308 5   1064014.831 5     -3171.896  
     -2471.591  
 01 10 22 12 10  0.0380000  0  1G17
  35731052.236 5  35731063.970 5   5947524.655 5   1138349.360 5     -3187.436  
     -2483.704  
 01 10 22 12 10 30.0380000  0  1G17
  35749295.702 5  35749310.823 5   6043383.663 5   1213044.273 5     -3202.957  
     -2495.793  
 01 10 22 12 11  0.0380000  0  1G17
  35767623.240 5  35767637.553 5   6139698.792 5   1288094.689 5     -3218.083  
     -2507.602  
 01 10 22 12 11 30.0380000  0  1G17
  35786039.005 5  35786054.408 5   6236475.711 5   1363504.937 5     -3233.563  
     -2519.629  
 01 10 22 12 12  0.0380000  0  1G17
  35804542.367 5  35804551.932 5   6333708.274 5   1439270.180 5     -3248.614  
     -2531.375  
 01 10 22 12 12 30.0380000  0  1G17
  35823130.861 5  35823148.269 5   6431392.169 5   1515387.108 5     -3263.573  
     -2543.032  
 01 10 22 12 13  0.0380000  0  1G17
  35841805.192 5  35841817.430 5   6529518.105 5   1591848.588 5     -3278.098  
     -2554.356  
 01 10 22 12 13 30.0380000  0  1G17
  35860561.725 5  35860577.186 4   6628085.509 4   1668653.940 4     -3292.986  
     -2565.892  
 01 10 22 12 14  0.0380000  0  1G17
  35879400.850 5  35879412.935 4   6727093.085 4   1745802.473 4     -3307.491  
     -2577.221  
 01 10 22 12 14 30.0380000  0  1G17
  35898326.918 6  35898340.304 5   6826531.828 5   1823286.751 5     -3321.760  
     -2588.377  
 01 10 22 12 15  0.0380000  0  1G17
  35917331.747 5  35917348.064 5   6926409.131 5   1901112.905 5     -3336.779  
     -2600.047  
 01 10 22 12 15 30.0380000  0  1G17
  35936420.149 5  35936434.110 5   7026719.354 5   1979276.415 5     -3350.812  
     -2611.017  
 01 10 22 12 16  0.0380000  0  1G17
  35955593.130 5  35955607.278 5   7127465.783 5   2057779.705 5     -3365.633  
     -2622.569  
 01 10 22 12 16 30.0380000  0  1G17
  35974846.356 5  35974864.865 5   7228653.561 5   2136627.010 5     -3380.472  
     -2634.126  
 01 10 22 12 17  0.0380000  0  1G17
  35994184.804 5  35994195.377 5   7330273.253 5   2215810.847 5     -3394.407  
     -2644.983  
 01 10 22 12 17 30.0380000  0  1G17
  36013603.402 5  36013620.727 5   7432312.527 5   2295321.569 5     -3408.268  
     -2655.795  
 01 10 22 12 18  0.0380000  0  1G17
  36033099.441 5  36033117.950 5   7534769.306 5   2375157.742 5     -3422.272  
     -2666.697  
 01 10 22 12 18 30.0380000  0  1G17
  36052678.094 5  36052691.891 5   7637650.319 5   2455324.324 5     -3436.389  
     -2677.687  
 01 10 22 12 19  0.0380000  0  1G17
  36072333.829 5  36072341.835 5   7740938.129 5   2535807.900 5     -3449.813  
     -2688.152  
 01 10 22 12 19 30.0380000  0  1G17
  36092065.780 5  36092085.942 5   7844630.355 5   2616606.748 5     -3462.716  
     -2698.226  
 01 10 22 12 20  0.0380000  0  1G17
  36111874.205 6  36111888.564 5   7948717.574 5   2697713.307 5     -3476.319  
     -2708.818  
 01 10 22 12 20 30.0380000  0  1G17
  36131759.269 5  36131777.907 5   8053210.046 5   2779135.608 5     -3489.797  
     -2719.298  
 01 10 22 12 21  0.0380000  0  1G17
  36151716.034 5  36151735.809 4   8158103.967 4   2860870.873 4     -3503.072  
     -2729.636  
 01 10 22 12 21 30.0380000  0  1G17
  36171755.657 5  36171772.337 5   8263397.354 5   2942917.204 5     -3516.302  
     -2739.963  
 01 10 22 12 22  0.0380000  0  1G17
  36191865.420 4  36191885.840 4   8369079.734 4   3025266.797 4     -3529.350  
     -2750.159  
 01 10 22 12 22 30.0380000  0  1G17
  36212050.868 5  36212063.985 5   8475154.886 5   3107922.420 5     -3542.559  
     -2760.427  
 01 10 22 12 23  0.0380000  0  1G17
  36232314.653 6  36232328.696 5   8581629.249 5   3190889.084 5     -3555.606  
     -2770.596  
 01 10 22 12 23 30.0380000  0  1G17
  36252651.270 5  36252667.470 5   8688490.076 5   3274156.612 5     -3568.543  
     -2780.660  
 01 10 22 12 24  0.0380000  0  1G17
  36273054.321 4  36273070.661 5   8795737.045 5   3357725.700 5     -3581.327  
     -2790.609  
 01 10 22 12 24 30.0390000  0  1G17
  36293539.979 5         0.000 1   8903368.800 1         0.00011     -3593.974  
         0.000  
 01 10 22 12 25  0.0390000  0  1G17
  36314093.889 5         0.000 1   9011375.992 1         0.00011     -3606.453  
         0.000  
 01 10 22 12 25 30.0390000  0  1G17
  36334718.963 4  36334742.888 4   9119759.094 4     28180.145 4     -3618.912  
     -2819.908  
 01 10 22 12 26  0.0390000  0  1G17
  36355413.241 5  36355431.786 5   9228508.714 5    112919.784 5     -3631.166  
     -2829.466  
 01 10 22 12 26 30.0390000  0  1G17
  36376179.628 5  36376185.888 4   9337628.767 4    197947.997 4     -3643.642  
     -2839.232  
 01 10 22 12 27  0.0390000  0  1G17
  36397014.261 4  36397032.970 4   9447117.887 4    283263.707 4     -3655.710  
     -2848.586  
 01 10 22 12 27 30.0390000  0  1G17
  36417914.978 4  36417928.705 4   9556969.191 4    368862.008 4     -3668.212  
     -2858.414  
 01 10 22 12 28  0.0390000  0  1G17
  36438888.960 5  36438906.743 4   9667183.277 4    454742.510 4     -3679.721  
     -2867.298  
 01 10 22 12 28 30.0390000  0  1G17
  36459933.986 5  36459953.691 5   9777759.733 5    540905.584 5     -3691.742  
     -2876.669  
 01 10 22 12 29  0.0390000  0  1G17
  36481043.203 5  36481059.145 4   9888688.516 4    627343.312 4     -3703.679  
     -2885.961  
 01 10 22 12 29 30.0390000  0  1G17
  36502218.376 4  36502239.136 4   9999967.994 4    714054.142 4     -3715.213  
     -2894.933  
 01 10 22 12 30  0.0390000  0  1G17
  36523460.011 4         0.000 1  10111598.061 1         0.00011     -3726.947  
         0.000  
 01 10 22 12 30 30.0390000  0  1G17
  36544770.092 5         0.000 1  10223573.538 1         0.00011     -3737.974  
         0.000  
 01 10 22 12 31  0.0390000  0  1G17
  36566142.480 5         0.000 1  10335885.626 1         0.00011     -3749.446  
         0.000  
 01 10 22 12 31 30.0390000  0  1G17
  36587579.231 4         0.000 1  10448540.830 1         0.00011     -3760.657  
         0.000  
 01 10 22 12 32  0.0390000  0  1G17
  36609080.508 4  36609094.165 4  10561527.290 4     29371.885 4     -3771.381  
     -2938.772  
 01 10 22 12 32 30.0390000  0  1G17
  36630642.670 4         0.000 1  10674838.043 1         0.00011     -3782.935  
         0.000  
 01 10 22 12 33  0.0390000  0  1G17
  36652273.130 4         0.000 1  10788492.757 1         0.00011     -3793.930  
         0.000  
 01 10 22 12 33 30.0390000  0  1G17
  36673961.731 3         0.000 1  10902474.206 1         0.00011     -3804.794  
         0.000  
 01 10 22 12 34  0.0390000  0  1G17
  36695713.726 4         0.000 1  11016782.098 1         0.00011     -3815.288  
         0.000  
 01 10 22 12 34 30.0390000  0  1G17
  36717527.074 4         0.000 1  11131408.925 1         0.00011     -3826.200  
         0.000  
 01 10 22 12 35  0.0390000  0  1G17
  36739403.105 5         0.000 1  11246352.795 1         0.00011     -3836.667  
         0.000  
 01 10 22 18 30 30.0580000  0  1G17
  42893413.663 6         0.000 1    -11281.258 1         0.00011      2256.777  
         0.000  
 01 10 22 18 31  0.0580000  0  1G17
  42880520.455 5         0.000 1    -11293.341 1         0.00011      2259.287  
         0.000  
 01 10 22 18 32 30.0580000  0  1G17
  42841785.445 5         0.000 1    -65638.948 1         0.00011      2264.242  
         0.000  
 01 10 22 18 33  0.0580000  0  1G17
  42828852.515 4         0.000 1   -133591.338 1         0.00011      2266.062  
         0.000  
 01 10 22 18 33 30.0580000  0  1G17
  42815912.524 5  42815925.477 4   -201593.597 4    -37094.303 4      2267.582  
      1766.949  
 01 10 22 18 34 30.0580000  0  1G17
  42790006.020 5         0.000 1    -34048.969 1         0.00011      2270.229  
         0.000  
 01 10 22 18 35  0.0580000  0  1G17
  42777041.360 5         0.000 1   -102182.054 1         0.00011      2271.703  
         0.000  
 01 10 22 18 35 30.0580000  0  1G17
  42764066.053 4         0.000 1   -170356.448 1         0.00011      2273.142  
         0.000  
 01 10 22 18 36  0.0580000  0  1G17
  42751089.206 5         0.000 1   -238562.709 1         0.00011      2273.928  
         0.000  
 01 10 22 18 38  0.0580000  0  1G17
  42699106.542 5         0.000 1    -36445.314 1         0.00011      2278.294  
         0.000  
 01 10 22 18 38 30.0580000  0  1G17
  42686096.715 4         0.000 1   -104807.624 1         0.00011      2279.021  
         0.000  
 01 10 22 18 39  0.0580000  0  1G17
  42673084.268 5         0.000 1   -173191.760 1         0.00011      2279.880  
         0.000  
 01 10 22 18 39 30.0580000  0  1G17
  42660069.658 5         0.000 1   -241589.041 1         0.00011      2280.381  
         0.000  
 01 10 22 18 40  0.0580000  0  1G17
  42647049.274 5  42647053.318 5   -310003.761 5    -26655.479 5      2280.684  
      1777.150  
 01 10 22 18 40 30.0580000  0  1G17
  42634028.527 5  42634031.868 5   -378432.172 5    -79975.984 5      2281.324  
      1777.641  
 01 10 22 18 41  0.0580000  0  1G17
  42621003.411 5  42621007.760 4   -446878.574 4   -133310.586 4      2281.880  
      1778.051  
 01 10 22 18 41 30.0580000  0  1G17
  42607975.460 5  42607984.170 4   -515338.801 4   -186655.941 4      2282.085  
      1778.282  
 01 10 22 18 42  0.0580000  0  1G17
  42594947.320 5  42594952.946 5   -583804.994 5   -240006.007 5      2282.394  
      1778.485  
 01 10 22 18 42 30.0580000  0  1G17
  42581915.790 5  42581923.573 5   -652279.624 5   -293362.606 5      2282.453  
      1778.538  
 01 10 22 18 43  0.0590000  0  1G17
  42568884.958 5  42568892.718 4   -720757.988 4   -346722.067 4      2282.455  
      1778.509  
 01 10 22 18 43 30.0590000  0  1G17
  42555853.258 5  42555862.354 5   -789236.295 5   -400081.518 5      2282.538  
      1778.586  
 01 10 22 18 44  0.0590000  0  1G17
  42542821.910 5  42542828.744 4   -857711.233 4   -453438.470 4      2282.337  
      1778.435  
 01 10 22 18 44 30.0590000  0  1G17
  42529790.883 4  42529797.951 5   -926184.594 5   -506794.185 5      2282.433  
      1778.505  
 01 10 22 18 45  0.0590000  0  1G17
  42516762.733 5  42516770.470 5   -994651.031 5   -560144.388 5      2281.981  
      1778.144  
 01 10 22 18 45 30.0590000  0  1G17
  42503737.954 5  42503745.714 5  -1063103.349 5   -613483.572 5      2281.483  
      1777.760  
 01 10 22 18 46  0.0590000  0  1G17
  42490713.707 5  42490718.829 5  -1131547.146 5   -666816.197 5      2281.182  
      1777.535  
 01 10 22 18 46 30.0590000  0  1G17
  42477691.992 5  42477698.674 5  -1199977.790 5   -720138.543 5      2280.745  
      1777.194  
 01 10 22 18 47  0.0590000  0  1G17
  42464671.785 5  42464676.380 5  -1268393.020 5   -773448.867 5      2280.086  
      1776.685  
 01 10 22 18 47 30.0590000  0  1G17
  42451655.255 5  42451660.682 5  -1336789.733 5   -826744.839 5      2279.412  
      1776.142  
 01 10 22 18 48  0.0590000  0  1G17
  42438644.870 5  42438650.860 5  -1405162.124 5   -880021.843 5      2278.523  
      1775.455  
 01 10 22 18 48 30.0590000  0  1G17
  42425638.528 5  42425645.807 5  -1473512.153 5   -933281.351 5      2277.907  
      1774.993  
 01 10 22 18 49  0.0590000  0  1G17
  42412636.766 5  42412641.443 5  -1541833.703 5   -986518.734 5      2277.247  
      1774.477  
 01 10 22 18 49 30.0590000  0  1G17
  42399640.022 5  42399648.181 5  -1610133.472 5  -1039739.079 5      2276.118  
      1773.602  
 01 10 22 18 50  0.0590000  0  1G17
  42386650.416 5  42386658.094 5  -1678396.499 5  -1092930.907 5      2275.012  
      1772.759  
 01 10 22 18 50 30.0590000  0  1G17
  42373665.591 5  42373671.370 5  -1746629.267 5  -1146099.045 5      2273.968  
      1771.915  
 01 10 22 18 51  0.0590000  0  1G17
  42360686.986 5  42360694.382 5  -1814829.531 5  -1199241.976 5      2272.835  
      1771.044  
 01 10 22 18 51 30.0590000  0  1G17
  42347716.468 6  42347722.047 5  -1882993.718 5  -1252356.718 5      2271.763  
      1770.208  
 01 10 22 18 52  0.0590000  0  1G17
  42334749.821 5  42334753.678 5  -1951129.230 5  -1305449.177 5      2270.524  
      1769.228  
 01 10 22 18 52 30.0590000  0  1G17
  42321793.252 6  42321800.403 5  -2019221.059 5  -1358507.666 5      2268.774  
      1767.873  
 01 10 22 18 53  0.0590000  0  1G17
  42308843.302 5  42308849.398 5  -2087267.614 5  -1411530.821 5      2267.555  
      1766.939  
 01 10 22 18 53 30.0590000  0  1G17
  42295903.061 5  42295907.140 5  -2155272.011 5  -1464521.132 5      2266.056  
      1765.749  
 01 10 22 18 54  0.0590000  0  1G17
  42282971.994 5  42282979.145 5  -2223224.451 5  -1517471.002 5      2264.460  
      1764.502  
 01 10 22 18 54 30.0590000  0  1G17
  42270050.215 5  42270053.756 5  -2291128.871 5  -1570383.481 5      2262.650  
      1763.110  
 01 10 22 18 55  0.0590000  0  1G17
  42257138.464 5  42257144.278 5  -2358975.885 5  -1623251.040 5      2260.832  
      1761.678  
 01 10 22 18 55 30.0590000  0  1G17
  42244237.804 5  42244243.958 5  -2426772.317 5  -1676079.407 5      2258.781  
      1760.099  
 01 10 22 18 56  0.0590000  0  1G17
  42231348.299 5  42231356.891 5  -2494505.123 5  -1728857.953 5      2256.708  
      1758.464  
 01 10 22 18 56 30.0590000  0  1G17
  42218470.092 5  42218474.862 5  -2562177.833 5  -1781589.942 5      2254.733  
      1756.934  
 01 10 22 18 57  0.0590000  0  1G17
  42205604.855 6  42205611.853 5  -2629789.953 5  -1834274.521 5      2252.848  
      1755.459  
 01 10 22 18 57 30.0590000  0  1G17
  42192749.361 5  42192752.784 5  -2697338.546 5  -1886909.663 5      2250.186  
      1753.358  
 01 10 22 18 58  0.0590000  0  1G17
  42179910.758 6  42179915.236 5  -2764810.656 5  -1939485.261 5      2247.943  
      1751.649  
 01 10 22 18 58 30.0590000  0  1G17
  42167082.421 5  42167089.021 5  -2832218.446 5  -1992010.600 5      2245.794  
      1749.959  
 01 10 22 18 59  0.0590000  0  1G17
  42154269.110 5  42154276.272 5  -2899555.002 5  -2044480.605 5      2243.185  
      1747.922  
 01 10 22 18 59 30.0590000  0  1G17
  42141470.002 5  42141474.820 5  -2966816.199 5  -2096891.710 5      2240.596  
      1745.922  
 01 10 22 19  0  0.0590000  0  1G17
  42128685.681 5  42128693.324 5  -3033993.414 5  -2149237.476 5      2238.158  
      1744.012  
 01 10 22 19  0 30.0590000  0  1G17
  42115918.544 5  42115923.795 5  -3101087.641 5  -2201518.558 5      2235.244  
      1741.739  
 01 10 22 19  1  0.0590000  0  1G17
  42103166.703 6  42103173.748 5  -3168100.786 5  -2253736.490 5      2232.304  
      1739.451  
 01 10 22 19  1 30.0590000  0  1G17
  42090430.226 5  42090436.533 5  -3235025.934 5  -2305885.790 5      2229.448  
      1737.232  
 01 10 22 19  2  0.0600000  0  1G17
  42077711.458 5  42077719.300 5  -3301865.419 5  -2357968.459 5      2226.542  
      1734.955  
 01 10 22 19  2 30.0600000  0  1G17
  42065010.591 6  42065015.760 5  -3368612.313 5  -2409978.847 5      2223.331  
      1732.467  
 01 10 22 19  3  0.0600000  0  1G17
  42052326.058 6  42052331.778 5  -3435264.335 5  -2461915.358 5      2220.037  
      1729.896  
 01 10 22 19  3 30.0600000  0  1G17
  42039659.871 5  42039665.450 5  -3501821.376 5  -2513777.881 5      2216.825  
      1727.393  
 01 10 22 19  4  0.0600000  0  1G17
  42027014.727 6  42027021.022 6  -3568279.255 6  -2565563.119 6      2213.645  
      1724.915  
 01 10 22 19  4 30.0600000  0  1G17
  42014386.308 6  42014391.383 5  -3634640.450 5  -2617273.035 5      2210.406  
      1722.385  
 01 10 22 19  5  0.0600000  0  1G17
  42001778.956 6  42001784.372 5  -3700888.945 5  -2668895.142 5      2206.749  
      1719.534  
 01 10 22 19  5 30.0600000  0  1G17
  41989192.709 6  41989197.069 6  -3767032.657 6  -2720435.600 6      2202.921  
      1716.561  
 01 10 22 19  6  0.0600000  0  1G17
  41976625.550 6  41976631.317 5  -3833072.387 5  -2771894.995 5      2199.511  
      1713.898  
 01 10 22 19  6 30.0600000  0  1G17
  41964080.549 6  41964086.610 6  -3898999.148 6  -2823266.428 6      2195.894  
      1711.080  
 01 10 22 19  7  0.0600000  0  1G17
  41951554.942 6  41951561.178 5  -3964818.995 5  -2874554.489 5      2192.194  
      1708.202  
 01 10 22 19  7 30.0600000  0  1G17
  41939050.516 6  41939055.158 5  -4030529.713 5  -2925757.546 5      2188.456  
      1705.291  
 01 10 22 19  8  0.0600000  0  1G17
  41926568.701 6  41926576.016 5  -4096119.245 5  -2976866.131 5      2184.120  
      1701.900  
 01 10 22 19  8 30.0600000  0  1G17
  41914110.869 6  41914117.105 5  -4161588.584 5  -3027881.118 5      2180.263  
      1698.898  
 01 10 22 19  9  0.0600000  0  1G17
  41901675.506 7  41901680.969 6  -4226935.511 6  -3078800.718 6      2176.211  
      1695.745  
 01 10 22 19  9 30.0600000  0  1G17
  41889263.328 6  41889269.060 5  -4292159.344 5  -3129624.391 5      2172.046  
      1692.501  
 01 10 22 19 10  0.0600000  0  1G17
  41876875.910 7  41876880.892 6  -4357257.858 6  -3180350.397 6      2167.697  
      1689.114  
 01 10 22 19 10 30.0600000  0  1G17
  41864514.054 7  41864520.419 6  -4422219.908 6  -3230970.080 6      2163.175  
      1685.584  
 01 10 22 19 11  0.0600000  0  1G17
  41852177.866 7  41852184.079 5  -4487044.139 5  -3281482.377 5      2158.437  
      1681.882  
 01 10 22 19 11 30.0600000  0  1G17
  41839868.369 6  41839874.757 6  -4551732.353 6  -3331888.635 6      2153.936  
      1678.385  
 01 10 22 19 12  0.0600000  0  1G17
  41827584.823 7  41827589.277 6  -4616279.917 6  -3382185.326 6      2149.174  
      1674.684  
 01 10 22 19 12 30.0600000  0  1G17
  41815328.829 7  41815333.026 6  -4680688.308 6  -3432373.566 6      2144.565  
      1671.086  
 01 10 22 19 13  0.0600000  0  1G17
  41803099.857 7  41803104.077 6  -4744952.415 6  -3482449.377 6      2139.746  
      1667.339  
 01 10 22 19 13 30.0600000  0  1G17
  41790898.523 7  41790902.579 6  -4809069.383 6  -3532410.535 6      2134.729  
      1663.418  
 01 10 22 19 14  0.0600000  0  1G17
  41778727.230 7  41778732.435 6  -4873032.126 6  -3582251.533 6      2129.511  
      1659.358  
 01 10 22 19 14 30.0600000  0  1G17
  41766583.635 7  41766587.714 6  -4936844.818 6  -3631975.580 6      2124.687  
      1655.600  
 01 10 22 19 15  0.0600000  0  1G17
  41754468.283 7  41754472.796 6  -5000510.447 6  -3681585.049 6      2119.560  
      1651.601  
 01 10 22 19 15 30.0600000  0  1G17
  41742382.713 7  41742386.886 6  -5064019.725 6  -3731072.683 6      2114.288  
      1647.496  
 01 10 22 19 16  0.0600000  0  1G17
  41730326.864 7  41730331.225 6  -5127373.204 6  -3780438.887 6      2109.163  
      1643.497  
 01 10 22 19 16 30.0600000  0  1G17
  41718302.393 7  41718307.445 6  -5190559.199 6  -3829674.603 6      2103.535  
      1639.111  
 01 10 22 19 17  0.0600000  0  1G17
  41706310.803 7  41706316.207 6  -5253577.972 6  -3878780.001 6      2097.838  
      1634.676  
 01 10 22 19 17 30.0600000  0  1G17
  41694349.838 7  41694354.550 6  -5316430.569 6  -3927755.929 6      2092.322  
      1630.373  
 01 10 22 19 18  0.0600000  0  1G17
  41682422.776 7  41682427.336 6  -5379110.105 6  -3976597.005 6      2086.299  
      1625.681  
 01 10 22 19 18 30.0600000  0  1G17
  41670527.526 7  41670531.523 6  -5441619.566 6  -4025305.539 6      2080.717  
      1621.338  
 01 10 22 19 19  0.0600000  0  1G17
  41658665.564 7  41658668.905 6  -5503952.565 6  -4073876.595 6      2074.480  
      1616.469  
 01 10 22 19 19 30.0600000  0  1G17
  41646839.964 7  41646844.020 6  -5566096.868 6  -4122300.591 6      2068.484  
      1611.803  
 01 10 22 19 20  0.0600000  0  1G17
  41635048.233 7  41635053.027 6  -5628060.675 6  -4170583.950 6      2062.277  
      1606.960  
 01 10 22 19 20 30.0610000  0  1G17
  41623292.761 7  41623297.497 6  -5689836.266 6  -4218720.622 6      2056.050  
      1602.113  
 01 10 22 19 21  0.0610000  0  1G17
  41611573.359 7  41611577.532 6  -5751423.183 6  -4266710.282 6      2049.392  
      1596.921  
 01 10 22 19 21 30.0610000  0  1G17
  41599890.361 7  41599894.699 6  -5812814.581 6  -4314547.612 6      2043.211  
      1592.106  
 01 10 22 19 22  0.0610000  0  1G17
  41588245.174 7  41588250.320 6  -5874008.898 6  -4362231.373 6      2036.543  
      1586.913  
 01 10 22 19 22 30.0610000  0  1G17
  41576638.505 7  41576642.925 6  -5935002.342 6  -4409758.593 6      2029.663  
      1581.549  
 01 10 22 19 23  0.0610000  0  1G17
  41565069.358 7  41565073.519 6  -5995799.208 6  -4457132.658 6      2023.400  
      1576.672  
 01 10 22 19 23 30.0610000  0  1G17
  41553537.340 7  41553541.126 7  -6056400.675 7  -4504354.444 7      2016.492  
      1571.289  
 01 10 22 19 24  0.0610000  0  1G17
  41542044.246 7  41542047.892 7  -6116796.739 7  -4551416.182 7      2009.828  
      1566.101  
 01 10 22 19 24 30.0610000  0  1G17
  41530590.781 7  41530595.212 7  -6176984.811 7  -4598315.858 7      2002.725  
      1560.556  
 01 10 22 19 25  0.0610000  0  1G17
  41519176.762 7  41519181.533 7  -6236966.033 7  -4645054.342 7      1995.779  
      1555.149  
 01 10 22 19 25 30.0610000  0  1G17
  41507802.136 7  41507806.391 7  -6296736.528 7  -4691628.613 7      1988.640  
      1549.588  
 01 10 22 19 26  0.0610000  0  1G17
  41496469.296 7  41496473.410 7  -6356289.199 7  -4738033.160 7      1981.700  
      1544.171  
 01 10 22 19 26 30.0610000  0  1G17
  41485177.581 7  41485182.164 7  -6415628.351 7  -4784271.364 7      1974.042  
      1538.213  
 01 10 22 19 27  0.0610000  0  1G17
  41473928.383 7  41473932.872 7  -6474744.229 7  -4830335.569 7      1966.916  
      1532.660  
 01 10 22 19 27 30.0610000  0  1G17
  41462720.787 8  41462724.538 7  -6533639.564 7  -4876227.930 7      1959.530  
      1526.897  
 01 10 22 19 28  0.0610000  0  1G17
  41451555.931 8  41451559.307 7  -6592310.777 7  -4921945.651 7      1951.712  
      1520.809  
 01 10 22 19 28 30.0610000  0  1G17
  41440434.996 7  41440439.321 7  -6650752.640 7  -4967484.654 7      1944.208  
      1514.963  
 01 10 22 19 29  0.0610000  0  1G17
  41429357.555 8  41429361.833 7  -6708963.680 7  -5012843.791 7      1936.620  
      1509.049  
 01 10 22 19 29 30.0610000  0  1G17
  41418324.884 8  41418328.659 7  -6766940.199 7  -5058020.199 7      1928.516  
      1502.738  
 01 10 22 19 30  0.0610000  0  1G17
  41407337.630 8  41407341.499 7  -6824678.572 7  -5103011.029 7      1920.983  
      1496.861  
 01 10 22 19 30 30.0610000  0  1G17
  41396394.737 8  41396398.992 7  -6882183.339 7  -5147819.853 7      1912.873  
      1490.547  
 01 10 22 19 31  0.0610000  0  1G17
  41385497.618 8  41385501.064 7  -6939448.842 7  -5192442.226 7      1904.849  
      1484.297  
 01 10 22 19 31 30.0610000  0  1G17
  41374646.747 8  41374650.850 7  -6996468.179 7  -5236872.792 7      1896.744  
      1477.981  
 01 10 22 19 32  0.0610000  0  1G17
  41363843.159 8  41363847.250 7  -7053240.067 7  -5281110.527 7      1888.221  
      1471.340  
 01 10 22 19 32 30.0610000  0  1G17
  41353088.837 8  41353092.928 7  -7109756.653 7  -5325149.340 7      1879.837  
      1464.807  
 01 10 22 19 33  0.0610000  0  1G17
  41342380.853 8  41342384.580 7  -7166026.889 7  -5368996.192 7      1871.827  
      1458.564  
 01 10 22 19 33 30.0610000  0  1G17
  41331720.017 8  41331723.697 7  -7222049.626 7  -5412650.183 7      1863.243  
      1451.873  
 01 10 22 19 34  0.0610000  0  1G17
  41321107.819 8  41321111.195 7  -7277815.024 7  -5456103.681 7      1854.460  
      1445.032  
 01 10 22 19 34 30.0610000  0  1G17
  41310545.753 8  41310549.070 7  -7333320.877 7  -5499354.905 7      1845.588  
      1438.119  
 01 10 22 19 35  0.0610000  0  1G17
  41300032.883 8  41300036.552 7  -7388566.107 7  -5542403.062 7      1837.138  
      1431.533  
 01 10 22 19 35 30.0610000  0  1G17
  41289569.183 8  41289573.040 7  -7443550.532 7  -5585247.980 7      1828.091  
      1424.483  
 01 10 22 19 36  0.0610000  0  1G17
  41279157.556 8  41279160.908 7  -7498265.575 7  -5627883.009 7      1819.399  
      1417.713  
 01 10 22 19 36 30.0610000  0  1G17
  41268795.292 8  41268799.630 7  -7552718.034 7  -5670313.421 7      1810.669  
      1410.918  
 01 10 22 19 37  0.0610000  0  1G17
  41258484.676 8  41258489.048 7  -7606901.550 7  -5712534.270 7      1801.404  
      1403.683  
 01 10 22 19 37 30.0610000  0  1G17
  41248227.078 8  41248231.356 7  -7660804.553 7  -5754536.525 7      1792.332  
      1396.618  
 01 10 22 19 38  0.0610000  0  1G17
  41238020.625 8  41238024.939 7  -7714438.367 7  -5796329.037 7      1783.255  
      1389.549  
 01 10 22 19 38 30.0610000  0  1G17
  41227867.542 9  41227871.492 7  -7767794.144 7  -5837904.877 7      1773.686  
      1382.090  
 01 10 22 19 39  0.0610000  0  1G17
  41217767.475 9  41217770.734 7  -7820871.311 7  -5879263.643 7      1764.487  
      1374.927  
 01 10 22 19 39 30.0620000  0  1G17
  41207720.800 9  41207724.094 8  -7873667.342 8  -5920403.335 8      1755.043  
      1367.564  
 01 10 22 19 40  0.0620000  0  1G17
  41197728.176 9  41197731.317 8  -7926177.551 8  -5961320.313 8      1745.795  
      1360.360  
 01 10 22 19 40 30.0620000  0  1G17
  41187790.360 9  41187793.701 7  -7978399.585 7  -6002012.745 7      1735.777  
      1352.553  
 01 10 22 19 41  0.0620000  0  1G17
  41177909.071 8  41177913.198 7  -8030326.624 7  -6042475.278 7      1726.145  
      1345.048  
 01 10 22 19 41 30.0620000  0  1G17
  41168082.195 9  41168086.216 7  -8081965.623 7  -6082713.372 7      1716.398  
      1337.452  
 01 10 22 19 42  0.0620000  0  1G17
  41158312.453 9  41158316.344 8  -8133304.719 8  -6122717.797 8      1706.622  
      1329.833  
 01 10 22 19 42 30.0620000  0  1G17
  41148599.666 9  41148603.487 8  -8184347.365 8  -6162491.209 8      1696.571  
      1322.002  
 01 10 22 19 43  0.0620000  0  1G17
  41138941.758 9  41138945.591 8  -8235100.318 8  -6202038.895 8      1686.844  
      1314.427  
 01 10 22 19 43 30.0620000  0  1G17
  41129342.169 9  41129346.060 8  -8285547.969 8  -6241348.692 8      1676.503  
      1306.365  
 01 10 22 19 44  0.0620000  0  1G17
  41119800.750 9  41119804.536 8  -8335686.109 8  -6280417.299 8      1666.145  
      1298.291  
 01 10 22 19 44 30.0620000  0  1G17
  41110318.684 9  41110321.942 8  -8385513.774 8  -6319243.992 8      1655.835  
      1290.257  
 01 10 22 19 45  0.0620000  0  1G17
  41100895.397 9  41100898.691 8  -8435034.182 8  -6357831.256 8      1645.380  
      1282.115  
 01 10 22 19 45 30.0620000  0  1G17
  41091531.698 9  41091535.016 8  -8484241.326 8  -6396174.411 8      1634.877  
      1273.927  
 01 10 22 19 46  0.0620000  0  1G17
  41082227.672 9  41082230.931 8  -8533133.195 8  -6434271.913 8      1624.802  
      1266.076  
 01 10 22 19 46 30.0620000  0  1G17
  41072984.586 9  41072987.435 8  -8581707.074 8  -6472121.631 8      1613.621  
      1257.367  
 01 10 22 19 47  0.0620000  0  1G17
  41063802.827 9  41063806.168 8  -8629956.619 8  -6509718.606 8      1602.903  
      1249.016  
 01 10 22 19 47 30.0620000  0  1G17
  41054682.724 9  41054685.842 8  -8677883.038 8  -6547063.820 8      1592.038  
      1240.548  
 01 10 22 19 48  0.0620000  0  1G17
  41045624.284 9  41045627.355 8  -8725484.547 8  -6584155.844 8      1581.395  
      1232.252  
 01 10 22 19 48 30.0620000  0  1G17
  41036627.479 9  41036630.761 8  -8772762.271 8  -6620995.576 8      1570.420  
      1223.702  
 01 10 22 19 49  0.0620000  0  1G17
  41027692.693 9  41027695.917 8  -8819714.732 8  -6657581.842 8      1559.519  
      1215.209  
 01 10 22 19 49 30.0620000  0  1G17
  41018821.180 9  41018824.873 8  -8866333.983 8  -6693908.475 8      1548.448  
      1206.580  
 01 10 22 19 50  0.0620000  0  1G17
  41010014.188 9  41010017.564 8  -8912614.855 8  -6729971.436 8      1536.909  
      1197.589  
 01 10 22 19 50 30.0620000  0  1G17
  41001272.363 9  41001275.481 8  -8958554.386 8  -6765768.421 8      1525.669  
      1188.830  
 01 10 22 19 51  0.0620000  0  1G17
  40992595.970 9  40992599.123 9  -9004150.023 9  -6801297.436 9      1514.105  
      1179.822  
 01 10 22 19 51 30.0620000  0  1G17
  40983984.465 9  40983987.396 9  -9049401.460 9  -6836558.247 9      1502.821  
      1171.027  
 01 10 22 19 52  0.0620000  0  1G17
  40975438.970 9  40975441.853 9  -9094309.609 9  -6871551.555 9      1491.008  
      1161.820  
 01 10 22 19 52 30.0620000  0  1G17
  40966958.841 9  40966962.287 9  -9138871.822 9  -6906275.311 9      1479.443  
      1152.811  
 01 10 22 19 53  0.0620000  0  1G17
  40958545.494 9  40958548.729 8  -9183083.615 8  -6940726.007 8      1467.940  
      1143.847  
 01 10 22 19 53 30.0620000  0  1G17
  40950199.269 9  40950202.610 8  -9226943.865 8  -6974902.765 8      1456.159  
      1134.668  
 01 10 22 19 54  0.0620000  0  1G17
  40941919.379 9  40941922.591 8  -9270453.078 8  -7008805.996 8      1444.183  
      1125.337  
 01 10 22 19 54 30.0620000  0  1G17
  40933707.377 9  40933710.707 8  -9313608.835 8  -7042433.807 8      1432.539  
      1116.264  
 01 10 22 19 55  0.0620000  0  1G17
  40925563.172 9  40925565.622 9  -9356407.287 9  -7075783.207 9      1420.982  
      1107.259  
 01 10 22 19 55 30.0620000  0  1G17
  40917487.711 9  40917490.302 9  -9398842.863 9  -7108849.845 9      1408.377  
      1097.434  
 01 10 22 19 56  0.0620000  0  1G17
  40909483.698 9  40909486.547 9  -9440904.583 9  -7141625.168 9      1395.885  
      1087.702  
 01 10 22 19 56 30.0620000  0  1G17
  40901549.391 9  40901552.099 9  -9482599.167 9  -7174114.401 9      1383.650  
      1078.169  
 01 10 22 19 57  0.0620000  0  1G17
  40893684.995 9  40893687.761 9  -9523925.957 9  -7206317.049 9      1371.294  
      1068.541  
 01 10 22 19 57 30.0620000  0  1G17
  40885891.374 9  40885893.894 9  -9564882.048 9  -7238230.840 9      1359.281  
      1059.181  
 01 10 22 19 58  0.0620000  0  1G17
  40878167.395 9  40878169.950 9  -9605472.742 9  -7269859.910 9      1346.777  
      1049.437  
 01 10 22 19 58 30.0630000  0  1G17
  40870513.539 9  40870515.907 9  -9645692.873 9  -7301200.230 9      1334.350  
      1039.753  
 01 10 22 19 59  0.0630000  0  1G17
  40862931.883 9  40862934.497 9  -9685534.085 9  -7332245.295 9      1321.703  
      1029.899  
 01 10 22 19 59 30.0630000  0  1G17
  40855422.643 9  40855425.491 9  -9724995.857 9  -7362994.689 9      1309.103  
      1020.081  
 01 10 22 20  0  0.0630000  0  1G17
  40847986.089 9  40847989.512 9  -9764074.675 9  -7393445.676 9      1296.127  
      1009.969  
 01 10 22 20  0 30.0630000  0  1G17
  40840623.652 9  40840627.203 9  -9802764.829 9  -7423593.801 9      1283.359  
      1000.020  
 01 10 22 20  1  0.0630000  0  1G17
  40833333.773 9  40833337.383 9  -9841071.917 9  -7453443.427 9      1270.308  
       989.851  
 01 10 22 20  1 30.0630000  0  1G17
  40826119.146 9  40826122.534 9  -9878986.353 9  -7482987.107 9      1257.159  
       979.604  
 01 10 22 20  2  0.0630000  0  1G17
  40818978.391 9  40818981.439 9  -9916510.162 9  -7512226.394 9      1244.208  
       969.509  
 01 10 22 20  2 30.0630000  0  1G17
  40811912.706 9  40811915.589 9  -9953640.393 9  -7541159.003 9      1230.909  
       959.151  
 01 10 22 20  3  0.0630000  0  1G17
  40804922.540 9  40804925.224 9  -9990374.945 9  -7569783.280 9      1217.919  
       949.029  
 01 10 22 20  3 30.0630000  0  1G17
  40798007.974 9  40798010.154 9 -10026711.952 9  -7598097.808 9      1204.735  
       938.752  
 01 10 22 20  4  0.0630000  0  1G17
  40791168.167 9  40791171.145 9 -10062653.012 9  -7626103.794 9      1191.296  
       928.280  
 01 10 22 20  4 30.0630000  0  1G17
  40784405.502 9  40784408.714 9 -10098190.798 9  -7653795.535 9      1177.744  
       917.720  
 01 10 22 20  5  0.0630000  0  1G17
  40777719.870 9  40777723.106 9 -10133324.307 9  -7681172.246 9      1164.318  
       907.260  
 01 10 22 20  5 30.0630000  0  1G17
  40771112.222 9  40771115.727 9 -10168048.575 9  -7708230.084 9      1150.769  
       896.701  
 01 10 22 20  6  0.0630000  0  1G17
  40764581.767 9  40764584.639 9 -10202366.166 9  -7734971.030 9      1136.983  
       885.959  
 01 10 22 20  6 30.0630000  0  1G17
  40758129.983 9  40758133.172 9 -10236269.701 9  -7761389.328 9      1123.194  
       875.216  
 01 10 22 20  7  0.0630000  0  1G17
  40751756.332 9  40751759.743 9 -10269763.936 9  -7787488.692 9      1109.725  
       864.719  
 01 10 22 20  7 30.0630000  0  1G17
  40745460.018 9  40745463.031 9 -10302850.159 9  -7813270.128 9      1095.918  
       853.961  
 01 10 22 20  8  0.0630000  0  1G17
  40739243.910 9  40739246.993 9 -10335515.196 9  -7838723.368 9      1081.793  
       842.955  
 01 10 22 20  8 30.0630000  0  1G17
  40733108.651 9  40733111.628 9 -10367757.560 9  -7863847.258 9      1067.436  
       831.768  
 01 10 22 20  9  0.0630000  0  1G17
  40727053.913 9  40727056.785 9 -10399574.039 9  -7888639.294 9      1053.765  
       821.116  
 01 10 22 20  9 30.0630000  0  1G17
  40721078.819 9  40721081.210 9 -10430974.138 9  -7913106.867 9      1039.711  
       810.163  
 01 10 22 20 10  0.0630000  0  1G17
  40715185.158 9  40715187.549 9 -10461946.542 9  -7937241.189 9      1025.392  
       799.007  
 01 10 22 20 10 30.0630000  0  1G17
  40709371.769 9  40709374.734 9 -10492496.217 9  -7961046.098 9      1011.146  
       787.905  
 01 10 22 20 11  0.0630000  0  1G17
  40703638.772 9  40703641.562 9 -10522620.841 9  -7984519.802 9       997.117  
       776.972  
 01 10 22 20 11 30.0630000  0  1G17
  40697987.614 9  40697990.509 9 -10552318.718 9  -8007660.981 9       982.884  
       765.882  
 01 10 22 20 12  0.0630000  0  1G17
  40692418.555 9  40692421.157 9 -10581584.761 9  -8030465.664 9       968.205  
       754.446  
 01 10 22 20 12 30.0630000  0  1G17
  40686931.873 9  40686934.616 9 -10610417.661 9  -8052932.830 9       953.781  
       743.206  
 01 10 22 20 13  0.0630000  0  1G17
  40681527.750 9  40681530.270 9 -10638816.778 9  -8075061.991 9       939.505  
       732.081  
 01 10 22 20 13 30.0630000  0  1G17
  40676206.064 9  40676208.584 9 -10666782.934 9  -8096853.779 9       924.945  
       720.736  
 01 10 22 20 14  0.0630000  0  1G17
  40670967.869 9  40670970.261 9 -10694309.088 9  -8118302.710 9       910.186  
       709.235  
 01 10 22 20 14 30.0630000  0  1G17
  40665814.049 9  40665816.652 9 -10721392.030 9  -8139406.283 9       895.416  
       697.727  
 01 10 22 20 15  0.0630000  0  1G17
  40660743.705 9  40660746.460 9 -10748037.229 9  -8160168.767 9       880.891  
       686.407  
 01 10 22 20 15 30.0630000  0  1G17
  40655756.444 9  40655759.316 9 -10774244.421 9  -8180589.926 9       866.234  
       674.985  
 01 10 22 20 16  0.0630000  0  1G17
  40650854.230 9  40650856.679 9 -10800007.038 9  -8200664.673 9       851.243  
       663.305  
 01 10 22 20 16 30.0630000  0  1G17
  40646036.674 9  40646038.808 9 -10825323.568 9  -8220391.821 9       836.438  
       651.769  
 01 10 22 20 17  0.0630000  0  1G17
  40641303.976 9  40641305.899 9 -10850194.592 9  -8239771.839 9       821.444  
       640.085  
 01 10 22 20 17 30.0640000  0  1G17
  40636655.762 9  40636658.270 9 -10874619.389 9  -8258804.137 9       806.600  
       628.519  
 01 10 22 20 18  0.0640000  0  1G17
  40632094.476 9  40632096.808 9 -10898588.798 9  -8277481.586 9       791.354  
       616.638  
 01 10 22 20 18 30.0640000  0  1G17
  40627620.732 9  40627623.229 9 -10922099.185 9  -8295801.356 9       776.193  
       604.827  
 01 10 22 20 19  0.0640000  0  1G17
  40623234.235 9  40623236.720 9 -10945149.917 9  -8313762.949 9       760.835  
       592.858  
 01 10 22 20 19 30.0640000  0  1G17
  40618934.305 9  40618936.942 9 -10967747.526 9  -8331371.469 9       745.735  
       581.092  
 01 10 22 20 20  0.0640000  0  1G17
  40614720.390 9  40614723.110 9 -10989890.454 9  -8348625.688 9       730.511  
       569.230  
 01 10 22 20 20 30.0640000  0  1G17
  40610593.876 9  40610596.396 9 -11011574.212 9  -8365522.117 9       715.138  
       557.249  
 01 10 22 20 21  0.0640000  0  1G17
  40606555.946 9  40606558.513 9 -11032794.423 9  -8382057.343 9       699.669  
       545.194  
 01 10 22 20 21 30.0640000  0  1G17
  40602605.426 9  40602608.450 9 -11053554.759 9  -8398234.216 9       684.336  
       533.249  
 01 10 22 20 22  0.0640000  0  1G17
  40598742.898 9  40598745.665 9 -11073851.830 9  -8414050.104 9       668.708  
       521.071  
 01 10 22 20 22 30.0640000  0  1G17
  40594969.929 9  40594972.191 9 -11093679.221 9  -8429500.020 9       653.106  
       508.914  
 01 10 22 20 23  0.0640000  0  1G17
  40591285.869 9  40591288.190 9 -11113040.247 9  -8444586.531 9       637.577  
       496.814  
 01 10 22 20 23 30.0640000  0  1G17
  40587690.961 9  40587693.634 9 -11131930.283 9  -8459306.040 9       622.181  
       484.815  
 01 10 22 20 24  0.0640000  0  1G17
  40584185.829 9  40584188.701 9 -11150350.584 9  -8473659.511 9       606.232  
       472.389  
 01 10 22 20 24 30.0640000  0  1G17
  40580769.629 9  40580772.465 9 -11168301.632 9  -8487647.338 9       590.373  
       460.031  
 01 10 22 20 25  0.0640000  0  1G17
  40577444.509 9  40577447.112 9 -11185776.548 9  -8501264.159 9       574.773  
       447.873  
 01 10 22 20 25 30.0640000  0  1G17
  40574208.815 9  40574211.476 9 -11202778.773 9  -8514512.648 9       558.589  
       435.262  
 01 10 22 20 26  0.0640000  0  1G17
  40571064.710 9  40571067.406 9 -11219301.782 9  -8527387.721 9       542.747  
       422.920  
 01 10 22 20 26 30.0640000  0  1G17
  40568011.135 9  40568013.937 9 -11235348.471 9  -8539891.642 9       526.808  
       410.500  
 01 10 22 20 27  0.0640000  0  1G17
  40565048.735 9  40565051.619 9 -11250915.573 9  -8552021.854 9       511.062  
       398.230  
 01 10 22 20 27 30.0640000  0  1G17
  40562177.539 9  40562180.352 9 -11266005.250 9  -8563780.052 9       494.968  
       385.689  
 01 10 22 20 28  0.0640000  0  1G17
  40559398.510 9  40559401.170 9 -11280608.458 9  -8575159.179 9       478.532  
       372.883  
 01 10 22 20 28 30.0640000  0  1G17
  40556711.465 9  40556714.313 9 -11294729.163 9  -8586162.330 9       462.451  
       360.351  
 01 10 22 20 29  0.0640000  0  1G17
  40554118.008 9  40554121.009 9 -11308358.159 9  -8596782.332 9       446.084  
       347.599  
 01 10 22 20 29 30.0640000  0  1G17
  40551617.429 9  40551620.066 9 -11321499.134 9  -8607022.063 9       429.887  
       334.977  
 01 10 22 20 30  0.0640000  0  1G17
  40549208.633 9  40549211.177 9 -11334157.572 9  -8616885.789 9       413.827  
       322.464  
 01 10 22 20 30 30.0640000  0  1G17
  40546892.873 9  40546895.311 9 -11346326.062 9  -8626367.734 9       397.407  
       309.667  
 01 10 22 20 31  0.0640000  0  1G17
  40544672.454 9  40544674.693 9 -11357995.666 9  -8635460.931 9       380.620  
       296.587  
 01 10 22 20 31 30.0640000  0  1G17
  40542547.370 9  40542549.620 9 -11369164.000 9  -8644163.538 9       364.084  
       283.700  
 01 10 22 20 32  0.0640000  0  1G17
  40540516.757 9  40540519.172 9 -11379833.515 9  -8652477.447 9       347.352  
       270.663  
 01 10 22 20 32 30.0640000  0  1G17
  40538580.947 9  40538583.561 9 -11390006.768 9  -8660404.666 9       330.888  
       257.835  
 01 10 22 20 33  0.0640000  0  1G17
  40536739.239 9  40536741.888 9 -11399684.925 9  -8667946.093 9       314.270  
       244.886  
 01 10 22 20 33 30.0640000  0  1G17
  40534992.372 9  40534994.997 9 -11408864.285 9  -8675098.848 9       297.563  
       231.867  
 01 10 22 20 34  0.0640000  0  1G17
  40533339.770 9  40533342.173 9 -11417549.576 9  -8681866.603 9       281.145  
       219.074  
 01 10 22 20 34 30.0640000  0  1G17
  40531782.651 9  40531785.265 9 -11425731.384 9  -8688242.033 9       264.362  
       205.996  
 01 10 22 20 35  0.0640000  0  1G17
  40530321.325 9  40530323.974 9 -11433411.092 9  -8694226.221 9       247.710  
       193.021  
 01 10 22 20 35 30.0640000  0  1G17
  40528955.112 9  40528957.902 9 -11440588.997 9  -8699819.394 9       230.900  
       179.922  
 01 10 22 20 36  0.0640000  0  1G17
  40527685.458 9  40527688.330 9 -11447261.722 9  -8705018.908 9       213.897  
       166.672  
 01 10 22 20 36 30.0650000  0  1G17
  40526512.530 9  40526515.214 9 -11453425.872 9  -8709822.129 9       197.112  
       153.592  
 01 10 22 20 37  0.0650000  0  1G17
  40525436.025 9  40525438.603 9 -11459082.546 9  -8714229.910 9       179.798  
       140.101  
 01 10 22 20 37 30.0650000  0  1G17
  40524458.016 9  40524460.548 9 -11464223.115 9  -8718235.530 9       162.845  
       126.892  
 01 10 22 20 38  0.0650000  0  1G17
  40523577.224 9  40523579.569 9 -11468852.167 9  -8721842.568 9       145.585  
       113.442  
 01 10 22 20 38 30.0650000  0  1G17
  40522793.898 9  40522796.266 9 -11472968.335 9  -8725049.946 9       128.753  
       100.327  
 01 10 22 20 39  0.0650000  0  1G17
  40522107.698 9  40522110.101 9 -11476572.895 9  -8727858.669 9       111.344  
        86.760  
 01 10 22 20 39 30.0650000  0  1G17
  40521519.317 9  40521521.966 9 -11479665.801 9  -8730268.692 9        94.782  
        73.857  
 01 10 22 20 40  0.0650000  0  1G17
  40521027.563 9  40521030.306 9 -11482249.160 9  -8732281.668 9        77.383  
        60.300  
 01 10 22 20 40 30.0650000  0  1G17
  40520634.526 9  40520637.082 9 -11484314.372 9  -8733890.884 9        60.131  
        46.855  
 01 10 22 20 41  0.0650000  0  1G17
  40520339.796 9  40520342.105 9 -11485861.756 9  -8735096.600 9        42.722  
        33.288  
 01 10 22 20 41 30.0650000  0  1G17
  40520144.588 9  40520146.980 9 -11486888.421 9  -8735896.561 9        25.529  
        19.891  
 01 10 22 20 42  0.0650000  0  1G17
  40520047.765 9  40520050.485 9 -11487396.515 9  -8736292.436 9         8.457  
         6.589  
 01 10 22 20 42 30.0650000  0  1G17
  40520049.825 9  40520052.580 9 -11487385.599 9  -8736283.888 9        -9.076  
        -7.075  
 01 10 22 20 43  0.0650000  0  1G17
  40520151.394 9  40520154.336 9 -11486850.011 9  -8735866.496 9       -26.681  
       -20.792  
 01 10 22 20 43 30.0650000  0  1G17
  40520352.109 9  40520354.758 9 -11485795.369 9  -8735044.651 9       -43.802  
       -34.134  
 01 10 22 20 44  0.0650000  0  1G17
  40520652.072 9  40520654.558 9 -11484219.568 9  -8733816.706 9       -61.215  
       -47.701  
 01 10 22 20 44 30.0650000  0  1G17
  40521052.321 9  40521054.748 9 -11482116.441 9  -8732177.862 9       -79.096  
       -61.635  
 01 10 22 20 45  0.0650000  0  1G17
  40521553.319 9  40521555.745 9 -11479483.561 9  -8730126.221 9       -96.739  
       -75.383  
 01 10 22 20 45 30.0650000  0  1G17
  40522155.335 9  40522157.610 9 -11476321.191 9  -8727661.990 9      -113.991  
       -88.825  
 01 10 22 20 46  0.0650000  0  1G17
  40522856.643 9  40522858.905 9 -11472635.373 9  -8724789.890 9      -131.813  
      -102.712  
 01 10 22 20 46 30.0650000  0  1G17
  40523658.927 9  40523661.237 9 -11468419.470 9  -8721504.733 9      -149.368  
      -116.392  
 01 10 22 20 47  0.0650000  0  1G17
  40524561.262 9  40524563.513 9 -11463676.762 9  -8717809.081 9      -166.870  
      -130.029  
 01 10 22 20 47 30.0650000  0  1G17
  40525564.512 9  40525566.775 9 -11458404.795 9  -8713701.020 9      -184.512  
      -143.776  
 01 10 22 20 48  0.0650000  0  1G17
  40526668.127 9  40526670.131 9 -11452604.664 9  -8709181.403 9      -202.334  
      -157.664  
 01 10 22 20 48 30.0650000  0  1G17
  40527872.333 9  40527874.408 9 -11446277.630 9  -8704251.201 9      -219.468  
      -171.015  
 01 10 22 20 49  0.0650000  0  1G17
  40529178.116 9  40529180.167 9 -11439415.632 9  -8698904.131 9      -237.708  
      -185.228  
 01 10 22 20 49 30.0650000  0  1G17
  40530584.390 9  40530586.430 9 -11432024.011 9  -8693144.370 9      -255.185  
      -198.848  
 01 10 22 20 50  0.0650000  0  1G17
  40532092.946 9  40532095.209 9 -11424096.599 9  -8686967.127 9      -273.266  
      -212.935  
 01 10 22 20 50 30.0650000  0  1G17
  40533702.709 9  40533704.960 9 -11415635.813 9  -8680374.267 9      -290.818  
      -226.612  
 01 10 22 20 51  0.0650000  0  1G17
  40535414.813 9  40535417.357 9 -11406638.834 9  -8673363.589 9      -308.726  
      -240.568  
 01 10 22 20 51 30.0650000  0  1G17
  40537227.815 9  40537230.593 9 -11397110.388 9  -8665938.791 9      -326.274  
      -254.241  
 01 10 22 20 52  0.0650000  0  1G17
  40539142.179 9  40539144.875 9 -11387050.842 9  -8658100.146 9      -344.071  
      -268.108  
 01 10 22 20 52 30.0650000  0  1G17
  40541158.253 9  40541160.562 9 -11376456.590 9  -8649844.854 9      -361.923  
      -282.019  
 01 10 22 20 53  0.0650000  0  1G17
  40543276.006 9  40543278.081 9 -11365328.310 9  -8641173.440 9      -379.956  
      -296.072  
 01 10 22 20 53 30.0650000  0  1G17
  40545495.618 9  40545497.517 9 -11353664.755 9  -8632084.926 9      -397.762  
      -309.944  
 01 10 22 20 54  0.0650000  0  1G17
  40547817.789 9  40547819.477 9 -11341461.766 9  -8622576.085 9      -415.905  
      -324.082  
 01 10 22 20 54 30.0650000  0  1G17
  40550242.435 9  40550244.064 9 -11328720.559 9  -8612647.864 9      -433.436  
      -337.743  
 01 10 22 20 55  0.0650000  0  1G17
  40552767.808 9  40552769.203 9 -11315450.038 9  -8602307.183 9      -451.394  
      -351.737  
 01 10 22 20 55 30.0660000  0  1G17
  40555395.641 9  40555397.189 9 -11301641.499 9  -8591547.271 9      -469.393  
      -365.762  
 01 10 22 20 56  0.0660000  0  1G17
  40558127.001 9  40558128.689 9 -11287287.791 9  -8580362.538 9      -487.323  
      -379.732  
 01 10 22 20 56 30.0660000  0  1G17
  40560960.721 9  40560962.514 9 -11272395.403 9  -8568758.061 9      -505.516  
      -393.909  
 01 10 22 20 57  0.0660000  0  1G17
  40563898.700 9  40563900.540 9 -11256955.240 9  -8556726.745 9      -523.505  
      -407.928  
 01 10 22 20 57 30.0660000  0  1G17
  40566938.199 9  40566940.286 9 -11240983.154 9  -8544280.943 9      -541.427  
      -421.892  
 01 10 22 20 58  0.0660000  0  1G17
  40570080.762 9  40570082.895 9 -11224468.618 9  -8531412.451 9      -559.638  
      -436.082  
 01 10 22 20 58 30.0660000  0  1G17
  40573326.755 9  40573328.983 9 -11207411.035 9  -8518120.808 9      -577.546  
      -450.037  
 01 10 22 20 59  0.0660000  0  1G17
  40576675.318 9  40576677.733 9 -11189813.703 9  -8504408.577 9      -595.652  
      -464.145  
 01 10 22 20 59 30.0660000  0  1G17
  40580127.906 9  40580130.543 9 -11171669.905 9  -8490270.537 9      -614.029  
      -478.466  
 01 10 22 21  0  0.0660000  0  1G17
  40583683.222 9  40583685.989 9 -11152985.832 9  -8475711.495 9      -631.796  
      -492.310  
 01 10 22 21  0 30.0660000  0  1G17
  40587341.005 9  40587343.795 9 -11133763.171 9  -8460732.777 9      -649.816  
      -506.351  
 01 10 22 21  1  0.0660000  0  1G17
  40591102.538 9  40591105.398 9 -11113995.930 9  -8445329.708 9      -668.027  
      -520.541  
 01 10 22 21  1 30.0660000  0  1G17
  40594967.713 9  40594970.409 9 -11093683.869 9  -8429502.105 9      -686.054  
      -534.589  
 01 10 22 21  2  0.0660000  0  1G17
  40598936.732 9  40598939.042 9 -11072827.590 9  -8413250.442 9      -704.683  
      -549.105  
 01 10 22 21  2 30.0660000  0  1G17
  40603008.225 9  40603010.335 9 -11051430.714 9  -8396577.534 9      -722.329  
      -562.853  
 01 10 22 21  3  0.0660000  0  1G17
  40607183.734 9  40607185.715 9 -11029489.196 9  -8379480.235 9      -740.560  
      -577.060  
 01 10 22 21  3 30.0660000  0  1G17
  40611463.412 9  40611465.252 9 -11006999.983 9  -8361956.158 9      -759.212  
      -591.594  
 01 10 22 21  4  0.0660000  0  1G17
  40615847.288 9  40615849.234 9 -10983962.347 9  -8344004.741 9      -776.958  
      -605.422  
 01 10 22 21  4 30.0660000  0  1G17
  40620333.971 9  40620335.928 9 -10960385.064 9  -8325632.817 9      -795.068  
      -619.534  
 01 10 22 21  5  0.0660000  0  1G17
  40624925.053 9  40624926.952 9 -10936258.867 9  -8306833.168 9      -813.234  
      -633.689  
 01 10 22 21  5 30.0660000  0  1G17
  40629619.698 9  40629621.668 9 -10911587.727 9  -8287608.889 9      -831.534  
      -647.949  
 01 10 22 21  6  0.0660000  0  1G17
  40634417.963 9  40634419.979 9 -10886373.234 9  -8267961.211 9      -849.563  
      -661.998  
 01 10 22 21  6 30.0660000  0  1G17
  40639319.842 9  40639322.081 9 -10860612.765 9  -8247888.106 9      -867.880  
      -676.271  
 01 10 22 21  7  0.0660000  0  1G17
  40644325.888 9  40644328.174 9 -10834305.241 9  -8227388.731 9      -885.952  
      -690.351  
 01 10 22 21  7 30.0660000  0  1G17
  40649435.925 9  40649438.258 9 -10807452.264 9  -8206464.319 9      -904.227  
      -704.595  
 01 10 22 21  8  0.0660000  0  1G17
  40654649.288 9  40654651.597 9 -10780055.724 9  -8185116.352 9      -922.290  
      -718.668  
 01 10 22 21  8 30.0660000  0  1G17
  40659967.834 9  40659970.213 9 -10752107.278 9  -8163338.339 9      -940.556  
      -732.901  
 01 10 22 21  9  0.0660000  0  1G17
  40665389.036 9  40665391.451 9 -10723617.467 9  -8141138.471 9      -958.722  
      -747.055  
 01 10 22 21  9 30.0660000  0  1G17
  40670915.296 9  40670917.699 9 -10694576.881 9  -8118509.437 9      -977.363  
      -761.583  
 01 10 22 21 10  0.0660000  0  1G17
  40676546.046 9  40676548.589 9 -10664986.848 9  -8095452.257 9      -995.505  
      -775.718  
 01 10 22 21 10 30.0660000  0  1G17
  40682281.348 9  40682283.845 9 -10634848.603 9  -8071967.907 9     -1013.715  
      -789.909  
 01 10 22 21 11  0.0660000  0  1G17
  40688119.918 9  40688122.356 9 -10604165.754 9  -8048059.180 9     -1031.819  
      -804.015  
 01 10 22 21 11 30.0660000  0  1G17
  40694063.833 9  40694066.084 9 -10572930.823 9  -8023720.263 9     -1050.070  
      -818.238  
 01 10 22 21 12  0.0660000  0  1G17
  40700110.869 9  40700113.120 9 -10541153.267 9  -7998958.529 9     -1068.473  
      -832.577  
 01 10 22 21 12 30.0660000  0  1G17
  40706262.901 9  40706265.175 9 -10508824.079 9  -7973766.939 9     -1086.733  
      -846.805  
 01 10 22 21 13  0.0660000  0  1G17
  40712519.477 9  40712521.916 9 -10475944.899 9  -7948146.787 9     -1105.062  
      -861.088  
 01 10 22 21 13 30.0660000  0  1G17
  40718880.077 9  40718882.609 9 -10442520.017 9  -7922101.407 9     -1123.510  
      -875.463  
 01 10 22 21 14  0.0660000  0  1G17
  40725345.553 9  40725347.898 9 -10408544.328 9  -7895626.834 9     -1141.636  
      -889.587  
 01 10 22 21 14 30.0670000  0  1G17
  40731914.952 9  40731917.215 9 -10374021.293 9  -7868725.757 9     -1159.782  
      -903.727  
 01 10 22 21 15  0.0670000  0  1G17
  40738588.566 9  40738590.840 9 -10338951.025 9  -7841398.262 9     -1178.159  
      -918.045  
 01 10 22 21 15 30.0670000  0  1G17
  40745365.663 9  40745368.054 9 -10303337.247 9  -7813647.267 9     -1195.956  
      -931.912  
 01 10 22 21 16  0.0670000  0  1G17
  40752246.327 9  40752248.683 9 -10267179.129 9  -7785472.098 9     -1214.491  
      -946.357  
 01 10 22 21 16 30.0670000  0  1G17
  40759231.395 9  40759233.775 9 -10230472.194 9  -7756869.279 9     -1232.743  
      -960.581  
 01 10 22 21 17  0.0670000  0  1G17
  40766320.834 9  40766323.214 9 -10193217.819 9  -7727839.895 9     -1251.037  
      -974.833  
 01 10 22 21 17 30.0670000  0  1G17
  40773514.375 9  40773516.731 9 -10155414.873 9  -7698383.045 9     -1269.383  
      -989.130  
 01 10 22 21 18  0.0670000  0  1G17
  40780813.449 9  40780815.887 9 -10117057.774 9  -7668494.386 9     -1287.672  
     -1003.382  
 01 10 22 21 18 30.0670000  0  1G17
  40788215.964 9  40788218.215 9 -10078157.682 9  -7638182.619 9     -1305.607  
     -1017.358  
 01 10 22 21 19  0.0670000  0  1G17
  40795722.512 9  40795724.540 9 -10038710.799 9  -7607444.773 9     -1323.795  
     -1031.529  
 01 10 22 21 19 30.0670000  0  1G17
  40803332.407 9  40803334.481 9  -9998720.363 9  -7576283.386 9     -1342.196  
     -1045.869  
 01 10 22 21 20  0.0670000  0  1G17
  40811046.161 9  40811048.014 9  -9958185.000 9  -7544697.377 9     -1360.372  
     -1060.029  
 01 10 22 21 20 30.0670000  0  1G17
  40818864.120 9  40818866.089 9  -9917101.436 9  -7512684.205 9     -1378.828  
     -1074.410  
 01 10 22 21 21  0.0670000  0  1G17
  40826785.555 9  40826787.407 9  -9875473.255 9  -7480246.673 9     -1396.578  
     -1088.241  
 01 10 22 21 21 30.0670000  0  1G17
  40834811.703 9  40834813.625 9  -9833296.501 9  -7447381.661 9     -1414.975  
     -1102.578  
 01 10 22 21 22  0.0670000  0  1G17
  40842938.958 9  40842940.787 9  -9790586.670 9  -7414101.265 9     -1432.591  
     -1116.305  
 01 10 22 21 22 30.0670000  0  1G17
  40851169.771 9  40851171.565 9  -9747333.772 9  -7380397.708 9     -1451.068  
     -1130.702  
 01 10 22 21 23  0.0670000  0  1G17
  40859504.066 9  40859505.883 9  -9703535.630 9  -7346269.272 9     -1468.848  
     -1144.556  
 01 10 22 21 23 30.0670000  0  1G17
  40867942.093 9  40867943.898 9  -9659193.359 9  -7311716.863 9     -1487.030  
     -1158.723  
 01 10 22 21 24  0.0670000  0  1G17
  40876482.818 9  40876484.717 9  -9614312.674 9  -7276744.899 9     -1505.067  
     -1172.779  
 01 10 22 21 24 30.0670000  0  1G17
  40885126.546 9  40885128.339 9  -9568889.105 9  -7241349.924 9     -1523.166  
     -1186.881  
 01 10 22 21 25  0.0670000  0  1G17
  40893873.010 9  40893874.956 9  -9522926.172 9  -7205534.640 9     -1541.293  
     -1201.010  
 01 10 22 21 25 30.0670000  0  1G17
  40902722.429 9  40902724.340 9  -9476422.208 9  -7169297.783 9     -1559.004  
     -1214.808  
 01 10 22 21 26  0.0670000  0  1G17
  40911672.912 9  40911674.846 9  -9429385.976 9  -7132646.144 9     -1576.786  
     -1228.665  
 01 10 22 21 26 30.0670000  0  1G17
  40920726.246 9  40920728.426 9  -9381810.036 9  -7095573.969 9     -1594.747  
     -1242.660  
 01 10 22 21 27  0.0670000  0  1G17
  40929883.537 9  40929885.811 9  -9333688.136 9  -7058076.391 9     -1612.987  
     -1256.875  
 01 10 22 21 27 30.0670000  0  1G17
  40939142.062 9  40939144.313 9  -9285034.492 9  -7020164.449 9     -1630.773  
     -1270.731  
 01 10 22 21 28  0.0670000  0  1G17
  40948503.482 9  40948505.685 9  -9235839.574 9  -6981830.749 9     -1648.608  
     -1284.630  
 01 10 22 21 28 30.0670000  0  1G17
  40957966.889 9  40957969.058 9  -9186110.329 9  -6943080.687 9     -1666.448  
     -1298.531  
 01 10 22 21 29  0.0670000  0  1G17
  40967531.195 9  40967533.141 9  -9135848.935 9  -6903915.966 9     -1684.526  
     -1312.618  
 01 10 22 21 29 30.0670000  0  1G17
  40977198.319 9  40977200.312 9  -9085047.013 9  -6864330.044 9     -1702.063  
     -1326.282  
 01 10 22 21 30  0.0670000  0  1G17
  40986966.160 9  40986968.082 9  -9033716.733 9  -6824332.426 9     -1719.977  
     -1340.242  
 01 10 22 21 30 30.0670000  0  1G17
  40996835.012 9  40996836.875 9  -8981856.064 9  -6783921.555 9     -1737.437  
     -1353.846  
 01 10 22 21 31  0.0670000  0  1G17
  41006803.953 9  41006805.641 9  -8929470.315 9  -6743101.475 9     -1754.909  
     -1367.462  
 01 10 22 21 31 30.0670000  0  1G17
  41016874.659 9  41016876.487 9  -8876547.582 9  -6701862.993 9     -1773.054  
     -1381.600  
 01 10 22 21 32  0.0670000  0  1G17
  41027047.527 9  41027049.274 9  -8823088.485 9  -6660206.567 9     -1790.900  
     -1395.507  
 01 10 22 21 32 30.0670000  0  1G17
  41037321.333 9  41037323.314 9  -8769099.316 9  -6618137.082 9     -1808.447  
     -1409.180  
 01 10 22 21 33  0.0670000  0  1G17
  41047696.189 9  41047698.240 9  -8714579.386 9  -6575654.018 9     -1826.040  
     -1422.887  
 01 10 22 21 33 30.0680000  0  1G17
  41058172.004 9  41058173.985 9  -8659528.435 9  -6532757.164 9     -1843.700  
     -1436.649  
 01 10 22 21 34  0.0680000  0  1G17
  41068747.275 9  41068749.432 9  -8603955.806 9  -6489453.818 9     -1860.952  
     -1450.093  
 01 10 22 21 34 30.0680000  0  1G17
  41079421.910 9  41079424.078 9  -8547859.097 9  -6445742.097 9     -1878.656  
     -1463.886  
 01 10 22 21 35  0.0680000  0  1G17
  41090197.222 9  41090199.449 9  -8491234.511 9  -6401619.041 9     -1896.105  
     -1477.484  
 01 10 22 21 35 30.0680000  0  1G17
  41101072.434 9  41101074.720 9  -8434084.701 9  -6357086.729 9     -1914.058  
     -1491.474  
 01 10 22 21 36  0.0680000  0  1G17
  41112047.701 9  41112049.916 9  -8376409.608 9  -6312145.091 9     -1931.102  
     -1504.753  
 01 10 22 21 36 30.0680000  0  1G17
  41123122.771 9  41123125.022 9  -8318208.639 9  -6266793.697 9     -1948.956  
     -1518.666  
 01 10 22 21 37  0.0680000  0  1G17
  41134298.206 9  41134300.621 9  -8259480.972 9  -6221031.882 9     -1966.424  
     -1532.279  
 01 10 22 21 37 30.0680000  0  1G17
  41145571.952 9  41145574.308 9  -8200237.922 9  -6174868.452 9     -1983.161  
     -1545.321  
 01 10 22 21 38  0.0680000  0  1G17
  41156943.024 9  41156945.403 9  -8140482.440 9  -6128305.737 9     -2000.663  
     -1558.958  
 01 10 22 21 38 30.0680000  0  1G17
  41168414.246 9  41168416.508 9  -8080200.706 9  -6081332.942 9     -2018.087  
     -1572.536  
 01 10 22 21 39  0.0680000  0  1G17
  41179984.154 9  41179986.417 9  -8019399.505 9  -6033955.366 9     -2035.213  
     -1585.881  
 01 10 22 21 39 30.0680000  0  1G17
  41191651.032 9  41191653.189 9  -7958088.635 9  -5986180.658 9     -2052.179  
     -1599.102  
 01 10 22 21 40  0.0680000  0  1G17
  41203415.535 9  41203417.692 9  -7896266.486 9  -5938007.529 9     -2069.358  
     -1612.489  
 01 10 22 21 40 30.0680000  0  1G17
  41215278.060 9  41215280.380 9  -7833928.708 9  -5889432.619 9     -2086.566  
     -1625.895  
 01 10 22 21 41  0.0680000  0  1G17
  41227239.135 9  41227241.526 9  -7771072.604 9  -5840453.811 9     -2103.896  
     -1639.400  
 01 10 22 21 41 30.0680000  0  1G17
  41239298.660 9  41239300.887 9  -7707699.355 9  -5791072.067 9     -2120.687  
     -1652.481  
 01 10 22 21 42  0.0680000  0  1G17
  41251455.059 9  41251457.415 9  -7643817.834 9  -5741294.257 9     -2137.903  
     -1665.898  
 01 10 22 21 42 30.0680000  0  1G17
  41263709.582 9  41263711.809 9  -7579420.381 9  -5691114.451 9     -2154.969  
     -1679.196  
 01 10 22 21 43  0.0680000  0  1G17
  41276060.986 9  41276063.249 9  -7514513.376 9  -5640537.560 9     -2172.100  
     -1692.545  
 01 10 22 21 43 30.0680000  0  1G17
  41288508.705 9  41288510.967 9  -7449100.498 9  -5589566.488 9     -2189.275  
     -1705.927  
 01 10 22 21 44  0.0680000  0  1G17
  41301052.582 9  41301054.774 9  -7383182.042 9  -5538201.462 9     -2205.550  
     -1718.611  
 01 10 22 21 44 30.0680000  0  1G17
  41313692.308 9  41313694.265 9  -7316760.099 9  -5486444.114 9     -2222.489  
     -1731.811  
 01 10 22 21 45  0.0680000  0  1G17
  41326428.370 9  41326430.422 9  -7249831.812 9  -5434292.214 9     -2239.390  
     -1744.979  
 01 10 22 21 45 30.0680000  0  1G17
  41339259.773 9  41339261.836 9  -7182402.177 9  -5381749.634 9     -2255.886  
     -1757.832  
 01 10 22 21 46  0.0680000  0  1G17
  41352185.000 9  41352186.898 9  -7114479.698 9  -5328823.024 9     -2272.290  
     -1770.616  
 01 10 22 21 46 30.0680000  0  1G17
  41365205.749 9  41365207.859 9  -7046054.549 9  -5275504.706 9     -2289.207  
     -1783.798  
 01 10 22 21 47  0.0680000  0  1G17
  41378321.119 9  41378323.146 9  -6977132.286 9  -5221799.056 9     -2305.593  
     -1796.565  
 01 10 22 21 47 30.0680000  0  1G17
  41391531.522 9  41391533.515 9  -6907711.894 9  -5167705.223 9     -2322.318  
     -1809.600  
 01 10 22 21 48  0.0680000  0  1G17
  41404835.745 9  41404837.855 9  -6837798.052 9  -5113226.918 9     -2338.667  
     -1822.338  
 01 10 22 21 48 30.0680000  0  1G17
  41418234.612 9  41418236.745 9  -6767385.515 9  -5058360.015 9     -2355.330  
     -1835.322  
 01 10 22 21 49  0.0680000  0  1G17
  41431727.775 9  41431729.909 9  -6696479.953 9  -5003108.925 9     -2371.528  
     -1847.943  
 01 10 22 21 49 30.0680000  0  1G17
  41445314.616 9  41445316.644 9  -6625080.717 9  -4947473.187 9     -2388.025  
     -1860.797  
 01 10 22 21 50  0.0680000  0  1G17
  41458994.147 9  41458995.906 9  -6553194.531 9  -4891458.010 9     -2404.201  
     -1873.403  
 01 10 22 21 50 30.0680000  0  1G17
  41472766.970 9  41472768.658 9  -6480818.118 9  -4835060.823 9     -2420.598  
     -1886.181  
 01 10 22 21 51  0.0680000  0  1G17
  41486632.092 9  41486633.780 9  -6407955.635 9  -4778284.856 9     -2436.968  
     -1898.935  
 01 10 22 21 51 30.0680000  0  1G17
  41500590.038 9  41500591.702 9  -6334606.848 9  -4721129.988 9     -2453.338  
     -1911.692  
 01 10 22 21 52  0.0680000  0  1G17
  41514640.400 9  41514642.311 9  -6260771.070 9  -4663595.633 9     -2469.368  
     -1924.183  
 01 10 22 21 52 30.0690000  0  1G17
  41528783.843 9  41528786.035 9  -6186446.571 9  -4605680.463 9     -2485.519  
     -1936.766  
 01 10 22 21 53  0.0690000  0  1G17
  41543018.273 9  41543020.910 9  -6111642.526 9  -4547391.609 9     -2501.510  
     -1949.228  
 01 10 22 21 53 30.0690000  0  1G17
  41557343.475 9  41557346.475 9  -6036362.590 9  -4488731.934 9     -2517.469  
     -1961.664  
 01 10 22 21 54  0.0690000  0  1G17
  41571761.460 9  41571764.507 9  -5960596.633 9  -4429693.532 9     -2533.720  
     -1974.328  
 01 10 22 21 54 30.0690000  0  1G17
  41586269.356 9  41586272.298 9  -5884356.687 9  -4370285.812 9     -2549.127  
     -1986.332  
 01 10 22 21 55  0.0690000  0  1G17
  41600868.697 9  41600871.581 9  -5807637.620 9  -4310504.714 9     -2565.271  
     -1998.912  
 01 10 22 21 55 30.0690000  0  1G17
  41615557.585 9  41615560.222 9  -5730447.453 9  -4250356.530 9     -2581.075  
     -2011.227  
 01 10 22 21 56  0.0690000  0  1G17
  41630336.578 9  41630338.724 9  -5652783.905 9  -4189839.486 9     -2596.637  
     -2023.354  
 01 10 22 21 56 30.0690000  0  1G17
  41645205.477 9  41645207.470 9  -5574647.735 9  -4128954.181 9     -2612.568  
     -2035.766  
 01 10 22 21 57  0.0690000  0  1G17
  41660164.172 9  41660166.024 9  -5496038.808 9  -4067700.483 9     -2628.263  
     -2047.997  
 01 10 22 21 57 30.0690000  0  1G17
  41675211.359 9  41675213.152 9  -5416965.397 9  -4006084.864 9     -2643.610  
     -2059.956  
 01 10 22 21 58  0.0690000  0  1G17
  41690348.543 9  41690350.512 9  -5337418.468 9  -3944100.245 9     -2659.165  
     -2072.075  
 01 10 22 21 58 30.0690000  0  1G17
  41705573.054 9  41705575.317 9  -5257412.809 9  -3881758.191 9     -2674.669  
     -2084.157  
 01 10 22 21 59  0.0690000  0  1G17
  41720885.471 9  41720888.167 9  -5176945.073 9  -3819056.094 9     -2690.006  
     -2096.108  
 01 10 22 21 59 30.0690000  0  1G17
  41736286.821 9  41736289.353 9  -5096010.197 9  -3755989.975 9     -2705.845  
     -2108.450  
 01 10 22 22  0  0.0690000  0  1G17
  41751777.229 9  41751779.796 9  -5014608.750 9  -3692560.276 9     -2721.155  
     -2120.379  
 01 10 22 22  0 30.0690000  0  1G17
  41767355.365 9  41767357.827 9  -4932744.743 9  -3628770.139 9     -2736.653  
     -2132.456  
 01 10 22 22  1  0.0690000  0  1G17
  41783021.992 9  41783024.114 9  -4850416.879 9  -3564618.565 9     -2751.954  
     -2144.381  
 01 10 22 22  1 30.0690000  0  1G17
  41798775.803 9  41798778.101 9  -4767629.014 9  -3500108.516 9     -2767.093  
     -2156.176  
 01 10 22 22  2  0.0690000  0  1G17
  41814615.971 9  41814618.280 9  -4684389.182 9  -3435246.336 9     -2782.403  
     -2168.105  
 01 10 22 22  2 30.0690000  0  1G17
  41830541.153 9  41830543.592 9  -4600701.804 9  -3370035.406 9     -2797.118  
     -2179.573  
 01 10 22 22  3  0.0690000  0  1G17
  41846552.116 9  41846554.319 9  -4516563.028 9  -3304472.717 9     -2812.126  
     -2191.270  
 01 10 22 22  3 30.0690000  0  1G17
  41862649.040 9  41862651.314 9  -4431974.827 9  -3238559.828 9     -2827.104  
     -2202.940  
 01 10 22 22  4  0.0690000  0  1G17
  41878830.710 9  41878832.844 9  -4346938.688 9  -3172297.877 9     -2841.819  
     -2214.405  
 01 10 22 22  4 30.0690000  0  1G17
  41895097.524 9  41895099.528 9  -4261456.743 9  -3105688.575 9     -2857.020  
     -2226.249  
 01 10 22 22  5  0.0690000  0  1G17
  41911449.520 9  41911451.443 9  -4175525.193 9  -3038728.934 9     -2871.691  
     -2237.681  
 01 10 22 22  5 30.0690000  0  1G17
  41927886.610 9  41927888.520 9  -4089147.728 9  -2971421.826 9     -2886.776  
     -2249.436  
 01 10 22 22  6  0.0690000  0  1G17
  41944410.108 9  41944412.488 9  -4002315.746 9  -2903760.547 9     -2901.835  
     -2261.170  
 01 10 22 22  6 30.0690000  0  1G17
  41961016.948 9  41961019.339 9  -3915046.296 9  -2835758.357 9     -2916.218  
     -2272.376  
 01 10 22 22  7  0.0690000  0  1G17
  41977707.717 9  41977709.992 9  -3827336.378 9  -2767412.977 9     -2930.986  
     -2283.886  
 01 10 22 22  7 30.0690000  0  1G17
  41994482.570 9  41994484.833 9  -3739184.715 9  -2698723.396 9     -2945.646  
     -2295.308  
 01 10 22 22  8  0.0690000  0  1G17
  42011338.769 9  42011340.656 9  -3650604.125 9  -2629699.553 9     -2959.960  
     -2306.460  
 01 10 22 22  8 30.0690000  0  1G17
  42028278.744 9  42028280.373 9  -3561584.892 9  -2560333.956 9     -2974.473  
     -2317.766  
 01 10 22 22  9  0.0690000  0  1G17
  42045299.960 9  42045301.695 9  -3472136.713 9  -2490634.106 9     -2988.771  
     -2328.913  
 01 10 22 22  9 30.0690000  0  1G17
  42062403.705 9  42062405.745 9  -3382255.902 9  -2420597.131 9     -3003.181  
     -2340.141  
 01 10 22 22 10  0.0690000  0  1G17
  42079588.695 9  42079590.559 9  -3291948.977 9  -2350228.147 9     -3017.436  
     -2351.248  
 01 10 22 22 10 30.0690000  0  1G17
  42096854.988 9  42096857.180 9  -3201214.945 9  -2279526.383 9     -3031.425  
     -2362.148  
 01 10 22 22 11  0.0690000  0  1G17
  42114201.977 9  42114203.747 9  -3110055.644 9  -2208493.161 9     -3045.638  
     -2373.221  
 01 10 22 22 11 30.0700000  0  1G17
  42131630.353 9  42131632.311 9  -3018468.774 9  -2137126.851 9     -3059.684  
     -2384.169  
 01 10 22 22 12  0.0700000  0  1G17
  42149138.574 9  42149140.695 9  -2926461.853 9  -2065433.156 9     -3074.144  
     -2395.436  
 01 10 22 22 12 30.0700000  0  1G17
  42166728.137 9  42166730.482 9  -2834028.350 9  -1993407.049 9     -3088.216  
     -2406.405  
 01 10 22 22 13  0.0700000  0  1G17
  42184398.276 9  42184400.703 9  -2741171.765 9  -1921051.252 9     -3102.091  
     -2417.217  
 01 10 22 22 13 30.0700000  0  1G17
  42202146.571 9  42202149.291 9  -2647903.484 9  -1848374.664 9     -3115.917  
     -2427.985  
 01 10 22 22 14  0.0700000  0  1G17
  42219974.227 9  42219976.794 9  -2554218.148 9  -1775373.143 9     -3129.682  
     -2438.716  
 01 10 22 22 14 30.0700000  0  1G17
  42237880.990 9  42237883.299 9  -2460117.020 9  -1702047.587 9     -3143.666  
     -2449.608  
 01 10 22 22 15  0.0700000  0  1G17
  42255866.813 9  42255868.981 9  -2365602.569 9  -1628399.947 9     -3157.092  
     -2460.073  
 01 10 22 22 15 30.0700000  0  1G17
  42273929.162 9  42273930.979 9  -2270683.891 9  -1554437.282 9     -3170.885  
     -2470.822  
 01 10 22 22 16  0.0700000  0  1G17
  42292069.874 9  42292071.527 9  -2175353.571 9  -1480153.896 9     -3184.329  
     -2481.297  
 01 10 22 22 16 30.0700000  0  1G17
  42310287.978 9  42310289.924 9  -2079617.390 9  -1405554.233 9     -3198.184  
     -2492.090  
 01 10 22 22 17  0.0700000  0  1G17
  42328583.759 9  42328585.705 9  -1983471.393 9  -1330635.308 9     -3211.648  
     -2502.585  
 01 10 22 22 17 30.0700000  0  1G17
  42346957.525 9  42346960.010 9  -1886916.117 9  -1255397.464 9     -3225.100  
     -2513.068  
 01 10 22 22 18  0.0700000  0  1G17
  42365406.909 9  42365409.875 9  -1789962.381 9  -1179848.962 9     -3238.481  
     -2523.493  
 01 10 22 22 18 30.0700000  0  1G17
  42383932.930 9  42383935.638 9  -1692607.787 9  -1103988.251 9     -3251.865  
     -2533.919  
 01 10 22 22 19  0.0700000  0  1G17
  42402535.938 9  42402538.857 9  -1594849.788 9  -1027813.164 9     -3265.194  
     -2544.307  
 01 10 22 22 19 30.0700000  0  1G17
  42421213.875 9  42421216.360 9  -1496697.409 9   -951330.858 9     -3278.268  
     -2554.492  
 01 10 22 22 20  0.0700000  0  1G17
  42439966.631 9  42439968.835 9  -1398151.404 9   -874541.829 9     -3291.380  
     -2564.710  
 01 10 22 22 20 30.0700000  0  1G17
  42458793.383 9  42458795.633 9  -1299214.874 9   -797448.381 9     -3304.391  
     -2574.852  
 01 10 22 22 21  0.0700000  0  1G17
  42477696.138 9  42477698.447 9  -1199880.810 9   -720045.142 9     -3317.579  
     -2585.129  
 01 10 22 22 21 30.0700000  0  1G17
  42496673.119 9  42496675.299 9  -1100154.938 9   -642336.636 9     -3330.548  
     -2595.230  
 01 10 22 22 22  0.0700000  0  1G17
  42515723.930 9  42515726.310 9  -1000043.689 9   -564327.882 9     -3343.548  
     -2605.361  
 01 10 22 22 22 30.0700000  0  1G17
  42534847.891 9  42534850.258 9   -899544.851 9   -486017.102 9     -3356.481  
     -2615.440  
 01 10 22 22 23  0.0700000  0  1G17
  42554046.397 9  42554048.519 9   -798657.277 9   -407403.373 9     -3369.266  
     -2625.405  
 01 10 22 22 23 30.0700000  0  1G17
  42573315.682 9  42573317.991 9   -697395.831 9   -328498.397 9     -3381.530  
     -2634.957  
 01 10 22 22 24  0.0700000  0  1G17
  42592657.149 9  42592659.412 9   -595756.177 9   -249298.645 9     -3394.196  
     -2644.827  
 01 10 22 22 24 30.0700000  0  1G17
  42612070.714 9  42612073.105 9   -493737.571 9   -169803.614 9     -3406.893  
     -2654.723  
 01 10 22 22 25  0.0700000  0  1G17
  42631556.176 9  42631558.567 9   -391339.642 9    -90012.980 9     -3419.656  
     -2664.667  
 01 10 22 22 25 30.0700000  0  1G17
  42651113.774 9  42651116.248 9   -288565.332 9     -9929.105 9     -3432.058  
     -2674.334  
 01 10 22 22 26  0.0700000  0  1G17
  42670741.500 9  42670743.657 9   -185420.219 9     70443.883 9     -3444.272  
     -2683.849  
 01 10 22 22 26 30.0700000  0  1G17
  42690440.598 9  42690442.825 9    -81899.385 9    151109.509 9     -3456.865  
     -2693.662  
 01 10 22 22 27  0.0700000  0  1G17
  42710209.945 9  42710212.008 9     21989.758 9    232062.031 9     -3468.996  
     -2703.110  
 01 10 22 22 27 30.0700000  0  1G17
  42730049.331 9  42730051.453 9    126246.708 9    313301.254 9     -3481.408  
     -2712.790  
 01 10 22 22 28  0.0700000  0  1G17
  42749958.768 9  42749960.702 9    230870.198 9    394826.097 9     -3493.645  
     -2722.322  
 01 10 22 22 28 30.0700000  0  1G17
  42769937.873 9  42769939.596 9    335860.387 9    476636.645 9     -3505.715  
     -2731.724  
 01 10 22 22 29  0.0700000  0  1G17
  42789986.344 9  42789987.892 9    441216.180 9    558732.081 9     -3517.860  
     -2741.190  
 01 10 22 22 29 30.0700000  0  1G17
  42810102.230 9  42810103.625 9    546926.510 9    641103.730 9     -3529.654  
     -2750.385  
 01 10 22 22 30  0.0700000  0  1G17
  42830286.804 9  42830288.469 9    652996.905 9    723755.991 9     -3541.439  
     -2759.565  
 01 10 22 22 30 30.0710000  0  1G17
  42850538.910 9  42850540.903 9    759422.959 9    806685.418 9     -3553.316  
     -2768.818  
 01 10 22 22 31  0.0710000  0  1G17
  42870857.863 9  42870860.207 9    866200.071 9    889888.321 9     -3565.056  
     -2777.965  
 01 10 22 22 31 30.0710000  0  1G17
  42891244.077 9  42891246.257 9    973330.104 9    973366.255 9     -3577.070  
     -2787.325  
 01 10 22 22 32  0.0710000  0  1G17
  42911697.494 9  42911699.639 9   1080812.865 9   1057119.059 9     -3588.502  
     -2796.237  
 01 10 22 22 32 30.0710000  0  1G17
  42932216.472 9  42932218.031 9   1188640.172 9   1141140.377 9     -3599.778  
     -2805.025  
 01 10 22 22 33  0.0710000  0  1G17
  42952800.957 9  42952802.621 9   1296812.965 9   1225430.875 9     -3611.740  
     -2814.344  
 01 10 22 22 33 30.0710000  0  1G17
  42973450.091 9  42973452.048 9   1405325.064 9   1309985.703 9     -3622.801  
     -2822.959  
 01 10 22 22 34  0.0710000  0  1G17
  42994165.795 9  42994168.046 9   1514186.769 9   1394812.958 9     -3634.250  
     -2831.875  
 01 10 22 22 34 30.0710000  0  1G17
  43014945.474 9  43014947.713 9   1623385.094 9   1479902.551 9     -3645.746  
     -2840.843  
 01 10 22 22 35  0.0710000  0  1G17
  43035790.002 9  43035791.959 9   1732924.845 9   1565258.186 9     -3657.016  
     -2849.625  
 01 10 22 22 35 30.0710000  0  1G17
  43056698.637 9  43056700.876 9   1842800.482 9   1650875.535 9     -3667.917  
     -2858.117  
 01 10 22 22 36  0.0710000  0  1G17
  43077672.986 9  43077675.026 9   1953019.681 9   1736760.620 9     -3679.901  
     -2867.454  
 01 10 22 22 36 30.0710000  0  1G17
  43098710.382 9  43098712.691 9   2063573.745 9   1822906.562 9     -3690.799  
     -2875.947  
 01 10 22 22 37  0.0710000  0  1G17
  43119810.336 9  43119812.587 9   2174453.409 9   1909306.287 9     -3701.641  
     -2884.395  
 01 10 22 22 37 30.0710000  0  1G17
  43140972.885 9  43140975.511 9   2285664.657 9   1995964.404 9     -3712.514  
     -2892.867  
 01 10 22 22 38  0.0710000  0  1G17
  43162198.522 9  43162200.773 9   2397206.445 9   2082880.096 9     -3723.635  
     -2901.534  
 01 10 22 22 38 30.0710000  0  1G17
  43183487.548 9  43183490.069 9   2509079.171 9   2170053.610 9     -3734.660  
     -2910.092  
 01 10 22 22 39  0.0710000  0  1G17
  43204838.048 9         0.000 1   2621276.885 1         0.00011     -3745.425  
         0.000  
 01 10 22 22 39 30.0710000  0  1G17
  43226251.382 9  43226253.808 9   2733804.373 9         0.00019     -3756.084  
     -2926.824  
 01 10 22 22 40  0.0710000  0  1G17
  43247725.280 9  43247727.765 9   2846651.060 9     87928.726 9     -3766.802  
     -2935.172  
 01 10 22 22 40 30.0710000  0  1G17
  43269259.625 9  43269261.688 9   2959814.755 9    176108.154 9     -3777.301  
     -2943.351  
 01 10 22 22 41  0.0710000  0  1G17
  43290853.062 9  43290855.383 9   3073287.694 9    264528.585 9     -3787.915  
     -2951.624  
 01 10 22 22 41 30.0710000  0  1G17
  43312507.358 9  43312509.632 9   3187081.970 9    353199.416 9     -3798.366  
     -2959.765  
 01 10 22 22 42  0.0710000  0  1G17
  43334220.747 9  43334222.775 9   3301186.933 9    442112.353 9     -3808.717  
     -2967.830  
 01 10 22 22 42 30.0710000  0  1G17
  43355993.474 9  43355995.525 9   3415602.941 9    531267.636 9     -3819.115  
     -2975.935  
 01 10 22 22 43  0.0710000  0  1G17
  43377824.679 9  43377826.953 9   3530326.563 9    620662.701 9     -3829.215  
     -2983.806  
 01 10 22 22 43 30.0710000  0  1G17
  43399713.740 9  43399716.108 8   3645355.245 8    710295.438 8     -3839.452  
     -2991.782  
 01 10 22 22 44  0.0710000  0  1G17
  43421661.747 9  43421664.056 8   3760693.211 8    800169.218 8     -3849.863  
     -2999.891  
 01 10 22 22 44 30.0710000  0  1G17
  43443668.305 9  43443670.884 8   3876335.749 8    890280.286 8     -3859.975  
     -3007.768  
 01 10 22 22 45  0.0710000  0  1G17
  43465730.599 9  43465732.662 8   3992276.817 8    980623.958 8     -3869.687  
     -3015.339  
 01 10 22 22 45 30.0710000  0  1G17
  43487850.504 9  43487852.978 8   4108517.064 8   1071200.774 8     -3879.659  
     -3023.110  
 01 10 22 22 46  0.0710000  0  1G17
  43510025.754 9  43510027.911 8   4225048.705 8   1162004.632 8     -3889.147  
     -3030.501  
 01 10 22 22 46 30.0710000  0  1G17
  43532256.605 9  43532258.668 8   4341872.603 8   1253036.184 8     -3899.058  
     -3038.223  
 01 10 22 22 47  0.0710000  0  1G17
  43554543.413 9  43554546.602 8   4458991.617 8   1344297.732 8     -3909.183  
     -3046.117  
 01 10 22 22 47 30.0710000  0  1G17
  43576886.911 9  43576889.924 8   4576407.385 8   1435790.529 8     -3918.727  
     -3053.555  
 01 10 22 22 48  0.0710000  0  1G17
  43599285.479 9  43599288.316 8   4694111.367 8   1527507.879 8     -3928.338  
     -3061.043  
 01 10 22 22 48 30.0710000  0  1G17
  43621739.185 9  43621741.987 8   4812106.869 8   1619452.424 8     -3937.980  
     -3068.553  
 01 10 22 22 49  0.0710000  0  1G17
  43644247.434 9  43644249.872 8   4930387.930 8   1711619.502 8     -3947.354  
     -3075.861  
 01 10 22 22 49 30.0720000  0  1G17
  43666809.542 9  43666811.324 8   5048951.962 8   1804007.037 8     -3956.626  
     -3083.088  
 01 10 22 22 50  0.0720000  0  1G17
  43689424.433 9  43689427.317 8   5167794.107 8   1896611.292 8     -3965.877  
     -3090.294  
 01 10 22 22 50 30.0720000  0  1G17
  43712092.704 9  43712095.529 8   5286916.372 8   1989433.821 8     -3975.531  
     -3097.814  
 01 10 22 22 51  0.0720000  0  1G17
  43734814.729 9  43734817.014 8   5406321.689 8   2082476.932 8     -3984.880  
     -3105.102  
 01 10 22 22 51 30.0720000  0  1G17
  43757588.582 9  43757590.774 8   5525998.860 8   2175731.877 8     -3993.868  
     -3112.105  
 01 10 22 22 52  0.0720000  0  1G17
  43780415.936 9  43780418.093 8   5645957.767 8   2269206.326 8     -4003.150  
     -3119.332  
 01 10 22 22 52 30.0720000  0  1G17
  43803294.972 9  43803297.422 8   5766187.042 8   2362891.420 8     -4012.228  
     -3126.409  
 01 10 22 22 53  0.0720000  0  1G17
  43826225.695 9  43826228.286 8   5886688.741 8   2456788.781 8     -4021.085  
     -3133.309  
 01 10 22 22 53 30.0720000  0  1G17
  43849206.895 9  43849209.849 8   6007457.027 8   2550893.887 8     -4029.784  
     -3140.085  
 01 10 22 22 54  0.0720000  0  1G17
  43872239.055 9  43872241.634 8   6128489.341 8   2645204.754 8     -4038.672  
     -3147.018  
 01 10 22 22 54 30.0720000  0  1G17
  43895320.828 9  43895323.185 8   6249786.116 8   2739721.722 8     -4047.860  
     -3154.178  
 01 10 22 22 55  0.0720000  0  1G17
  43918452.536 9  43918455.455 8   6371345.187 8   2834443.125 8     -4056.354  
     -3160.793  
 01 10 22 22 55 30.0720000  0  1G17
  43941633.223 9  43941636.154 8   6493160.450 8   2929364.062 8     -4065.022  
     -3167.553  
 01 10 22 22 56  0.0720000  0  1G17
  43964863.674 8  43964866.499 8   6615237.153 8   3024488.842 8     -4073.872  
     -3174.451  
 01 10 22 22 56 30.0720000  0  1G17
  43988142.618 8  43988145.537 8   6737568.659 8   3119812.098 8     -4082.033  
     -3180.809  
 01 10 22 22 57  0.0720000  0  1G17
  44011470.412 8  44011472.533 7   6860157.881 7   3215336.133 7     -4090.522  
     -3187.417  
 01 10 22 22 57 30.0720000  0  1G17
  44034846.787 9  44034848.709 7   6982999.579 7   3311056.923 7     -4098.943  
     -3193.985  
 01 10 22 22 58  0.0720000  0  1G17
  44058270.801 9  44058272.535 8   7106092.014 8   3406973.089 8     -4107.083  
     -3200.323  
 01 10 22 22 58 30.0720000  0  1G17
  44081742.385 9  44081744.682 8   7229436.848 8   3503085.966 8     -4115.714  
     -3207.046  
 01 10 22 22 59  0.0720000  0  1G17
  44105260.668 9  44105262.661 7   7353028.206 7   3599390.914 7     -4123.785  
     -3213.338  
 01 10 22 22 59 30.0720000  0  1G17
  44128825.755 8  44128827.842 7   7476864.281 7   3695886.509 7     -4131.780  
     -3219.565  
 01 10 22 23  0  0.0720000  0  1G17
  44152437.895 8  44152440.298 7   7600946.737 7   3792574.074 7     -4140.047  
     -3226.006  
 01 10 22 23  0 30.0720000  0  1G17
  44176094.940 8  44176097.226 7   7725262.792 7   3889443.648 7     -4147.966  
     -3232.178  
 01 10 22 23  1  0.0720000  0  1G17
  44199796.681 9  44199799.624 7   7849816.464 7   3986498.414 7     -4155.541  
     -3238.079  
 01 10 22 23  1 30.0720000  0  1G17
  44223543.134 8  44223546.170 7   7974604.207 7   4083735.606 7     -4163.837  
     -3244.545  
 01 10 22 23  2  0.0720000  0  1G17
  44247335.482 8  44247337.733 7   8099633.196 7   4181160.800 7     -4171.597  
     -3250.596  
 01 10 22 23  2 30.0720000  0  1G17
  44271171.979 9  44271173.514 7   8224896.689 7   4278768.798 7     -4179.121  
     -3256.460  
 01 10 22 23  3  0.0720000  0  1G17
  44295052.368 9  44295054.032 7   8350389.468 7   4376555.414 7     -4187.203  
     -3262.760  
 01 10 22 23  3 30.0720000  0  1G17
  44318977.876 8  44318980.068 7   8476119.005 7   4474526.489 7     -4194.688  
     -3268.583  
 01 10 22 23  4  0.0720000  0  1G17
  44342947.106 7  44342950.353 7   8602077.715 7   4572676.128 7     -4202.265  
     -3274.490  
 01 10 22 23  4 30.0720000  0  1G17
  44366960.013 8  44366963.119 7   8728266.665 7   4671005.195 7     -4210.110  
     -3280.604  
 01 10 22 23  5  0.0720000  0  1G17
  44391014.031 8  44391016.680 7   8854671.102 7   4769502.106 7     -4216.973  
     -3285.953  
 01 10 22 23  5 30.0720000  0  1G17
  44415110.649 8  44415112.735 7   8981296.985 7   4868171.586 7     -4224.606  
     -3291.902  
 01 10 22 23  6  0.0720000  0  1G17
  44439249.891 8  44439251.684 7   9108148.354 7   4967016.735 7     -4232.162  
     -3297.786  
 01 10 22 23  6 30.0720000  0  1G17
  44463430.307 7  44463432.229 7   9235217.561 7   5066031.663 7     -4239.110  
     -3303.198  
 01 10 22 23  7  0.0720000  0  1G17
  44487650.960 7  44487653.163 7   9362501.521 7   5165213.975 7     -4246.270  
     -3308.779  
 01 10 22 23  7 30.0720000  0  1G17
  44511912.958 7  44511915.396 7   9489997.887 7   5264561.750 7     -4253.333  
     -3314.281  
 01 10 22 23  8  0.0720000  0  1G17
  44536215.732 7  44536218.287 7   9617710.203 7   5364077.757 7     -4260.728  
     -3320.050  
 01 10 22 23  8 30.0730000  0  1G17
  44560560.209 7  44560562.612 7   9745640.336 7   5463763.595 7     -4267.929  
     -3325.660  
 01 10 22 23  9  0.0730000  0  1G17
  44584943.695 7  44584946.649 7   9873776.655 7   5563610.061 7     -4274.625  
     -3330.872  
 01 10 22 23  9 30.0730000  0  1G17
  44609366.355 7  44609368.957 7  10002119.516 7   5663617.435 7     -4281.381  
     -3336.141  
 01 10 22 23 10  0.0730000  0  1G17
  44633829.066 7  44633831.586 7  10130670.670 7   5763787.120 7     -4288.351  
     -3341.571  
 01 10 22 23 10 30.0730000  0  1G17
  44658330.363 7  44658332.708 7  10259428.252 7   5864117.656 7     -4295.338  
     -3347.020  
 01 10 22 23 11  0.0730000  0  1G17
  44682871.276 7  44682873.339 7  10388390.351 7   5964607.565 7     -4302.003  
     -3352.212  
 01 10 22 23 11 30.0730000  0  1G17
  44707450.653 7  44707453.173 7  10517555.656 7   6065255.842 7     -4309.105  
     -3357.750  
 01 10 22 23 12  0.0730000  0  1G17
  44732069.855 7  44732073.161 6  10646926.964 6   6166064.600 6     -4315.730  
     -3362.899  
 01 10 22 23 12 30.0730000  0  1G17
  44756725.347 7  44756729.579 6  10776493.645 6   6267025.644 6     -4322.110  
     -3367.875  
 01 10 22 23 13  0.0730000  0  1G17
  44781418.863 6  44781421.676 6  10906260.751 6   6368142.817 6     -4328.741  
     -3373.040  
 01 10 22 23 13 30.0730000  0  1G17
  44806148.400 6  44806151.179 6  11036214.874 6   6469405.715 6     -4334.950  
     -3377.878  
 01 10 22 23 14  0.0730000  0  1G17
  44830914.450 7  44830916.783 6  11166363.494 6   6570820.148 6     -4341.727  
     -3383.166  
 01 10 22 23 14 30.0730000  0  1G17
  44855718.149 6  44855721.818 6  11296706.227 6   6672385.854 6     -4347.960  
     -3388.020  
 01 10 22 23 15  0.0730000  0  1G17
  44880559.483 6  44880563.047 6  11427250.361 6   6774108.500 6     -4354.666  
     -3393.245  
 01 10 22 23 15 30.0730000  0  1G17
  44905436.096 6  44905438.757 6  11557976.626 6   6875973.026 6     -4360.655  
     -3397.911  
 01 10 22 23 16  0.0730000  0  1G17
  44930347.443 7  44930350.350 6  11688884.857 6   6977979.416 6     -4366.632  
     -3402.573  
 01 10 22 23 16 30.0730000  0  1G17
  44955293.529 7  44955296.717 6  11819974.705 6   7080127.280 6     -4372.695  
     -3407.299  
 01 10 22 23 17  0.0730000  0  1G17
  44980274.570 7  44980278.626 6  11951247.377 6   7182417.623 6     -4378.857  
     -3412.093  
 01 10 22 23 17 30.0730000  0  1G17
  45005289.015 6  45005292.379 6  12082702.239 6   7284849.944 6     -4384.864  
     -3416.772  
 01 10 22 23 18  0.0730000  0  1G17
  45030338.291 6  45030339.733 6  12214339.059 6   7387424.081 6     -4390.900  
     -3421.480  
 01 10 22 23 18 30.0730000  0  1G17
  45055421.772 6  45055425.230 6  12346156.711 6   7490139.052 6     -4396.920  
     -3426.174  
 01 10 22 23 19  0.0730000  0  1G17
  45080541.606 6  45080545.381 6  12478157.971 6   7592997.140 6     -4402.994  
     -3430.903  
 01 10 22 23 19 30.0730000  0  1G17
  45105693.961 6  45105697.642 6  12610334.797 6   7695992.037 6     -4408.588  
     -3435.267  
 01 10 22 23 20  0.0730000  0  1G17
  45130878.429 6  45130882.427 6  12742680.118 6   7799118.213 6     -4414.438  
     -3439.830  
 01 10 22 23 20 30.0730000  0  1G17
  45156095.550 6  45156098.925 6  12875197.272 6   7902378.289 6     -4419.888  
     -3444.064  
 01 10 22 23 21  0.0730000  0  1G17
  45181345.110 6  45181348.146 6  13007884.807 6   8005771.108 6     -4425.792  
     -3448.663  
 01 10 22 23 21 30.0730000  0  1G17
  45206627.644 6  45206631.524 6  13140742.718 6   8109296.697 6     -4431.257  
     -3452.923  
 01 10 22 23 22  0.0730000  0  1G17
  45231941.751 6  45231944.506 6  13273770.493 6   8212954.660 6     -4437.117  
     -3457.493  
 01 10 22 23 22 30.0730000  0  1G17
  45257287.202 6  45257289.441 6  13406962.116 6   8316740.266 6     -4442.516  
     -3461.704  
 01 10 22 23 23  0.0730000  0  1G17
  45282663.204 6  45282665.197 6  13540314.970 6   8420651.535 6     -4447.816  
     -3465.830  
 01 10 22 23 23 30.0730000  0  1G17
  45308070.946 6  45308073.196 6  13673829.128 6   8524688.440 6     -4453.308  
     -3470.115  
 01 10 22 23 24  0.0730000  0  1G17
  45333508.177 6  45333512.045 6  13807502.362 6   8628849.312 6     -4458.106  
     -3473.849  
 01 10 22 23 24 30.0730000  0  1G17
  45358974.316 6  45358978.524 6  13941329.593 6   8733130.298 6     -4463.450  
     -3478.007  
 01 10 22 23 25  0.0730000  0  1G17
  45384470.134 6  45384473.967 6  14075313.099 6   8837533.019 6     -4468.566  
     -3481.994  
 01 10 22 23 25 30.0730000  0  1G17
  45409996.968 6  45409999.348 6  14209456.045 6   8942059.958 6     -4474.108  
     -3486.322  
 01 10 22 23 26  0.0730000  0  1G17
  45435553.575 6  45435556.283 6  14343757.593 6   9046710.489 6     -4479.230  
     -3490.324  
 01 10 22 23 26 30.0730000  0  1G17
  45461138.465 6  45461141.196 6  14478207.075 6   9151476.284 6     -4484.121  
     -3494.118  
 01 10 22 23 27  0.0730000  0  1G17
  45486752.232 6  45486755.842 6  14612804.543 6   9256357.327 6     -4489.055  
     -3497.964  
 01 10 22 23 27 30.0740000  0  1G17
  45512393.971 6  45512397.758 6  14747554.804 6   9361357.550 6     -4494.111  
     -3501.902  
 01 10 22 23 28  0.0740000  0  1G17
  45538063.095 6  45538068.241 5  14882447.600 5   9466468.760 5     -4499.218  
     -3505.889  
 01 10 22 23 28 30.0740000  0  1G17
  45563761.379 6  45563764.708 6  15017492.216 6   9571698.323 6     -4503.900  
     -3509.530  
 01 10 22 23 29  0.0740000  0  1G17
  45589485.784 6  45589488.703 6  15152676.174 6   9677036.396 6     -4508.470  
     -3513.087  
 01 10 22 23 29 30.0740000  0  1G17
  45615238.661 6  45615241.005 6  15288004.074 6   9782486.597 6     -4513.269  
     -3516.835  
 01 10 22 23 30  0.0740000  0  1G17
  45641018.312 6  45641019.484 6  15423477.133 6   9888049.994 6     -4518.151  
     -3520.640  
 01 10 22 23 30 30.0740000  0  1G17
  45666823.816 6  45666828.071 5  15559087.487 5   9993720.354 5     -4522.537  
     -3524.052  
 01 10 22 23 31  0.0740000  0  1G17
  45692655.731 6  45692658.286 5  15694832.458 5  10099495.617 5     -4527.349  
     -3527.798  
 01 10 22 23 31 30.0740000  0  1G17
  45718512.698 6  45718515.465 5  15830717.455 5  10205379.965 5     -4531.545  
     -3531.077  
 01 10 22 23 32  0.0740000  0  1G17
  45744395.864 6  45744398.630 5  15966733.136 5  10311366.203 5     -4536.116  
     -3534.642  
 01 10 22 23 32 30.0740000  0  1G17
  45770305.353 6  45770307.556 5  16102886.696 5  10417459.868 5     -4540.635  
     -3538.151  
 01 10 22 23 33  0.0740000  0  1G17
  45796240.407 6  45796244.486 5  16239174.557 5  10523658.226 5     -4545.271  
     -3541.768  
 01 10 22 23 33 30.0740000  0  1G17
  45822199.681 5  45822205.037 5  16375594.932 5  10629959.720 5     -4549.344  
     -3544.933  
 01 10 22 23 34  0.0740000  0  1G17
  45848183.261 5  45848186.942 5  16512141.235 5  10736359.418 5     -4553.760  
     -3548.380  
 01 10 22 23 34 30.0740000  0  1G17
  45874193.496 6  45874195.852 5  16648819.194 5  10842861.607 5     -4557.958  
     -3551.665  
 01 10 22 23 35  0.0740000  0  1G17
  45900225.781 6  45900229.028 6  16785622.571 6  10949461.597 6     -4562.151  
     -3554.923  
 01 10 22 23 35 30.0740000  0  1G17
  45926283.776 6  45926287.738 5  16922552.783 5  11056160.383 5     -4566.316  
     -3558.157  
 01 10 22 23 36  0.0740000  0  1G17
  45952363.940 5  45952367.422 5  17059611.835 5  11162959.590 5     -4570.891  
     -3561.725  
 01 10 22 23 36 30.0740000  0  1G17
  45978470.445 6  45978472.637 5  17196798.893 5  11269858.525 5     -4574.624  
     -3564.649  
 01 10 22 23 37  0.0740000  0  1G17
  46004598.671 5  46004604.943 5  17334102.840 5  11376848.562 5     -4578.579  
     -3567.723  
 01 10 22 23 37 30.0740000  0  1G17
  46030749.120 5  46030753.902 5  17471524.788 5  11483930.557 5     -4582.686  
     -3570.923  
 01 10 22 23 38  0.0740000  0  1G17
  46056922.161 5  46056926.909 5  17609067.488 5  11591106.597 5     -4586.710  
     -3574.060  
 01 10 22 23 38 30.0740000  0  1G17
  46083118.322 5  46083119.470 5  17746730.420 5  11698376.410 5     -4590.637  
     -3577.112  
 01 10 22 23 39  0.0740000  0  1G17
  46109337.703 5  46109339.591 5  17884506.274 5  11805734.143 5     -4594.304  
     -3579.976  
 01 10 22 23 39 30.0740000  0  1G17
  46135576.256 5  46135581.660 5  18022392.496 5  11913177.905 5     -4598.208  
     -3583.020  
 01 10 22 23 40  0.0740000  0  1G17
  46161835.812 5  46161839.634 5  18160392.015 5  12020709.941 5     -4601.725  
     -3585.760  
 01 10 22 23 40 30.0740000  0  1G17
  46188116.971 5  46188120.605 5  18298500.254 5  12128326.694 5     -4605.392  
     -3588.615  
 01 10 22 23 41  0.0740000  0  1G17
  46214420.722 5  46214423.652 5  18436725.852 5  12236034.832 5     -4609.474  
     -3591.797  
 01 10 22 23 41 30.0740000  0  1G17
  46240746.282 5  46240750.209 5  18575063.875 5  12343830.659 5     -4613.222  
     -3594.713  
 01 10 22 23 42  0.0740000  0  1G17
  46267091.234 5  46267096.463 5  18713506.301 5  12451707.772 5     -4616.674  
     -3597.413  
 01 10 22 23 42 30.0740000  0  1G17
  46293455.314 5  46293458.210 5  18852058.532 5  12559670.517 5     -4620.220  
     -3600.164  
 01 10 22 23 43  0.0740000  0  1G17
  46319842.648 5  46319843.527 5  18990719.312 5  12667717.857 5     -4623.680  
     -3602.874  
 01 10 22 23 43 30.0740000  0  1G17
  46346247.617 5  46346252.399 5  19129479.331 5  12775842.577 5     -4627.042  
     -3605.487  
 01 10 22 23 44  0.0740000  0  1G17
  46372671.368 5  46372676.549 5  19268338.912 5  12884044.870 5     -4630.559  
     -3608.235  
 01 10 22 23 44 30.0740000  0  1G17
  46399115.700 5  46399120.705 5  19407302.903 5  12992328.399 5     -4633.688  
     -3610.672  
 01 10 22 23 45  0.0740000  0  1G17
  46425578.200 5  46425581.213 5  19546364.654 5  13100688.181 5     -4636.715  
     -3613.031  
 01 10 22 23 45 30.0740000  0  1G17
  46452057.923 5  46452064.687 5  19685515.678 5  13209117.516 5     -4640.220  
     -3615.768  
 01 10 22 23 46  0.0740000  0  1G17
  46478557.771 5  46478560.385 5  19824769.907 5  13317627.263 5     -4643.462  
     -3618.276  
 01 10 22 23 46 30.0750000  0  1G17
  46505075.331 5  46505080.196 5  19964122.026 5  13426213.320 5     -4646.322  
     -3620.509  
 01 10 22 23 47  0.0750000  0  1G17
  46531609.675 5  46531611.023 5  20103557.329 5  13534864.154 5     -4649.225  
     -3622.768  
 01 10 22 23 47 30.0750000  0  1G17
  46558157.500 5  46558161.369 5  20243075.413 5  13643579.597 5     -4652.064  
     -3624.978  
 01 10 22 23 48  0.0750000  0  1G17
  46584725.493 5  46584725.364 5  20382681.861 5  13752363.739 5     -4654.892  
     -3627.175  
 01 10 22 23 48 30.0750000  0  1G17
  46611306.297 5  46611309.556 5  20522375.065 5  13861215.608 5     -4658.078  
     -3629.680  
 01 10 22 23 49  0.0750000  0  1G17
  46637907.464 5  46637910.336 4  20662161.762 4  13970140.330 4     -4660.758  
     -3631.776  
 01 10 22 23 49 30.0750000  0  1G17
  46664522.870 5  46664526.774 5  20802028.712 5  14079127.587 5     -4663.775  
     -3634.123  
 01 10 22 23 50  0.0750000  0  1G17
  46691154.548 5  46691159.659 5  20941979.937 5  14188180.401 5     -4666.518  
     -3636.260  
 01 10 22 23 50 30.0750000  0  1G17
  46717801.864 5  46717806.342 4  21082010.366 4  14297294.964 4     -4668.906  
     -3638.102  
 01 10 22 23 51  0.0750000  0  1G17
  46744465.054 5  46744463.917 5  21222123.427 5  14406473.848 5     -4671.517  
     -3640.154  
 01 10 22 23 51 30.0750000  0  1G17
  46771141.813 5  46771146.291 5  21362315.133 5  14515714.134 5     -4674.464  
     -3642.433  
 01 10 22 23 52  0.0750000  0  1G17
  46797836.122 5  46797839.721 5  21502589.024 5  14625018.360 5     -4677.096  
     -3644.475  
 01 10 22 23 52 30.0750000  0  1G17
  46824544.246 5  46824547.352 5  21642937.154 5  14734380.458 5     -4679.401  
     -3646.271  
 01 10 22 23 53  0.0750000  0  1G17
  46851266.078 5  46851270.732 5  21783365.050 5  14843804.780 5     -4682.319  
     -3648.541  
 01 10 22 23 53 30.0750000  0  1G17
  46878002.545 5  46878005.546 5  21923869.106 5  14953288.463 5     -4684.810  
     -3650.516  
 01 10 22 23 54  0.0750000  0  1G17
  46904752.929 5  46904754.055 5  22064442.737 5  15062826.288 5     -4686.870  
     -3652.118  
 01 10 22 23 54 30.0750000  0  1G17
  46931516.200 5  46931519.401 5  22205088.220 5  15172420.223 5     -4689.353  
     -3654.042  
 01 10 22 23 55  0.0750000  0  1G17
  46958293.935 4  46958296.502 4  22345805.219 4  15282069.797 4     -4691.523  
     -3655.717  
 01 10 22 23 55 30.0750000  0  1G17
  46985087.028 5  46985092.666 5  22486591.993 5  15391773.808 5     -4694.115  
     -3657.752  
 01 10 22 23 56  0.0750000  0  1G17
  47011890.226 5  47011895.055 5  22627450.935 5  15501533.928 5     -4696.397  
     -3659.515  
 01 10 22 23 56 30.0750000  0  1G17
  47038707.440 5  47038711.532 5  22768378.019 5  15611347.270 5     -4698.643  
     -3661.271  
 01 10 22 23 57  0.0750000  0  1G17
  47065537.451 5  47065540.229 5  22909366.026 5  15721207.995 5     -4700.682  
     -3662.845  
 01 10 22 23 57 30.0750000  0  1G17
  47092379.185 5  47092384.015 5  23050421.766 5  15831121.667 5     -4702.926  
     -3664.613  
 01 10 22 23 58  0.0750000  0  1G17
  47119234.371 5  47119238.638 5  23191538.117 5  15941082.442 5     -4704.943  
     -3666.199  
 01 10 22 23 58 30.0750000  0  1G17
  47146099.340 5         0.000 1  23332719.701 1         0.00011     -4707.164  
         0.000  
 01 10 22 23 59  0.0750000  0  1G17
  47172976.533 5         0.000 1  23473960.368 1         0.00011     -4708.852  
         0.000  
 01 10 22 23 59 30.0750000  0  1G17
  47199863.440 5  47199863.170 4  23615256.209 4     25689.634 4     -4710.672  
     -3670.657  
