     2.11           Observation         G (GPS)             RINEX VERSION / TYPE
hgextrobs           John Knutson        11/04/2015 21:04:25 PGM / RUN BY / DATE
ARL1                                                        MARKER NAME
Monitor Station     NGA                                     OBSERVER / AGENCY
1                   ITT MSN SAASM       3.2.11              REC # / TYPE / VERS
1                   ITT 3750323-1                           ANT # / TYPE
  -740289.9180 -5457071.7340  3207245.5420                  APPROX POSITION XYZ
        0.0000        0.0000        0.0000                  ANTENNA: DELTA H/E/N
     1     1                                                WAVELENGTH FACT L1/2
    10    L1    L2    C1    C2    P1    P2    D1    D2    S1# / TYPES OF OBSERV
          S2                                                # / TYPES OF OBSERV
    30.000                                                  INTERVAL
  2015     7    19     1    20    0.0000000     GPS         TIME OF FIRST OBS
85408                                                       MARKER NUMBER
                                                            END OF HEADER
 15  7 19  1 20  0.0000000  0 10G 2G 5G12G13G15G18G20G21G25G29
 -14417308.805   -11762106.067    22396506.038           0.000    22396506.121  
  22396506.565       -1442.062       -1123.688          42.590          47.400  
 -23680105.499   -18791004.347    20965268.504    20965300.650    20965268.816  
  20965270.683       -1992.642       -1552.707          45.690          53.100  
 -11656277.202    -9082806.583    23090827.608    23090868.550    23090827.762  
  23090831.365       -3257.021       -2537.934          40.650          47.030  
 -12720367.695    -9911956.508    22661948.414           0.000    22661948.548  
  22661952.360        2265.399        1765.243          40.280          46.410  
 -12653590.391    -9859920.613    22984299.924    22984325.900    22984300.750  
  22984305.229        3255.251        2536.559          39.730          47.180  
    -85022.626     -982621.076    24979037.034           0.000    24979038.348  
  24979048.231        2981.027        2322.484          28.430          38.440  
 -24803683.683   -20119815.012    20496250.688           0.000    20496250.867  
  20496252.735        1329.430        1035.919          45.930          52.950  
  -4482985.498    -3493224.776    24561444.794           0.000    24561444.764  
  24561448.834        1790.877        1395.492          35.800          39.520  
 -14177017.250   -13445740.491    22163897.747    22163915.730    22163898.221  
  22163903.660       -1846.057       -1438.481          43.250          48.350  
 -22972981.182   -17901004.986    20973758.002    20973789.800    20973758.211  
  20973760.371        2081.568        1622.000          45.490          52.560  
 15  7 19  1 20 30.0000000  0 10G 2G 5G12G13G15G18G20G21G25G29
 -14373999.482   -11728358.545    22404747.999           0.000    22404747.011  
  22404748.057       -1445.208       -1126.139          42.670          47.830  
 -23620150.040   -18744285.821    20976677.654    20976702.600    20976678.449  
  20976679.926       -2004.365       -1561.844          46.260          53.130  
 -11558507.577    -9006622.564    23109432.647    23109461.660    23109432.500  
  23109436.249       -3260.921       -2540.978          40.510          47.050  
 -12788169.448    -9964788.966    22649046.409           0.000    22649047.062  
  22649050.349        2254.713        1756.915          40.820          46.920  
 -12751181.930    -9935965.834    22965730.212    22965744.250    22965730.247  
  22965733.491        3250.846        2533.121          40.800          46.670  
   -174365.436    -1052238.036    24962037.274           0.000    24962036.278  
  24962044.807        2975.641        2318.660          30.140          35.710  
 -24843344.441   -20150719.458    20488704.310           0.000    20488703.916  
  20488705.694        1314.643        1024.396          46.500          53.230  
  -4536715.814    -3535092.518    24551220.936           0.000    24551220.464  
  24551224.259        1791.157        1395.698          36.210          40.450  
 -14121425.354   -13402422.165    22174477.055    22174514.330    22174477.005  
  22174482.741       -1860.038       -1449.383          43.330          48.620  
 -23035273.950   -17949544.777    20961903.845    20961931.660    20961904.441  
  20961906.281        2071.289        1613.991          46.030          52.680  
 15  7 19  1 21  0.0000000  0 10G 2G 5G12G13G15G18G20G21G25G29
 -14330594.990   -11694536.874    22413007.036           0.000    22413006.926  
  22413007.556       -1448.411       -1128.630          42.500          47.530  
 -23559843.482   -18697293.699    20988153.923    20988175.990    20988154.463  
  20988155.732       -2016.040       -1570.942          45.930          52.920  
 -11460621.889    -8930348.105    23128059.344    23128074.170    23128059.189  
  23128063.157       -3264.786       -2543.986          39.600          46.460  
 -12855648.010   -10017369.582    22636205.169           0.000    22636206.384  
  22636209.381        2243.851        1748.455          40.690          46.650  
 -12848639.223   -10011906.479    22947183.176    22947236.920    22947184.567  
  22947187.523        3246.282        2529.572          40.660          45.880  
   -263559.973    -1121739.720    24945063.313           0.000    24945063.738  
  24945071.857        2970.666        2314.790          32.610          36.580  
 -24882561.267   -20181277.985    20481241.507           0.000    20481240.883  
  20481242.935        1299.827        1012.852          46.030          53.210  
  -4590454.063    -3576966.414    24540994.166           0.000    24540994.554  
  24540998.273        1791.403        1395.893          35.830          40.960  
 -14065414.425   -13358777.314    22185136.124    22185160.550    22185135.736  
  22185141.566       -1873.991       -1460.252          43.250          48.800  
 -23097256.548   -17997842.874    20950109.546    20950132.150    20950109.742  
  20950111.257        2060.889        1605.887          45.970          52.510  
 15  7 19  1 21 30.0000000  0 10G 2G 5G12G13G15G18G20G21G25G29
 -14287095.307   -11660641.014    22421285.382           0.000    22421285.287  
  22421285.297       -1451.560       -1131.085          43.020          47.560  
 -23499188.294   -18650029.926    20999696.581    20999722.660    20999696.793  
  20999697.755       -2027.614       -1579.958          46.410          53.020  
 -11362622.991    -8853985.430    23146708.009    23146745.750    23146708.618  
  23146711.717       -3268.460       -2546.850          40.980          46.550  
 -12922800.954   -10069696.466    22623427.396           0.000    22623427.409  
  22623430.233        2232.984        1739.983          40.850          46.470  
 -12945958.980   -10087739.936    22928664.785    22928680.370    22928665.071  
  22928668.199        3241.667        2525.970          41.220          46.190  
   -352605.774    -1191125.485    24928118.405           0.000    24928118.078  
  24928127.236        2965.693        2310.909          35.300          36.620  
 -24921334.519   -20211490.869    20473862.618           0.000    20473862.510  
  20473864.660        1285.058        1001.343          46.460          53.340  
  -4644200.773    -3618846.916    24530765.908           0.000    24530767.125  
  24530770.255        1791.722        1396.141          36.750          41.190  
 -14008987.256   -13314808.130    22195873.240    22195888.560    22195873.341  
  22195879.197       -1887.803       -1471.016          43.400          48.940  
 -23158926.727   -18045897.536    20938374.137    20938404.110    20938374.731  
  20938375.615        2050.444        1597.745          46.800          52.610  
 15  7 19  1 22  0.0000000  0 10G 2G 5G12G13G15G18G20G21G25G29
 -14243499.909   -11626670.570    22429580.848           0.000    22429580.845  
  22429581.379       -1454.791       -1133.606          42.470          47.580  
 -23438187.297   -18602496.684    21011304.599    21011331.600    21011305.021  
  21011306.206       -2039.121       -1588.926          46.470          53.100  
 -11264514.698    -8777537.510    23165377.520    23165416.900    23165377.906  
  23165381.551       -3272.087       -2549.680          41.030          46.740  
 -12989625.382   -10121767.375    22610709.033           0.000    22610710.267  
  22610713.653        2221.942        1731.381          40.220          46.000  
 -13043138.091   -10163463.792    22910172.321    22910211.870    22910172.260  
  22910175.122        3236.910        2522.265          41.620          45.600  
   -441501.363    -1260394.264    24911200.778           0.000    24911200.823  
  24911209.981        2960.666        2306.988          33.100          35.360  
 -24959664.058   -20241358.008    20466569.303           0.000    20466568.789  
  20466570.674        1270.233         989.793          46.400          53.310  
  -4697956.622    -3660734.552    24520537.309           0.000    24520537.542  
  24520540.832        1791.990        1396.355          36.210          41.860  
 -13952146.589   -13270516.749    22206690.210    22206714.920    22206689.999  
  22206695.440       -1901.564       -1481.732          43.380          48.840  
 -23220282.092   -18093706.887    20926699.318    20926725.490    20926699.183  
  20926700.096        2039.881        1589.517          46.700          52.660  
 15  7 19  1 22 30.0000000  0 10G 2G 5G12G13G15G18G20G21G25G29
 -14199808.161   -11592625.049    22437894.332           0.000    22437895.308  
  22437895.873       -1457.992       -1136.096          42.780          47.920  
 -23376842.540   -18554695.580    21022978.046    21023008.350    21022978.653  
  21022979.857       -2050.514       -1597.802          46.750          53.170  
 -11166299.237    -8701006.079    23184068.174    23184097.810    23184068.253  
  23184071.533       -3275.577       -2552.393          41.750          46.660  
 -13056117.904   -10173579.657    22598057.383           0.000    22598057.727  
  22598060.387        2210.855        1722.742          40.930          46.030  
 -13140173.405   -10239075.619    22891707.093    22891714.520    22891707.612  
  22891709.927        3232.080        2518.499          42.380          45.890  
   -530245.485    -1329545.014    24894313.427           0.000    24894313.135  
  24894322.957        2955.603        2303.069          35.930          34.950  
 -24997549.710   -20270879.262    20459359.875           0.000    20459359.386  
  20459361.156        1255.466         978.285          46.520          53.400  
  -4751721.823    -3702629.452    24510307.215           0.000    24510305.938  
  24510309.792        1792.344        1396.628          35.310          42.040  
 -13894895.005   -13225905.171    22217585.207    22217621.380    22217584.755  
  22217590.014       -1915.194       -1492.356          43.860          48.920  
 -23281320.083   -18141268.928    20915083.715    20915118.360    20915083.959  
  20915085.030        2029.299        1581.271          46.870          52.850  
 15  7 19  1 23  0.0000000  0 10G 2G 5G12G13G15G18G20G21G25G29
 -14156020.145   -11558504.524    22446228.600           0.000    22446227.690  
  22446228.394       -1461.227       -1138.615          42.360          47.780  
 -23315156.808   -18506628.781    21034716.721    21034747.390    21034716.911  
  21034718.425       -2061.852       -1606.641          46.260          53.080  
 -11067980.362    -8624394.074    23202777.859    23202785.240    23202777.231  
  23202781.131       -3278.994       -2555.054          41.140          46.620  
 -13122275.517   -10225130.970    22585468.174           0.000    22585468.354  
  22585470.537        2199.628        1714.000          40.990          45.960  
 -13237061.878   -10314573.012    22873268.742    22873304.760    22873269.571  
  22873272.763        3227.120        2514.641          41.920          46.200  
   -618837.169    -1398577.003    24877454.365           0.000    24877454.590  
  24877463.624        2950.497        2299.065          36.160          33.790  
 -25034991.686   -20300054.795    20452234.072           0.000    20452234.001  
  20452236.220        1240.676         966.758          46.120          53.400  
  -4805496.988    -3744532.115    24500072.742           0.000    24500072.350  
  24500076.647        1792.676        1396.894          34.720          42.310  
 -13837235.372   -13180975.633    22228557.034    22228583.300    22228556.945  
  22228562.656       -1928.753       -1502.923          43.330          48.830  
 -23342038.640   -18188582.066    20903528.672    20903564.330    20903529.388  
  20903530.747        2018.590        1572.927          46.640          52.840  
 15  7 19  1 23 30.0000000  0 10G 2G 5G12G13G15G18G20G21G25G29
 -14112134.735   -11524308.105    22454577.917           0.000    22454578.289  
  22454579.156       -1464.470       -1141.143          42.080          47.350  
 -23253132.491   -18458298.154    21046519.699    21046541.320    21046519.760  
  21046520.872       -2073.094       -1615.397          46.380          52.760  
 -10969561.311    -8547704.017    23221505.808    23221543.350    23221505.913  
  23221509.846       -3282.273       -2557.610          41.670          46.340  
 -13188095.476   -10276419.190    22572942.423           0.000    22572942.840  
  22572946.338        2188.344        1705.205          41.190          46.480  
 -13333800.460   -10389953.611    22854861.378    22854884.230    22854861.559  
  22854863.644        3222.095        2510.721          42.670          46.200  
   -707275.224    -1467489.381    24860625.660           0.000    24860625.657  
  24860632.952        2945.356        2295.068          38.010          32.720  
 -25071990.202   -20328884.772    20445193.698           0.000    20445193.738  
  20445195.493        1225.901         955.243          46.310          53.430  
  -4859282.942    -3786443.181    24489836.827           0.000    24489837.913  
  24489841.597        1793.060        1397.186          35.710          42.490  
 -13779170.471   -13135730.304    22239605.358    22239626.060    22239605.945  
  22239612.189       -1942.224       -1513.417          43.130          48.780  
 -23402435.486   -18235644.518    20892035.641    20892067.120    20892035.950  
  20892037.669        2007.841        1564.551          46.510          53.020  
 15  7 19  1 24  0.0000000  0 10G 2G 5G12G13G15G18G20G21G25G29
 -14068151.616   -11490035.539    22462948.639           0.000    22462948.334  
  22462949.152       -1467.734       -1143.693          42.250          47.320  
 -23190771.832   -18409705.439    21058385.631    21058403.080    21058386.532  
  21058387.813       -2084.258       -1624.099          46.130          52.650  
 -10871044.609    -8470937.852    23240252.742    23240284.850    23240253.162  
  23240256.566       -3285.482       -2560.114          41.640          45.720  
 -13253574.888   -10327442.037    22560482.506           0.000    22560482.767  
  22560485.303        2176.929        1696.309          41.150          46.150  
 -13430385.914   -10465214.891    22836480.841    22836518.190    22836481.402  
  22836484.282        3216.925        2506.690          41.830          46.680  
   -795558.043    -1536279.896    24843825.570           0.000    24843825.464  
  24843832.688        2940.149        2291.007          35.780          31.840  
 -25108544.951   -20357368.960    20438237.956           0.000    20438237.452  
  20438239.349        1211.091         943.707          45.970          53.410  
  -4913079.896    -3828362.824    24479602.178           0.000    24479600.513  
  24479604.178        1793.406        1397.458          35.600          41.910  
 -13720702.874   -13090171.187    22250732.063    22250760.720    22250732.126  
  22250738.363       -1955.602       -1523.841          43.160          48.650  
 -23462508.034   -18282454.274    20880603.978    20880637.600    20880604.776  
  20880605.975        1996.988        1556.092          46.290          52.900  
 15  7 19  1 24 30.0000000  0 10G 2G 5G12G13G15G18G20G21G25G29
 -14024070.316   -11455686.462    22471336.732           0.000    22471337.284  
  22471337.415       -1471.013       -1146.246          43.170          47.500  
 -23128077.564   -18360852.774    21070316.050    21070343.630    21070316.720  
  21070317.895       -2095.345       -1632.736          46.520          52.740  
 -10772433.911    -8394098.430    23259017.170    23259051.670    23259018.101  
  23259021.392       -3288.554       -2562.512          42.140          45.440  
 -13318710.755   -10378197.203    22548087.299           0.000    22548087.493  
  22548089.845        2165.427        1687.344          41.580          46.190  
 -13526815.139   -10540354.424    22818131.290    22818153.770    22818131.578  
  22818134.514        3211.669        2502.592          42.020          47.250  
   -883684.699    -1604949.675    24827055.607           0.000    24827055.724  
  24827063.005        2934.938        2286.951          36.150          33.120  
 -25144655.983   -20385507.396    20431365.863           0.000    20431365.726  
  20431367.753        1196.300         932.183          46.400          53.690  
  -4966888.089    -3870291.213    24469359.626           0.000    24469360.788  
  24469364.539        1793.807        1397.767          35.590          41.960  
 -13661835.455   -13044300.519    22261935.049    22261966.820    22261934.674  
  22261940.128       -1968.882       -1534.193          43.530          48.590  
 -23522254.006   -18329009.556    20869235.575    20869264.980    20869235.704  
  20869237.027        1986.059        1547.581          46.860          53.290  
 15  7 19  1 25  0.0000000  0 10G 2G 5G12G13G15G18G20G21G25G29
 -13979890.539   -11421260.666    22479744.431           0.000    22479744.402  
  22479744.671       -1474.306       -1148.805          43.110          47.570  
 -23065051.836   -18311741.822    21082309.783    21082340.930    21082310.333  
  21082311.222       -2106.345       -1641.309          46.560          52.710  
 -10673732.186    -8317188.089    23277799.705    23277860.360    23277800.266  
  23277803.669       -3291.541       -2564.837          41.210          45.110  
 -13383499.880   -10428682.164    22535757.990           0.000    22535758.024  
  22535761.064        2153.819        1678.298          41.520          46.250  
 -13623085.440   -10615370.121    22799811.284    22799846.540    22799811.821  
  22799814.861        3206.329        2498.433          41.800          47.660  
   -971654.277    -1673497.024    24810314.761           0.000    24810314.726  
  24810323.363        2929.687        2282.843          34.180          35.160  
 -25180323.075   -20413299.907    20424579.073           0.000    20424578.684  
  20424580.505        1181.512         920.658          46.550          53.690  
  -5020708.217    -3912228.895    24459117.748           0.000    24459119.082  
  24459123.084        1794.211        1398.089          35.460          41.310  
 -13602570.886   -12998120.379    22273211.632    22273237.840    22273211.908  
  22273217.987       -1982.075       -1544.473          43.620          48.600  
 -23581670.748   -18375308.291    20857928.339    20857960.150    20857928.910  
  20857930.117        1975.053        1539.002          46.790          53.280  
 15  7 19  1 25 30.0000000  0 10G 2G 5G12G13G15G18G20G21G25G29
 -13935611.467   -11386757.501    22488171.323           0.000    22488170.492  
  22488170.627       -1477.641       -1151.410          42.300          47.190  
 -23001696.869   -18262374.321    21094366.103    21094393.310    21094366.437  
  21094367.561       -2117.318       -1649.854          45.910          52.730  
 -10574941.729    -8240208.618    23296599.114    23296655.250    23296598.828  
  23296603.009       -3294.473       -2567.118          39.220          44.500  
 -13447939.462   -10478894.760    22523495.798           0.000    22523496.450  
  22523498.709        2142.103        1669.172          41.050          46.340  
 -13719193.111   -10690259.093    22781523.099    22781557.090    22781522.875  
  22781526.196        3200.823        2494.145          40.730          47.720  
  -1059465.002    -1741920.599    24793604.552           0.000    24793604.434  
  24793612.237        2924.346        2278.689          31.160          35.640  
 -25215546.416   -20440746.646    20417876.264           0.000    20417876.047  
  20417877.634        1166.705         909.121          45.900          53.560  
  -5074540.408    -3954175.954    24448875.235           0.000    24448874.872  
  24448878.625        1794.605        1398.385          34.090          40.890  
 -13542911.855   -12951632.875    22284564.827    22284600.590    22284564.874  
  22284570.881       -1995.198       -1554.697          43.120          48.470  
 -23640756.140   -18421348.832    20846685.519    20846702.750    20846685.116  
  20846686.413        1963.948        1530.348          46.020          52.990  
 15  7 19  1 26  0.0000000  0 10G 2G 5G12G13G15G18G20G21G25G29
 -13891232.921   -11352176.819    22496615.691           0.000    22496615.572  
  22496615.462       -1480.959       -1153.994          43.210          47.320  
 -22938015.146   -18212752.206    21106484.404    21106520.600    21106484.545  
  21106485.794       -2128.163       -1658.308          46.630          52.820  
 -10476066.353    -8163162.982    23315415.051    23315433.200    23315414.761  
  23315418.099       -3297.259       -2569.290          40.270          43.660  
 -13512026.369   -10528832.527    22511299.805           0.000    22511300.346  
  22511303.241        2130.295        1659.968          41.370          46.370  
 -13815135.008   -10765018.876    22763264.911    22763305.420    22763265.512  
  22763269.052        3195.231        2489.788          41.060          48.010  
  -1147115.653    -1810219.863    24776926.154           0.000    24776924.742  
  24776932.348        2918.996        2274.534          28.590          35.000  
 -25250325.990   -20467847.587    20411257.509           0.000    20411257.483  
  20411259.327        1151.908         897.590          46.340          53.760  
  -5128385.435    -3996133.021    24438627.369           0.000    24438628.322  
  24438632.206        1795.032        1398.723          34.940          41.120  
 -13482861.167   -12904840.169    22295992.178    22296024.970    22295992.392  
  22295998.356       -2008.210       -1564.838          44.030          48.680  
 -23699507.828   -18467129.350    20835504.980    20835529.980    20835505.044  
  20835506.382        1952.775        1521.642          46.730          53.290  
 15  7 19  1 26 30.0000000  0 10G 2G 5G12G13G15G18G20G21G25G29
 -13846754.396   -11317518.232    22505080.153           0.000    22505079.385  
  22505079.234       -1484.284       -1156.585          43.030          47.190  
 -22874009.436   -18162877.626    21118664.771    21118692.090    21118664.987  
  21118665.980       -2138.893       -1666.669          46.830          52.820  
 -10377108.447    -8086052.990    23334246.772    23334261.640    23334246.225  
  23334248.880       -3299.916       -2571.362          40.020          43.540  
 -13575757.984   -10578493.473    22499172.042           0.000    22499172.861  
  22499175.857        2118.433        1650.726          41.900          46.560  
 -13910908.139   -10839647.174    22745038.588    22745075.230    22745039.524  
  22745043.872        3189.592        2485.391          41.090          48.070  
  -1234607.964    -1878393.713    24760274.301           0.000    24760275.821  
  24760282.477        2913.638        2270.365          28.000          36.260  
 -25284661.900   -20494602.820    20404723.745           0.000    20404723.542  
  20404725.273        1137.147         886.087          46.210          53.710  
  -5182243.839    -4038100.503    24428379.263           0.000    24428379.707  
  24428383.065        1795.509        1399.102          34.390          40.700  
 -13422421.685   -12857744.515    22307494.481    22307519.590    22307493.993  
  22307499.434       -2021.097       -1574.878          44.160          48.370  
 -23757923.330   -18512647.899    20824388.505    20824421.000    20824388.893  
  20824390.297        1941.556        1512.905          46.570          53.280  
 15  7 19  1 27  0.0000000  0  9G 2G 5G12G13G15G20G21G25G29
 -13802175.170   -11282781.186    22513563.147           0.000    22513562.938  
  22513562.201       -1487.650       -1159.205          43.040          47.040  
 -22809681.804   -18112752.208    21130905.063    21130932.930    21130905.740  
  21130907.365       -2149.585       -1675.001          46.530          52.800  
 -10278071.850    -8008881.712    23353091.174    23353118.570    23353091.907  
  23353095.766       -3302.493       -2573.364          39.650          44.390  
 -13639130.954   -10627874.945    22487113.384           0.000    22487113.771  
  22487116.339        2106.435        1641.375          42.500          46.520  
 -14006509.436   -10914141.578    22726846.641    22726875.430    22726847.773  
  22726851.173        3183.810        2480.888          41.920          47.860  
 -25318554.146   -20521012.343    20398274.354           0.000    20398274.059  
  20398275.652        1122.360         874.567          46.220          53.690  
  -5236115.808    -4080078.545    24418128.290           0.000    24418127.814  
  24418132.170        1795.961        1399.450          34.590          40.780  
 -13361596.097   -12810348.000    22319068.583    22319106.370    22319068.674  
  22319073.429       -2033.918       -1584.867          44.160          47.910  
 -23816000.194   -18557902.574    20813337.167    20813361.630    20813337.308  
  20813338.687        1930.231        1504.074          46.750          53.340  
 15  7 19  1 27 30.0000000  0  9G 2G 5G12G13G15G20G21G25G29
 -13757494.880   -11247965.394    22522065.574           0.000    22522064.892  
  22522064.934       -1491.030       -1161.847          42.630          47.020  
 -22745034.936   -18062378.033    21143207.075    21143241.780    21143207.330  
  21143209.189       -2160.196       -1683.268          45.740          52.470  
 -10178959.246    -7931651.214    23371952.248    23371979.240    23371952.533  
  23371956.679       -3305.000       -2575.316          39.380          44.820  
 -13702142.719   -10676974.975    22475122.391           0.000    22475122.875  
  22475124.714        2094.330        1631.944          41.700          46.150  
 -14101935.778   -10988499.671    22708688.252    22708732.340    22708688.600  
  22708691.654        3177.919        2476.295          41.070          47.470  
 -25352003.332   -20547076.621    20391908.297           0.000    20391908.576  
  20391910.464        1107.570         863.041          45.530          53.470  
  -5290001.944    -4122067.644    24407874.457           0.000    24407873.832  
  24407877.673        1796.430        1399.823          34.410          40.780  
 -13300387.430   -12762652.980    22330716.646    22330746.630    22330716.028  
  22330721.298       -2046.657       -1594.796          43.200          47.430  
 -23873736.383   -18602891.787    20802349.868    20802371.780    20802350.227  
  20802351.784        1918.828        1495.188          46.180          53.070  
 15  7 19  1 28  0.0000000  0  9G 2G 5G12G13G15G20G21G25G29
 -13712712.980   -11213070.411    22530586.869           0.000    22530586.536  
  22530586.231       -1494.412       -1164.476          43.290          47.100  
 -22680071.006   -18011756.791    21155568.728    21155598.130    21155569.407  
  21155570.952       -2170.693       -1691.449          46.210          52.450  
 -10079773.944    -7854364.047    23390827.177    23390864.070    23390827.496  
  23390831.217       -3307.339       -2577.150          40.420          45.170  
 -13764790.173   -10725791.104    22463202.225           0.000    22463201.935  
  22463203.351        2082.141        1622.453          42.560          46.390  
 -14197183.918   -11062718.887    22690564.016    22690592.660    22690563.868  
  22690566.661        3171.958        2471.649          42.100          47.800  
 -25385008.812   -20572795.154    20385627.954           0.000    20385627.569  
  20385629.605        1092.810         851.539          45.780          53.650  
  -5343902.636    -4164068.071    24397616.046           0.000    24397616.660  
  24397620.168        1796.952        1400.220          35.610          40.920  
 -13238798.305   -12714661.489    22342435.745    22342462.170    22342436.112  
  22342440.978       -2059.265       -1604.620          43.790          47.490  
 -23931129.320   -18647613.532    20791428.081    20791451.640    20791428.582  
  20791430.207        1907.355        1486.252          46.730          53.220  
 15  7 19  1 28 30.0000000  0 10G 2G 5G12G13G15G18G20G21G25G29
 -13667828.824   -11178095.755    22539127.694           0.000    22539127.693  
  22539127.770       -1497.835       -1167.142          43.140          47.260  
 -22614792.597   -17960890.500    21167990.990    21168016.760    21167991.446  
  21167993.372       -2181.152       -1699.599          45.870          52.570  
  -9980518.745    -7777022.425    23409715.519    23409720.270    23409715.113  
  23409719.103       -3309.635       -2578.931          39.950          45.540  
 -13827070.362   -10774321.062    22451350.303           0.000    22451350.178  
  22451352.267        2069.841        1612.864          41.790          46.690  
 -14292250.729   -11136796.815    22672473.200    22672505.680    22672473.416  
  22672475.874        3165.825        2466.876          42.000          47.710  
   -134665.058     -104932.879    24693990.883           0.000    24693990.390  
  24693998.198        2891.731        2253.280          35.150          40.360  
 -25417570.977   -20598168.245    20379431.054           0.000    20379431.160  
  20379433.331        1078.018         840.015          45.570          53.660  
  -5397818.282    -4206080.161    24387357.620           0.000    24387356.865  
  24387359.667        1797.449        1400.609          36.550          40.780  
 -13176831.621   -12666375.800    22354228.211    22354269.210    22354228.335  
  22354233.026       -2071.815       -1614.402          43.450          47.510  
 -23988176.383   -18692065.764    20780572.632    20780606.460    20780572.802  
  20780574.614        1895.790        1477.236          46.490          53.230  
 15  7 19  1 29  0.0000000  0 10G 2G 5G12G13G15G18G20G21G25G29
 -13622842.140   -11143041.213    22547688.018           0.000    22547688.038  
  22547688.691       -1501.258       -1169.811          43.040          47.370  
 -22549202.213   -17909781.124    21180472.500    21180503.290    21180473.130  
  21180474.758       -2191.513       -1707.674          46.180          52.770  
  -9881196.850    -7699628.837    23428614.405    23428631.860    23428614.967  
  23428619.495       -3311.804       -2580.623          40.300          46.290  
 -13888980.364   -10822562.543    22439569.222           0.000    22439569.152  
  22439570.913        2057.476        1603.229          42.440          46.580  
 -14387132.830   -11210730.817    22654416.543    22654433.280    22654417.368  
  22654420.134        3159.643        2462.047          42.460          47.480  
   -221333.007     -172466.025    24677497.769           0.000    24677497.361  
  24677504.935        2886.139        2248.933          36.830          38.870  
 -25449690.158   -20623196.157    20373319.355           0.000    20373319.292  
  20373321.447        1063.268         828.522          46.030          53.860  
  -5451749.222    -4248104.170    24377095.561           0.000    24377094.305  
  24377096.959        1797.952        1401.002          37.910          41.120  
 -13114490.202   -12617798.101    22366091.484    22366124.040    22366091.256  
  22366096.472       -2084.251       -1624.091          43.480          47.650  
 -24044875.571   -18736246.921    20769782.865    20769807.420    20769783.495  
  20769785.159        1884.156        1468.171          46.950          53.440  
 15  7 19  1 29 30.0000000  0 10G 2G 5G12G13G15G18G20G21G25G29
 -13577752.680   -11107906.584    22556268.489           0.000    22556268.619  
  22556269.115       -1504.712       -1172.503          43.130          47.420  
 -22483302.385   -17858430.614    21193013.156    21193040.950    21193013.558  
  21193014.892       -2201.785       -1715.674          46.260          52.650  
  -9781811.223    -7622185.592    23447527.561    23447562.130    23447528.166  
  23447532.078       -3313.885       -2582.248          41.460          46.340  
 -13950517.545   -10870513.521    22427858.694           0.000    22427858.886  
  22427861.013        2044.998        1593.509          42.720          46.900  
 -14481827.530   -11284518.797    22636396.181    22636397.330    22636397.471  
  22636400.361        3153.333        2457.140          42.790          47.550  
   -307833.390     -239868.617    24661038.067           0.000    24661036.980  
  24661044.655        2880.540        2244.573          37.620          39.200  
 -25481366.669   -20647879.129    20367291.649           0.000    20367291.549  
  20367293.424        1048.505         817.016          46.070          53.840  
  -5505696.105    -4290140.606    24366828.777           0.000    24366828.997  
  24366831.309        1798.494        1401.425          38.600          41.350  
 -13051777.032   -12568930.726    22378024.502    22378057.080    22378024.456  
  22378030.570       -2096.612       -1633.719          43.090          47.680  
 -24101224.739   -18780155.338    20759060.135    20759095.990    20759060.673  
  20759062.398        1872.442        1459.048          47.160          53.580  
 15  7 19  1 30  0.0000000  0 10G 2G 5G12G13G15G18G20G21G25G29
 -13532559.434   -11072691.082    22564869.099           0.000    22564869.101  
  22564869.143       -1508.164       -1175.196          43.270          47.430  
 -22417095.311   -17806840.698    21205611.296    21205635.440    21205612.198  
  21205613.796       -2211.986       -1723.624          46.030          52.690  
  -9682364.384    -7544694.631    23466451.555    23466486.840    23466452.268  
  23466455.757       -3315.866       -2583.788          41.260          45.810  
 -14011679.137   -10918171.844    22416219.820           0.000    22416220.476  
  22416221.867        2032.451        1583.724          42.700          46.650  
 -14576331.340   -11358158.037    22618412.506    22618462.490    22618413.580  
  22618417.061        3146.914        2452.144          42.500          47.570  
   -394164.684     -307139.469    24644608.386           0.000    24644608.019  
  24644615.981        2874.883        2240.146          37.100          39.460  
 -25512600.513   -20672217.169    20361348.820           0.000    20361348.198  
  20361349.729        1033.757         805.525          46.080          53.740  
  -5559659.259    -4332189.732    24356560.843           0.000    24356559.965  
  24356562.665        1799.057        1401.862          38.550          41.370  
 -12988694.827   -12519775.803    22390029.067    22390059.980    22390029.104  
  22390034.833       -2108.845       -1643.255          42.800          47.710  
 -24157221.158   -18823788.884    20748404.380    20748432.180    20748404.927  
  20748406.455        1860.665        1449.869          47.010          53.530  
 15  7 19  1 30 30.0000000  0 10G 2G 5G12G13G15G18G20G21G25G29
 -13487262.001   -11037394.397    22573488.552           0.000    22573488.706  
  22573488.863       -1511.667       -1177.925          43.160          47.710  
 -22350583.666   -17755013.461    21218268.330    21218294.240    21218269.104  
  21218270.598       -2222.107       -1731.513          46.340          52.850  
  -9582860.199    -7467158.995    23485386.648    23485424.480    23485387.055  
  23485391.335       -3317.739       -2585.252          41.140          46.260  
 -14072462.227   -10965535.229    22404653.412           0.000    22404653.196  
  22404655.634        2019.737        1573.819          42.730          46.890  
 -14670641.199   -11431646.135    22600467.311    22600498.500    22600467.249  
  22600470.554        3140.391        2447.053          42.850          47.670  
   -480325.858     -374277.733    24628212.655           0.000    24628212.366  
  24628219.513        2869.190        2235.722          37.400          39.100  
 -25543391.942   -20696210.469    20355489.238           0.000    20355488.887  
  20355490.390        1019.003         794.025          46.090          53.900  
  -5613638.996    -4374251.789    24346288.867           0.000    24346288.245  
  24346290.434        1799.597        1402.279          38.980          41.050  
 -12925246.584   -12470335.646    22402103.200    22402138.360    22402103.434  
  22402108.583       -2121.019       -1652.737          43.070          47.590  
 -24212862.758   -18867145.950    20737815.693    20737832.650    20737816.404  
  20737818.234        1848.771        1440.597          47.000          53.690  
 15  7 19  1 31  0.0000000  0 10G 2G 5G12G13G15G18G20G21G25G29
 -13441860.042   -11002016.274    22582128.091           0.000    22582127.651  
  22582128.794       -1515.150       -1180.638          42.250          47.640  
 -22283769.747   -17702950.673    21230982.951    21231000.440    21230983.786  
  21230984.595       -2232.146       -1739.335          46.810          52.520  
  -9483301.284    -7389580.726    23504332.042    23504378.380    23504332.815  
  23504336.882       -3319.515       -2586.627          41.400          46.110  
 -14132863.642   -11012601.202    22393159.388           0.000    22393159.537  
  22393161.897        2006.987        1563.886          42.730          47.060  
 -14764754.009   -11504980.693    22582558.837    22582597.930    22582558.544  
  22582561.293        3133.774        2441.897          42.790          47.490  
   -566315.642     -441282.515    24611849.063           0.000    24611849.240  
  24611855.356        2863.458        2231.263          37.480          37.430  
 -25573741.140   -20719859.173    20349713.714           0.000    20349713.223  
  20349715.191        1004.272         782.551          45.900          53.960  
  -5667636.029    -4416327.316    24336012.919           0.000    24336012.404  
  24336014.801        1800.184        1402.738          38.400          40.660  
 -12861435.232   -12420612.552    22414246.265    22414285.440    22414246.022  
  22414251.954       -2133.072       -1662.130          42.650          47.700  
 -24268147.247   -18910224.742    20727296.136    20727326.370    20727296.058  
  20727297.815        1836.822        1431.290          46.860          53.690  
 15  7 19  1 31 30.0000000  0 10G 2G 5G12G13G15G18G20G21G25G29
 -13396352.665   -10966556.013    22590788.166           0.000    22590787.852  
  22590789.006       -1518.655       -1183.369          41.940          48.010  
 -22216655.536   -17650653.886    21243754.364    21243787.370    21243754.831  
  21243756.141       -2242.095       -1747.086          46.680          52.470  
  -9383690.509    -7311962.035    23523287.470    23523312.920    23523288.203  
  23523292.261       -3321.178       -2587.929          41.030          46.040  
 -14192880.628   -11059367.607    22381737.226           0.000    22381737.954  
  22381740.828        1994.165        1553.888          42.200          47.060  
 -14858666.482   -11578159.158    22564687.768    22564703.190    22564687.305  
  22564690.128        3127.054        2436.659          42.460          47.490  
   -652133.315     -508153.180    24595517.747           0.000    24595518.351  
  24595524.195        2857.717        2226.794          37.050          36.460  
 -25603647.974   -20743163.177    20344021.941           0.000    20344022.034  
  20344024.231         989.546         771.073          45.600          54.020  
  -5721650.083    -4458416.117    24325733.448           0.000    24325734.046  
  24325735.916        1800.776        1403.198          37.940          40.410  
 -12797263.332   -12370608.509    22426457.202    22426484.570    22426457.342  
  22426462.989       -2145.031       -1671.451          42.350          47.310  
 -24323071.876   -18953023.127    20716844.139    20716869.820    20716844.381  
  20716846.064        1824.824        1421.937          46.800          53.840  
 15  7 19  1 32  0.0000000  0 10G 2G 5G12G13G15G18G20G21G25G29
 -13350739.730   -10931013.488    22599468.419           0.000    22599467.860  
  22599468.942       -1522.196       -1186.126          42.450          48.150  
 -22149243.770   -17598125.244    21256582.583    21256607.220    21256583.434  
  21256584.611       -2251.991       -1754.795          47.190          52.670  
  -9284031.135    -7234305.485    23542252.759    23542272.110    23542252.751  
  23542257.234       -3322.763       -2589.159          40.540          46.010  
 -14252510.573   -11105832.428    22370389.719           0.000    22370390.395  
  22370394.068        1981.171        1543.766          42.410          47.240  
 -14952375.465   -11651179.038    22546855.755    22546893.450    22546855.394  
  22546857.646        3120.210        2431.330          42.530          47.520  
   -737778.270     -574889.335    24579220.709           0.000    24579220.995  
  24579226.697        2851.904        2222.269          35.980          35.900  
 -25633113.148   -20766123.028    20338415.573           0.000    20338414.969  
  20338417.110         974.808         759.589          45.870          54.010  
  -5775682.201    -4500518.980    24315452.273           0.000    24315452.243  
  24315454.450        1801.383        1403.671          37.790          40.820  
 -12732734.148   -12320326.062    22438736.189    22438763.290    22438737.187  
  22438742.711       -2156.891       -1680.691          42.730          47.510  
 -24377634.673   -18995539.565    20706460.645    20706488.390    20706461.249  
  20706463.205        1812.707        1412.498          47.090          53.970  
 15  7 19  1 32 30.0000000  0 10G 2G 5G12G13G15G18G20G21G25G29
 -13305020.441   -10895388.075    22608167.603           0.000    22608167.430  
  22608168.662       -1525.747       -1188.900          41.820          47.600  
 -22081537.177   -17545366.869    21269466.523    21269489.190    21269467.131  
  21269468.561       -2261.788       -1762.429          46.610          52.380  
  -9184326.105    -7156613.361    23561225.841    23561264.040    23561225.936  
  23561230.010       -3324.226       -2590.308          39.420          45.040  
 -14311750.367   -11151993.231    22359116.276           0.000    22359117.417  
  22359120.243        1968.111        1533.595          42.280          46.840  
 -15045877.957   -11724038.027    22529062.039    22529088.710    22529062.324  
  22529064.687        3113.259        2425.915          42.280          47.650  
   -823248.583     -641489.390    24562955.307           0.000    24562955.181  
  24562962.275        2846.081        2217.727          33.420          35.190  
 -25662136.567   -20788738.663    20332892.329           0.000    20332892.058  
  20332894.196         960.088         748.119          45.670          54.000  
  -5829732.742    -4542636.208    24305166.489           0.000    24305165.742  
  24305169.117        1802.002        1404.148          36.750          40.670  
 -12667850.447   -12269767.373    22451085.121    22451119.030    22451084.397  
  22451089.438       -2168.665       -1689.868          42.650          47.260  
 -24431833.020   -19037772.017    20696147.670    20696174.440    20696147.881  
  20696149.364        1800.504        1402.988          46.930          53.810  
 15  7 19  1 33  0.0000000  0 10G 2G 5G12G13G15G18G20G21G25G29
 -13259194.668   -10859679.701    22616887.607           0.000    22616887.690  
  22616888.615       -1529.279       -1191.650          41.510          47.180  
 -22013538.022   -17492380.529    21282407.174    21282437.280    21282407.138  
  21282408.140       -2271.479       -1769.984          46.600          52.320  
  -9084578.329    -7078887.916    23580205.433    23580257.240    23580206.652  
  23580211.443       -3325.589       -2591.361          38.460          44.500  
 -14370597.392   -11197847.985    22347919.446           0.000    22347919.340  
  22347921.753        1955.000        1523.376          42.290          46.670  
 -15139170.526   -11796733.434    22511308.444    22511338.660    22511308.907  
  22511311.889        3106.253        2420.452          41.980          47.940  
   -908543.437     -707952.704    24546722.841           0.000    24546723.945  
  24546730.661        2840.261        2213.168          32.930          35.100  
 -25690718.824   -20811010.529    20327453.426           0.000    20327453.146  
  20327454.942         945.407         736.681          45.650          53.960  
  -5883802.097    -4584768.089    24294876.511           0.000    24294876.723  
  24294879.668        1802.648        1404.658          35.970          40.360  
 -12602615.297   -12218934.818    22463498.824    22463526.330    22463498.403  
  22463503.533       -2180.317       -1698.948          42.460          47.520  
 -24485664.936   -19079718.944    20685904.167    20685932.090    20685904.512  
  20685905.449        1788.275        1393.460          47.210          53.780  
 15  7 19  1 33 30.0000000  0 10G 2G 5G12G13G15G18G20G21G25G29
 -13213261.644   -10823887.766    22625630.193           0.000    22625629.426  
  22625629.552       -1532.899       -1194.470          41.910          47.420  
 -21945248.655   -17439168.053    21295401.305    21295436.730    21295402.260  
  21295403.406       -2281.136       -1777.508          46.680          52.300  
  -8984791.036    -7001131.685    23599195.157    23599222.920    23599195.783  
  23599200.589       -3326.874       -2592.372          38.010          43.940  
 -14429048.864   -11243394.524    22336796.340           0.000    22336796.966  
  22336799.176        1941.758        1513.056          42.870          46.800  
 -15232250.609   -11869263.267    22493595.805    22493623.000    22493596.235  
  22493599.096        3099.073        2414.861          42.320          48.030  
   -993662.365     -774278.563    24530528.820           0.000    24530526.559  
  24530532.504        2834.306        2208.555          31.570          33.250  
 -25718860.137   -20832938.803    20322098.865           0.000    20322098.115  
  20322099.695         930.687         725.211          45.580          53.940  
  -5937890.451    -4626914.795    24284584.155           0.000    24284584.481  
  24284587.128        1803.256        1405.134          36.250          40.450  
 -12537031.545   -12167830.641    22475977.044    22476019.440    22475978.145  
  22475983.622       -2191.914       -1707.987          42.200          47.590  
 -24539127.977   -19121378.438    20675730.364    20675752.030    20675730.884  
  20675731.722        1775.912        1383.828          47.110          53.760  
 15  7 19  1 34  0.0000000  0 10G 2G 5G12G13G15G18G20G21G25G29
 -13167220.841   -10788011.830    22634390.405           0.000    22634390.603  
  22634391.195       -1536.517       -1197.283          42.290          47.640  
 -21876671.178   -17385731.069    21308451.017    21308471.140    21308451.829  
  21308452.673       -2290.706       -1784.963          46.420          51.980  
  -8884967.075    -6923346.885    23618192.395    23618236.520    23618192.692  
  23618195.445       -3328.052       -2593.292          38.200          42.580  
 -14487102.157   -11288630.790    22325749.453           0.000    22325750.079  
  22325751.686        1928.420        1502.665          43.050          46.830  
 -15325114.656   -11941624.764    22475924.198    22475938.910    22475924.737  
  22475927.325        3091.820        2409.207          42.400          48.180  
  -1078603.022     -840465.926    24514361.521           0.000    24514361.074  
  24514368.992        2828.340        2203.912          30.040          34.910  
 -25746560.693   -20854523.636    20316826.744           0.000    20316826.691  
  20316828.312         915.988         713.757          45.430          53.890  
  -5991998.165    -4669076.579    24274289.089           0.000    24274287.616  
  24274290.917        1803.910        1405.645          36.180          40.780  
 -12471102.120   -12116457.106    22488523.647    22488556.670    22488523.662  
  22488529.604       -2203.388       -1716.925          41.860          47.740  
 -24592219.738   -19162748.621    20665626.988    20665650.730    20665627.334  
  20665628.680        1763.497        1374.151          46.790          53.800  
 15  7 19  1 34 30.0000000  0 10G 2G 5G12G13G15G18G20G21G25G29
 -13121071.607   -10752051.399    22643172.397           0.000    22643172.105  
  22643172.600       -1540.110       -1200.086          41.460          47.240  
 -21807808.563   -17332071.902    21321555.755    21321578.480    21321556.112  
  21321557.033       -2300.148       -1792.323          46.190          51.980  
  -8785109.435    -6845535.803    23637194.152    23637198.300    23637194.123  
  23637198.421       -3329.118       -2594.120          37.680          42.500  
 -14544754.186   -11333554.387    22314777.936           0.000    22314778.845  
  22314780.344        1915.019        1492.224          42.720          46.650  
 -15417759.264   -12013815.272    22458294.529    22458325.030    22458294.924  
  22458297.782        3084.458        2403.474          42.200          48.340  
  -1163365.017     -906514.045    24498233.474           0.000    24498232.971  
  24498239.749        2822.424        2199.262          30.780          36.380  
 -25773820.309   -20875764.868    20311638.977           0.000    20311639.187  
  20311641.028         901.315         702.325          45.010          53.900  
  -6046125.751    -4711253.852    24263987.165           0.000    24263986.853  
  24263990.563        1804.586        1406.178          35.410          40.750  
 -12404829.865   -12064816.422    22501135.113    22501154.570    22501135.059  
  22501141.137       -2214.754       -1725.786          41.720          47.730  
 -24644937.964   -19203827.736    20655595.055    20655609.890    20655595.319  
  20655596.706        1751.017        1364.429          46.410          53.770  
 15  7 19  1 35  0.0000000  0 10G 2G 5G12G13G15G18G20G21G25G29
 -13074813.637   -10716006.265    22651974.172           0.000    22651974.158  
  22651975.197       -1543.766       -1202.930          41.460          47.260  
 -21738662.932   -17278192.200    21334714.080    21334746.320    21334714.079  
  21334715.060       -2309.552       -1799.652          46.530          52.000  
  -8685220.757    -6767700.564    23656203.341    23656208.470    23656202.892  
  23656207.225       -3330.102       -2594.883          38.530          43.090  
 -14602002.513   -11378163.407    22303884.743           0.000    22303884.605  
  22303886.661        1901.505        1481.690          42.780          46.890  
 -15510181.676   -12085832.634    22440706.849    22440734.000    22440707.485  
  22440710.460        3076.995        2397.658          42.600          48.680  
  -1247947.762     -972422.285    24482137.114           0.000    24482136.596  
  24482143.511        2816.104        2194.586          31.530          36.580  
 -25800640.148   -20896663.424    20306535.475           0.000    20306535.507  
  20306537.366         886.662         690.906          45.410          53.920  
  -6100273.534    -4753446.869    24253683.311           0.000    24253683.400  
  24253686.378        1805.267        1406.691          36.460          41.020  
 -12338217.888   -12012911.024    22513810.531    22513848.530    22513810.932  
  22513817.404       -2226.029       -1734.571          42.340          48.060  
 -24697280.360   -19244613.997    20645634.348    20645653.070    20645634.705  
  20645636.306        1738.444        1354.631          46.590          53.800  
 15  7 19  1 35 30.0000000  0 11G 2G 5G12G13G15G18G20G21G25G26G29
 -13028445.947   -10679875.622    22660798.612           0.000    22660798.167  
  22660799.167       -1547.426       -1205.784          41.870          47.500  
 -21669236.817   -17224093.945    21347925.057    21347958.360    21347925.283  
  21347926.382       -2318.855       -1806.898          46.270          51.820  
  -8585304.615    -6689843.906    23675216.077    23675238.090    23675216.107  
  23675220.332       -3330.974       -2595.556          39.040          43.140  
 -14658844.346   -11422455.684    22293066.517           0.000    22293067.612  
  22293069.981        1887.915        1471.106          42.530          46.790  
 -15602378.755   -12157674.424    22423161.942    22423190.320    22423163.045  
  22423165.771        3069.452        2391.772          42.980          48.610  
  -1332349.146    -1038189.643    24466077.314           0.000    24466076.158  
  24466082.563        2810.340        2189.869          33.110          36.920  
 -25827020.493   -20917219.518    20301515.812           0.000    20301515.611  
  20301517.412         872.017         679.493          45.340          53.980  
  -6154441.985    -4795655.996    24243375.552           0.000    24243375.161  
  24243378.328        1805.966        1407.236          35.850          41.500  
 -12271269.241   -11960743.283    22526550.295    22526578.750    22526551.074  
  22526557.004       -2237.207       -1743.275          42.250          47.960  
    -88178.7561    -245670.8611   25462884.2671          0.000    25462885.5021 
  25462892.6581       2089.5131       1628.5821         28.6501         35.5201 
 -24749244.707   -19285105.675    20635745.897    20635771.840    20635746.277  
  20635747.772        1725.817        1344.791          46.380          53.750  
 15  7 19  1 36  0.0000000  0 11G 2G 5G12G13G15G18G20G21G25G26G29
 -12981968.398   -10643659.367    22669643.897           0.000    22669643.377  
  22669643.298       -1551.088       -1208.637          42.070          47.120  
 -21599532.703   -17169779.064    21361189.895    21361210.430    21361190.075  
  21361190.643       -2328.067       -1814.077          46.400          51.820  
  -8485363.801    -6611968.024    23694233.805    23694244.940    23694234.607  
  23694238.895       -3331.730       -2596.154          39.840          43.880  
 -14715276.548   -11466428.777    22282329.381           0.000    22282329.430  
  22282330.879        1874.218        1460.428          42.940          46.540  
 -15694347.131   -12229338.010    22405661.009    22405686.910    22405661.741  
  22405664.488        3061.776        2385.796          42.890          48.690  
  -1416568.618    -1103815.393    24450050.141           0.000    24450049.155  
  24450056.287        2804.293        2185.157          33.540          38.200  
 -25852961.427   -20937433.208    20296579.721           0.000    20296579.281  
  20296581.013         857.385         668.090          45.260          54.020  
  -6208631.499    -4837881.530    24233064.505           0.000    24233063.285  
  24233066.011        1806.672        1407.788          35.660          41.630  
 -12203986.710   -11908315.376    22539354.021    22539402.270    22539354.428  
  22539360.609       -2248.274       -1751.906          42.180          47.850  
    -12470.691     -294371.187    25450993.694           0.000    25450992.128  
  25450999.881        2076.545        1618.074          29.080          32.000  
 -24800828.479   -19325300.803    20625929.075    20625950.970    20625929.986  
  20625931.453        1713.102        1334.883          46.180          53.570  
 15  7 19  1 36 30.0000000  0 11G 2G 5G12G13G15G18G20G21G25G26G29
 -12935380.398   -10607357.056    22678509.597           0.000    22678508.576  
  22678509.026       -1554.780       -1211.519          41.720          46.770  
 -21529552.946   -17115249.403    21374505.758    21374519.200    21374506.329  
  21374507.588       -2337.229       -1821.218          46.090          51.850  
  -8385401.082    -6534075.067    23713257.116    23713268.310    23713257.498  
  23713261.272       -3332.415       -2596.687          40.790          44.260  
 -14771296.558   -11510080.679    22271668.700           0.000    22271669.046  
  22271671.019        1860.424        1449.680          43.200          46.950  
 -15786083.756   -12300820.998    22388204.333    22388217.960    22388204.725  
  22388207.523        3053.987        2379.729          43.000          48.710  
  -1500605.909    -1169298.757    24434054.961           0.000    24434057.318  
  24434064.240        2798.172        2180.385          35.230          38.430  
 -25878463.164   -20957304.671    20291727.035           0.000    20291726.428  
  20291728.281         842.743         656.684          45.410          54.130  
  -6262842.061    -4880123.454    24222748.341           0.000    24222747.855  
  24222750.682        1807.376        1408.348          36.200          41.940  
 -12136373.318   -11855629.659    22552220.398    22552253.950    22552220.473  
  22552226.924       -2259.270       -1760.465          41.650          47.800  
    -74564.494     -342755.617    25439176.910           0.000    25439176.435  
  25439183.811        2063.006        1607.542          30.110          34.440  
 -24852029.588   -19365197.754    20616186.263    20616215.840    20616186.830  
  20616188.251        1700.290        1324.898          46.330          53.620  
 15  7 19  1 37  0.0000000  0 11G 2G 5G12G13G15G18G20G21G25G26G29
 -12888681.484   -10570968.304    22687394.026           0.000    22687394.689  
  22687395.467       -1558.491       -1214.410          42.190          46.490  
 -21459299.896   -17060506.787    21387874.684    21387894.630    21387875.303  
  21387876.217       -2346.307       -1828.292          46.170          51.750  
  -8285419.579    -6456167.471    23732283.572    23732327.730    23732283.110  
  23732286.793       -3333.011       -2597.145          40.910          44.250  
 -14826901.840   -11553409.427    22261087.093           0.000    22261087.631  
  22261089.777        1846.555        1438.874          42.940          47.370  
 -15877585.540   -12372121.014    22370792.020    22370813.650    22370792.730  
  22370794.885        3046.093        2373.581          43.420          48.490  
  -1584459.832    -1234638.878    24418099.563           0.000    24418100.404  
  24418106.713        2792.021        2175.603          36.390          38.240  
 -25903526.451   -20976834.480    20286957.711           0.000    20286957.334  
  20286959.040         828.120         645.289          45.620          54.250  
  -6317074.412    -4922382.365    24212428.764           0.000    24212428.004  
  24212429.920        1808.088        1408.903          37.160          41.880  
 -12068432.045   -11802688.449    22565149.814    22565184.960    22565149.364  
  22565155.932       -2270.146       -1768.946          41.480          47.700  
   -136251.734     -390822.823    25427440.633           0.000    25427438.408  
  25427444.710        2049.402        1596.931          30.670          34.440  
 -24902845.624   -19404794.647    20606516.878    20606545.060    20606517.097  
  20606518.239        1687.416        1314.867          46.420          53.820  
 15  7 19  1 37 30.0000000  0 11G 2G 5G12G13G15G18G20G21G25G26G29
 -12841871.263   -10534492.816    22696302.389           0.000    22696302.649  
  22696302.848       -1562.210       -1217.305          42.570          46.650  
 -21388776.029   -17005553.131    21401295.151    21401322.530    21401295.347  
  21401296.725       -2355.290       -1835.292          45.830          51.900  
  -8185422.136    -6378247.453    23751311.924    23751324.690    23751311.899  
  23751316.135       -3333.483       -2597.520          40.770          44.480  
 -14882089.877   -11596413.031    22250585.614           0.000    22250585.884  
  22250587.848        1832.611        1428.008          43.150          47.520  
 -15968849.262   -12443235.522    22353424.899    22353451.770    22353425.427  
  22353428.361        3038.105        2367.353          43.420          48.800  
  -1668128.600    -1299835.076    24402178.407           0.000    24402178.712  
  24402185.408        2785.857        2170.780          37.880          39.370  
 -25928151.577   -20996022.867    20282271.812           0.000    20282271.307  
  20282272.894         813.531         633.918          45.580          54.300  
  -6371328.786    -4964658.458    24202104.574           0.000    24202103.319  
  24202105.782        1808.862        1409.495          37.150          42.050  
 -12000166.040   -11749494.200    22578140.374    22578181.060    22578140.506  
  22578146.827       -2280.919       -1777.338          41.700          47.810  
   -197527.783     -438571.593    25415776.342           0.000    25415777.034  
  25415784.496        2035.389        1586.290          31.050          34.470  
 -24953274.387   -19444089.769    20596920.351    20596949.510    20596920.753  
  20596922.153        1674.479        1304.785          46.420          53.920  
 15  7 19  1 38  0.0000000  0 11G 2G 5G12G13G15G18G20G21G25G26G29
 -12794948.911   -10497929.957    22705232.865           0.000    22705231.944  
  22705232.196       -1565.950       -1220.218          42.350          47.110  
 -21317983.632   -16950390.243    21414765.882    21414794.740    21414766.278  
  21414768.024       -2364.190       -1842.231          45.580          51.760  
  -8085411.943    -6300317.502    23770343.752    23770362.890    23770343.452  
  23770347.581       -3333.864       -2597.811          40.570          45.100  
 -14936858.030   -11639089.451    22240162.252           0.000    22240162.791  
  22240165.937        1818.568        1417.065          42.750          47.480  
 -16059871.678   -12514162.003    22336105.238    22336145.560    22336104.952  
  22336106.706        3030.031        2361.053          43.690          48.620  
  -1751611.611    -1364886.509    24386291.699           0.000    24386292.411  
  24386298.737        2779.652        2165.958          37.740          39.280  
 -25952338.833   -21014870.059    20277668.748           0.000    20277668.325  
  20277670.310         798.953         622.558          45.380          54.290  
  -6425605.574    -5006952.013    24191774.744           0.000    24191774.596  
  24191776.919        1809.587        1410.071          37.070          41.940  
 -11931578.317   -11696049.268    22591192.921    22591224.400    22591192.435  
  22591198.486       -2291.588       -1785.651          41.700          47.560  
   -258395.099     -486000.708    25404194.090           0.000    25404195.077  
  25404201.797        2022.034        1575.633          32.550          35.070  
 -25003313.780   -19483081.490    20587397.879    20587423.230    20587398.468  
  20587399.844        1661.451        1294.637          46.450          53.970  
 15  7 19  1 38 30.0000000  0 11G 2G 5G12G13G15G18G20G21G25G26G29
 -12747913.810   -10461279.255    22714181.647           0.000    22714181.677  
  22714182.291       -1569.707       -1223.147          41.310          46.510  
 -21246925.029   -16895019.911    21428287.317    21428312.380    21428288.203  
  21428289.904       -2373.019       -1849.106          45.070          51.460  
  -7985391.420    -6222379.511    23789376.454    23789397.900    23789376.241  
  23789381.181       -3334.147       -2598.030          39.830          45.560  
 -14991202.921   -11681436.063    22229822.302           0.000    22229822.302  
  22229824.036        1804.416        1406.039          43.060          47.090  
 -16150649.566   -12584897.950    22318829.635    22318856.190    22318829.814  
  22318832.692        3021.825        2354.664          42.900          48.720  
  -1834907.708    -1429792.285    24370441.249           0.000    24370441.725  
  24370447.660        2773.425        2161.101          37.890          39.570  
 -25976088.631   -21033376.371    20273149.059           0.000    20273149.186  
  20273150.774         784.380         611.203          45.150          54.200  
  -6479904.829    -5049263.068    24181441.963           0.000    24181441.722  
  24181444.217        1810.372        1410.676          36.340          42.100  
 -11862671.573   -11642355.745    22604304.767    22604335.120    22604304.169  
  22604310.803       -2302.161       -1793.890          40.950          47.380  
   -318850.269     -533108.659    25392690.858           0.000    25392690.874  
  25392698.017        2008.297        1564.907          33.950          36.640  
 -25052961.303   -19521767.857    20577950.131    20577977.950    20577950.881  
  20577952.141        1648.364        1284.439          46.160          53.890  
 15  7 19  1 39  0.0000000  0 11G 2G 5G12G13G15G18G20G21G25G26G29
 -12700765.718   -10424540.501    22723153.585           0.000    22723154.059  
  22723154.022       -1573.499       -1226.109          41.740          46.040  
 -21175603.233   -16839444.501    21441859.469    21441899.780    21441860.049  
  21441861.727       -2381.777       -1855.933          45.290          51.410  
  -7885364.113    -6144436.235    23808410.654    23808451.340    23808410.545  
  23808415.643       -3334.355       -2598.194          39.430          45.710  
 -15045122.736   -11723451.438    22219560.979           0.000    22219561.569  
  22219562.516        1790.201        1394.963          43.210          46.590  
 -16241180.124   -12655441.163    22301600.980    22301610.970    22301602.032  
  22301605.195        3013.500        2348.182          43.000          48.980  
  -1918016.394    -1494552.011    24354627.472           0.000    24354626.198  
  24354632.031        2767.107        2156.179          37.610          40.090  
 -25999401.729   -21051542.399    20268713.385           0.000    20268712.889  
  20268714.348         769.807         599.849          45.550          54.230  
  -6534227.403    -5091592.289    24171104.181           0.000    24171104.250  
  24171107.451        1811.121        1411.260          36.690          42.620  
 -11793449.263   -11588416.321    22617477.552    22617510.470    22617477.223  
  22617483.406       -2312.661       -1802.071          41.680          47.330  
   -378891.864     -579894.342    25381267.142           0.000    25381265.678  
  25381271.532        1994.452        1554.131          33.210          35.070  
 -25102214.844   -19560147.222    20568578.311    20568598.440    20568578.538  
  20568579.487        1635.183        1274.169          46.590          54.030  
 15  7 19  1 39 30.0000000  0 11G 2G 5G12G13G15G18G20G21G25G26G29
 -12653503.858   -10387713.091    22732148.198           0.000    22732147.885  
  22732147.889       -1577.293       -1229.063          41.910          45.710  
 -21104019.943   -16783665.320    21455481.479    21455507.540    21455482.034  
  21455483.537       -2390.434       -1862.675          45.190          51.060  
  -7785332.723    -6066489.780    23827446.572    23827485.370    23827446.145  
  23827450.525       -3334.436       -2598.249          38.540          45.170  
 -15098614.537   -11765133.302    22209381.561           0.000    22209381.319  
  22209383.735        1775.888        1383.810          42.580          46.690  
 -16331460.099   -12725789.110    22284421.313    22284457.610    22284422.488  
  22284425.393        3005.125        2341.648          42.660          48.840  
  -2000936.137    -1559164.506    24338846.778           0.000    24338847.151  
  24338852.977        2760.836        2151.295          37.090          40.250  
 -26022278.143   -21069368.151    20264360.399           0.000    20264359.648  
  20264361.149         755.270         588.522          45.110          54.230  
  -6588573.049    -5133939.485    24160762.881           0.000    24160762.912  
  24160765.665        1811.912        1411.882          36.300          42.630  
 -11723914.229   -11534233.216    22630709.096    22630734.880    22630709.400  
  22630715.660       -2323.018       -1810.138          41.190          47.460  
   -438518.110     -626356.388    25369920.756           0.000    25369918.636  
  25369926.139        1980.586        1543.326          34.730          37.610  
 -25151072.334   -19598217.978    20559280.801    20559315.980    20559281.218  
  20559282.312        1621.944        1263.851          46.330          54.130  
 15  7 19  1 40  0.0000000  0 11G 2G 5G12G13G15G18G20G21G25G26G29
 -12606127.607   -10350796.540    22741162.651           0.000    22741163.023  
  22741163.219       -1581.110       -1232.036          42.200          45.960  
 -21032177.587   -16727684.267    21469152.523    21469180.520    21469153.119  
  21469154.827       -2399.019       -1869.367          45.440          51.100  
  -7685299.935    -5988542.236    23846480.162    23846516.390    23846481.225  
  23846486.418       -3334.416       -2598.247          37.580          45.230  
 -15151675.470   -11806479.440    22199283.812           0.000    22199284.768  
  22199286.600        1761.490        1372.588          43.340          46.990  
 -16421486.145   -12795939.190    22267291.334    22267315.750    22267291.696  
  22267293.635        2996.598        2335.012          43.040          48.280  
  -2083666.522    -1623629.422    24323104.436           0.000    24323103.616  
  24323109.986        2754.517        2146.359          36.120          40.350  
 -26044718.749   -21086854.313    20260089.391           0.000    20260089.117  
  20260090.909         740.766         577.221          45.200          54.290  
  -6642942.250    -5176305.024    24150416.837           0.000    24150416.867  
  24150419.549        1812.711        1412.494          36.740          42.660  
 -11654069.343   -11479808.670    22644000.523    22644042.770    22644000.391  
  22644006.620       -2333.283       -1818.141          41.290          47.200  
   -497727.274     -672493.438    25358650.860           0.000    25358652.141  
  25358659.006        1966.675        1532.471          36.010          38.830  
 -25199531.098   -19635978.031    20550059.216    20550092.240    20550059.769  
  20550061.139        1608.619        1253.471          46.540          54.320  
 15  7 19  1 40 30.0000000  0 11G 2G 5G12G13G15G18G20G21G25G26G29
 -12558636.461   -10313790.472    22750200.251           0.000    22750200.062  
  22750200.496       -1584.959       -1235.040          42.340          45.730  
 -20960078.891   -16671503.467    21482873.306    21482889.130    21482873.498  
  21482874.770       -2407.541       -1876.007          46.040          51.300  
  -7585268.747    -5910595.971    23865517.306    23865516.930    23865516.986  
  23865521.772       -3334.314       -2598.159          37.310          45.250  
 -15204303.022   -11847487.875    22189270.172           0.000    22189270.452  
  22189271.853        1746.994        1361.290          43.750          46.900  
 -16511255.358   -12865889.158    22250209.357    22250220.770    22250209.534  
  22250211.118        2987.980        2328.293          43.590          48.390  
  -2166206.174    -1687945.738    24307396.439           0.000    24307396.125  
  24307402.435        2748.143        2141.384          34.430          39.970  
 -26066723.956   -21104001.203    20255901.784           0.000    20255901.352  
  20255903.300         726.246         565.904          45.190          54.290  
  -6697335.277    -5218689.116    24140066.275           0.000    24140065.899  
  24140068.725        1813.514        1413.123          37.180          42.650  
 -11583917.710   -11425145.104    22657349.345    22657383.580    22657349.431  
  22657355.977       -2343.468       -1826.075          40.930          47.140  
   -556517.712     -718304.190    25347464.187           0.000    25347464.787  
  25347471.483        1952.677        1521.569          35.720          40.160  
 -25247589.077   -19673425.793    20540914.096    20540938.150    20540914.614  
  20540915.641        1595.230        1243.036          46.710          54.320  
 15  7 19  1 41  0.0000000  0 11G 2G 5G12G13G15G18G20G21G25G26G29
 -12511030.179   -10276694.682    22759261.006           0.000    22759259.754  
  22759259.647       -1588.818       -1238.033          42.290          45.300  
 -20887726.247   -16615124.778    21496640.857    21496663.560    21496641.568  
  21496642.979       -2415.973       -1882.579          46.040          51.330  
  -7485242.556    -5832653.597    23884550.886    23884614.500    23884551.389  
  23884555.791       -3334.118       -2598.007          37.320          44.590  
 -15256494.876   -11888156.806    22179337.612           0.000    22179338.082  
  22179339.444        1732.410        1349.927          43.220          46.710  
 -16600764.651   -12935636.590    22233175.131    22233206.950    22233175.946  
  22233177.894        2979.258        2321.497          43.750          48.000  
  -2248554.701    -1752113.122    24291726.465           0.000    24291725.551  
  24291731.895        2741.746        2136.399          32.890          39.940  
 -26088294.144   -21120809.115    20251797.310           0.000    20251796.609  
  20251798.455         711.750         554.611          45.200          54.220  
  -6751752.891    -5261092.367    24129710.843           0.000    24129710.242  
  24129713.458        1814.320        1413.750          37.490          42.610  
 -11513462.623   -11370245.088    22670755.882    22670789.950    22670756.353  
  22670763.592       -2353.544       -1833.925          40.550          47.010  
   -614888.002     -763787.557    25336355.238           0.000    25336357.106  
  25336364.209        1938.639        1510.634          34.990          41.980  
 -25295244.249   -19710559.681    20531845.988    20531879.210    20531846.094  
  20531847.367        1581.752        1232.535          46.690          54.400  
 15  7 19  1 41 30.0000000  0 11G 2G 5G12G13G15G18G20G21G25G26G29
 -12463307.921   -10239508.512    22768341.109           0.000    22768340.880  
  22768340.990       -1592.689       -1241.053          41.710          45.130  
 -20815122.108   -16558550.126    21510457.453    21510478.050    21510458.211  
  21510459.275       -2424.309       -1889.071          46.570          51.530  
  -7385223.632    -5754716.875    23903585.336    23903621.430    23903584.509  
  23903589.398       -3333.801       -2597.769          37.370          44.630  
 -15308248.060   -11928483.910    22169489.284           0.000    22169490.084  
  22169491.323        1717.764        1338.519          43.400          46.760  
 -16690010.512   -13005178.764    22216192.086    22216202.380    22216193.067  
  22216194.835        2970.430        2314.617          44.010          48.140  
  -2330711.104    -1816130.525    24276092.624           0.000    24276091.449  
  24276097.371        2736.297        2131.404          31.120          39.170  
 -26109429.632   -21137278.307    20247775.656           0.000    20247774.931  
  20247776.461         697.272         543.328          45.340          54.270  
  -6806194.706    -5303514.478    24119350.018           0.000    24119350.424  
  24119353.209        1815.125        1414.385          37.590          42.320  
 -11442706.799   -11315110.726    22684221.434    22684249.710    22684220.831  
  22684227.475       -2363.497       -1841.690          40.500          46.600  
   -672836.303     -808942.096    25325328.779           0.000    25325329.267  
  25325337.018        1924.559        1499.655          34.360          43.210  
 -25342493.817   -19747377.508    20522854.502    20522887.850    20522854.978  
  20522856.098        1568.212        1221.983          46.930          54.470  
 15  7 19  1 42  0.0000000  0 11G 2G 5G12G13G15G18G20G21G25G26G29
 -12415469.280   -10202231.685    22777443.824           0.000    22777444.094  
  22777444.470       -1596.564       -1244.074          41.020          45.410  
 -20742268.606   -16501781.160    21524321.322    21524351.440    21524321.906  
  21524323.110       -2432.562       -1895.504          46.270          51.670  
  -7285215.321    -5676788.436    23922617.754    23922626.650    23922616.347  
  23922620.321       -3333.401       -2597.451          37.370          43.470  
 -15359560.342   -11968467.455    22159725.226           0.000    22159725.818  
  22159727.138        1703.033        1327.038          43.190          46.940  
 -16778990.120   -13074513.452    22199259.806    22199294.050    22199260.205  
  22199262.955        2961.520        2307.676          43.070          48.570  
  -2412674.091    -1879997.340    24260495.443           0.000    24260493.154  
  24260499.602        2728.865        2126.382          30.530          37.630  
 -26130131.385   -21153409.523    20243835.311           0.000    20243835.272  
  20243837.065         682.849         532.087          44.870          54.090  
  -6860661.697    -5345956.212    24108986.117           0.000    24108985.710  
  24108988.211        1815.991        1415.052          37.540          41.770  
 -11371653.633   -11259744.662    22697742.159    22697772.640    22697742.429  
  22697748.387       -2373.359       -1849.371          40.420          46.190  
   -730361.320     -853766.792    25314384.278           0.000    25314383.377  
  25314390.276        1910.440        1488.640          33.280          43.180  
 -25389336.259   -19783878.097    20513940.824    20513972.000    20513941.053  
  20513942.285        1554.596        1211.373          46.740          54.350  
 15  7 19  1 42 30.0000000  0 11G 2G 5G12G13G15G18G20G21G25G26G29
 -12367513.574   -10164863.636    22786569.933           0.000    22786569.947  
  22786570.177       -1600.486       -1247.128          41.950          45.380  
 -20669168.244   -16444819.850    21538232.731    21538257.430    21538232.351  
  21538233.843       -2440.774       -1901.902          46.450          51.780  
  -7185220.283    -5598870.323    23941644.430    23941686.340    23941644.769  
  23941648.039       -3332.916       -2597.073          38.710          42.130  
 -15410428.843   -12008105.205    22150045.215           0.000    22150046.042  
  22150047.745        1688.189        1315.470          43.630          47.310  
 -16867700.477   -13143638.327    22182379.347    22182398.860    22182379.368  
  22182381.559        2952.473        2300.630          43.720          48.910  
  -2494442.819    -1943712.963    24244934.656           0.000    24244934.190  
  24244939.858        2722.354        2121.319          32.730          37.190  
 -26150399.972   -21169203.206    20239978.623           0.000    20239978.493  
  20239979.906         668.398         520.832          45.360          54.180  
  -6915153.747    -5388417.488    24098616.384           0.000    24098616.331  
  24098618.488        1816.820        1415.705          38.180          41.840  
 -11300305.944   -11204149.108    22711319.028    22711354.870    22711319.060  
  22711325.223       -2383.132       -1856.986          40.590          46.080  
   -787461.177     -898260.303    25303517.160           0.000    25303517.591  
  25303524.784        1895.747        1477.589          29.970          43.500  
 -25435768.639   -19820059.161    20505104.865    20505129.060    20505105.307  
  20505106.380        1540.909        1200.708          47.170          54.460  
 15  7 19  1 43  0.0000000  0 11G 2G 5G12G13G15G18G20G21G25G26G29
 -12319440.283   -10127403.949    22795718.924           0.000    22795718.338  
  22795717.814       -1604.408       -1250.191          42.340          45.250  
 -20595823.298   -16387667.943    21552188.790    21552204.410    21552189.345  
  21552190.562       -2448.885       -1908.223          46.450          51.640  
  -7085241.310    -5520964.710    23960669.794    23960719.100    23960670.016  
  23960673.892       -3332.347       -2596.632          39.410          41.420  
 -15460851.305   -12047395.377    22140450.661           0.000    22140450.677  
  22140451.885        1673.272        1303.845          43.380          47.090  
 -16956138.087   -13212550.671    22165550.374    22165575.510    22165550.648  
  22165552.650        2943.327        2293.501          44.170          49.440  
  -2576016.284    -2007276.430    24229410.834           0.000    24229410.977  
  24229417.173        2715.845        2116.213          34.120          37.180  
 -26170235.808   -21184659.680    20236203.972           0.000    20236203.851  
  20236205.210         653.979         509.592          45.300          54.210  
  -6969671.286    -5430898.616    24088242.201           0.000    24088241.790  
  24088244.243        1817.693        1416.375          38.090          41.930  
 -11228666.869   -11148326.486    22724951.923    22724971.300    22724952.081  
  22724957.714       -2392.805       -1864.525          41.130          45.860  
   -844130.274     -942421.455    25292735.631           0.000    25292733.477  
  25292740.089        1882.967        1466.483          26.950          43.120  
 -25481789.540   -19855919.591    20496347.235    20496370.750    20496347.820  
  20496348.736        1527.125        1189.968          47.030          54.430  
 15  7 19  1 43 30.0000000  0 11G 2G 5G12G13G15G18G20G21G25G26G29
 -12271249.023   -10089852.340    22804889.288           0.000    22804888.416  
  22804888.358       -1608.370       -1253.274          42.070          45.440  
 -20522235.978   -16330327.177    21566192.388    21566209.280    21566192.475  
  21566194.217       -2456.918       -1914.481          46.560          51.880  
  -6985281.385    -5443073.932    23979691.609    23979729.630    23979691.759  
  23979695.697       -3331.659       -2596.102          40.090          41.090  
 -15510825.327   -12086336.121    22130940.104           0.000    22130940.608  
  22130942.237        1658.290        1292.180          43.260          47.220  
 -17044299.977   -13281248.168    22148773.600    22148800.690    22148773.675  
  22148775.856        2934.086        2286.295          44.400          49.650  
  -2657393.653    -2070687.104    24213926.489           0.000    24213925.582  
  24213930.256        2709.272        2111.119          36.180          36.190  
 -26189639.433   -21199779.371    20232511.900           0.000    20232511.376  
  20232512.987         639.577         498.373          45.410          54.260  
  -7024214.708    -5473399.925    24077861.808           0.000    24077862.467  
  24077864.906        1818.536        1417.036          38.020          42.270  
 -11156739.489   -11092279.215    22738639.406    22738672.630    22738639.581  
  22738645.265       -2402.353       -1871.966          41.430          46.110  
   -900376.870     -986249.075    25282026.360           0.000    25282029.723  
  25282036.718        1867.698        1455.329          28.070          41.870  
 -25527396.536   -19891457.499    20487668.960    20487700.130    20487669.099  
  20487669.944        1513.297        1179.192          46.960          54.390  
 15  7 19  1 44  0.0000000  0 11G 2G 5G12G13G15G18G20G21G25G26G29
 -12222939.031   -10052208.230    22814082.160           0.000    22814081.867  
  22814081.632       -1612.309       -1256.338          41.540          45.920  
 -20448409.067   -16272799.723    21580241.082    21580256.510    21580241.586  
  21580242.829       -2464.873       -1920.678          46.840          51.740  
  -6885343.529    -5365200.351    23998709.417    23998725.890    23998709.825  
  23998712.891       -3330.862       -2595.474          40.460          40.600  
 -15560348.277   -12124925.399    22121516.285           0.000    22121516.852  
  22121518.705        1643.215        1280.425          43.590          47.290  
 -17132183.139   -13349728.473    22132049.146    22132074.820    22132049.865  
  22132052.246        2924.757        2279.031          44.060          49.660  
  -2738574.111    -2133944.399    24198478.608           0.000    24198477.443  
  24198482.560        2702.731        2106.009          37.710          36.020  
 -26208611.522   -21214562.795    20228901.943           0.000    20228901.213  
  20228902.626         625.223         487.181          45.250          54.250  
  -7078783.880    -5515921.290    24067478.109           0.000    24067478.422  
  24067481.124        1819.420        1417.723          37.870          42.420  
 -11084527.003   -11036009.783    22752380.918    22752401.230    22752381.214  
  22752386.955       -2411.799       -1879.329          41.460          46.110  
   -956191.224    -1029741.930    25271408.462           0.000    25271408.059  
  25271415.243        1853.392        1444.175          30.030          41.930  
 -25572587.308   -19926671.074    20479068.850    20479088.060    20479069.198  
  20479070.254        1499.395        1168.361          46.700          54.330  
 15  7 19  1 44 30.0000000  0 11G 2G 5G12G13G15G18G20G21G25G26G29
 -12174509.948   -10014471.338    22823297.656           0.000    22823297.434  
  22823297.571       -1616.298       -1259.447          41.270          46.300  
 -20374344.924   -16215087.402    21594334.913    21594355.160    21594335.436  
  21594336.625       -2472.724       -1926.801          47.010          51.700  
  -6785430.550    -5287346.146    24017723.406    24017774.970    24017722.682  
  24017726.268       -3329.992       -2594.797          40.330          41.300  
 -15609417.357   -12163161.011    22112179.260           0.000    22112179.260  
  22112181.008        1628.039        1268.604          43.540          47.250  
 -17219784.540   -13417989.235    22115379.562    22115411.910    22115379.893  
  22115382.144        2915.310        2271.669          44.350          49.620  
  -2819557.228    -2197047.921    24183066.345           0.000    24183066.676  
  24183070.196        2696.134        2100.873          38.050          34.630  
 -26227152.700   -21229010.443    20225372.577           0.000    20225372.598  
  20225374.263         610.866         475.998          45.290          54.380  
  -7133379.674    -5558463.419    24057089.431           0.000    24057089.011  
  24057092.036        1820.300        1418.417          37.750          42.840  
 -11012032.484   -10979520.587    22766175.730    22766221.320    22766176.192  
  22766182.298       -2421.148       -1886.608          41.490          46.430  
  -1011576.074    -1072898.948    25260869.242           0.000    25260870.019  
  25260875.142        1838.948        1432.945          32.330          40.920  
 -25617359.656   -19961558.610    20470549.019    20470577.000    20470549.378  
  20470550.619        1485.408        1157.462          46.890          54.500  
 15  7 19  1 45  0.0000000  0 11G 2G 5G12G13G15G18G20G21G25G26G29
 -12125960.684    -9976640.792    22832536.401           0.000    22832536.005  
  22832536.984       -1620.318       -1262.585          41.470          46.760  
 -20300045.732   -16157191.933    21608473.565    21608492.750    21608473.926  
  21608475.619       -2480.540       -1932.889          46.750          51.920  
  -6685545.061    -5209513.371    24036730.773    24036747.560    24036730.563  
  24036733.754       -3329.052       -2594.061          40.300          42.100  
 -15658030.045   -12201040.983    22102928.041           0.000    22102928.237  
  22102929.573        1612.785        1256.715          43.170          47.060  
 -17307100.598   -13486027.645    22098763.386    22098798.090    22098764.138  
  22098766.492        2905.747        2264.215          43.990          49.770  
  -2900341.529    -2259996.525    24167693.621           0.000    24167693.249  
  24167697.432        2689.480        2095.687          38.140          36.240  
 -26245263.338   -21243122.603    20221927.087           0.000    20221926.366  
  20221928.044         596.516         464.816          45.560          54.420  
  -7188001.427    -5601025.749    24046695.057           0.000    24046694.530  
  24046697.499        1821.166        1419.086          37.500          43.200  
 -10939258.758   -10922813.842    22780024.775    22780066.540    22780025.062  
  22780030.877       -2430.407       -1893.823          41.890          46.520  
  -1066528.070    -1115718.692    25250412.531           0.000    25250411.582  
  25250418.225        1824.507        1421.699          31.090          40.430  
 -25661711.163   -19996118.215    20462109.748    20462132.020    20462109.663  
  20462110.767        1471.338        1146.495          46.880          54.540  
 15  7 19  1 45 30.0000000  0 11G 2G 5G12G13G15G18G20G21G25G26G29
 -12077291.294    -9938716.643    22841797.210           0.000    22841797.380  
  22841798.140       -1624.317       -1265.693          41.150          46.650  
 -20225514.007   -16099115.271    21622656.464    21622683.760    21622656.739  
  21622658.534       -2488.229       -1938.881          46.320          51.780  
  -6585689.991    -5131704.316    24055730.534    24055787.860    24055731.902  
  24055736.064       -3327.943       -2593.200          39.720          43.230  
 -15706184.468   -12238563.856    22093763.843           0.000    22093764.479  
  22093766.141        1597.494        1244.795          42.780          46.960  
 -17394128.612   -13553841.614    22082202.589    22082229.390    22082203.140  
  22082205.348        2896.099        2256.699          43.840          49.480  
  -2980926.327    -2322789.670    24152359.627           0.000    24152358.999  
  24152362.787        2682.839        2090.510          38.840          37.130  
 -26262944.149   -21256899.833    20218562.531           0.000    20218562.140  
  20218563.579         582.213         453.672          45.550          54.400  
  -7242650.065    -5643609.034    24036294.260           0.000    24036294.728  
  24036298.430        1822.079        1419.802          36.960          42.940  
 -10866209.120   -10865892.098    22793925.863    22793954.470    22793925.781  
  22793931.684       -2439.550       -1900.943          41.490          46.380  
  -1121046.044    -1158200.209    25240037.636           0.000    25240036.153  
  25240043.632        1810.038        1410.418          28.780          40.520  
 -25705640.210   -20030348.631    20453750.318    20453774.540    20453750.281  
  20453751.456        1457.242        1135.515          46.690          54.540  
 15  7 19  1 46  0.0000000  0 11G 2G 5G12G13G15G18G20G21G25G26G29
 -12028500.954    -9900698.245    22851081.028           0.000    22851081.474  
  22851082.480       -1628.361       -1268.850          41.040          46.400  
 -20150751.784   -16040859.001    21636881.753    21636917.750    21636882.915  
  21636884.921       -2495.883       -1944.843          45.580          51.450  
  -6485868.403    -5053921.355    24074726.550    24074758.410    24074727.115  
  24074731.944       -3326.800       -2592.308          39.050          43.910  
 -15753877.889   -12275727.521    22084688.539           0.000    22084689.054  
  22084690.078        1582.067        1232.777          43.030          47.000  
 -17480865.465   -13621428.699    22065696.167    22065723.630    22065696.973  
  22065699.653        2886.338        2249.093          43.600          49.410  
  -3061310.733    -2385426.641    24137061.699           0.000    24137061.704  
  24137065.297        2676.140        2085.295          37.940          37.930  
 -26280195.764   -21270342.626    20215279.372           0.000    20215279.399  
  20215280.486         567.917         442.534          45.750          54.400  
  -7297326.012    -5686213.605    24025891.753           0.000    24025890.609  
  24025893.666        1822.994        1420.502          36.850          42.670  
 -10792886.599   -10808757.716    22807877.634    22807914.200    22807878.304  
  22807884.528       -2448.590       -1907.990          41.550          46.600  
  -1175128.041    -1200342.379    25229743.601           0.000    25229744.561  
  25229752.142        1795.524        1399.074          25.730          41.200  
 -25749144.229   -20064247.856    20445471.642    20445492.250    20445471.990  
  20445472.931        1443.023        1124.434          46.830          54.610  
 15  7 19  1 46 30.0000000  0 11G 2G 5G12G13G15G18G20G21G25G26G29
 -11979589.444    -9862585.421    22860389.276           0.000    22860389.312  
  22860389.748       -1632.425       -1272.020          40.530          45.750  
 -20075761.750   -15982425.229    21651153.157    21651179.320    21651153.403  
  21651154.960       -2503.446       -1950.734          45.490          51.250  
  -6386083.267    -4976166.811    24093715.080    24093752.250    24093716.061  
  24093720.132       -3325.541       -2591.325          38.330          43.770  
 -15801108.027   -12312530.165    22075701.517           0.000    22075701.712  
  22075702.864        1566.582        1220.710          42.990          47.180  
 -17567308.017   -13688786.469    22049247.829    22049260.600    22049248.024  
  22049250.308        2876.473        2241.406          43.780          49.420  
  -3141494.119    -2447906.995    24121804.069           0.000    24121803.020  
  24121807.469        2669.420        2080.055          36.910          39.080  
 -26297019.183   -21283451.756    20212079.081           0.000    20212078.041  
  20212078.900         553.642         431.409          45.450          54.270  
  -7352029.223    -5728839.412    24015481.176           0.000    24015480.792  
  24015483.705        1823.903        1421.214          36.980          42.290  
 -10719294.547   -10751413.313    22821882.325    22821911.440    22821882.454  
  22821888.670       -2457.522       -1914.953          41.200          46.550  
  -1228778.941    -1242144.193    25216766.928           0.000    25219537.856  
  25219544.226        1780.916        1387.699          19.030          42.380  
 -25792221.396   -20097814.470    20437273.733    20437289.090    20437274.381  
  20437275.566        1428.762        1113.321          46.420          54.570  
 15  7 19  1 47  0.0000000  0 11G 2G 5G12G13G15G18G20G21G25G26G29
 -11930555.527    -9824377.203    22869720.658           0.000    22869719.916  
  22869720.992       -1636.482       -1275.186          40.880          45.970  
 -20000545.586   -15923815.243    21665466.276    21665499.390    21665466.766  
  21665468.261       -2510.914       -1956.556          45.880          51.290  
  -6286337.046    -4898442.560    24112696.890    24112759.940    24112697.128  
  24112701.175       -3324.192       -2590.278          37.420          43.940  
 -15847872.114   -12348969.664    22066802.062           0.000    22066802.531  
  22066804.759        1551.010        1208.583          43.260          47.690  
 -17653453.237   -13755912.543    22032854.330    22032891.890    22032854.719  
  22032856.919        2866.530        2233.660          43.690          49.080  
  -3221475.360    -2510229.836    24106582.917           0.000    24106583.287  
  24106587.288        2662.684        2074.807          36.920          40.000  
 -26313414.563   -21296227.350    20208957.858           0.000    20208957.733  
  20208958.974         539.394         420.307          45.600          54.350  
  -7406759.646    -5771486.430    24005067.624           0.000    24005066.115  
  24005068.619        1824.820        1421.930          37.630          42.100  
 -10645435.678   -10693861.005    22835938.120    22835964.630    22835938.302  
  22835943.902       -2466.365       -1921.843          42.000          46.790  
    -10605.412    -1283604.276    25209411.575           0.000    25209410.664  
  25209418.871        1768.047        1376.297          25.650          43.510  
 -25834869.292   -20131046.578    20429158.168    20429182.790    20429158.496  
  20429159.960        1414.437        1102.158          46.480          54.690  
 15  7 19  1 47 30.0000000  0 11G 2G 5G12G13G15G18G20G21G25G26G29
 -11881399.653    -9786073.962    22879073.059           0.000    22879073.406  
  22879074.895       -1640.600       -1278.390          40.160          45.990  
 -19925106.496   -15865031.561    21679821.999    21679854.520    21679822.219  
  21679823.168       -2518.352       -1962.352          45.580          50.710  
  -6186631.901    -4820750.359    24131669.083    24131717.770    24131669.909  
  24131675.036       -3322.777       -2589.176          35.450          44.180  
 -15894168.076   -12385044.392    22057992.620           0.000    22057992.908  
  22057995.044        1535.356        1196.378          43.130          47.920  
 -17739297.928   -13822804.448    22016518.004    22016545.530    22016519.210  
  22016521.362        2856.427        2225.783          43.800          49.250  
  -3301253.829    -2572394.664    24091401.106           0.000    24091401.837  
  24091406.566        2655.889        2069.510          35.640          41.430  
 -26329382.823   -21308670.127    20205919.104           0.000    20205918.789  
  20205920.318         525.159         409.214          45.170          54.350  
  -7461518.066    -5814155.261    23994646.321           0.000    23994645.762  
  23994648.116        1825.727        1422.645          37.830          41.910  
 -10571313.382   -10636103.427    22850042.709    22850086.130    22850043.301  
  22850048.902       -2475.111       -1928.653          41.490          46.700  
    -63370.983    -1324721.766    25199372.038    25199396.340    25199371.465  
  25199378.724        1751.577        1364.855          29.280          43.830  
 -25877086.055   -20163942.740    20421124.970    20421149.540    20421124.993  
  20421126.180        1400.009        1090.918          46.460          54.650  
 15  7 19  1 48  0.0000000  0 11G 2G 5G12G13G15G18G20G21G25G26G29
 -11832120.212    -9747674.450    22888451.761           0.000    22888451.538  
  22888452.877       -1644.708       -1281.586          40.830          46.380  
 -19849446.228   -15806075.508    21694219.570    21694260.620    21694220.039  
  21694221.028       -2525.672       -1968.051          46.100          50.650  
  -6086971.706    -4743093.181    24150634.110    24150644.830    24150634.293  
  24150639.833       -3321.231       -2587.968          34.660          44.070  
 -15939993.597   -12420752.542    22049271.736           0.000    22049272.149  
  22049274.765        1519.641        1184.134          43.290          48.020  
 -17824838.763   -13889459.574    22000241.228    22000266.280    22000241.485  
  22000243.865        2846.263        2217.863          44.160          49.540  
  -3380828.852    -2634400.960    24076256.525           0.000    24076258.082  
  24076264.010        2649.082        2064.211          34.670          42.060  
 -26344924.602   -21320780.583    20202962.024           0.000    20202961.444  
  20202962.882         510.958         398.148          45.380          54.400  
  -7516304.497    -5856845.938    23984220.729           0.000    23984220.743  
  23984222.927        1826.667        1423.384          38.360          42.140  
 -10496930.679   -10578142.942    22864197.791    22864242.000    22864197.753  
  22864203.658       -2483.724       -1935.369          41.530          46.960  
   -115696.686    -1365495.501    25189415.047    25189438.420    25189413.219  
  25189420.751        1736.354        1353.384          31.180          43.440  
 -25918869.644   -20196501.363    20413173.487    20413193.390    20413174.074  
  20413175.108        1385.537        1079.636          46.650          54.850  
 15  7 19  1 48 30.0000000  0 11G 2G 5G12G13G15G18G20G21G25G26G29
 -11782717.114    -9709178.570    22897853.149           0.000    22897853.158  
  22897853.737       -1648.816       -1284.788          41.530          46.380  
 -19773567.400   -15746949.157    21708658.377    21708680.810    21708659.268  
  21708660.545       -2532.885       -1973.676          45.860          50.830  
  -5987359.561    -4665473.055    24169590.036    24169604.760    24169589.899  
  24169595.684       -3319.573       -2586.675          34.630          44.450  
 -15985345.648   -12456091.747    22040641.481           0.000    22040642.067  
  22040644.091        1503.848        1171.830          43.410          47.710  
 -17910072.635   -13955875.512    21984021.666    21984035.960    21984021.812  
  21984024.093        2836.026        2209.889          44.350          49.550  
  -3460199.184    -2696247.773    24061151.621           0.000    24061154.186  
  24061160.552        2642.297        2058.922          34.500          42.170  
 -26360040.639   -21332559.291    20200085.109           0.000    20200085.077  
  20200086.371         496.805         387.119          45.500          54.380  
  -7571118.933    -5899558.417    23973790.795           0.000    23973789.672  
  23973791.925        1827.648        1424.142          38.840          42.020  
 -10422290.590   -10519981.899    22878400.108    22878418.690    22878400.785  
  22878406.982       -2492.233       -1941.997          41.220          47.090  
   -167580.522    -1405924.246    25179541.216    25179585.050    25179539.634  
  25179547.828        1722.092        1341.883          32.440          42.470  
 -25960217.535   -20228720.481    20405305.392    20405332.670    20405305.794  
  20405306.895        1370.995        1068.309          46.690          54.930  
 15  7 19  1 49  0.0000000  0 11G 2G 5G12G13G15G18G20G21G25G26G29
 -11733189.951    -9670586.011    22907279.003           0.000    22907278.521  
  22907279.078       -1652.989       -1288.042          41.480          46.790  
 -19697472.513   -15687654.454    21723138.870    21723173.340    21723139.525  
  21723140.896       -2540.089       -1979.289          45.450          50.700  
  -5887797.523    -4587892.356    24188538.390    24188566.430    24188536.352  
  24188541.692       -3317.873       -2585.351          35.900          44.230  
 -16030222.750   -12491060.868    22032102.036           0.000    22032102.320  
  22032103.914        1487.948        1159.439          43.120          47.400  
 -17994997.119   -14022050.368    21967861.145    21967905.830    21967861.493  
  21967863.507        2825.619        2201.776          44.360          49.650  
  -3539364.544    -2757934.890    24046091.881           0.000    24046090.775  
  24046095.429        2635.392        2053.556          33.910          41.610  
 -26374731.955   -21344007.049    20197289.386           0.000    20197289.380  
  20197290.820         482.629         376.073          45.190          54.320  
  -7625962.016    -5942293.228    23963353.783           0.000    23963353.366  
  23963355.345        1828.573        1424.863          38.500          41.820  
 -10347396.515   -10461622.949    22892652.879    22892675.790    22892652.956  
  22892658.540       -2500.677       -1948.573          40.670          46.730  
   -219020.887    -1446007.186    25169749.038    25169786.110    25169751.362  
  25169758.517        1707.221        1330.313          32.390          40.850  
 -26001127.960   -20260598.712    20397519.926    20397543.480    20397520.622  
  20397521.815        1356.349        1056.896          46.360          54.830  
 15  7 19  1 49 30.0000000  0 11G 2G 5G12G13G15G18G20G21G25G26G29
 -11683537.597    -9631895.900    22916727.656           0.000    22916726.757  
  22916727.568       -1657.149       -1291.286          41.390          46.990  
 -19621163.258   -15628192.721    21737659.662    21737685.130    21737660.494  
  21737662.076       -2547.170       -1984.807          45.630          50.630  
  -5788288.673    -4510352.713    24207472.752    24207517.180    24207472.917  
  24207477.954       -3316.045       -2583.925          37.330          44.310  
 -16074622.410   -12525657.967    22023652.311           0.000    22023653.160  
  22023654.607        1472.001        1147.015          43.270          47.390  
 -18079608.913   -14087981.569    21951760.128    21951787.810    21951760.446  
  21951762.550        2815.145        2193.616          44.740          49.530  
  -3618323.689    -2819461.330    24031065.572           0.000    24031064.747  
  24031069.919        2628.537        2048.197          34.500          41.580  
 -26388999.212   -21355124.369    20194575.642           0.000    20194574.826  
  20194575.907         468.515         365.077          45.650          54.500  
  -7680833.845    -5985050.440    23952912.470           0.000    23952911.496  
  23952913.234        1829.543        1425.617          38.470          41.850  
 -10272251.449   -10403068.420    22906951.416    22906984.500    22906952.343  
  22906958.589       -2508.966       -1955.038          40.710          46.940  
   -270015.589    -1485743.252    25160046.021    25160042.470    25160046.830  
  25160054.335        1692.385        1318.742          33.590          40.160  
 -26041598.815   -20292134.417    20389819.300    20389839.660    20389819.493  
  20389820.324        1341.693        1045.473          46.780          54.970  
 15  7 19  1 50  0.0000000  0 11G 2G 5G12G13G15G18G20G21G25G26G29
 -11633760.245    -9593108.392    22926198.255           0.000    22926198.436  
  22926200.080       -1661.357       -1294.564          40.850          46.870  
 -19544642.729   -15568566.351    21752221.782    21752241.970    21752222.162  
  21752223.442       -2554.203       -1990.289          45.590          50.400  
  -5688835.709    -4432856.977    24226398.351    24226395.990    24226398.378  
  24226402.743       -3314.209       -2582.486          38.350          43.390  
 -16118542.650   -12559881.496    22015295.114           0.000    22015295.673  
  22015297.166        1455.957        1134.511          43.050          47.360  
 -18163904.861   -14153666.677    21935718.595    21935744.430    21935719.283  
  21935721.915        2804.539        2185.353          44.550          49.700  
  -3697076.169    -2880826.735    24016080.098           0.000    24016079.027  
  24016083.736        2621.612        2042.809          34.950          40.960  
 -26402843.097   -21365911.795    20191940.864           0.000    20191940.442  
  20191941.483         454.383         354.064          45.500          54.490  
  -7735734.533    -6027830.143    23942464.920           0.000    23942464.237  
  23942466.194        1830.481        1426.342          38.240          42.050  
 -10196858.650   -10344320.857    22921300.474    22921324.290    22921299.704  
  22921305.751       -2517.202       -1961.454          40.720          46.920  
   -320564.005    -1525131.566    25150427.746    25150496.590    25150428.388  
  25150434.983        1677.464        1307.114          33.480          38.800  
 -26081628.338   -20323326.229    20382201.742    20382230.070    20382201.871  
  20382203.054        1326.905        1033.954          46.490          54.990  
 15  7 19  1 50 30.0000000  0 11G 2G 5G12G13G15G18G20G21G25G26G29
 -11583856.904    -9554222.705    22935695.455           0.000    22935694.933  
  22935695.921       -1665.560       -1297.836          40.760          46.160  
 -19467912.812   -15508776.822    21766822.484    21766855.090    21766823.071  
  21766824.580       -2561.155       -1995.702          45.160          50.180  
  -5589440.496    -4355406.257    24245312.613    24245330.450    24245312.942  
  24245316.750       -3312.177       -2580.919          38.360          42.840  
 -16161980.172   -12593728.879    22007030.265           0.000    22007029.926  
  22007031.318        1439.818        1121.938          43.020          47.310  
 -18247881.586   -14219103.023    21919738.927    21919767.410    21919738.718  
  21919741.038        2793.842        2177.021          44.000          49.420  
  -3775621.141    -2942030.450    24001131.024           0.000    24001131.829  
  24001136.589        2614.657        2037.395          35.430          39.990  
 -26416264.060   -21376369.668    20189386.392           0.000    20189386.262  
  20189387.520         440.312         343.098          44.870          54.440  
  -7790663.962    -6070632.233    23932011.319           0.000    23932011.242  
  23932013.960        1831.425        1427.083          37.670          42.300  
 -10121220.968   -10285382.469    22935692.679    22935728.290    22935692.565  
  22935699.382       -2525.331       -1967.785          40.090          46.650  
   -370664.497    -1564170.884    25140892.797    25140933.900    25140895.043  
  25140901.137        1662.520        1295.471          34.710          39.560  
 -26121213.962   -20354172.145    20374668.572    20374704.480    20374668.697  
  20374670.404        1312.084        1022.402          46.180          55.030  
 15  7 19  1 51  0.0000000  0 11G 2G 5G12G13G15G18G20G21G25G26G29
 -11533827.146    -9515238.509    22945215.628           0.000    22945215.567  
  22945216.308       -1669.759       -1301.109          41.350          45.850  
 -19390975.713   -15448825.854    21781463.905    21781487.030    21781464.110  
  21781465.372       -2567.985       -2001.025          45.980          50.360  
  -5490107.189    -4278003.763    24264214.371    24264226.360    24264215.233  
  24264219.947       -3310.044       -2579.251          39.240          43.100  
 -16204933.049   -12627198.615    21998855.627           0.000    21998856.214  
  21998857.254        1423.681        1109.360          43.820          47.340  
 -18331536.236   -14284288.415    21903818.875    21903838.900    21903819.626  
  21903822.238        2783.101        2168.651          44.550          49.790  
  -3853957.674    -3003071.804    23986224.206           0.000    23986224.447  
  23986229.439        2607.751        2032.012          36.620          39.700  
 -26429263.114   -21386498.778    20186913.161           0.000    20186912.883  
  20186913.876         426.290         332.177          45.550          54.590  
  -7845622.303    -6113456.851    23921553.813           0.000    23921553.517  
  23921555.572        1832.467        1427.890          38.600          42.620  
 -10045341.549   -10226255.719    22950131.242    22950182.120    22950131.425  
  22950138.873       -2533.297       -1973.991          40.310          46.880  
   -420315.734    -1602860.121    25131445.859    25131501.080    25131446.475  
  25131452.780        1647.554        1283.805          36.310          39.950  
 -26160353.403   -20384670.383    20367220.681    20367255.540    20367220.897  
  20367222.390        1297.220        1010.817          46.730          55.280  
 15  7 19  1 51 30.0000000  0 11G 2G 5G12G13G15G18G20G21G25G26G29
 -11483670.283    -9476155.261    22954760.613           0.000    22954759.858  
  22954760.856       -1674.026       -1304.432          41.420          45.400  
 -19313833.926   -15388715.384    21796143.284    21796179.130    21796143.784  
  21796144.886       -2574.773       -2006.316          45.940          50.210  
  -5390837.824    -4200651.098    24283106.103    24283167.720    24283105.995  
  24283110.425       -3307.880       -2577.565          39.630          42.090  
 -16247399.575   -12660289.371    21990774.140           0.000    21990774.546  
  21990776.472        1407.422        1096.694          43.610          47.720  
 -18414866.010   -14349220.646    21887962.284    21887988.870    21887962.705  
  21887964.982        2772.208        2160.162          44.700          49.980  
  -3932085.235    -3063950.274    23971357.401           0.000    23971357.590  
  23971362.082        2600.779        2026.569          37.470          39.170  
 -26441841.291   -21396299.932    20184519.312           0.000    20184518.862  
  20184520.398         412.265         321.247          45.340          54.630  
  -7900610.343    -6156304.621    23911090.920           0.000    23911089.430  
  23911091.153        1833.419        1428.635          38.620          42.800  
  -9969223.861   -10166943.314    22964616.552    22964651.180    22964616.548  
  22964623.648       -2541.190       -1980.144          40.500          46.690  
   -469516.795    -1641198.593    25122084.348    25122136.240    25122083.799  
  25122090.290        1632.517        1272.084          36.760          40.140  
 -26199045.421   -20414819.983    20359857.167    20359882.330    20359857.927  
  20359859.543        1282.254         999.157          46.640          55.340  
 15  7 19  1 52  0.0000000  0 11G 2G 5G12G13G15G18G20G21G25G26G29
 -11433385.778    -9436972.571    22964328.889           0.000    22964328.824  
  22964329.739       -1678.289       -1307.758          41.060          45.420  
 -19236489.707   -15328447.172    21810861.097    21810887.500    21810861.819  
  21810863.034       -2581.492       -2011.552          45.590          50.180  
  -5291635.430    -4123350.599    24301983.393    24302050.110    24301983.363  
  24301987.586       -3305.599       -2575.789          39.370          40.640  
 -16289376.991   -12692999.016    21982785.870           0.000    21982786.822  
  21982788.704        1391.082        1083.955          43.720          47.980  
 -18497867.690   -14413897.227    21872167.052    21872204.900    21872167.707  
  21872169.920        2761.210        2151.595          44.670          50.000  
  -4010002.896    -3124665.215    23956532.122           0.000    23956530.918  
  23956534.267        2593.758        2021.103          38.980          38.150  
 -26453999.081   -21405773.510    20182205.017           0.000    20182205.048  
  20182206.785         398.258         310.330          45.040          54.620  
  -7955627.852    -6199175.347    23900619.301           0.000    23900619.435  
  23900621.702        1834.415        1429.410          38.170          43.170  
  -9892870.751   -10107447.443    22979146.494    22979195.060    22979146.704  
  22979152.936       -2548.993       -1986.230          40.660          46.070  
   -518266.159    -1679185.119    25112806.473    25112823.420    25112807.269  
  25112813.208        1617.438        1260.344          36.630          39.230  
 -26237287.349   -20444618.866    20352580.595    20352611.140    20352581.050  
  20352582.319        1267.214         987.439          46.800          55.420  
 15  7 19  1 52 30.0000000  0 11G 2G 5G12G13G15G18G20G21G25G26G29
 -11382973.278    -9397690.151    22973922.523           0.000    22973922.266  
  22973922.597       -1682.566       -1311.087          41.600          45.210  
 -19158945.554   -15268023.175    21825617.434    21825658.200    21825618.182  
  21825619.221       -2588.107       -2016.711          46.060          50.490  
  -5192502.344    -4046104.089    24320847.936    24320841.090    24320847.793  
  24320851.859       -3303.231       -2573.948          39.410          39.050  
 -16330863.625   -12725326.228    21974891.996           0.000    21974892.186  
  21974893.561        1374.677        1071.175          44.030          47.950  
 -18580538.504   -14478315.984    21856435.207    21856467.000    21856435.970  
  21856438.131        2750.140        2142.966          44.500          50.250  
  -4087710.446    -3185216.421    23941743.384           0.000    23941742.786  
  23941746.955        2586.731        2015.630          38.900          38.020  
 -26465737.291   -21414920.143    20179971.724           0.000    20179971.455  
  20179972.915         384.288         299.445          45.300          54.670  
  -8010675.475    -6242069.538    23890145.109           0.000    23890143.684  
  23890146.768        1835.419        1430.188          38.510          43.650  
  -9816285.678   -10047770.828    22993721.026    22993753.130    22993720.592  
  22993726.672       -2556.666       -1992.207          41.000          46.070  
   -566563.469    -1716818.969    25103613.081    25103650.960    25103616.535  
  25103621.147        1602.349        1248.583          35.390          36.450  
 -26275077.722   -20474065.885    20345389.262    20345408.150    20345389.671  
  20345391.049        1252.125         975.679          46.900          55.550  
 15  7 19  1 53  0.0000000  0 11G 2G 5G12G13G15G18G20G21G25G26G29
 -11332432.201    -9358307.539    22983540.419           0.000    22983540.018  
  22983540.105       -1686.850       -1314.430          41.660          44.650  
 -19081203.658   -15207445.094    21840412.124    21840434.860    21840412.261  
  21840413.209       -2594.674       -2021.822          45.980          50.640  
  -5093441.951    -3968914.218    24339699.333    24339716.920    24339698.649  
  24339702.266       -3300.767       -2572.026          39.730          38.200  
 -16371856.896   -12757268.991    21967091.264           0.000    21967091.268  
  21967092.657        1358.183        1058.322          43.960          47.920  
 -18662875.104   -14542474.311    21840767.927    21840805.440    21840767.735  
  21840769.724        2738.946        2134.239          44.410          49.940  
  -4165206.439    -3245602.770    23926995.637           0.000    23926995.610  
  23926999.540        2579.662        2010.120          38.820          37.820  
 -26477056.702   -21423740.436    20177818.267           0.000    20177817.531  
  20177818.907         370.342         288.574          45.290          54.680  
  -8065752.839    -6284986.899    23879664.195           0.000    23879663.207  
  23879665.570        1836.408        1430.967          38.890          43.890  
  -9739471.544    -9987915.736    23008337.162    23008362.270    23008337.353  
  23008343.923       -2564.262       -1998.119          40.700          45.590  
   -614406.231    -1754099.058    25094511.145    25094564.740    25094511.759  
  25094518.245        1587.177        1236.772          35.100          34.440  
 -26312414.114   -20503159.153    20338284.425    20338313.120    20338284.765  
  20338285.989        1236.959         963.863          46.840          55.490  
 15  7 19  1 53 30.0000000  0 11G 2G 5G12G13G15G18G20G21G25G26G29
 -11281761.787    -9318824.144    22993181.488           0.000    22993182.010  
  22993182.374       -1691.163       -1317.797          41.100          44.180  
 -19003266.018   -15146714.486    21855242.872    21855280.840    21855243.145  
  21855244.196       -2601.165       -2026.881          45.900          50.440  
  -4994456.571    -3891782.787    24358535.526    24358540.890    24358535.081  
  24358538.976       -3298.240       -2570.052          38.980          38.320  
 -16412354.633   -12788825.625    21959384.347           0.000    21959385.100  
  21959386.205        1341.637        1045.428          44.300          48.000  
 -18744874.271   -14606369.713    21825162.886    21825193.870    21825163.801  
  21825165.573        2727.648        2125.440          44.610          49.990  
  -4242490.362    -3305823.835    23912289.255           0.000    23912289.089  
  23912293.264        2572.585        2004.611          39.670          38.310  
 -26487958.401   -21432235.247    20175743.591           0.000    20175743.036  
  20175744.403         356.433         277.741          45.420          54.710  
  -8120860.146    -6327927.602    23869176.711           0.000    23869176.136  
  23869178.969        1837.412        1431.751          39.080          44.010  
  -9662431.461    -9927884.565    23022997.779    23023033.080    23022997.737  
  23023003.973       -2571.733       -2003.940          40.890          45.190  
   -661793.756    -1791025.498    25085454.593           0.000    25085494.272  
  25085499.312        1571.977        1224.931          34.710          29.970  
 -26349294.620   -20531897.185    20331266.316    20331298.500    20331266.870  
  20331267.790        1221.734         952.001          47.070          55.530  
 15  7 19  1 54  0.0000000  0 11G 2G 5G12G13G15G18G20G21G25G26G29
 -11230961.419    -9279239.478    23002850.087           0.000    23002849.002  
  23002849.332       -1695.504       -1321.168          41.140          43.450  
 -18925134.914   -15085833.120    21870111.067    21870132.600    21870111.023  
  21870112.207       -2607.562       -2031.865          45.840          50.560  
  -4895549.061    -3814712.056    24377355.154    24377393.890    24377356.090  
  24377360.411       -3295.596       -2567.984          37.450          39.110  
 -16452354.769   -12819994.525    21951772.522           0.000    21951772.982  
  21951774.201        1325.042        1032.500          44.090          47.910  
 -18826533.336   -14670000.088    21809624.774    21809664.170    21809624.546  
  21809626.776        2716.266        2116.567          44.490          50.270  
  -4319561.589    -3365879.169    23897622.009           0.000    23897622.302  
  23897626.418        2565.482        1999.077          38.900          38.180  
 -26498443.279   -21440405.261    20173748.249           0.000    20173747.965  
  20173749.044         342.568         266.938          45.440          54.620  
  -8175997.614    -6370891.822    23858685.132           0.000    23858684.338  
  23858687.127        1838.419        1432.536          38.990          44.120  
  -9585168.656    -9867679.830    23037700.663    23037731.570    23037700.568  
  23037706.621       -2579.092       -2009.682          40.850          44.760  
   -708724.886    -1827595.345    25076564.460           0.000    25076564.289  
  25076568.175        1556.767        1213.071          36.350          31.140  
 -26385717.278   -20560278.448    20324335.382    20324357.200    20324335.667  
  20324336.703        1206.449         940.090          47.050          55.530  
 15  7 19  1 54 30.0000000  0 11G 2G 5G12G13G15G18G20G21G25G26G29
 -11180031.025    -9239553.491    23012541.204           0.000    23012540.871  
  23012540.844       -1699.843       -1324.550          41.390          43.480  
 -18846812.756   -15024802.894    21885014.185    21885045.760    21885015.235  
  21885016.668       -2613.895       -2036.802          45.310          50.850  
  -4796722.014    -3737704.035    24396160.655    24396186.620    24396162.373  
  24396166.725       -3292.855       -2565.866          36.350          40.040  
 -16491855.377   -12850774.185    21944256.502           0.000    21944256.556  
  21944257.622        1308.335        1019.480          44.180          47.960  
 -18907849.158   -14733363.003    21794150.652    21794195.480    21794150.932  
  21794152.662        2704.777        2107.617          44.540          50.240  
  -4396419.647    -3425768.391    23882998.589           0.000    23882997.916  
  23883000.195        2558.374        1993.542          39.510          38.810  
 -26508511.608   -21448250.690    20171831.902           0.000    20171831.570  
  20171833.052         328.703         256.130          45.020          54.500  
  -8231165.376    -6413879.640    23848187.075           0.000    23848186.330  
  23848189.409        1839.436        1433.324          38.710          44.180  
  -9507686.306    -9807304.030    23052443.978    23052470.510    23052444.860  
  23052451.163       -2586.357       -2015.340          40.850          44.870  
   -755198.448    -1863808.559    25067719.203           0.000    25067719.860  
  25067726.673        1541.491        1201.159          35.990          34.580  
 -26421680.289   -20588301.546    20317491.841    20317518.600    20317492.193  
  20317493.208        1191.089         928.121          46.990          55.490  
 15  7 19  1 55  0.0000000  0 11G 2G 5G12G13G15G18G20G21G25G26G29
 -11128969.618    -9199765.411    23022258.167           0.000    23022258.563  
  23022257.696       -1704.235       -1327.970          41.980          43.770  
 -18768301.599   -14963625.396    21899954.597    21899978.340    21899955.194  
  21899956.907       -2620.197       -2041.712          45.080          50.680  
  -4697977.821    -3660760.596    24414951.678    24414966.030    24414952.781  
  24414957.259       -3290.057       -2563.668          36.200          40.400  
 -16530853.880   -12881162.587    21936835.327           0.000    21936835.368  
  21936836.573        1291.557        1006.408          44.270          48.160  
 -18988818.562   -14796455.969    21778742.136    21778770.710    21778742.804  
  21778744.796        2693.157        2098.564          44.900          50.490  
  -4473063.583    -3485490.759    23868412.314           0.000    23868412.743  
  23868416.348        2551.226        1987.960          38.350          40.160  
 -26518164.848   -21455772.677    20169994.770           0.000    20169994.399  
  20169996.006         314.856         245.342          45.050          54.450  
  -8286363.667    -6456891.232    23837683.504           0.000    23837682.240  
  23837685.436        1840.440        1434.107          38.270          44.160  
  -9429987.512    -9746759.567    23067230.718    23067255.920    23067230.961  
  23067236.960       -2593.533       -2020.932          41.630          44.900  
   -801213.219    -1899664.279    25058963.388           0.000    25058963.538  
  25058971.514        1526.162        1189.222          34.760          35.160  
 -26457181.569   -20615964.853    20310736.346    20310769.700    20310736.737  
  20310737.651        1175.646         916.089          47.140          55.560  
 15  7 19  1 55 30.0000000  0 11G 2G 5G12G13G15G18G20G21G25G26G29
 -11077776.561    -9159874.750    23031999.887           0.000    23031999.802  
  23031999.711       -1708.636       -1331.397          41.330          43.820  
 -18689603.677   -14902302.358    21914931.121    21914954.090    21914931.109  
  21914932.141       -2626.335       -2046.497          45.080          50.330  
  -4599319.770    -3583884.287    24433726.309    24433728.330    24433726.951  
  24433731.811       -3287.148       -2561.400          35.560          41.590  
 -16569348.241   -12911158.148    21929509.624           0.000    21929509.704  
  21929511.559        1274.725         993.291          43.980          48.370  
 -19069438.786   -14859276.861    21763400.913    21763430.240    21763401.419  
  21763403.107        2681.492        2089.471          45.300          50.350  
  -4549492.893    -3545045.832    23853865.157           0.000    23853865.905  
  23853871.656        2544.056        1982.370          35.650          39.930  
 -26527403.787   -21462971.832    20168237.306           0.000    20168236.498  
  20168237.949         301.065         234.594          44.840          54.480  
  -8341592.438    -6499926.581    23827173.090           0.000    23827172.144  
  23827175.220        1841.456        1434.898          38.260          43.660  
  -9352075.384    -9686048.869    23082057.294    23082099.220    23082057.090  
  23082063.335       -2600.592       -2026.433          41.320          45.030  
   -846767.610    -1935161.633    25050295.314           0.000    25050294.956  
  25050302.236        1510.805        1177.248          34.240          35.100  
 -26492218.872   -20643266.623    20304068.392    20304094.320    20304069.002  
  20304070.144        1160.164         904.021          46.880          55.490  
 15  7 19  1 56  0.0000000  0 11G 2G 5G12G13G15G18G20G21G25G26G29
 -11026451.749    -9119881.450    23041766.056           0.000    23041766.331  
  23041766.359       -1713.033       -1334.825          40.350          43.930  
 -18610722.048   -14840836.175    21929941.708    21929963.190    21929942.312  
  21929943.123       -2632.440       -2051.251          45.490          50.500  
  -4500750.748    -3507077.379    24452483.128    24452540.730    24452483.378  
  24452489.392       -3284.120       -2559.058          35.000          42.740  
 -16607336.771   -12940759.551    21922280.906           0.000    21922280.830  
  21922282.371        1257.821         980.115          44.200          48.270  
 -19149706.984   -14921823.448    21748126.571    21748144.110    21748127.097  
  21748128.646        2669.682        2080.270          45.580          50.320  
  -4625706.882    -3604433.175    23839364.663           0.000    23839364.089  
  23839369.455        2536.866        1976.762          36.010          41.320  
 -26536229.499   -21469848.996    20166557.389           0.000    20166556.844  
  20166558.491         287.300         223.870          44.730          54.500  
  -8396852.100    -6542986.011    23816659.032           0.000    23816657.315  
  23816659.255        1842.486        1435.700          38.160          43.420  
  -9273953.313    -9625174.566    23096923.876    23096970.580    23096923.510  
  23096929.410       -2607.544       -2031.851          41.510          45.100  
   -891861.203    -1970299.868    25041715.879           0.000    25041714.971  
  25041721.579        1495.412        1165.274          34.650          35.530  
 -26526790.797   -20670205.761    20297488.950    20297514.130    20297489.854  
  20297491.178        1144.607         891.902          46.590          55.440  
 15  7 19  1 56 30.0000000  0 11G 2G 5G12G13G15G18G20G21G25G26G29
 -10974994.186    -9079784.701    23051558.482           0.000    23051558.662  
  23051558.702       -1717.454       -1338.280          40.420          44.390  
 -18531658.183   -14779227.993    21944987.220    21945012.550    21944987.445  
  21944988.273       -2638.478       -2055.958          45.640          50.400  
  -4402272.843    -3430341.461    24471224.246    24471280.080    24471223.432  
  24471229.257       -3281.043       -2556.661          35.330          42.760  
 -16644817.167   -12969964.994    21915148.449           0.000    21915148.983  
  21915149.986        1240.857         966.896          44.390          48.370  
 -19229620.051   -14984093.308    21732919.292    21732946.660    21732919.878  
  21732921.598        2657.809        2071.018          45.650          50.310  
  -4701704.749    -3663652.054    23824904.766           0.000    23824903.778  
  23824906.584        2529.646        1971.146          37.400          40.580  
 -26544642.301   -21476404.407    20164956.506           0.000    20164956.260  
  20164957.692         273.571         213.170          45.070          54.660  
  -8452142.434    -6586069.329    23806134.821           0.000    23806135.442  
  23806137.853        1843.520        1436.517          38.470          43.540  
  -9195624.164    -9564138.905    23111828.364    23111870.050    23111828.905  
  23111835.113       -2614.375       -2037.178          41.460          45.770  
   -936493.101    -2005077.985    25033221.981           0.000    25033220.736  
  25033226.796        1480.025        1153.265          34.690          34.780  
 -26560895.044   -20696780.471    20290999.745    20291023.920    20291000.063  
  20291001.333        1128.997         879.740          46.780          55.510  
 15  7 19  1 57  0.0000000  0 11G 2G 5G12G13G15G18G20G21G25G26G29
 -10923403.565    -9039584.266    23061376.770           0.000    23061376.041  
  23061375.809       -1721.903       -1341.747          40.380          44.610  
 -18452414.467   -14717479.659    21960066.992    21960094.530    21960067.358  
  21960067.658       -2644.418       -2060.583          45.730          49.970  
  -4303888.561    -3353678.508    24489946.351    24489980.920    24489945.633  
  24489951.180       -3277.879       -2554.184          36.950          43.410  
 -16681787.496   -12998772.998    21908113.064           0.000    21908113.403  
  21908115.323        1223.814         953.623          44.220          48.490  
 -19309174.893   -15046084.036    21717780.275    21717799.390    21717781.033  
  21717782.619        2645.832        2061.686          45.650          50.340  
  -4777485.814    -3722702.034    23810484.220           0.000    23810482.256  
  23810486.746        2522.411        1965.510          36.130          42.130  
 -26552643.481   -21482639.076    20163434.483           0.000    20163433.882  
  20163435.018         259.857         202.485          45.110          54.690  
  -8507463.627    -6629176.687    23795608.776           0.000    23795608.384  
  23795610.947        1844.574        1437.331          38.570          43.650  
  -9117091.269    -9502944.481    23126772.870    23126776.240    23126773.210  
  23126779.188       -2621.120       -2042.430          41.030          45.590  
   -980661.972    -2039495.319    25024815.032           0.000    25024816.282  
  25024823.241        1464.580        1141.229          34.670          35.210  
 -26594530.080   -20722989.568    20284599.635    20284624.670    20284599.713  
  20284600.712        1113.330         867.529          46.640          55.490  
 15  7 19  1 57 30.0000000  0 11G 2G 5G12G13G15G18G20G21G25G26G29
 -10871679.339    -8999279.722    23071218.714           0.000    23071217.994  
  23071219.338       -1726.375       -1345.229          40.040          45.450  
 -18372993.268   -14655593.020    21975180.047    21975200.410    21975180.882  
  21975180.660       -2650.308       -2065.174          45.890          49.720  
  -4205601.032    -3277090.921    24508649.134    24508680.770    24508649.495  
  24508654.623       -3274.605       -2551.631          37.790          43.350  
 -16718245.600   -13027181.857    21901175.470           0.000    21901175.497  
  21901176.660        1206.724         940.303          44.390          48.250  
 -19388368.707   -15107793.436    21702709.840    21702741.380    21702710.530  
  21702712.377        2633.748        2052.269          45.660          50.420  
  -4853049.516    -3781582.671    23796101.672           0.000    23796100.955  
  23796106.484        2515.164        1959.859          35.190          41.920  
 -26560233.918   -21488553.688    20161989.763           0.000    20161989.343  
  20161990.543         246.175         191.823          45.400          54.740  
  -8562816.065    -6672308.393    23785076.172           0.000    23785075.240  
  23785077.433        1845.592        1438.123          38.980          43.670  
  -9038357.753    -9441593.731    23141755.220    23141777.550    23141755.618  
  23141761.474       -2627.765       -2047.607          40.740          45.560  
  -1024366.787    -2073551.031    25016497.911           0.000    25016499.750  
  25016505.193        1449.092        1129.162          34.350          36.680  
 -26627693.755   -20748831.370    20278288.356    20278315.440    20278288.497  
  20278289.848        1097.573         855.250          46.790          55.590  
 15  7 19  1 58  0.0000000  0 11G 2G 5G12G13G15G18G20G21G25G26G29
 -10819820.669    -8958870.420    23081087.027           0.000    23081086.041  
  23081087.641       -1730.853       -1348.715          39.690          45.660  
 -18293396.766   -14593569.784    21990326.672    21990356.650    21990327.094  
  21990327.843       -2656.104       -2069.688          45.270          49.800  
  -4107412.410    -3200580.412    24527334.321    24527365.980    24527334.761  
  24527339.193       -3271.253       -2549.028          38.460          43.230  
 -16754189.712   -13055190.211    21894334.129           0.000    21894334.963  
  21894336.590        1189.559         926.929          44.100          48.030  
 -19467198.382   -15169219.096    21687709.047    21687735.920    21687709.483  
  21687711.327        2621.562        2042.775          45.400          50.350  
  -4928395.773    -3840293.453    23781765.326           0.000    23781764.344  
  23781769.108        2507.901        1954.200          36.880          42.490  
 -26567414.639   -21494149.043    20160622.942           0.000    20160622.833  
  20160624.085         232.541         181.202          45.210          54.700  
  -8618199.437    -6715464.216    23774537.256           0.000    23774535.764  
  23774538.326        1846.641        1438.937          38.910          43.720  
  -8959426.766    -9380089.096    23156775.456    23156815.800    23156775.283  
  23156781.981       -2634.280       -2052.685          40.270          45.820  
  -1067605.996    -2107244.302    25008271.096           0.000    25008271.264  
  25008277.113        1433.591        1117.059          32.610          37.710  
 -26660384.081   -20774304.333    20272067.818    20272095.910    20272068.041  
  20272069.035        1081.770         842.938          46.870          55.530  
 15  7 19  1 58 30.0000000  0 11G 2G 5G12G13G15G18G20G21G25G26G29
 -10767827.408    -8918356.243    23090981.405           0.000    23090981.059  
  23090982.185       -1735.373       -1352.234          40.800          46.200  
 -18213627.038   -14531411.572    22005506.841    22005526.380    22005507.056  
  22005507.166       -2661.860       -2074.177          45.550          49.760  
  -4009326.090    -3124149.607    24545999.937    24546035.720    24545999.617  
  24546004.754       -3267.817       -2546.346          38.990          43.400  
 -16789617.687   -13082796.382    21887592.590           0.000    21887593.364  
  21887595.113        1172.300         913.479          44.330          48.390  
 -19545661.121   -15230358.827    21672779.072    21672808.940    21672779.117  
  21672780.459        2609.267        2033.191          45.880          50.610  
  -5003523.326    -3898834.230    23767468.509           0.000    23767468.109  
  23767472.062        2500.585        1948.508          37.480          42.150  
 -26574186.464   -21499425.774    20159333.844           0.000    20159333.823  
  20159335.459         218.914         170.580          45.240          54.860  
  -8673614.085    -6758644.414    23763990.692           0.000    23763990.769  
  23763993.461        1847.664        1439.736          39.200          43.860  
  -8880301.588    -9318433.145    23171832.769    23171853.310    23171832.547  
  23171838.663       -2640.704       -2057.698          39.980          45.570  
  -1110379.775    -2140574.429    25000131.604           0.000    25000131.686  
  25000136.953        1416.985        1104.941          33.080          38.130  
 -26692599.508   -20799407.247    20265937.820    20265966.540    20265937.864  
  20265938.565        1065.908         830.578          47.150          55.720  
 15  7 19  1 59  0.0000000  0 11G 2G 5G12G13G15G18G20G21G25G26G29
 -10715698.947    -8877736.699    23100901.072           0.000    23100901.266  
  23100901.394       -1739.888       -1355.748          40.190          45.410  
 -18133686.342   -14469120.130    22020718.229    22020748.770    22020719.004  
  22020719.512       -2667.515       -2078.583          44.910          49.320  
  -3911344.367    -3047800.315    24564644.277    24564662.800    24564645.211  
  24564650.095       -3264.290       -2543.601          37.910          42.850  
 -16824527.845   -13109999.062    21880949.516           0.000    21880949.719  
  21880951.972        1155.012         900.006          43.530          48.170  
 -19623754.129   -15291210.462    21657918.240    21657943.150    21657918.481  
  21657919.682        2596.879        2023.539          45.060          50.110  
  -5078431.704    -3957204.227    23753211.612           0.000    23753212.627  
  23753217.733        2493.274        1942.801          36.000          42.370  
 -26580550.687   -21504384.895    20158123.166           0.000    20158122.897  
  20158124.326         205.346         160.009          44.340          54.470  
  -8729060.168    -6801849.108    23753441.239           0.000    23753439.802  
  23753441.945        1848.723        1440.555          38.300          43.420  
  -8800985.341    -9256628.300    23186924.951    23186949.960    23186925.529  
  23186932.210       -2647.017       -2062.611          38.790          45.460  
  -1152685.786    -2173540.648    24992080.112           0.000    24992081.009  
  24992086.124        1402.418        1092.781          31.800          36.560  
 -26724337.889   -20824138.436    20259897.928    20259915.510    20259898.329  
  20259899.103        1049.957         818.145          46.300          55.400  
 15  7 19  1 59 30.0000000  0 11G 2G 5G12G13G15G18G20G21G25G26G29
 -10663434.569    -8837011.250    23110846.239           0.000    23110846.250  
  23110847.155       -1744.401       -1359.271          40.970          45.370  
 -18053576.780   -14406697.101    22035962.473    22035987.980    22035963.135  
  22035963.734       -2673.094       -2082.927          45.270          49.260  
  -3813469.543    -2971534.285    24583270.906    24583307.430    24583270.142  
  24583275.209       -3260.683       -2540.783          38.290          42.790  
 -16858918.094   -13136796.612    21874405.768           0.000    21874406.322  
  21874407.847        1137.670         886.496          44.330          48.400  
 -19701473.916   -15351771.279    21643128.062    21643149.080    21643128.641  
  21643130.386        2584.427        2013.838          45.450          50.480  
  -5153120.291    -4015402.989    23739000.153           0.000    23739000.447  
  23739004.906        2485.957        1937.107          38.240          42.670  
 -26586507.909   -21509026.873    20156989.342           0.000    20156989.308  
  20156990.802         191.823         149.474          44.830          54.740  
  -8784537.555    -6845078.188    23742883.269           0.000    23742883.129  
  23742884.841        1849.786        1441.386          38.830          43.590  
  -8721480.986    -9194676.891    23202053.604    23202094.320    23202054.869  
  23202061.935       -2653.225       -2067.447          39.580          46.080  
  -1194524.173    -2206141.983    24984120.112           0.000    24984118.600  
  24984125.254        1386.828        1080.640          32.190          38.000  
 -26755597.163   -20848496.295    20253949.079    20253972.880    20253949.798  
  20253950.602        1034.011         805.724          46.870          55.520  
 15  7 19  2  0  0.0000000  0 11G 2G 5G12G13G15G18G20G21G25G26G29
 -10611033.730    -8796179.466    23120818.111           0.000    23120817.386  
  23120819.383       -1748.963       -1362.830          40.560          46.220  
 -17973300.567   -14344144.222    22051238.347    22051270.520    22051239.352  
  22051240.039       -2678.618       -2087.231          45.290          49.480  
  -3715704.564    -2895353.854    24601874.396    24601879.120    24601874.538  
  24601879.414       -3256.965       -2537.891          37.840          42.400  
 -16892786.397   -13163187.457    21867961.102           0.000    21867961.396  
  21867962.342        1120.224         872.900          44.420          48.250  
 -19778817.992   -15412039.328    21628409.068    21628434.610    21628410.244  
  21628411.916        2571.837        2004.028          45.350          50.370  
  -5227588.312    -4073429.852    23724829.699           0.000    23724829.603  
  23724833.792        2478.591        1931.364          39.130          42.430  
 -26592059.336   -21513352.649    20155932.898           0.000    20155932.647  
  20155934.549         178.298         138.932          44.620          54.800  
  -8840046.255    -6888331.670    23732320.380           0.000    23732319.606  
  23732322.125        1850.816        1442.187          38.610          43.700  
  -8641791.780    -9132581.439    23217219.386    23217248.890    23217219.471  
  23217226.183       -2659.342       -2072.214          40.070          46.000  
  -1235893.052    -2238377.829    24976246.131           0.000    24976247.131  
  24976253.240        1371.158        1068.435          31.200          39.520  
 -26786376.531   -20872480.206    20248091.916    20248130.650    20248092.542  
  20248093.110        1017.956         793.213          46.780          55.370  
 15  7 19  2  0 30.0000000  0 11G 2G 5G12G13G15G18G20G21G25G26G29
 -10558496.156    -8755241.160    23130815.130           0.000    23130815.592  
  23130816.474       -1753.538       -1366.393          41.330          45.940  
 -17892860.078   -14281463.338    22066545.408    22066581.060    22066546.513  
  22066547.433       -2684.064       -2091.478          45.060          49.380  
  -3618052.117    -2819261.116    24620456.070    24620469.370    24620456.953  
  24620462.126       -3253.185       -2534.947          37.230          42.380  
 -16926130.962   -13189170.190    21861615.629           0.000    21861616.249  
  21861617.306        1102.744         859.281          44.660          48.330  
 -19855783.508   -15472012.407    21613763.717    21613791.910    21613764.143  
  21613766.622        2559.177        1994.162          45.400          50.780  
  -5301835.604    -4131284.754    23710698.235           0.000    23710699.583  
  23710704.984        2471.211        1925.618          38.680          42.320  
 -26597205.770   -21517362.845    20154953.705           0.000    20154953.393  
  20154955.214         164.814         128.429          44.650          54.760  
  -8895586.599    -6931609.806    23721751.243           0.000    23721750.805  
  23721753.138        1851.869        1443.012          38.700          43.640  
  -8561921.029    -9070344.505    23232419.321    23232448.180    23232418.672  
  23232425.060       -2665.347       -2076.890          40.450          45.950  
  -1276792.492    -2270247.488    24968464.711           0.000    24968463.818  
  24968471.098        1355.519        1056.213          31.080          41.010  
 -26816673.626   -20896088.325    20242326.838    20242354.960    20242326.924  
  20242327.794        1001.843         780.656          46.690          55.410  
 15  7 19  2  1  0.0000000  0 11G 2G 5G12G13G15G18G20G21G25G26G29
 -10505821.283    -8714195.854    23140839.584           0.000    23140838.918  
  23140840.194       -1758.148       -1369.975          41.120          45.870  
 -17812257.547   -14218656.170    22081884.168    22081901.980    22081884.451  
  22081885.498       -2689.456       -2095.679          44.520          49.190  
  -3520514.829    -2743258.103    24639017.979    24639060.550    24639017.078  
  24639023.026       -3249.321       -2531.928          37.110          42.450  
 -16958950.046   -13214743.452    21855370.318           0.000    21855370.731  
  21855372.024        1085.161         845.577          44.480          48.460  
 -19932367.857   -15531688.463    21599189.996    21599215.270    21599191.206  
  21599192.449        2546.414        1984.218          45.640          50.730  
  -5375861.255    -4188966.940    23696614.229           0.000    23696614.099  
  23696617.331        2463.807        1919.845          39.670          41.370  
 -26601948.639   -21521058.575    20154051.025           0.000    20154051.178  
  20154052.365         151.359         117.943          44.710          54.600  
  -8951158.563    -6974912.584    23711174.775           0.000    23711175.552  
  23711177.775        1852.903        1443.818          38.450          43.210  
  -8481871.990    -9007968.653    23247651.244    23247688.930    23247651.329  
  23247658.259       -2671.265       -2081.503          40.600          46.330  
  -1317221.204    -2301750.350    24960768.494           0.000    24960769.878  
  24960777.799        1339.747        1043.950          30.370          41.440  
 -26846486.543   -20919319.160    20236652.716    20236677.730    20236653.498  
  20236654.661         985.648         768.034          46.510          55.470  
 15  7 19  2  1 30.0000000  0 11G 2G 5G12G13G15G18G20G21G25G26G29
 -10453008.200    -8673042.849    23150889.272           0.000    23150889.119  
  23150890.073       -1762.752       -1373.569          41.140          45.340  
 -17731494.801   -14155724.171    22097252.859    22097275.300    22097252.869  
  22097254.517       -2694.734       -2099.790          44.230          49.550  
  -3423095.190    -2667346.766    24657555.502    24657603.220    24657556.149  
  24657561.296       -3245.353       -2528.840          37.280          42.330  
 -16991241.509   -13239905.598    21849225.411           0.000    21849225.340  
  21849227.354        1067.547         831.855          44.130          48.630  
 -20008567.524   -15591064.773    21584689.607    21584715.320    21584690.262  
  21584692.833        2533.520        1974.171          45.520          51.150  
  -5449664.911    -4246476.167    23682570.454           0.000    23682570.286  
  23682573.326        2456.384        1914.061          40.790          41.680  
 -26606288.383   -21524440.185    20153225.860           0.000    20153225.414  
  20153226.521         137.940         107.485          44.900          54.590  
  -9006762.112    -7018239.986    23700595.193           0.000    23700594.789  
  23700597.133        1853.964        1444.645          38.820          43.370  
  -8401647.534    -8945456.112    23262916.411    23262957.570    23262917.387  
  23262924.407       -2677.046       -2086.009          40.070          46.230  
  -1357180.547    -2332885.507    24953166.582    24953195.260    24953166.094  
  24953174.288        1324.013        1031.695          29.040          41.530  
 -26875813.362   -20942171.216    20231072.722    20231095.450    20231072.954  
  20231074.036         969.430         755.401          46.730          55.650  
 15  7 19  2  2  0.0000000  0 11G 2G 5G12G13G15G18G20G21G25G26G29
 -10400056.577    -8631781.870    23160964.759           0.000    23160965.514  
  23160966.569       -1767.362       -1377.171          40.820          45.210  
 -17650574.342   -14092669.274    22112651.738    22112670.010    22112652.026  
  22112653.195       -2699.968       -2103.871          44.180          49.360  
  -3325795.574    -2591528.944    24676069.668    24676078.160    24676071.724  
  24676077.066       -3241.299       -2525.678          36.400          41.490  
 -17023003.817   -13264655.416    21843180.660           0.000    21843181.385  
  21843183.359        1049.906         818.111          43.810          48.520  
 -20084379.527   -15650139.005    21570263.684    21570287.020    21570264.022  
  21570265.936        2520.570        1964.076          45.150          50.890  
  -5523245.930    -4303811.890    23668567.867           0.000    23668567.790  
  23668570.269        2448.968        1908.292          39.540          40.110  
 -26610226.358   -21527508.723    20152476.430           0.000    20152476.062  
  20152477.226         124.583          97.076          44.510          54.450  
  -9062397.427    -7061592.127    23690007.938           0.000    23690007.645  
  23690010.152        1855.023        1445.466          38.820          43.220  
  -8321250.989    -8882809.484    23278216.298    23278243.210    23278216.317  
  23278223.283       -2682.724       -2090.434          39.660          46.140  
  -1396662.382    -2363652.434    24945652.127    24945688.890    24945651.647  
  24945661.075        1308.253        1019.414          28.150          41.670  
 -26904652.599   -20964643.346    20225584.926    20225607.500    20225585.597  
  20225586.186         953.138         742.704          46.470          55.650  
 15  7 19  2  2 30.0000000  0 11G 2G 5G12G13G15G18G20G21G25G26G29
 -10346965.881    -8590412.528    23171069.531           0.000    23171068.873  
  23171069.638       -1772.021       -1380.796          41.370          45.880  
 -17569498.242   -14029493.088    22128079.439    22128118.910    22128080.059  
  22128081.356       -2705.128       -2107.885          44.330          49.220  
  -3228618.578    -2515806.690    24694563.229    24694579.120    24694563.643  
  24694568.925       -3237.179       -2522.475          35.960          41.220  
 -17054235.278   -13288991.581    21837237.566           0.000    21837238.363  
  21837239.843        1032.174         804.290          44.600          48.490  
 -20159801.190   -15708909.070    21555910.613    21555935.150    21555911.035  
  21555913.508        2507.499        1953.895          44.730          51.100  
  -5596603.812    -4360973.774    23654606.769           0.000    23654607.653  
  23654611.891        2441.528        1902.483          39.390          40.580  
 -26613763.853   -21530265.196    20151802.910           0.000    20151802.859  
  20151804.039         111.233          86.677          44.800          54.550  
  -9118064.166    -7104968.772    23679416.253           0.000    23679414.950  
  23679416.607        1856.070        1446.292          39.500          42.850  
  -8240685.399    -8820031.146    23293547.778    23293587.890    23293548.242  
  23293554.463       -2688.309       -2094.785          40.410          46.210  
  -1435673.115    -2394050.349    24938228.831    24938268.250    24938229.864  
  24938236.658        1292.436        1007.099          29.970          41.480  
 -26933002.073   -20986733.841    20220190.603    20220221.390    20220190.830  
  20220191.625         936.795         729.972          47.040          55.920  
 15  7 19  2  3  0.0000000  0 11G 2G 5G12G13G15G18G20G21G25G26G29
 -10293735.454    -8548934.316    23181197.713           0.000    23181198.383  
  23181199.334       -1776.682       -1384.427          40.790          45.970  
 -17488268.301   -13966197.034    22143536.767    22143559.300    22143537.580  
  22143539.374       -2710.214       -2111.854          43.870          49.450  
  -3131566.909    -2440182.081    24713033.077    24713078.610    24713031.917  
  24713037.792       -3232.949       -2519.173          35.170          40.930  
 -17084933.755   -13312912.435    21831395.542           0.000    21831396.367  
  21831397.836        1014.367         790.417          43.730          48.210  
 -20234829.849   -15767372.896    21541633.611    21541663.100    21541633.877  
  21541635.991        2494.378        1943.667          44.260          50.880  
  -5669737.941    -4417961.293    23640691.853           0.000    23640691.130  
  23640693.031        2434.055        1896.667          38.510          39.160  
 -26616901.359   -21532709.991    20151204.920           0.000    20151205.110  
  20151207.045          97.929          76.308          43.970          54.410  
  -9173762.477    -7148370.025    23668816.293           0.000    23668816.037  
  23668817.400        1857.144        1447.121          38.980          42.730  
  -8159953.937    -8757123.554    23308911.285    23308949.370    23308911.112  
  23308916.643       -2693.786       -2099.054          39.960          45.360  
  -1474209.967    -2424078.620    24930895.962    24930936.960    24930897.063  
  24930903.249        1276.627         994.781          30.410          41.330  
 -26960860.436   -21008441.653    20214889.443    20214919.320    20214889.301  
  20214890.300         920.395         717.191          46.080          55.790  
 15  7 19  2  3 30.0000000  0 11G 2G 5G12G13G15G18G20G21G25G26G29
 -10240365.126    -8507347.087    23191354.480           0.000    23191354.756  
  23191355.022       -1781.365       -1388.076          41.740          46.220  
 -17406887.232   -13902783.222    22159023.494    22159050.050    22159023.815  
  22159025.932       -2715.217       -2115.748          44.550          49.830  
  -3034643.295    -2364657.249    24731476.865    24731500.080    24731476.084  
  24731481.331       -3228.628       -2515.812          35.520          40.450  
 -17115097.706   -13336416.780    21825655.637           0.000    21825656.534  
  21825657.801         996.519         776.505          44.330          48.490  
 -20309462.798   -15825528.381    21527430.810    21527450.360    21527431.492  
  21527433.519        2481.120        1933.337          45.220          51.020  
  -5742648.042    -4474774.202    23626816.103           0.000    23626815.860  
  23626820.165        2426.577        1890.835          38.010          40.210  
 -26619640.439   -21534844.319    20150684.569           0.000    20150684.044  
  20150685.888          84.665          65.970          44.640          54.570  
  -9229492.633    -7191796.070    23658210.615           0.000    23658210.595  
  23658212.562        1858.171        1447.928          39.370          43.230  
  -8079059.956    -8694089.318    23324305.004    23324342.070    23324304.573  
  23324310.734       -2699.152       -2103.230          40.310          45.090  
  -1512271.365    -2453736.788    24923654.351    24923670.350    24923653.608  
  24923659.731        1258.857         982.414          31.210          41.530  
 -26988225.857   -21029765.352    20209681.519    20209705.810    20209681.621  
  20209682.866         903.927         704.358          46.720          56.010  
 15  7 19  2  4  0.0000000  0 11G 2G 5G12G13G15G18G20G21G25G26G29
 -10186854.050    -8465650.171    23201536.713           0.000    23201537.091  
  23201537.690       -1786.058       -1391.734          41.590          45.580  
 -17325356.894   -13839253.091    22174538.133    22174565.070    22174538.623  
  22174540.056       -2720.152       -2119.598          44.490          49.560  
  -2937850.098    -2289234.052    24749896.823    24749896.330    24749895.852  
  24749900.039       -3224.249       -2512.396          34.770          39.280  
 -17144725.100   -13359503.018    21820017.415           0.000    21820018.220  
  21820020.085         978.614         762.557          44.230          48.520  
 -20383696.931   -15883373.113    21513304.805    21513328.690    21513305.568  
  21513307.242        2467.790        1922.949          45.590          51.200  
  -5815333.140    -4531411.843    23612984.085           0.000    23612984.038  
  23612986.583        2419.087        1884.996          38.020          39.060  
 -26621981.889   -21536668.805    20150239.680           0.000    20150238.761  
  20150240.184          71.426          55.656          44.690          54.560  
  -9285254.340    -7235246.709    23647599.345           0.000    23647599.158  
  23647601.475        1859.267        1448.781          39.190          43.470  
  -7998006.437    -8630930.774    23339728.709    23339752.280    23339728.652  
  23339734.588       -2704.404       -2107.325          40.250          45.000  
  -1549855.415    -2483024.176    24916500.662    24916512.860    24916501.115  
  24916507.467        1244.909         970.052          32.230          41.310  
 -27015096.776   -21050703.726    20204567.765    20204598.560    20204568.418  
  20204569.449         887.443         691.512          46.770          56.060  
 15  7 19  2  4 30.0000000  0 11G 2G 5G12G13G15G18G20G21G25G26G29
 -10133201.912    -8423843.337    23211748.029           0.000    23211747.157  
  23211747.396       -1790.754       -1395.396          41.110          45.470  
 -17243679.389   -13775608.296    22190080.401    22190112.440    22190081.274  
  22190083.297       -2725.020       -2123.393          44.390          49.970  
  -2841189.888    -2213914.455    24768288.676    24768268.220    24768288.849  
  24768293.969       -3219.758       -2508.908          34.310          38.670  
 -17173814.733   -13382170.236    21814482.708           0.000    21814482.707  
  21814484.587         960.662         748.571          44.210          48.520  
 -20457529.511   -15940904.941    21499254.983    21499278.850    21499255.588  
  21499257.410        2454.350        1912.480          45.600          51.390  
  -5887793.331    -4587874.206    23599195.909           0.000    23599195.792  
  23599198.780        2411.571        1879.151          38.080          39.950  
 -26623926.879   -21538184.363    20149869.191           0.000    20149868.862  
  20149869.933          58.231          45.375          44.910          54.530  
  -9341048.258    -7278722.433    23636982.245           0.000    23636981.292  
  23636983.684        1860.311        1449.594          38.810          43.690  
  -7916796.724    -8567650.537    23355182.746    23355206.480    23355182.111  
  23355188.041       -2709.565       -2111.346          40.440          44.030  
  -1586964.010    -2511940.346    24909437.054    24909499.290    24909438.995  
  24909446.104        1229.030         957.676          33.050          41.040  
 -27041471.718   -21071255.631    20199548.960    20199566.030    20199549.458  
  20199550.561         870.879         678.606          46.830          56.140  
 15  7 19  2  5  0.0000000  0 11G 2G 5G12G13G15G18G20G21G25G26G29
 -10079408.388    -8381926.335    23221985.059           0.000    23221983.360  
  23221984.455       -1795.510       -1399.093          40.180          45.320  
 -17161856.760   -13711850.414    22205651.409    22205683.300    22205651.783  
  22205653.698       -2729.839       -2127.147          44.510          50.080  
  -2744665.302    -2138700.553    24786655.485    24786692.970    24786656.661  
  24786662.318       -3215.224       -2505.360          34.520          38.680  
 -17202364.572   -13404416.830    21809049.366           0.000    21809049.824  
  21809051.868         942.628         734.517          44.360          48.580  
 -20530957.608   -15998121.577    21485281.564    21485314.220    21485282.043  
  21485284.339        2440.812        1901.928          45.270          51.470  
  -5960027.766    -4644160.650    23585449.341           0.000    23585449.551  
  23585453.285        2404.040        1873.278          38.100          40.080  
 -26625476.575   -21539391.901    20149574.731           0.000    20149574.045  
  20149575.085          45.064          35.113          44.750          54.570  
  -9396873.505    -7322222.562    23626358.825           0.000    23626358.294  
  23626360.787        1861.364        1450.417          38.820          44.070  
  -7835433.818    -8504250.896    23370664.656    23370736.020    23370665.102  
  23370670.179       -2714.633       -2115.299          40.670          43.120  
  -1623595.209    -2540484.544    24902468.159    24902471.880    24902469.100  
  24902475.299        1213.068         945.255          33.100          41.950  
 -27067348.742   -21091419.544    20194624.913    20194654.860    20194625.219  
  20194626.381         854.237         665.639          46.760          56.210  
 15  7 19  2  5 30.0000000  0 11G 2G 5G12G13G15G18G20G21G25G26G29
 -10025472.346    -8339898.276    23232246.740           0.000    23232246.987  
  23232248.247       -1800.235       -1402.780          39.950          44.620  
 -17079891.101   -13647981.070    22221248.403    22221269.080    22221249.191  
  22221251.069       -2734.541       -2130.812          44.520          49.910  
  -2648278.671    -2063594.145    24804997.963    24805074.250    24804999.029  
  24805003.429       -3210.552       -2501.723          35.250          38.310  
 -17230372.981   -13426241.528    21803719.911           0.000    21803720.113  
  21803721.772         924.583         720.451          44.410          48.490  
 -20603978.283   -16055020.748    21471386.823    21471420.750    21471387.394  
  21471388.943        2427.213        1891.333          45.820          51.510  
  -6032035.969    -4700270.780    23571745.026           0.000    23571745.868  
  23571750.240        2396.513        1867.411          37.780          40.070  
 -26626631.929   -21540292.161    20149354.100           0.000    20149353.852  
  20149355.132          31.953          24.897          44.830          54.630  
  -9452730.301    -7365747.282    23615729.313           0.000    23615729.149  
  23615731.650        1862.433        1451.247          39.070          44.220  
  -7753920.862    -8440734.328    23386176.549    23386188.340    23386175.856  
  23386181.769       -2719.553       -2119.136          39.750          42.620  
  -1659748.812    -2568656.225    24895588.568    24895633.160    24895588.943  
  24895595.835        1197.148         932.850          33.620          42.460  
 -27092726.051   -21111194.065    20189795.573    20189823.700    20189795.948  
  20189797.331         837.566         652.649          46.610          56.280  
 15  7 19  2  6  0.0000000  0 11G 2G 5G12G13G15G18G20G21G25G26G29
  -9971393.541    -8297758.944    23242539.025           0.000    23242538.356  
  23242538.960       -1805.032       -1406.511          39.270          44.240  
 -16997784.605   -13584001.978    22236873.670    22236887.990    22236874.144  
  22236875.189       -2739.214       -2134.455          44.320          49.560  
  -2552032.817    -1988597.449    24823312.056    24823351.230    24823313.514  
  24823319.092       -3205.849       -2498.057          34.760          38.360  
 -17257838.473   -13447643.177    21798493.576           0.000    21798493.752  
  21798494.920         906.429         706.309          43.870          48.300  
 -20676588.988   -16111600.461    21457569.709    21457595.190    21457570.330  
  21457571.513        2413.474        1880.626          45.600          51.150  
  -6103817.473    -4756204.298    23558087.050           0.000    23558086.512  
  23558090.972        2388.917        1861.490          37.640          40.540  
 -26627393.897   -21540885.885    20149208.088           0.000    20149208.720  
  20149210.281          18.834          14.680          44.020          54.530  
  -9508618.719    -7409296.636    23605094.664           0.000    23605093.894  
  23605096.118        1863.455        1452.042          38.510          43.900  
  -7672261.034    -8377103.331    23401716.066    23401761.300    23401715.208  
  23401721.025       -2724.432       -2122.925          38.960          42.300  
  -1695423.191    -2596454.874    24888799.860    24888834.470    24888800.911  
  24888806.430        1181.155         920.386          32.080          42.130  
 -27117602.037   -21130577.940    20185061.452    20185090.440    20185061.865  
  20185063.500         820.800         639.583          45.640          56.120  
 15  7 19  2  6 30.0000000  0 11G 2G 5G12G13G15G18G20G21G25G26G29
  -9917171.411    -8255507.936    23252857.579           0.000    23252856.393  
  23252856.760       -1809.795       -1410.231          39.910          44.270  
 -16915539.552   -13519914.918    22252524.360    22252551.000    22252524.408  
  22252525.957       -2743.794       -2138.023          44.680          49.780  
  -2455929.941    -1913712.152    24841601.955    24841613.500    24841601.657  
  24841607.120       -3201.011       -2494.296          36.390          39.650  
 -17284759.452   -13468620.528    21793370.730           0.000    21793371.012  
  21793371.953         888.269         692.156          44.700          48.450  
 -20748787.098   -16167858.680    21443830.443    21443870.770    21443831.098  
  21443832.382        2399.690        1869.889          46.210          51.220  
  -6175372.020    -4811960.931    23544471.453           0.000    23544471.240  
  23544473.646        2381.350        1855.599          39.160          40.460  
 -26627763.873   -21541174.166    20149138.479           0.000    20149138.400  
  20149139.959           5.804           4.522          44.920          54.830  
  -9564539.019    -7452870.849    23594452.704           0.000    23594452.788  
  23594454.883        1864.531        1452.877          39.510          43.910  
  -7590457.607    -8313360.429    23417281.636    23417330.340    23417281.734  
  23417288.736       -2729.141       -2126.602          39.420          43.280  
  -1730618.677    -2623880.010    24882103.171    24882114.350    24882103.193  
  24882109.228        1165.181         907.938          34.190          43.260  
 -27141975.043   -21149569.886    20180423.528    20180455.460    20180423.588  
  20180425.323         804.025         626.515          46.400          56.300  
 15  7 19  2  7  0.0000000  0 11G 2G 5G12G13G15G18G20G21G25G26G29
  -9862805.630    -8213144.986    23263202.440           0.000    23263201.574  
  23263203.215       -1814.604       -1413.973          39.560          44.940  
 -16833157.839   -13455721.387    22268200.376    22268236.810    22268200.903  
  22268202.581       -2748.314       -2141.541          44.090          49.580  
  -2359972.583    -1838940.267    24859861.714    24859911.010    24859861.596  
  24859867.322       -3196.131       -2490.484          36.810          39.300  
 -17311134.307   -13489172.329    21788350.890           0.000    21788351.256  
  21788353.236         870.029         677.948          44.170          48.480  
 -20820569.630   -16223793.066    21430170.565    21430197.180    21430171.455  
  21430172.409        2385.790        1859.057          46.360          51.140  
  -6246698.901    -4867540.187    23530896.959           0.000    23530897.259  
  23530901.427        2373.758        1849.675          38.890          41.490  
 -26627743.208   -21541158.053    20149142.910           0.000    20149142.597  
  20149143.714          -7.192          -5.604          44.950          54.720  
  -9620490.783    -7496469.579    23583805.312           0.000    23583805.678  
  23583807.429        1865.583        1453.698          39.650          44.000  
  -7508513.601    -8249508.010    23432875.155    23432904.290    23432875.074  
  23432882.768       -2733.781       -2130.213          38.930          43.910  
  -1765334.078    -2650931.048    24875496.372    24875541.040    24875496.911  
  24875503.322        1149.169         895.456          34.620          43.400  
 -27165843.740   -21168168.866    20175881.598    20175909.980    20175881.690  
  20175883.261         787.200         613.403          46.410          56.300  
 15  7 19  2  7 30.0000000  0 11G 2G 5G12G13G15G18G20G21G25G26G29
  -9808295.259    -8170669.365    23273574.266           0.000    23273574.434  
  23273575.433       -1819.422       -1417.733          39.390          44.280  
 -16750641.426   -13391422.892    22283903.374    22283923.890    22283903.565  
  22283904.508       -2752.765       -2145.012          44.280          49.110  
  -2264163.324    -1764283.742    24878093.722    24878123.320    24878093.144  
  24878099.434       -3191.140       -2486.610          36.250          39.610  
 -17336961.197   -13509297.144    21783435.790           0.000    21783436.645  
  21783438.522         851.747         663.699          44.080          48.470  
 -20891933.876   -16279401.517    21416590.107    21416625.750    21416590.953  
  21416592.222        2371.817        1848.168          45.840          51.120  
  -6317797.445    -4922941.510    23517367.497           0.000    23517367.490  
  23517371.099        2366.142        1843.741          38.340          41.430  
 -26627332.608   -21540838.095    20149220.680           0.000    20149220.614  
  20149221.925         -20.170         -15.713          44.630          54.650  
  -9676473.976    -7540092.800    23573153.591           0.000    23573152.832  
  23573154.151        1866.625        1454.513          39.960          43.940  
  -7426432.108    -8185548.462    23448495.405    23448545.910    23448495.602  
  23448502.368       -2738.305       -2133.742          38.720          43.800  
  -1799568.556    -2677607.370    24868981.267    24869012.330    24868982.197  
  24868988.922        1133.114         882.963          34.260          43.170  
 -27189206.335   -21186373.477    20171435.036    20171458.890    20171435.968  
  20171437.533         770.302         600.234          46.200          56.240  
 15  7 19  2  8  0.0000000  0 11G 2G 5G12G13G15G18G20G21G25G26G29
  -9753640.309    -8128081.087    23283976.160           0.000    23283975.485  
  23283976.098       -1824.254       -1421.489          39.990          44.230  
 -16667992.688   -13327021.280    22299630.830    22299646.020    22299631.173  
  22299632.202       -2757.154       -2148.430          44.400          49.080  
  -2168504.693    -1689744.600    24896296.484    24896307.540    24896296.684  
  24896302.663       -3186.083       -2482.652          37.090          40.200  
 -17362239.155   -13528994.211    21778626.710           0.000    21778626.913  
  21778627.946         833.427         649.421          44.520          48.480  
 -20962877.054   -16334681.862    21403090.721    21403113.580    21403091.294  
  21403091.903        2357.709        1837.175          46.290          51.150  
  -6388667.731    -4978164.949    23503881.779           0.000    23503881.557  
  23503885.950        2358.527        1837.808          39.350          42.820  
 -26626533.437   -21540215.357    20149372.806           0.000    20149372.561  
  20149373.967         -33.107         -25.797          44.900          54.700  
  -9732488.760    -7583740.648    23562493.823           0.000    23562493.362  
  23562494.985        1867.670        1455.331          40.410          43.870  
  -7344216.541    -8121484.429    23464139.249    23464155.130    23464140.065  
  23464147.414       -2742.725       -2137.192          38.730          44.300  
  -1833321.723    -2703908.636    24862558.321    24862600.430    24862559.222  
  24862566.190        1117.069         870.444          34.880          43.360  
 -27212061.465   -21204182.663    20167087.110    20167109.450    20167086.965  
  20167088.300         753.353         587.031          46.510          56.350  
 15  7 19  2  8 30.0000000  0 11G 2G 5G12G13G15G18G20G21G25G26G29
  -9698840.024    -8085379.557    23294402.680           0.000    23294403.114  
  23294402.660       -1829.109       -1425.273          39.340          42.310  
 -16585213.557   -13262518.074    22315382.942    22315411.250    22315383.447  
  22315384.372       -2761.456       -2151.784          43.880          48.880  
  -2072998.791    -1615324.460    24914469.624    24914494.090    24914471.340  
  24914476.940       -3180.950       -2478.670          36.830          40.640  
 -17386965.976   -13548261.831    21773921.189           0.000    21773921.398  
  21773922.783         815.033         635.090          44.220          48.500  
 -21033396.100   -16389631.714    21389670.751    21389698.190    21389671.394  
  21389673.266        2343.536        1826.133          45.600          51.350  
  -6459309.038    -5033209.974    23490439.126           0.000    23490438.519  
  23490442.070        2350.891        1831.858          39.300          42.240  
 -26625346.665   -21539290.586    20149598.986           0.000    20149598.549  
  20149599.835         -46.010         -35.851          44.650          54.620  
  -9788534.986    -7627413.000    23551826.505           0.000    23551827.786  
  23551829.358        1868.738        1456.154          39.630          43.740  
  -7261869.742    -8057318.150    23479810.666    23479832.850    23479810.596  
  23479817.868       -2747.037       -2140.555          38.810          44.810  
  -1866592.798    -2729834.236    24856227.972    24856258.440    24856227.933  
  24856235.633        1101.007         857.925          34.480          42.950  
 -27234406.905   -21221594.686    20162834.067    20162865.020    20162834.545  
  20162836.017         736.346         573.776          46.080          56.160  
 15  7 19  2  9  0.0000000  0 11G 2G 5G12G13G15G18G20G21G25G26G29
  -9643894.068    -8042564.528    23304860.269           0.000    23304858.584  
  23304858.994       -1833.988       -1429.086          38.830          42.420  
 -16502306.020   -13197914.802    22331159.508    22331189.710    22331160.393  
  22331161.193       -2765.718       -2155.108          44.540          48.860  
  -1977648.375    -1541025.484    24932616.416    24932663.760    24932616.389  
  24932621.905       -3175.729       -2474.601          37.350          41.760  
 -17411140.482   -13567099.086    21769320.880           0.000    21769321.269  
  21769322.435         796.571         620.707          44.490          48.450  
 -21103488.782   -16444249.330    21376333.230    21376363.670    21376333.405  
  21376334.869        2329.271        1815.014          45.990          51.470  
  -6529720.871    -5088076.174    23477039.961           0.000    23477039.206  
  23477043.646        2343.205        1825.869          39.630          43.150  
 -26623773.783   -21538064.949    20149897.350           0.000    20149897.568  
  20149899.088         -58.870         -45.871          44.850          54.600  
  -9844612.600    -7671109.812    23541157.034           0.000    23541157.132  
  23541158.186        1869.763        1456.958          39.840          44.340  
  -7179395.029    -7993052.200    23495505.176    23495530.740    23495505.180  
  23495511.929       -2751.270       -2143.847          38.740          44.770  
  -1899381.334    -2755383.808    24849987.650    24850030.010    24849989.282  
  24849996.124        1084.885         845.369          35.490          42.480  
 -27256241.510   -21238608.654    20158678.953    20158703.050    20158679.400  
  20158681.050         719.273         560.472          46.370          56.270  
 15  7 19  2  9 30.0000000  0 11G 2G 5G12G13G15G18G20G21G25G26G29
  -9588801.649    -7999635.365    23315341.933           0.000    23315342.207  
  23315343.189       -1838.844       -1432.873          38.460          42.130  
 -16419272.030   -13133212.990    22346960.783    22346996.480    22346961.004  
  22346962.058       -2769.895       -2158.358          44.520          48.690  
  -1882455.745    -1466849.446    24950731.261    24950749.030    24950730.477  
  24950736.231       -3170.449       -2470.469          36.470          41.730  
 -17434761.125   -13585504.747    21764825.781           0.000    21764826.189  
  21764827.412         778.113         606.318          44.430          48.480  
 -21173152.051   -16498532.339    21363075.874    21363102.210    21363076.799  
  21363078.476        2314.912        1803.825          45.810          51.570  
  -6599902.830    -5142763.275    23463683.643           0.000    23463684.363  
  23463687.701        2335.549        1819.909          40.270          42.950  
 -26621815.731   -21536539.184    20150271.185           0.000    20150270.422  
  20150271.654         -71.675         -55.849          44.910          54.610  
  -9900721.463    -7714830.972    23530480.240           0.000    23530479.614  
  23530480.960        1870.814        1457.773          39.440          44.590  
  -7096795.485    -7928688.973    23511223.300    23511269.520    23511223.127  
  23511230.233       -2755.365       -2147.040          38.440          45.040  
  -1931686.606    -2780556.818    24843841.816    24843880.760    24843841.830  
  24843848.858        1068.785         832.827          35.850          42.620  
 -27277564.299   -21255223.802    20154621.348    20154652.280    20154621.906  
  20154623.502         702.206         547.174          46.440          56.380  
 15  7 19  2 10  0.0000000  0 11G 2G 5G12G13G15G18G20G21G25G26G29
  -9533562.439    -7956591.809    23325855.421           0.000    23325854.548  
  23325854.347       -1843.755       -1436.693          38.550          41.930  
 -16336113.553   -13068414.179    22362784.813    22362825.920    22362785.160  
  22362786.412       -2773.983       -2161.541          43.850          48.410  
  -1787423.462    -1392798.349    24968813.991    24968834.920    24968815.101  
  24968820.375       -3165.036       -2466.264          36.400          41.410  
 -17457826.606   -13603477.820    21760436.774           0.000    21760436.877  
  21760438.518         759.568         591.874          44.550          48.560  
 -21242383.351   -16552478.750    21349901.644    21349924.880    21349902.049  
  21349903.960        2300.480        1792.580          45.830          51.440  
  -6669855.009    -5197271.321    23450372.197           0.000    23450372.962  
  23450376.730        2327.887        1813.939          40.200          43.140  
 -26619473.693   -21534714.203    20150715.776           0.000    20150715.972  
  20150717.543         -84.459         -65.811          45.020          54.740  
  -9956861.566    -7758576.472    23519796.345           0.000    23519795.681  
  23519798.001        1871.859        1458.592          39.280          44.680  
  -7014074.306    -7864230.999    23526965.367    23526998.780    23526964.449  
  23526971.279       -2759.354       -2150.150          38.600          45.280  
  -1963508.214    -2805352.916    24837784.570    24837788.200    24837785.916  
  24837793.105        1052.646         820.257          35.680          42.600  
 -27298373.657   -21271438.868    20150661.870    20150693.640    20150662.359  
  20150663.615         685.062         533.815          46.760          56.440  
 15  7 19  2 10 30.0000000  0 11G 2G 5G12G13G15G18G20G21G25G26G29
  -9478175.961    -7913433.499    23336394.119           0.000    23336394.196  
  23336394.692       -1848.703       -1440.551          39.380          42.240  
 -16252833.211   -13003520.408    22378632.646    22378656.240    22378633.210  
  22378634.149       -2778.031       -2164.702          44.050          48.360  
  -1692554.222    -1318874.287    24986868.195    24986900.210    24986867.808  
  24986873.275       -3159.571       -2462.007          36.610          41.490  
 -17480335.229   -13621016.982    21756152.690           0.000    21756153.690  
  21756155.186         740.977         577.381          44.300          48.610  
 -21311180.149   -16606086.592    21336810.183    21336841.270    21336810.719  
  21336812.181        2285.951        1781.257          45.860          51.390  
  -6739576.454    -5251599.591    23437105.266           0.000    23437105.564  
  23437108.569        2320.167        1807.917          40.380          42.960  
 -26616748.788   -21532590.885    20151235.300           0.000    20151234.671  
  20151236.004         -97.206         -75.747          45.110          54.770  
 -10013032.631    -7802346.103    23509107.800           0.000    23509107.535  
  23509108.708        1872.882        1459.384          39.770          44.650  
  -6931234.596    -7799680.637    23542728.316    23542750.290    23542728.573  
  23542735.245       -2763.275       -2153.192          39.500          45.360  
  -1994845.584    -2829771.659    24831822.691    24831843.450    24831822.277  
  24831830.285        1036.507         807.664          35.710          43.100  
 -27318667.737   -21287252.425    20146800.763    20146839.390    20146800.930  
  20146801.642         667.853         520.405          46.860          56.470  
 15  7 19  2 11  0.0000000  0 11G 2G 5G12G13G15G18G20G21G25G26G29
  -9422641.595    -7870159.962    23346962.645           0.000    23346961.276  
  23346962.659       -1853.604       -1444.367          39.040          42.780  
 -16169432.661   -12938532.977    22394503.151    22394533.310    22394503.480  
  22394504.865       -2781.992       -2167.786          43.690          48.330  
  -1597850.312    -1245079.065    25004889.081    25004912.210    25004888.830  
  25004895.004       -3153.984       -2457.664          35.450          42.020  
 -17502286.041   -13638121.478    21751976.275           0.000    21751976.483  
  21751977.918         722.388         562.898          44.450          48.420  
 -21379539.903   -16659353.875    21323801.505    21323836.340    21323802.222  
  21323803.874        2271.348        1769.880          45.580          51.440  
  -6809066.989    -5305747.926    23423882.571           0.000    23423882.077  
  23423885.312        2312.506        1801.953          40.360          42.960  
 -26613642.584   -21530170.453    20151826.184           0.000    20151825.809  
  20151826.998        -109.874         -85.618          45.140          54.740  
 -10069234.774    -7846139.958    23498413.457           0.000    23498411.910  
  23498414.146        1873.929        1460.203          39.350          44.970  
  -6848279.564    -7735040.412    23558513.503    23558532.710    23558515.092  
  23558520.566       -2767.034       -2156.132          40.010          45.090  
  -2025698.352    -2853812.778    24825951.628    24825986.330    24825952.286  
  24825959.088        1020.349         795.078          36.350          42.950  
 -27338445.260   -21302663.468    20143036.452    20143060.180    20143036.861  
  20143038.088         650.634         506.988          46.620          56.510  
 15  7 19  2 11 30.0000000  0 11G 2G 5G12G13G15G18G20G21G25G26G29
  -9366959.251    -7826771.106    23357557.916           0.000    23357557.643  
  23357559.019       -1858.571       -1448.232          39.790          43.320  
 -16085913.768   -12873453.333    22410396.181    22410421.940    22410396.662  
  22410397.650       -2785.920       -2170.846          43.530          48.050  
  -1503313.866    -1171414.322    25022876.752    25022915.840    25022878.871  
  25022884.572       -3148.410       -2453.303          36.040          41.820  
 -17523677.457   -13654790.088    21747905.805           0.000    21747906.471  
  21747907.162         703.695         548.334          44.770          48.500  
 -21447459.450   -16712278.146    21310877.488    21310906.550    21310878.095  
  21310879.094        2256.600        1758.390          45.960          51.550  
  -6878326.413    -5359716.208    23410702.537           0.000    23410701.853  
  23410705.049        2304.780        1795.925          40.060          42.000  
 -26610156.002   -21527453.621    20152489.610           0.000    20152489.257  
  20152490.430        -122.550         -95.492          45.170          54.740  
 -10125467.758    -7889957.836    23487711.133           0.000    23487711.217  
  23487713.713        1874.931        1460.983          39.620          45.280  
  -6765212.290    -7670312.729    23574321.787    23574355.360    23574321.937  
  23574328.076       -2770.749       -2159.026          39.890          44.960  
  -2056065.914    -2877475.824    24820172.687    24820202.640    24820173.245  
  24820179.758        1004.158         782.461          36.180          42.790  
 -27357704.729   -21317670.828    20139372.002    20139394.350    20139372.004  
  20139373.350         633.319         493.496          46.750          56.630  
 15  7 19  2 12  0.0000000  0 11G 2G 5G12G13G15G18G20G21G25G26G29
  -9311128.006    -7783266.223    23368181.918           0.000    23368182.231  
  23368183.029       -1863.553       -1452.123          40.260          43.700  
 -16002278.736   -12808283.176    22426312.190    22426349.260    22426312.224  
  22426313.462       -2789.771       -2173.848          43.820          48.460  
  -1408947.347    -1097881.968    25040836.213    25040859.580    25040836.520  
  25040841.873       -3142.705       -2448.854          36.820          41.630  
 -17544507.909   -13671021.583    21743941.764           0.000    21743942.335  
  21743943.587         684.966         533.738          44.560          48.710  
 -21514936.246   -16764857.413    21298035.743    21298064.600    21298036.884  
  21298038.734        2241.808        1746.860          45.900          51.670  
  -6947354.123    -5413503.917    23397566.795           0.000    23397566.539  
  23397569.789        2297.032        1789.886          40.310          41.910  
 -26606290.074   -21524441.191    20153225.284           0.000    20153224.965  
  20153226.154        -135.191        -105.347          45.280          54.720  
 -10181731.198    -7933799.442    23477004.985           0.000    23477004.985  
  23477006.994        1875.933        1461.771          39.700          45.090  
  -6682035.743    -7605499.896    23590149.871    23590187.910    23590149.501  
  23590156.187       -2774.355       -2161.833          39.750          45.260  
  -2085947.787    -2900760.385    24814486.038    24814537.400    24814486.810  
  24814493.254         987.957         769.832          36.660          42.200  
 -27376444.303   -21332273.080    20135806.199    20135829.310    20135806.106  
  20135807.503         615.962         479.968          46.870          56.700  
 15  7 19  2 12 30.0000000  0 11G 2G 5G12G13G15G18G20G21G25G26G29
  -9255147.384    -7739644.962    23378834.333           0.000    23378834.647  
  23378835.972       -1868.516       -1455.985          40.110          44.240  
 -15918529.382   -12743023.951    22442248.635    22442257.760    22442249.417  
  22442250.166       -2793.527       -2176.776          44.110          48.560  
  -1314753.039    -1024483.814    25058760.457    25058766.770    25058760.380  
  25058766.428       -3136.925       -2444.355          35.090          41.190  
 -17564776.226   -13686815.056    21740084.475           0.000    21740084.777  
  21740086.642         666.219         519.131          44.070          48.630  
 -21581967.884   -16817089.810    21285281.222    21285306.780    21285281.355  
  21285282.878        2226.931        1735.269          45.700          51.700  
  -7016149.940    -5467110.947    23384474.401           0.000    23384474.444  
  23384478.054        2289.320        1783.880          39.620          41.660  
 -26602046.240   -21521134.285    20154032.590           0.000    20154032.611  
  20154033.704        -147.745        -115.124          45.080          54.580  
 -10238025.284    -7977664.940    23466291.892           0.000    23466292.157  
  23466294.582        1876.948        1462.553          39.630          44.770  
  -6598753.183    -7540604.467    23605997.579    23606039.990    23605997.749  
  23606004.987       -2777.829       -2164.529          39.280          45.430  
  -2115343.610    -2923666.231    24808890.552    24808916.070    24808892.488  
  24808899.968         971.755         757.211          36.270          41.770  
 -27394662.989   -21346469.443    20132338.407    20132365.640    20132338.642  
  20132340.406         598.583         466.428          46.330          56.570  
 15  7 19  2 13  0.0000000  0 11G 2G 5G12G13G15G18G20G21G25G26G29
  -9199017.237    -7695907.191    23389516.917           0.000    23389515.768  
  23389516.938       -1873.490       -1459.862          40.230          44.340  
 -15834667.766   -12677677.227    22458207.066    22458227.690    22458207.358  
  22458209.110       -2797.232       -2179.663          43.640          49.060  
  -1220733.206     -951221.638    25076652.577    25076682.680    25076652.190  
  25076657.956       -3131.022       -2439.761          35.470          41.030  
 -17584481.242   -13702169.581    21736334.416           0.000    21736335.214  
  21736336.716         647.440         504.497          44.150          48.460  
 -21648551.846   -16868973.361    21272610.319    21272648.320    21272610.995  
  21272612.764        2211.984        1723.622          46.010          51.930  
  -7084713.716    -5520537.172    23371427.799           0.000    23371427.304  
  23371429.819        2281.592        1777.868          39.260          41.330  
 -26597425.766   -21517533.889    20154912.176           0.000    20154911.818  
  20154912.846        -160.263        -124.883          45.200          54.570  
 -10294350.160    -8021554.431    23455573.674           0.000    23455573.764  
  23455576.059        1878.014        1463.385          40.080          44.450  
  -6515367.903    -7475628.993    23621865.833    23621903.740    23621865.919  
  23621872.197       -2781.177       -2167.149          39.550          44.960  
  -2144253.111    -2946193.145    24803391.368    24803443.580    24803391.304  
  24803398.570         955.539         744.587          35.770          40.840  
 -27412359.501   -21360258.916    20128970.713    20128998.490    20128970.954  
  20128972.653         581.162         452.853          46.490          56.540  
 15  7 19  2 13 30.0000000  0 11G 2G 5G12G13G15G18G20G21G25G26G29
  -9142736.786    -7652052.328    23400226.903           0.000    23400225.970  
  23400227.233       -1878.515       -1463.777          40.840          45.340  
 -15750695.669   -12612244.450    22474185.690    22474198.900    22474186.512  
  22474188.264       -2800.878       -2182.500          43.240          49.110  
  -1126891.035     -878097.866    25094511.423    25094492.060    25094510.347  
  25094515.359       -3125.080       -2435.132          35.060          40.270  
 -17603621.499   -13717084.035    21732692.589           0.000    21732692.810  
  21732694.395         628.597         489.812          43.980          48.430  
 -21714685.346   -16920505.914    21260025.625    21260057.440    21260026.274  
  21260027.545        2196.920        1711.882          45.970          51.800  
  -7153044.628    -5573781.920    23358424.238           0.000    23358424.603  
  23358427.802        2273.805        1771.798          39.470          42.000  
 -26592429.900   -21513640.982    20155862.340           0.000    20155862.084  
  20155863.480        -172.775        -134.629          44.900          54.470  
 -10350705.317    -8065467.521    23444849.841           0.000    23444849.819  
  23444852.070        1879.005        1464.157          40.170          44.220  
  -6431882.779    -7410575.712    23637753.174    23637772.390    23637752.725  
  23637758.819       -2784.453       -2169.702          38.660          44.550  
  -2172675.722    -2968340.644    24797983.691    24797999.350    24797983.459  
  24797989.798         939.312         731.927          36.480          41.180  
 -27429532.071   -21373640.122    20125702.990    20125726.210    20125703.421  
  20125704.691         563.691         439.240          46.510          56.460  
 15  7 19  2 14  0.0000000  0 11G 2G 5G12G13G15G18G20G21G25G26G29
  -9086306.113    -7608080.420    23410963.996           0.000    23410964.671  
  23410965.925       -1883.547       -1467.695          40.380          45.360  
 -15666615.618   -12546727.536    22490185.563    22490210.900    22490186.754  
  22490187.969       -2804.466       -2185.297          43.500          48.780  
  -1033228.697     -805114.230    25112333.601    25112406.130    25112332.966  
  25112339.117       -3119.095       -2430.451          34.010          40.090  
 -17622196.030   -13731557.677    21729157.290           0.000    21729158.031  
  21729159.789         609.693         475.083          43.980          48.580  
 -21780365.987   -16971685.588    21247526.690    21247556.350    21247527.277  
  21247528.940        2181.761        1700.072          45.900          51.800  
  -7221142.529    -5626845.120    23345465.501           0.000    23345465.420  
  23345468.741        2266.023        1765.731          39.170          41.460  
 -26587060.039   -21509456.643    20156884.227           0.000    20156883.662  
  20156885.023        -185.229        -144.332          44.770          54.390  
 -10407090.714    -8109404.168    23434120.423           0.000    23434120.859  
  23434122.028        1879.998        1464.936          40.390          44.110  
  -6348301.145    -7345447.247    23653656.908    23653693.370    23653656.960  
  23653663.698       -2787.641       -2172.186          37.580          43.850  
  -2200611.276    -2990108.615    24792665.654    24792674.620    24792667.300  
  24792673.262         923.040         719.255          36.760          40.370  
 -27446179.829   -21386612.392    20122534.842    20122566.290    20122535.540  
  20122536.777         546.138         425.563          46.620          56.400  
 15  7 19  2 14 30.0000000  0 11G 2G 5G12G13G15G18G20G21G25G26G29
  -9029723.848    -7563990.398    23421731.705           0.000    23421732.270  
  23421733.100       -1888.599       -1471.634          39.590          45.370  
 -15582428.916   -12481127.519    22506205.944    22506238.780    22506206.574  
  22506207.548       -2807.976       -2188.029          43.020          48.280  
   -939747.569     -732271.812    25130121.621    25130185.880    25130122.101  
  25130127.696       -3112.982       -2425.693          34.010          39.950  
 -17640203.062   -13745589.117    21725731.471           0.000    21725731.968  
  21725733.203         590.767         460.341          44.020          48.680  
 -21845590.720   -17022510.017    21235115.233    21235148.620    21235115.729  
  21235116.691        2166.527        1688.206          45.830          51.670  
  -7289007.031    -5679726.450    23332551.910           0.000    23332551.688  
  23332555.251        2258.267        1759.680          39.500          41.480  
 -26581317.009   -21504981.528    20157976.724           0.000    20157976.725  
  20157977.869        -197.629        -153.996          44.450          54.290  
 -10463505.782    -8153363.941    23423385.042           0.000    23423384.559  
  23423386.591        1880.994        1465.709          40.010          44.160  
  -6264625.681    -7280245.675    23669580.729    23669622.020    23669580.310  
  23669586.347       -2790.694       -2174.569          36.550          42.540  
  -2228058.826    -3011496.466    24787444.718    24787464.050    24787443.999  
  24787450.839         906.301         706.592          36.050          41.110  
 -27462300.740   -21399174.125    20119467.535    20119494.520    20119468.026  
  20119468.873         528.567         411.870          46.500          56.240  
 15  7 19  2 15  0.0000000  0 11G 2G 5G12G13G15G18G20G21G25G26G29
  -8972990.220    -7519782.435    23432527.568           0.000    23432528.278  
  23432528.886       -1893.660       -1475.575          39.270          45.260  
 -15498138.146   -12415446.395    22522245.746    22522267.910    22522246.608  
  22522247.707       -2811.425       -2190.723          43.280          48.220  
   -846451.057     -659573.231    25147875.586    25147872.170    25147875.651  
  25147881.727       -3106.792       -2420.881          33.640          39.370  
 -17657642.172   -13759178.014    21722413.031           0.000    21722413.648  
  21722414.796         571.798         445.557          44.620          48.910  
 -21910357.537   -17072977.629    21222790.310    21222817.780    21222790.908  
  21222792.309        2151.222        1676.276          46.250          52.000  
  -7356638.190    -5732425.952    23319682.319           0.000    23319681.832  
  23319684.357        2250.456        1753.608          39.770          41.160  
 -26575202.634   -21500217.053    20159140.939           0.000    20159140.405  
  20159141.558        -210.004        -163.639          45.040          54.480  
 -10519950.675    -8197346.938    23412644.164           0.000    23412643.608  
  23412645.700        1882.000        1466.486          40.340          44.420  
  -6180860.142    -7214973.892    23685520.142    23685541.810    23685520.160  
  23685527.230       -2793.662       -2176.879          37.390          42.650  
  -2255018.647    -3032504.352    24782313.493    24782324.180    24782313.556  
  24782320.098         890.531         693.926          36.560          41.130  
 -27477894.302   -21411324.940    20116500.528    20116519.450    20116500.757  
  20116501.343         510.961         398.154          46.960          56.300  
 15  7 19  2 15 30.0000000  0 11G 2G 5G12G13G15G18G20G21G25G26G29
  -8916104.271    -7475455.768    23443353.725           0.000    23443353.614  
  23443353.451       -1898.747       -1479.543          40.520          45.010  
 -15413744.753   -12349685.323    22538306.021    22538348.780    22538306.682  
  22538307.335       -2814.805       -2193.351          43.750          48.290  
   -753341.042     -587019.972    25165596.182    25165566.890    25165594.534  
  25165599.809       -3100.535       -2416.000          33.780          38.840  
 -17674511.571   -13772322.974    21719203.144           0.000    21719203.331  
  21719204.224         552.792         430.749          44.320          48.500  
 -21974663.832   -17123086.385    21210552.894    21210584.080    21210553.383  
  21210554.949        2135.833        1664.283          45.670          52.050  
  -7424035.163    -5784942.962    23306855.296           0.000    23306855.446  
  23306859.021        2242.659        1747.525          39.070          41.090  
 -26568717.727   -21495163.846    20160374.963           0.000    20160374.630  
  20160375.761        -222.332        -173.245          44.920          54.500  
 -10576425.115    -8241352.970    23401897.589           0.000    23401897.096  
  23401899.055        1882.963        1467.244          40.160          44.470  
  -6097007.096    -7149633.937    23701476.949    23701510.660    23701477.163  
  23701483.566       -2796.521       -2179.111          37.600          42.220  
  -2281490.413    -3053131.687    24777274.472    24777294.650    24777275.669  
  24777282.505         874.248         681.232          35.440          40.110  
 -27492958.776   -21423063.476    20113634.363    20113655.760    20113634.286  
  20113634.722         493.313         384.399          46.890          56.310  
 15  7 19  2 16  0.0000000  0 11G 2G 5G12G13G15G18G20G21G25G26G29
  -8859065.597    -7431010.097    23454207.873           0.000    23454207.220  
  23454208.133       -1903.841       -1483.507          39.950          45.260  
 -15329250.730   -12283845.823    22554384.948    22554411.600    22554385.241  
  22554385.813       -2818.116       -2195.935          43.320          47.760  
   -660419.811     -514613.799    25183277.030    25183257.230    25183276.552  
  25183282.114       -3094.206       -2411.077          32.980          37.990  
 -17690809.901   -13785022.950    21716101.497           0.000    21716101.691  
  21716102.209         533.749         415.903          44.160          48.270  
 -22038506.730   -17172834.052    21198404.045    21198440.270    21198404.446  
  21198406.018        2120.323        1652.198          45.680          52.040  
  -7491197.937    -5837277.493    23294074.754           0.000    23294074.665  
  23294078.503        2234.841        1741.432          39.410          41.130  
 -26561863.615   -21489822.952    20161678.974           0.000    20161678.616  
  20161680.023        -234.612        -182.814          44.730          54.450  
 -10632928.957    -8285381.896    23391144.794           0.000    23391144.736  
  23391146.256        1883.948        1468.013          40.270          44.340  
  -6013069.699    -7084228.232    23717450.403    23717487.810    23717449.836  
  23717456.487       -2799.298       -2181.262          37.610          41.840  
  -2307473.574    -3073378.256    24772329.754    24772434.280    24772330.879  
  24772337.770         857.968         668.549          35.870          39.540  
 -27507492.750   -21434388.641    20110868.444    20110880.450    20110868.489  
  20110869.170         475.613         370.606          46.830          56.390  
 15  7 19  2 16 30.0000000  0 11G 2G 5G12G13G15G18G20G21G25G26G29
  -8801874.360    -7386445.533    23465091.726           0.000    23465090.517  
  23465091.204       -1908.933       -1487.471          40.060          45.220  
 -15244658.356   -12217929.697    22570482.615    22570506.220    22570482.729  
  22570483.131       -2821.367       -2198.470          43.300          47.800  
   -567689.592     -442356.466    25200922.877    25200960.280    25200922.698  
  25200928.364       -3087.784       -2406.084          32.760          38.030  
 -17706536.628   -13797277.518    21713108.682           0.000    21713108.769  
  21713110.066         514.678         401.049          44.390          48.710  
 -22101883.668   -17222218.638    21186343.525    21186373.370    21186344.525  
  21186345.494        2104.776        1640.086          46.350          52.030  
  -7558126.655    -5889429.624    23281338.452           0.000    23281339.130  
  23281342.572        2227.051        1735.354          40.050          41.460  
 -26554641.751   -21484195.494    20163053.290           0.000    20163052.937  
  20163054.106        -246.844        -192.349          44.930          54.470  
 -10689462.504    -8329433.978    23380386.665           0.000    23380386.531  
  23380388.385        1884.931        1468.776          40.490          44.620  
  -5929051.368    -7018759.467    23733437.438    23733457.800    23733437.917  
  23733444.676       -2801.925       -2183.324          37.540          41.900  
  -2332968.185    -3093244.179    24767479.878    24767512.300    24767480.261  
  24767486.692         841.672         655.836          36.450          39.360  
 -27521495.522   -21445299.884    20108203.435    20108227.810    20108203.674  
  20108204.589         457.893         356.796          47.070          56.540  
 15  7 19  2 17  0.0000000  0 11G 2G 5G12G13G15G18G20G21G25G26G29
  -8744529.667    -7341761.405    23476002.598           0.000    23476002.178  
  23476003.148       -1914.036       -1491.459          38.660          44.820  
 -15159969.291   -12151938.219    22586597.673    22586630.410    22586598.119  
  22586599.347       -2824.562       -2200.953          42.730          48.020  
   -475153.008     -370250.046    25218532.129    25218606.160    25218531.321  
  25218536.857       -3081.295       -2401.006          32.520          37.710  
 -17721690.742   -13809085.899    21710224.909           0.000    21710225.216  
  21710226.237         495.578         386.162          44.330          48.560  
 -22164792.483   -17271238.456    21174373.730    21174408.890    21174373.858  
  21174374.398        2089.122        1627.887          46.460          51.970  
  -7624820.608    -5941398.833    23268648.530           0.000    23268648.354  
  23268651.147        2219.222        1729.260          40.440          41.400  
 -26547053.669   -21478282.674    20164497.073           0.000    20164496.684  
  20164498.026        -259.041        -201.849          44.500          54.360  
 -10746025.354    -8373508.888    23369623.354           0.000    23369623.258  
  23369624.978        1885.912        1469.550          40.440          44.750  
  -5844954.992    -6953229.894    23749440.717    23749460.890    23749440.734  
  23749448.141       -2804.462       -2185.302          37.270          42.170  
  -2357973.888    -3112729.122    24762722.112    24762723.440    24762722.575  
  24762727.726         825.385         643.165          37.280          38.780  
 -27534965.460   -21455795.925    20105639.783    20105666.760    20105640.583  
  20105641.292         440.105         342.939          46.840          56.500  
 15  7 19  2 17 30.0000000  0 11G 2G 5G12G13G15G18G20G21G25G26G29
  -8687030.819    -7296957.173    23486943.581           0.000    23486943.687  
  23486944.740       -1919.184       -1495.461          37.390          44.040  
 -15075185.290   -12085872.790    22602731.518    22602751.770    22602732.077  
  22602733.390       -2827.702       -2203.404          42.240          47.840  
   -382812.278     -298296.206    25236101.540    25236119.490    25236102.272  
  25236108.254       -3074.730       -2395.886          30.750          36.110  
 -17736270.452   -13820446.684    21707450.298           0.000    21707450.480  
  21707451.810         476.423         371.238          44.010          48.420  
 -22227230.329   -17319891.284    21162491.416    21162525.140    21162491.887  
  21162493.030        2073.403        1615.638          46.090          52.000  
  -7691279.520    -5993184.902    23256002.581           0.000    23256001.090  
  23256003.579        2211.400        1723.163          40.170          41.470  
 -26539099.968   -21472084.958    20166011.248           0.000    20166010.234  
  20166011.491        -271.179        -211.309          44.370          54.330  
 -10802617.125    -8417606.335    23358854.668           0.000    23358854.169  
  23358855.692        1886.901        1470.316          40.450          44.460  
  -5760783.584    -6887641.855    23765458.804    23765497.150    23765458.565  
  23765465.752       -2806.920       -2187.205          38.080          42.410  
  -2382490.387    -3131832.863    24758056.659    24758095.130    24758056.874  
  24758063.334         809.076         630.450          36.580          39.340  
 -27547901.332   -21465875.812    20103178.316    20103197.010    20103178.702  
  20103179.731         422.305         329.067          46.510          56.540  
 15  7 19  2 18  0.0000000  0 11G 2G 5G12G13G15G18G20G21G25G26G29
  -8629377.741    -7252032.738    23497913.529           0.000    23497914.547  
  23497915.439       -1924.366       -1499.501          36.640          43.840  
 -14990308.245   -12019734.831    22618883.182    22618909.040    22618883.803  
  22618884.742       -2830.765       -2205.795          42.500          47.680  
   -290669.527     -226496.608    25253635.909    25253684.940    25253636.938  
  25253642.480       -3068.108       -2390.744          31.380          36.070  
 -17750275.126   -13831359.377    21704785.371           0.000    21704785.650  
  21704786.587         457.216         356.270          44.470          48.410  
 -22289195.186   -17368175.542    21150699.525    21150725.560    21150700.228  
  21150701.437        2057.560        1603.293          46.070          52.170  
  -7757503.434    -6044787.846    23243398.163           0.000    23243398.947  
  23243401.655        2203.511        1717.022          40.600          42.100  
 -26530782.483   -21465603.774    20167593.469           0.000    20167593.078  
  20167594.404        -283.318        -220.767          44.550          54.430  
 -10859237.878    -8461726.381    23348079.571           0.000    23348079.721  
  23348080.676        1887.805        1471.019          40.800          44.150  
  -5676540.436    -6821997.892    23781489.929    23781522.640    23781489.440  
  23781495.813       -2809.288       -2189.053          38.970          41.750  
  -2406517.628    -3150555.350    24753483.132    24753543.950    24753483.905  
  24753491.562         792.727         617.712          35.880          39.780  
 -27560301.957   -21475538.624    20100819.111    20100839.740    20100818.990  
  20100819.916         404.404         315.120          46.730          56.550  
 15  7 19  2 18 30.0000000  0 11G 2G 5G12G13G15G18G20G21G25G26G29
  -8571569.816    -7206987.647    23508915.693           0.000    23508914.948  
  23508915.848       -1929.514       -1503.525          35.860          43.360  
 -14905340.506   -11953526.206    22635051.278    22635072.320    22635052.330  
  22635053.526       -2833.750       -2208.123          42.420          47.470  
   -198727.433     -154853.254    25271133.555    25271192.740    25271133.427  
  25271138.432       -3060.882       -2385.492          30.860          35.970  
 -17763703.723   -13841823.185    21702229.448           0.000    21702230.424  
  21702231.435         437.998         341.294          44.340          48.650  
 -22350684.694   -17416089.403    21138999.197    21139026.830    21138999.493  
  21139000.626        2041.688        1590.923          46.220          52.390  
  -7823491.546    -6096207.062    23230841.391           0.000    23230841.824  
  23230844.164        2195.673        1710.910          40.390          42.250  
 -26522102.466   -21458840.098    20169245.090           0.000    20169244.861  
  20169246.257        -295.361        -230.153          44.810          54.500  
 -10915887.043    -8505868.560    23337300.812           0.000    23337299.633  
  23337300.665        1888.775        1471.775          40.280          44.110  
  -5592228.553    -6756300.355    23797534.438    23797538.100    23797533.604  
  23797539.093       -2811.510       -2190.784          38.710          41.890  
  -2430055.368    -3168896.452    24749003.509    24749033.040    24749005.116  
  24749012.409         776.441         605.014          35.490          39.670  
 -27572166.274   -21484783.536    20098561.378    20098582.800    20098561.408  
  20098562.037         386.522         301.187          46.750          56.480  
 15  7 19  2 19  0.0000000  0 11G 2G 5G12G13G15G18G20G21G25G26G29
  -8513606.541    -7161821.510    23519943.573           0.000    23519944.682  
  23519945.298       -1934.732       -1507.580          34.780          42.190  
 -14820283.461   -11887247.994    22651237.605    22651254.840    22651238.101  
  22651239.775       -2836.734       -2210.438          42.350          47.550  
   -106987.064      -83367.674    25288591.417    25288666.820    25288590.851  
  25288595.722       -3056.065       -2380.236          29.280          34.880  
 -17776555.211   -13851837.304    21699784.409           0.000    21699784.770  
  21699786.123         418.712         326.266          44.060          48.780  
 -22411695.804   -17463630.485    21127388.635    21127419.600    21127389.088  
  21127390.363        2025.665        1578.440          46.010          52.460  
  -7889244.014    -6147442.640    23218331.018           0.000    23218329.564  
  23218332.556        2187.765        1704.758          40.200          43.210  
 -26513061.267   -21451794.993    20170965.316           0.000    20170965.177  
  20170966.828        -307.420        -239.549          44.700          54.500  
 -10972564.292    -8550032.619    23326514.145           0.000    23326514.226  
  23326515.310        1889.665        1472.474          40.380          44.390  
  -5507850.908    -6690551.590    23813590.677    23813618.650    23813590.040  
  23813596.524       -2813.687       -2192.482          38.210          42.910  
  -2453103.409    -3186855.969    24744620.022    24744656.000    24744619.541  
  24744625.203         760.080         592.271          35.760          38.980  
 -27583492.834   -21493609.416    20096405.743    20096434.280    20096406.092  
  20096406.569         368.543         287.175          46.710          56.460  
 15  7 19  2 19 30.0000000  0 11G 2G 5G12G13G15G18G20G21G25G26G29
  -8455487.495    -7116533.974    23531004.667           0.000    23531004.888  
  23531005.457       -1939.903       -1511.616          36.630          42.470  
 -14735139.169   -11820901.793    22667441.454    22667469.140    22667441.328  
  22667441.683       -2839.569       -2212.653          43.580          47.190  
    -15451.184      -12041.688    25306013.096    25306105.950    25306009.090  
  25306014.903       -3047.255       -2374.851          28.040          35.820  
 -17788828.543   -13861400.903    21697449.133           0.000    21697449.387  
  21697450.391         399.465         311.268          44.260          48.620  
 -22472226.327   -17510797.084    21115869.645    21115893.160    21115870.279  
  21115872.001        2009.655        1565.967          45.980          52.510  
  -7954760.263    -6198494.162    23205861.861           0.000    23205861.711  
  23205864.638        2179.948        1698.659          40.330          43.030  
 -26503660.021   -21444469.334    20172754.326           0.000    20172754.449  
  20172755.646        -319.362        -248.849          44.970          54.470  
 -11029269.340    -8594218.327    23315724.753           0.000    23315723.517  
  23315724.800        1890.626        1473.211          40.330          44.640  
  -5423410.554    -6624753.974    23829658.296    23829690.520    23829658.841  
  23829665.367       -2815.692       -2194.045          38.070          43.630  
  -2475661.605    -3204433.806    24740324.417    24740307.640    24740326.318  
  24740333.102         743.783         579.566          35.400          38.530  
 -27594280.481   -21502015.361    20094353.022    20094375.030    20094353.237  
  20094354.038         350.595         273.191          46.860          56.610  
