     2.11           Observation         G (GPS)             RINEX VERSION / TYPE
hgextrobs           John Knutson        11/04/2015 21:00:01 PGM / RUN BY / DATE
ARL1                                                        MARKER NAME
Monitor Station     NGA                                     OBSERVER / AGENCY
1                   ITT MSN SAASM       3.2.11              REC # / TYPE / VERS
1                   ITT 3750323-1                           ANT # / TYPE
  -740289.9180 -5457071.7340  3207245.5420                  APPROX POSITION XYZ
        0.0000        0.0000        0.0000                  ANTENNA: DELTA H/E/N
     1     1                                                WAVELENGTH FACT L1/2
    10    L1    L2    C1    C2    P1    P2    D1    D2    S1# / TYPES OF OBSERV
          S2                                                # / TYPES OF OBSERV
    30.000                                                  INTERVAL
  2015     7    19     0     0    0.0000000     GPS         TIME OF FIRST OBS
85408                                                       MARKER NUMBER
                                                            END OF HEADER
 15  7 19  0  0  0.0000000  0  8G 2G 5G 6G10G12G20G25G29
 -20304412.007   -16349457.595    21276226.827           0.000    21276226.702  
  21276226.580       -1011.373        -788.086          45.770          51.240  
 -27322319.697   -21629094.896    20272180.010    20272200.350    20272180.144  
  20272181.743         684.793         533.603          46.160          56.190  
  -8615680.507    -7224407.383    23725221.308    23725255.360    23725222.529  
  23725228.448       -2426.317       -1890.639          38.630          45.160  
 -14766236.143   -13945235.768    22314760.896           0.000    22314760.502  
  22314763.866       -2957.608       -2304.629          40.440          45.130  
 -23689691.045   -18459485.574    20800939.662    20800963.420    20800939.885  
  20800941.412       -1361.824       -1061.162          46.860          53.110  
 -13247487.018   -11114996.813    22695330.172           0.000    22695329.946  
  22695334.144        3302.212        2573.149          41.260          44.080  
 -16356224.402   -15143822.548    21749207.755    21749246.580    21749208.204  
  21749213.246        1074.381         837.182          44.670          49.420  
 -10570141.286    -8236461.547    23333946.851    23333960.330    23333947.229  
  23333949.368        2805.006        2185.718          41.730          45.450  
 15  7 19  0  0 30.0000000  0  8G 2G 5G 6G10G12G20G25G29
 -20274022.873   -16325777.764    21282009.614           0.000    21282009.278  
  21282009.427       -1014.563        -790.570          45.270          51.090  
 -27342574.011   -21644877.459    20268324.844    20268353.080    20268325.669  
  20268327.453         665.496         518.567          45.820          56.190  
  -8542900.701    -7167695.902    23739071.054    23739115.450    23739071.471  
  23739077.847       -2425.650       -1890.115          38.620          45.130  
 -14677324.698   -13875954.149    22331679.990           0.000    22331679.570  
  22331682.997       -2969.790       -2314.117          40.540          44.970  
 -23648560.554   -18427435.861    20808766.270    20808787.600    20808766.694  
  20808767.937       -1380.200       -1075.479          46.700          52.830  
 -13346432.205   -11192096.826    22676501.177           0.000    22676501.502  
  22676505.354        3294.120        2566.847          41.240          44.120  
 -16388170.587   -15168715.669    21743128.724    21743158.850    21743128.972  
  21743134.148        1055.354         822.353          44.240          49.440  
 -10654293.509    -8302034.667    23317930.346    23317979.590    23317931.339  
  23317935.736        2805.122        2185.801          40.030          45.370  
 15  7 19  0  1  0.0000000  0  8G 2G 5G 6G10G12G20G25G29
 -20243538.661   -16302023.845    21287810.231           0.000    21287810.013  
  21287810.186       -1017.706        -793.019          45.190          51.040  
 -27362249.930   -21660209.326    20264581.274    20264614.740    20264581.411  
  20264583.249         646.237         503.558          45.960          56.270  
  -8470141.799    -7111000.711    23752916.855    23752951.950    23752917.175  
  23752923.066       -2424.942       -1889.561          39.280          45.180  
 -14588049.564   -13806389.140    22348668.418           0.000    22348668.026  
  22348671.805       -2981.860       -2323.531          40.580          45.440  
 -23606880.327   -18394957.782    20816698.211    20816719.850    20816698.265  
  20816699.404       -1398.489       -1089.733          47.000          52.780  
 -13445133.551   -11269006.853    22657719.111           0.000    22657718.887  
  22657722.965        3285.957        2560.481          41.330          44.540  
 -16419545.842   -15193163.910    21737157.928    21737186.480    21737158.269  
  21737163.702        1036.324         807.528          44.180          49.490  
 -10738448.933    -8367610.270    23301919.214    23301956.640    23301919.849  
  23301921.171        2805.216        2185.885          42.770          45.660  
 15  7 19  0  1 30.0000000  0  8G 2G 5G 6G10G12G20G25G29
 -20212960.013   -16278196.337    21293629.821           0.000    21293629.095  
  21293629.185       -1020.851        -795.472          44.970          50.900  
 -27381346.865   -21675090.034    20260947.035    20260974.580    20260947.404  
  20260949.407         626.902         488.495          45.830          56.380  
  -8397404.044    -7054321.968    23766757.993    23766784.490    23766758.741  
  23766765.173       -2424.222       -1889.010          38.810          45.760  
 -14498413.433   -13736542.843    22365726.535           0.000    22365725.529  
  22365729.023       -2993.856       -2332.870          40.790          45.370  
 -23564651.682   -18362052.362    20824733.724    20824762.140    20824734.045  
  20824735.324       -1416.738       -1103.949          46.750          52.750  
 -13543588.782   -11345725.087    22638984.126           0.000    22638983.363  
  22638987.577        3277.718        2554.064          41.250          44.840  
 -16450348.994   -15217166.363    21731295.960    21731331.620    21731296.295  
  21731301.784        1017.235         792.653          43.910          49.360  
 -10822606.375    -8433187.435    23285902.285    23285920.940    23285902.751  
  23285906.661        2805.272        2185.922          40.630          45.760  
 15  7 19  0  2  0.0000000  0  9G 2G 5G 6G10G12G13G20G25G29
 -20182287.516   -16254295.706    21299465.873           0.000    21299465.709  
  21299465.741       -1023.975        -797.902          44.910          50.760  
 -27399864.656   -21689519.458    20257423.664    20257447.620    20257424.090  
  20257425.739         607.611         473.462          45.930          56.420  
  -8324687.713    -6997659.947    23780595.065    23780628.980    23780595.789  
  23780602.937       -2423.507       -1888.452          37.720          45.790  
 -14408419.404   -13666417.652    22382851.388           0.000    22382850.642  
  22382854.850       -3005.720       -2342.116          40.310          45.800  
 -23521876.107   -18328720.764    20832873.578    20832910.560    20832873.772  
  20832875.356       -1434.942       -1118.133          46.600          52.680  
   -196314.091     -152973.178    25045210.661           0.000    25045211.351  
  25045219.480        2677.299        2085.960          32.310          37.880  
 -13641795.780   -11422249.898    22620296.323           0.000    22620295.265  
  22620299.516        3269.401        2547.585          41.530          44.830  
 -16480578.990   -15240722.203    21725543.697    21725574.600    21725543.481  
  21725549.271         998.104         777.741          43.850          49.370  
 -10906764.331    -8498765.013    23269889.206    23269919.030    23269888.958  
  23269891.644        2805.253        2185.911          40.700          45.760  
 15  7 19  0  2 30.0000000  0  9G 2G 5G 6G10G12G13G20G25G29
 -20151521.627   -16230322.293    21305321.125           0.000    21305320.762  
  21305320.271       -1027.081        -800.323          45.100          50.720  
 -27417803.194   -21703497.517    20254009.427    20254042.450    20254010.206  
  20254011.861         588.287         458.406          45.840          56.390  
  -8251993.285    -6941014.998    23794428.934    23794452.100    23794429.102  
  23794436.233       -2422.793       -1887.887          37.380          45.630  
 -14318070.402   -13596015.871    22400042.788           0.000    22400043.069  
  22400048.149       -3017.525       -2351.320          39.770          46.190  
 -23478555.419   -18294964.400    20841117.968    20841139.510    20841117.742  
  20841118.896       -1453.107       -1132.290          46.670          52.560  
   -276696.259     -215608.893    25029914.532           0.000    25029915.741  
  25029923.469        2681.810        2089.721          33.780          38.460  
 -13739752.353   -11498579.587    22601655.198           0.000    22601654.475  
  22601658.910        3261.021        2541.055          41.940          44.690  
 -16510234.910   -15263830.714    21719899.878    21719933.830    21719900.337  
  21719906.043         978.936         762.811          43.900          49.430  
 -10990921.685    -8564342.073    23253873.451    23253904.800    23253874.771  
  23253877.475        2805.208        2185.875          41.070          45.970  
 15  7 19  0  3  0.0000000  0  9G 2G 5G 6G10G12G13G20G25G29
 -20120662.910   -16206276.552    21311192.444           0.000    21311192.405  
  21311192.354       -1030.169        -802.729          44.880          50.690  
 -27435162.327   -21717024.095    20250706.426    20250732.080    20250706.838  
  20250708.427         568.982         443.364          45.940          56.260  
  -8179321.070    -6884387.374    23808257.401    23808284.440    23808258.643  
  23808264.893       -2422.026       -1887.287          36.730          45.350  
 -14227369.211   -13525339.687    22417303.686           0.000    22417303.499  
  22417308.065       -3029.204       -2360.415          39.960          46.190  
 -23434691.038   -18260784.384    20849464.760    20849493.130    20849464.871  
  20849465.929       -1471.179       -1146.373          46.740          52.500  
   -357222.824     -278356.787    25014576.992           0.000    25014591.505  
  25014598.117        2686.591        2093.453          33.080          37.300  
 -13837456.727   -11574712.757    22583062.482           0.000    22583061.620  
  22583066.106        3252.587        2534.489          41.800          44.360  
 -16539315.717   -15286491.076    21714366.676    21714397.210    21714366.682  
  21714372.306         959.765         747.866          43.990          49.460  
 -11075076.896    -8629917.487    23237856.991    23237896.030    23237857.330  
  23237863.587        2805.133        2185.815          38.010          46.100  
 15  7 19  0  3 30.0000000  0  9G 2G 5G 6G10G12G13G20G25G29
 -20089711.855   -16182158.856    21317082.493           0.000    21317082.514  
  21317082.482       -1033.247        -805.128          45.230          50.810  
 -27451942.262   -21730099.349    20247513.497    20247543.260    20247513.831  
  20247515.112         549.655         428.301          46.080          56.250  
  -8106671.546    -6827777.405    23822082.389    23822103.230    23822083.147  
  23822089.952       -2421.286       -1886.715          36.770          45.400  
 -14136318.747   -13454391.300    22434631.232           0.000    22434630.344  
  22434634.110       -3040.816       -2369.471          40.500          46.190  
 -23390284.964   -18226182.269    20857914.944    20857942.030    20857915.007  
  20857916.010       -1489.238       -1160.443          46.810          52.560  
   -437890.945     -341214.954    24999216.760           0.000    24999240.582  
  24999247.745        2691.262        2097.078          33.420          37.090  
 -13934906.825   -11650647.802    22564517.117           0.000    22564517.285  
  22564521.647        3244.062        2527.829          41.790          44.400  
 -16567820.506   -15308702.593    21708942.006    21708970.810    21708942.062  
  21708947.929         940.536         732.886          43.970          49.580  
 -11159228.915    -8695490.420    23221847.204    23221883.060    23221847.102  
  23221848.899        2804.985        2185.701          40.330          45.060  
 15  7 19  0  4  0.0000000  0  9G 2G 5G 6G10G12G13G20G25G29
 -20058668.886   -16157969.539    21322990.044           0.000    21322990.075  
  21322989.712       -1036.289        -807.497          45.420          50.820  
 -27468142.597   -21742722.961    20244430.536    20244456.220    20244431.039  
  20244432.129         530.356         413.265          46.190          56.220  
  -8034044.734    -6771185.129    23835904.351    23835942.880    23835904.218  
  23835910.201       -2420.502       -1886.113          36.300          45.040  
 -14044922.076   -13383173.164    22452023.120           0.000    22452022.580  
  22452026.870       -3052.275       -2378.397          40.070          46.470  
 -23345338.729   -18191159.255    20866466.755    20866488.050    20866467.663  
  20866469.191       -1507.177       -1174.421          46.680          52.570  
   -518698.222     -404181.137    24983862.617           0.000    24983863.174  
  24983871.172        2695.852        2100.654          33.240          37.520  
 -14032099.905   -11726382.562    22546021.129           0.000    22546021.557  
  22546026.211        3235.474        2521.143          41.630          44.170  
 -16595748.169   -15330464.408    21703627.132    21703662.570    21703627.676  
  21703633.502         921.305         717.898          43.960          49.640  
 -11243376.113    -8761059.558    23205833.970    23205882.790    23205833.536  
  23205836.052        2804.823        2185.573          40.330          44.900  
 15  7 19  0  4 30.0000000  0  9G 2G 5G 6G10G12G13G20G25G29
 -20027534.918   -16133709.318    21328914.715           0.000    21328914.455  
  21328914.628       -1039.307        -809.849          45.380          50.970  
 -27483763.665   -21754895.197    20241458.565    20241490.120    20241458.631  
  20241459.778         511.047         398.216          46.330          56.340  
  -7961441.267    -6714611.065    23849717.743    23849765.900    23849719.381  
  23849725.963       -2419.711       -1885.486          34.730          44.620  
 -13953182.536   -13311687.873    22469480.623           0.000    22469480.309  
  22469484.558       -3063.666       -2387.269          39.910          46.670  
 -23299854.438   -18155716.973    20875122.093    20875153.050    20875123.088  
  20875124.770       -1525.099       -1188.387          46.700          52.680  
   -599641.486     -467253.674    24968461.891           0.000    24968461.814  
  24968467.563        2700.346        2104.164          33.980          37.060  
 -14129034.582   -11801915.976    22527575.733           0.000    22527575.476  
  22527580.203        3226.831        2514.402          41.910          44.240  
 -16623098.089   -15351776.030    21698423.239    21698448.220    21698422.894  
  21698428.793         902.021         702.876          43.900          49.670  
 -11327517.551    -8826624.279    23189820.536    23189858.510    23189819.945  
  23189823.913        2804.621        2185.411          38.760          44.190  
 15  7 19  0  5  0.0000000  0  9G 2G 5G 6G10G12G13G20G25G29
 -19996310.278   -16109378.437    21334856.637           0.000    21334856.562  
  21334856.354       -1042.328        -812.203          45.520          50.850  
 -27498805.242   -21766615.883    20238595.129    20238628.900    20238595.967  
  20238597.399         491.729         383.165          46.250          56.370  
  -7888861.381    -6658055.400    23863531.876    23863545.940    23863531.703  
  23863537.973       -2418.926       -1884.877          35.730          44.660  
 -13861102.906   -13239937.571    22487002.904           0.000    22487002.563  
  22487006.435       -3074.960       -2396.070          39.990          46.270  
 -23253833.723   -18119856.699    20883880.297    20883902.320    20883880.795  
  20883882.329       -1542.943       -1202.292          46.840          52.700  
   -680719.132     -530430.490    24953030.811           0.000    24953031.963  
  24953038.881        2704.764        2107.609          33.250          37.120  
 -14225708.897   -11877246.507    22509179.647           0.000    22509179.162  
  22509183.616        3218.114        2507.620          42.000          44.300  
 -16649869.240   -15372636.665    21693329.434    21693359.140    21693328.968  
  21693334.413         882.720         687.833          44.380          49.610  
 -11411651.587    -8892183.202    23173812.330    23173832.610    23173812.599  
  23173814.183        2804.343        2185.203          41.320          43.960  
 15  7 19  0  5 30.0000000  0  9G 2G 5G 6G10G12G13G20G25G29
 -19964995.569   -16084977.374    21340815.973           0.000    21340815.606  
  21340815.412       -1045.312        -814.529          45.680          50.940  
 -27513267.244   -21777884.955    20235844.096    20235871.680    20235844.221  
  20235845.579         472.417         368.116          46.200          56.470  
  -7816305.429    -6601518.363    23877338.698    23877376.620    23877338.713  
  23877345.348       -2418.113       -1884.245          37.450          44.570  
 -13768685.997   -13167924.439    22504588.554           0.000    22504588.830  
  22504592.326       -3086.148       -2404.791          39.660          45.650  
 -23207278.322   -18083579.783    20892738.738    20892752.440    20892739.621  
  20892741.862       -1560.733       -1216.153          46.760          52.810  
   -761927.777     -593709.405    24937577.316           0.000    24937578.486  
  24937584.503        2709.129        2110.981          32.810          36.870  
 -14322120.725   -11952372.514    22490832.772           0.000    22490832.785  
  22490836.686        3209.335        2500.778          42.240          44.350  
 -16676060.849   -15393045.706    21688345.233    21688378.090    21688345.223  
  21688350.147         863.389         672.768          44.580          49.540  
 -11495777.244    -8957735.587    23157801.707    23157836.250    23157802.984  
  23157805.025        2804.036        2184.966          40.200          43.700  
 15  7 19  0  6  0.0000000  0  9G 2G 5G 6G10G12G13G20G25G29
 -19933591.136   -16060506.402    21346792.322           0.000    21346791.860  
  21346791.386       -1048.302        -816.856          45.960          50.880  
 -27527149.441   -21788702.231    20233201.688    20233230.510    20233202.159  
  20233203.886         453.103         353.064          46.310          56.640  
  -7743773.626    -6545000.101    23891139.834    23891200.710    23891140.870  
  23891147.325       -2417.319       -1883.622          37.210          43.370  
 -13675934.716   -13095650.761    22522238.770           0.000    22522238.333  
  22522242.534       -3097.243       -2413.434          39.620          45.850  
 -23160189.903   -18046887.531    20901700.396    20901734.340    20901700.518  
  20901702.370       -1578.473       -1229.978          46.760          52.790  
   -843265.235     -657088.683    24922101.182           0.000    24922100.540  
  24922106.649        2713.348        2114.293          33.510          37.290  
 -14418267.714   -12027292.147    22472536.760           0.000    22472536.515  
  22472540.721        3200.475        2493.873          42.150          44.380  
 -16701671.954   -15413002.408    21683471.845    21683499.670    21683471.863  
  21683476.398         844.009         657.670          44.980          49.570  
 -11579892.898    -9023280.213    23141795.098    23141822.590    23141795.669  
  23141798.488        2803.672        2184.681          40.010          43.980  
 15  7 19  0  6 30.0000000  0  9G 2G 5G 6G10G12G13G20G25G29
 -19902097.482   -16035965.898    21352785.563           0.000    21352785.282  
  21352784.501       -1051.281        -819.178          46.160          50.940  
 -27540452.590   -21799068.300    20230669.930    20230705.360    20230670.312  
  20230672.311         433.767         337.997          46.040          56.670  
  -7671266.270    -6488500.907    23904939.939    23904956.270    23904938.927  
  23904944.857       -2416.503       -1882.981          36.390          42.360  
 -13582852.374   -13023119.122    22539951.183           0.000    22539951.078  
  22539955.682       -3108.253       -2422.005          38.990          45.800  
 -23112570.368   -18009781.427    20910761.821    20910793.330    20910762.221  
  20910764.133       -1596.159       -1243.758          46.620          52.850  
   -924728.001     -720566.028    24906597.337           0.000    24906598.486  
  24906605.139        2717.483        2117.515          33.030          37.860  
 -14514147.908   -12102003.886    22454291.282           0.000    22454290.787  
  22454294.783        3191.525        2486.903          41.690          44.220  
 -16726701.803   -15432506.181    21678708.661    21678742.560    21678708.512  
  21678713.594         824.627         642.567          44.940          49.660  
 -11663997.260    -9088816.011    23125791.218    23125801.350    23125791.815  
  23125794.422        2803.267        2184.363          40.700          44.480  
 15  7 19  0  7  0.0000000  0  9G 2G 5G 6G10G12G13G20G25G29
 -19870514.980   -16011356.171    21358795.506           0.000    21358795.027  
  21358794.662       -1054.229        -821.477          46.060          51.140  
 -27553176.266   -21808982.835    20228248.148    20228282.130    20228249.007  
  20228251.149         414.464         322.956          46.190          56.660  
  -7598783.425    -6432020.827    23918729.958    23918761.030    23918731.649  
  23918738.423       -2415.688       -1882.354          36.580          42.380  
 -13489441.766   -12950331.701    22557726.934           0.000    22557726.471  
  22557730.860       -3119.129       -2430.490          39.060          45.520  
 -23064421.560   -17972262.902    20919924.801    20919954.790    20919924.805  
  20919926.424       -1613.781       -1257.487          46.660          52.710  
  -1006314.149     -784139.502    24891072.062           0.000    24891072.532  
  24891080.108        2721.539        2120.683          32.450          38.360  
 -14609759.187   -12176506.089    22436097.437           0.000    22436096.742  
  22436100.679        3182.533        2479.887          41.940          44.320  
 -16751149.495   -15451556.323    21674055.974    21674081.950    21674056.053  
  21674061.325         805.211         627.437          44.730          49.670  
 -11748088.908    -9154341.896    23109788.979    23109789.190    23109788.912  
  23109791.714        2802.792        2183.996          39.780          43.890  
 15  7 19  0  7 30.0000000  0  9G 2G 5G 6G10G12G13G20G25G29
 -19838844.401   -15986677.815    21364822.464           0.000    21364821.905  
  21364821.196       -1057.149        -823.751          46.200          51.000  
 -27565320.749   -21818446.052    20225938.193    20225969.830    20225938.555  
  20225939.963         395.151         307.911          46.310          56.600  
  -7526325.840    -6375560.435    23932518.951    23932530.880    23932519.187  
  23932526.424       -2414.834       -1881.682          37.020          42.690  
 -13395705.939   -12877290.841    22575563.820           0.000    22575563.622  
  22575568.122       -3129.924       -2438.899          39.450          45.070  
 -23015745.572   -17934333.587    20929187.322    20929217.060    20929187.534  
  20929189.582       -1631.311       -1271.150          46.430          52.850  
  -1088022.133     -847807.105    24875525.849           0.000    24875524.991  
  24875532.070        2725.526        2123.794          32.520          38.500  
 -14705099.781   -12250797.367    22417955.534           0.000    22417953.987  
  22417957.876        3173.479        2472.840          42.000          44.290  
 -16775014.466   -15470152.401    21669514.641    21669540.760    21669514.859  
  21669519.775         785.764         612.286          44.450          49.650  
 -11832166.301    -9219856.720    23093789.855    23093826.480    23093789.784  
  23093792.458        2802.327        2183.630          40.610          44.380  
 15  7 19  0  8  0.0000000  0  9G 2G 5G 6G10G12G13G20G25G29
 -19807086.243   -15961931.214    21370864.853           0.000    21370864.788  
  21370864.619       -1060.068        -826.024          46.000          51.030  
 -27576886.106   -21827458.006    20223736.831    20223760.740    20223737.400  
  20223739.138         375.874         292.889          46.180          56.600  
  -7453893.632    -6319119.800    23946304.082    23946332.110    23946303.342  
  23946309.292       -2413.974       -1881.014          38.280          42.300  
 -13301647.995   -12803998.972    22593463.224           0.000    22593462.538  
  22593466.838       -3140.601       -2447.219          40.150          44.790  
 -22966543.975   -17895994.708    20938549.366    20938580.090    20938549.964  
  20938551.932       -1648.789       -1284.769          46.300          52.790  
  -1169846.948     -911566.925    24859963.137           0.000    24859954.649  
  24859960.185        2729.443        2126.839          32.030          38.310  
 -14800167.670   -12324876.153    22399862.737           0.000    22399863.049  
  22399866.789        3164.355        2465.731          42.660          44.760  
 -16798295.980   -15488293.836    21665084.481    21665107.400    21665084.394  
  21665089.557         766.310         597.129          44.470          49.580  
 -11916228.528    -9285359.704    23077792.655    23077808.190    23077793.605  
  23077796.526        2801.789        2183.213          41.100          44.750  
 15  7 19  0  8 30.0000000  0  9G 2G 5G 6G10G12G13G20G25G29
 -19775240.561   -15937116.413    21376924.853           0.000    21376924.783  
  21376924.440       -1062.968        -828.286          46.080          50.910  
 -27587872.647   -21836018.936    20221646.336    20221670.340    20221646.806  
  20221648.639         356.572         277.848          46.180          56.690  
  -7381486.972    -6262699.050    23960081.326    23960103.180    23960082.081  
  23960087.854       -2413.113       -1880.351          38.560          42.180  
 -13207270.702   -12730458.261    22611422.545           0.000    22611422.081  
  22611425.778       -3151.201       -2455.475          40.090          44.260  
 -22916818.990   -17857247.993    20948012.257    20948040.180    20948012.249  
  20948014.535       -1666.197       -1298.336          46.220          52.860  
  -1251788.050     -975416.698    24844388.490           0.000    24844361.383  
  24844367.902        2734.225        2129.802          31.210          38.040  
 -14894960.807   -12398740.853    22381824.245           0.000    22381824.410  
  22381828.424        3155.177        2458.574          42.840          44.980  
 -16820993.229   -15505980.003    21660763.949    21660809.840    21660764.808  
  21660770.569         746.838         581.951          44.360          49.690  
 -12000273.865    -9350849.539    23061798.343    23061810.010    23061799.589  
  23061802.474        2801.227        2182.770          41.430          44.880  
 15  7 19  0  9  0.0000000  0  9G 2G 5G 6G10G12G13G20G25G29
 -19743308.003   -15912233.907    21383001.905           0.000    21383001.520  
  21383001.307       -1065.854        -830.537          46.230          51.010  
 -27598280.244   -21844128.741    20219666.060    20219692.430    20219666.430  
  20219668.023         337.281         262.816          46.230          56.700  
  -7309106.005    -6206298.324    23973854.961    23973881.240    23973855.634  
  23973862.369       -2412.270       -1879.686          38.150          42.970  
 -13112576.989   -12656670.980    22629442.014           0.000    22629441.563  
  22629445.423       -3161.690       -2463.657          39.990          43.980  
 -22866572.421   -17818094.849    20957574.092    20957601.030    20957574.361  
  20957575.883       -1683.571       -1311.870          46.320          52.720  
  -1333842.176    -1039354.263    24828746.712           0.000    24828746.155  
  24828752.288        2736.967        2132.691          32.070          37.660  
 -14989476.959   -12472389.722    22363838.254           0.000    22363838.357  
  22363842.749        3145.907        2451.350          42.730          45.350  
 -16843105.428   -15523210.294    21656556.680    21656598.120    21656557.256  
  21656562.826         727.322         566.742          44.560          49.760  
 -12084300.707    -9416324.983    23045809.345    23045846.750    23045809.708  
  23045813.270        2800.579        2182.264          41.570          45.410  
 15  7 19  0  9 30.0000000  0  9G 2G 5G 6G10G12G13G20G25G29
 -19711289.084   -15887284.110    21389094.791           0.000    21389094.710  
  21389094.171       -1068.747        -832.787          46.070          50.830  
 -27608109.182   -21851787.649    20217796.091    20217828.840    20217796.501  
  20217797.576         317.994         247.788          46.140          56.660  
  -7236751.144    -6149917.949    23987623.507    23987669.050    23987624.379  
  23987631.048       -2411.393       -1879.003          37.090          42.490  
 -13017570.043   -12582639.626    22647522.135           0.000    22647521.196  
  22647524.996       -3172.098       -2471.763          39.760          43.710  
 -22815806.139   -17778536.735    20967234.715    20967260.810    20967234.739  
  20967236.613       -1700.856       -1325.338          46.060          52.660  
  -1416006.066    -1103377.893    24813110.800           0.000    24813110.461  
  24813117.364        2740.583        2135.517          32.030          38.910  
 -15083714.278   -12545821.315    22345906.338           0.000    22345906.124  
  22345910.074        3136.558        2444.071          42.920          45.770  
 -16864632.079   -15539984.309    21652460.695    21652473.870    21652460.850  
  21652466.360         707.787         551.521          44.180          49.680  
 -12168307.977    -9481785.161    23029823.947    23029858.910    23029825.047  
  23029827.118        2799.886        2181.730          41.930          45.690  
 15  7 19  0 10  0.0000000  0  9G 2G 5G 6G10G12G13G20G25G29
 -19679184.074   -15862267.231    21395204.013           0.000    21395203.891  
  21395203.573       -1071.589        -835.003          46.450          50.960  
 -27617360.019   -21858996.088    20216035.400    20216062.990    20216036.077  
  20216037.229         298.723         232.769          46.440          56.750  
  -7164422.493    -6093558.002    24001387.463    24001431.930    24001387.781  
  24001394.067       -2410.506       -1878.317          37.550          41.420  
 -12922252.816   -12508366.495    22665660.261           0.000    22665659.423  
  22665663.683       -3182.383       -2479.775          39.810          43.940  
 -22764522.337   -17738575.360    20976993.365    20977017.680    20976993.439  
  20976995.452       -1718.070       -1338.752          46.160          52.610  
  -1498277.387    -1167485.226    24797454.150           0.000    24797454.821  
  24797461.796        2744.143        2138.277          32.840          39.540  
 -15177670.656   -12619033.979    22328027.188           0.000    22328026.155  
  22328030.540        3127.180        2436.759          42.600          45.660  
 -16885572.491   -15556301.513    21648476.451    21648513.220    21648476.560  
  21648481.138         688.232         536.287          44.820          49.600  
 -12252294.090    -9547228.843    23013841.607    23013867.380    23013841.810  
  23013845.600        2799.177        2181.176          41.180          46.560  
 15  7 19  0 10 30.0000000  0  9G 2G 5G 6G10G12G13G20G25G29
 -19646993.655   -15837183.800    21401330.409           0.000    21401329.999  
  21401329.249       -1074.434        -837.219          46.490          50.930  
 -27626032.807   -21865754.092    20214384.612    20214412.890    20214385.057  
  20214386.866         279.455         217.757          46.100          56.760  
  -7092120.430    -6037218.744    24015146.486    24015207.190    24015146.304  
  24015151.992       -2409.623       -1877.625          37.160          40.990  
 -12826628.163   -12433853.818    22683857.744           0.000    22683856.548  
  22683860.483       -3192.566       -2487.709          39.670          44.110  
 -22712722.708   -17698212.044    20986850.997    20986882.640    20986850.745  
  20986852.971       -1735.235       -1352.129          46.220          52.710  
  -1580653.767    -1231674.437    24781779.486           0.000    24781779.521  
  24781786.111        2747.593        2140.983          33.950          39.900  
 -15271344.488   -12692026.495    22310201.947           0.000    22310201.416  
  22310204.747        3117.736        2429.397          43.320          45.500  
 -16905926.152   -15572161.509    21644603.519    21644635.380    21644602.900  
  21644607.681         668.677         521.044          44.640          49.500  
 -12336257.397    -9612654.759    22997862.592    22997886.610    22997864.049  
  22997868.062        2798.381        2180.551          41.190          46.960  
 15  7 19  0 11  0.0000000  0  9G 2G 5G 6G10G12G13G20G25G29
 -19614718.263   -15812034.166    21407471.810           0.000    21407471.250  
  21407471.212       -1077.253        -839.416          46.110          50.950  
 -27634127.590   -21872061.702    20212843.955    20212868.500    20212844.823  
  20212846.553         260.210         202.760          46.140          56.820  
  -7019845.073    -5980900.317    24028900.204    24028926.780    24028900.124  
  24028906.177       -2408.729       -1876.925          36.520          41.870  
 -12730699.006   -12359103.867    22702112.005           0.000    22702111.103  
  22702115.129       -3202.674       -2495.592          39.450          44.240  
 -22660409.418   -17657448.473    20996805.243    20996833.710    20996805.732  
  20996807.888       -1752.304       -1365.430          46.370          52.650  
  -1663131.843    -1295943.318    24766083.508           0.000    24766083.751  
  24766090.483        2750.977        2143.603          33.730          40.180  
 -15364733.626   -12764797.162    22292429.704           0.000    22292429.718  
  22292433.270        3108.201        2421.977          43.050          45.560  
 -16925692.350   -15587563.743    21640841.249    21640854.230    21640841.229  
  21640846.678         649.086         505.784          44.610          49.530  
 -12420196.489    -9678061.800    22981889.717    22981920.620    22981890.409  
  22981894.731        2797.567        2179.921          40.910          46.910  
 15  7 19  0 11 30.0000000  0  9G 2G 5G 6G10G12G13G20G25G29
 -19582358.540   -15786818.819    21413629.766           0.000    21413629.389  
  21413629.136       -1080.066        -841.607          46.290          50.960  
 -27641645.179   -21877919.547    20211413.214    20211437.060    20211414.167  
  20211415.986         240.975         187.770          46.250          56.800  
  -6947596.851    -5924603.069    24042647.549    24042712.470    24042648.376  
  24042654.855       -2407.806       -1876.218          35.820          42.880  
 -12634468.616   -12284119.185    22720423.116           0.000    22720422.845  
  22720427.251       -3212.679       -2503.375          39.290          44.460  
 -22607584.824   -17616286.483    21006857.584    21006872.700    21006857.747  
  21006859.809       -1769.321       -1378.693          46.380          52.450  
  -1745709.976    -1360290.115    24750370.131           0.000    24750369.758  
  24750375.964        2754.241        2146.162          33.990          39.950  
 -15457836.029   -12837344.407    22274713.351           0.000    22274712.711  
  22274716.560        3098.615        2414.504          43.410          45.730  
 -16944870.788   -15602507.980    21637191.366    21637223.140    21637191.890  
  21637197.322         629.479         490.504          44.560          49.640  
 -12504110.467    -9743449.265    22965923.479    22965969.360    22965923.647  
  22965926.770        2796.687        2179.236          41.360          47.310  
 15  7 19  0 12  0.0000000  0  9G 2G 5G 6G10G12G13G20G25G29
 -19549914.414   -15761537.704    21419802.777           0.000    21419802.865  
  21419802.751       -1082.868        -843.792          45.910          50.830  
 -27648585.329   -21883327.444    20210093.139    20210120.190    20210093.534  
  20210095.242         221.719         172.770          46.190          56.780  
  -6875375.766    -5868326.978    24056390.737    24056423.230    24056392.302  
  24056398.930       -2406.912       -1875.515          35.770          44.060  
 -12537939.680   -12208901.871    22738792.526           0.000    22738791.629  
  22738796.556       -3222.573       -2511.092          38.910          45.060  
 -22554250.435   -17574727.247    21017006.942    21017041.750    21017007.099  
  21017008.854       -1786.285       -1391.910          46.510          52.350  
  -1828385.256    -1424712.282    24734637.785           0.000    24734637.665  
  24734643.642        2757.416        2148.639          34.570          39.820  
 -15550649.691   -12909666.666    22257051.358           0.000    22257050.635  
  22257054.722        3088.956        2406.975          42.950          45.460  
 -16963460.709   -15616993.629    21633654.345    21633674.860    21633654.518  
  21633659.851         609.849         475.208          44.930          49.720  
 -12587997.478    -9808815.708    22949957.437    22949971.840    22949959.037  
  22949963.541        2795.768        2178.521          40.420          46.900  
 15  7 19  0 12 30.0000000  0  9G 2G 5G 6G10G12G13G20G25G29
 -19517386.205   -15736191.065    21425993.073           0.000    21425993.051  
  21425992.729       -1085.661        -845.967          46.090          50.880  
 -27654948.870   -21888286.024    20208881.930    20208907.590    20208882.420  
  20208884.220         202.510         157.801          46.030          56.780  
  -6803182.119    -5812072.233    24070128.745    24070174.330    24070129.720  
  24070136.711       -2406.010       -1874.802          35.970          44.000  
 -12441115.407   -12133454.430    22757216.254           0.000    22757216.334  
  22757221.143       -3232.354       -2518.717          37.860          45.410  
 -22500408.763   -17532772.725    21027252.529    21027284.070    21027253.006  
  21027254.570       -1803.153       -1405.050          46.710          52.260  
  -1911154.788    -1489207.905    24718885.860           0.000    24718886.737  
  24718892.686        2760.522        2151.062          35.100          39.650  
 -15643172.730   -12981762.457    22239444.250           0.000    22239444.061  
  22239448.004        3079.250        2399.407          43.040          45.700  
 -16981461.670   -15631020.348    21630229.207    21630263.760    21630228.958  
  21630234.190         590.222         459.913          44.770          49.640  
 -12671856.035    -9874159.988    22934000.885    22934039.370    22934001.447  
  22934005.315        2794.809        2177.771          40.850          46.730  
 15  7 19  0 13  0.0000000  0 10G 2G 5G 6G10G12G13G15G20G25G29
 -19484774.503   -15710779.367    21432198.763           0.000    21432198.833  
  21432198.600       -1088.433        -848.132          45.910          50.760  
 -27660736.025   -21892795.472    20207780.974    20207809.650    20207781.224  
  20207782.911         183.297         142.826          46.140          56.760  
  -6731016.019    -5755838.968    24083860.310    24083899.760    24083862.002  
  24083869.133       -2405.068       -1874.084          35.370          43.580  
 -12343998.806   -12057779.214    22775697.105           0.000    22775696.963  
  22775701.937       -3242.062       -2526.274          37.760          45.300  
 -22446061.947   -17490424.581    21037594.592    21037621.670    21037595.090  
  21037596.647       -1819.962       -1418.153          47.090          52.400  
  -1994016.031    -1553774.971    24703117.874           0.000    24703118.212  
  24703124.377        2763.525        2153.397          34.610          39.780  
    -22401.257     -409488.751    25475537.888           0.000    25475542.172  
  25475549.263        2967.376        2330.992          21.800          33.610  
 -15735403.284   -13053630.330    22221893.717           0.000    22221893.035  
  22221897.202        3069.465        2391.784          42.950          45.740  
 -16998873.176   -15644587.753    21626916.222    21626946.180    21626915.911  
  21626921.026         570.554         444.588          45.040          49.890  
 -12755684.556    -9939480.851    22918049.614    22918067.550    22918050.358  
  22918053.073        2793.760        2176.955          41.670          46.370  
 15  7 19  0 13 30.0000000  0 10G 2G 5G 6G10G12G13G15G20G25G29
 -19452079.749   -15685302.955    21438420.067           0.000    21438420.100  
  21438420.261       -1091.223        -850.297          45.970          50.840  
 -27665946.866   -21896855.845    20206789.466    20206817.150    20206789.773  
  20206791.394         164.086         127.858          46.290          56.850  
  -6658877.639    -5699627.314    24097588.940    24097632.390    24097589.805  
  24097596.769       -2404.162       -1873.367          35.310          43.860  
 -12246592.552   -11981878.299    22794233.927           0.000    22794232.919  
  22794237.707       -3251.687       -2533.782          37.470          45.110  
 -22391211.755   -17447684.190    21048031.931    21048052.730    21048032.709  
  21048034.400       -1836.724       -1431.214          47.350          52.410  
  -2076965.987    -1618411.186    24687332.420           0.000    24687333.826  
  24687339.869        2766.425        2155.656          34.650          39.960  
    -58439.558     -479505.711    25458444.088           0.000    25458441.632  
  25458450.457        2998.587        2336.779          26.120          33.660  
 -15827339.310   -13125268.699    22204398.620           0.000    22204398.313  
  22204401.855        3059.592        2384.099          43.100          45.350  
 -17015694.749   -15657695.470    21623715.230    21623753.210    21623715.068  
  21623720.170         550.867         429.247          45.070          50.080  
 -12839481.234   -10004776.916    22902105.101    22902118.700    22902104.787  
  22902106.528        2792.662        2176.095          41.790          45.800  
 15  7 19  0 14  0.0000000  0 10G 2G 5G 6G10G12G13G15G20G25G29
 -19419302.538   -15659762.293    21444657.417           0.000    21444657.463  
  21444657.822       -1093.925        -852.409          45.870          50.910  
 -27670582.065   -21900467.668    20205906.926    20205930.620    20205907.748  
  20205909.425         144.936         112.936          46.400          56.840  
  -6586767.339    -5643437.548    24111312.781    24111349.090    24111312.190  
  24111319.042       -2403.188       -1872.611          34.770          44.030  
 -12148899.769   -11905754.087    22812824.648           0.000    22812824.023  
  22812828.043       -3261.163       -2541.162          38.910          45.050  
 -22335860.575   -17404553.423    21058566.128    21058584.490    21058565.878  
  21058567.588       -1853.345       -1444.166          47.390          52.490  
  -2160001.643    -1683114.577    24671532.738           0.000    24671532.303  
  24671538.373        2769.276        2157.875          34.610          39.940  
   -148556.593     -549696.222    25441296.158           0.000    25441293.220  
  25441310.229        3038.477        2342.558          19.400          31.810  
 -15918978.969   -13196676.141    22186959.889           0.000    22186959.496  
  22186963.395        3049.709        2376.396          43.020          45.460  
 -17031926.089   -15670343.251    21620626.108    21620653.650    21620626.360  
  21620631.440         531.214         413.931          45.250          50.010  
 -12923245.074   -10070047.385    22886164.277    22886168.410    22886164.632  
  22886167.116        2791.581        2175.251          41.840          45.590  
 15  7 19  0 14 30.0000000  0 10G 2G 5G 6G10G12G13G15G20G25G29
 -19386442.871   -15634157.380    21450910.477           0.000    21450910.616  
  21450910.737       -1096.687        -854.559          46.060          50.860  
 -27674642.081   -21903631.292    20205134.058    20205157.460    20205134.838  
  20205136.709         125.763          97.998          46.300          56.890  
  -6514685.030    -5587269.636    24125028.626    24125057.420    24125029.458  
  24125035.965       -2402.267       -1871.892          35.100          43.630  
 -12050923.303   -11829408.838    22831468.859           0.000    22831468.296  
  22831472.787       -3270.569       -2548.496          38.770          45.480  
 -22280010.130   -17361033.620    21069193.900    21069211.580    21069193.961  
  21069195.506       -1869.955       -1457.107          47.360          52.380  
  -2243120.546    -1747882.836    24655712.109           0.000    24655714.777  
  24655721.250        2772.010        2159.989          34.530          39.980  
    -58721.614     -620058.247    25424114.661           0.000    25424117.193  
  25424125.162        3013.615        2348.266          28.460          32.110  
 -16010320.118   -13267850.953    22169578.358           0.000    22169578.160  
  22169581.733        3039.734        2368.619          43.050          45.620  
 -17047566.616   -15682530.653    21617649.834    21617682.500    21617649.778  
  21617654.971         511.506         398.576          45.150          50.050  
 -13006974.458   -10135291.026    22870231.519    22870256.740    22870231.544  
  22870232.880        2790.390        2174.329          42.180          45.050  
 15  7 19  0 15  0.0000000  0 10G 2G 5G 6G10G12G13G15G20G25G29
 -19353501.096   -15608488.492    21457179.391           0.000    21457179.547  
  21457179.522       -1099.420        -856.694          45.900          50.890  
 -27678127.580   -21906347.246    20204471.376    20204501.720    20204471.864  
  20204473.261         106.604          83.067          46.390          56.870  
  -6442631.144    -5531123.824    24138738.639    24138781.690    24138739.545  
  24138748.357       -2401.326       -1871.159          35.380          44.050  
 -11952666.234   -11752844.936    22850165.986           0.000    22850165.641  
  22850170.793       -3279.891       -2555.757          38.680          45.370  
 -22223663.237   -17317126.975    21079916.390    21079943.000    21079916.513  
  21079917.791       -1886.491       -1469.994          47.330          52.260  
  -2326320.473    -1812713.839    24639883.356           0.000    24639882.611  
  24639888.628        2774.649        2162.051          34.670          39.290  
   -149238.080     -690590.357    25406893.049           0.000    25406892.123  
  25406900.667        3020.810        2353.889          29.420          32.660  
 -16101361.261   -13338792.003    22152254.201           0.000    22152253.333  
  22152256.852        3029.664        2360.770          42.900          45.360  
 -17062616.142   -15694257.537    21614786.409    21614818.510    21614785.837  
  21614791.037         491.779         383.208          45.100          49.960  
 -13090667.502   -10200506.326    22854305.618    22854318.330    22854305.345  
  22854307.112        2789.148        2173.363          42.160          45.630  
 15  7 19  0 15 30.0000000  0  9G 2G 5G 6G10G12G13G20G25G29
 -19320477.935   -15582756.180    21463463.851           0.000    21463463.853  
  21463463.330       -1102.130        -858.799          45.940          50.700  
 -27681039.294   -21908616.091    20203917.823    20203952.360    20203917.989  
  20203919.291          87.487          68.173          46.100          56.810  
  -6370605.901    -5475000.359    24152443.535    24152479.970    24152445.978  
  24152453.531       -2400.349       -1870.411          35.370          43.180  
 -11854131.631   -11676064.803    22868916.601           0.000    22868916.638  
  22868921.187       -3289.093       -2562.921          38.580          44.560  
 -22166821.998   -17272835.123    21090733.054    21090760.500    21090733.189  
  21090734.132       -1902.935       -1482.805          47.060          51.930  
  -2409598.523    -1877605.726    24624034.287           0.000    24624035.184  
  24624041.114        2777.204        2164.048          35.300          39.780  
 -16192100.247   -13409497.607    22134987.049           0.000    22134986.279  
  22134989.759        3019.587        2352.919          42.880          45.580  
 -17077074.460   -15705523.743    21612034.393    21612063.130    21612034.765  
  21612039.910         472.077         367.852          44.800          49.990  
 -13174323.214   -10265692.532    22838384.660    22838400.350    22838385.372  
  22838387.445        2787.888        2172.372          41.110          45.410  
 15  7 19  0 16  0.0000000  0  9G 2G 5G 6G10G12G13G20G25G29
 -19287373.413   -15556960.462    21469762.568           0.000    21469762.761  
  21469762.931       -1104.811        -860.892          45.820          50.670  
 -27683377.085   -21910437.724    20203471.880    20203503.650    20203472.518  
  20203474.474          68.388          53.288          46.250          56.900  
  -6298609.136    -5418899.049    24166146.419    24166182.460    24166147.595  
  24166153.547       -2399.389       -1869.656          36.330          42.310  
 -11755322.378   -11599070.608    22887721.379           0.000    22887720.057  
  22887723.592       -3298.177       -2570.005          39.920          43.850  
 -22109488.321   -17228159.551    21101642.729    21101673.350    21101643.136  
  21101644.598       -1919.292       -1495.551          47.190          52.000  
  -2492951.554    -1942556.029    24608174.202           0.000    24608173.678  
  24608180.662        2779.666        2165.964          35.610          40.350  
 -16282535.291   -13479966.361    22117777.372           0.000    22117776.696  
  22117780.552        3009.421        2344.999          43.300          45.880  
 -17090940.904   -15716328.747    21609396.001    21609425.770    21609396.058  
  21609400.980         452.356         352.487          45.100          50.080  
 -13257939.774   -10330848.228    22822473.058    22822498.200    22822473.481  
  22822476.097        2786.560        2171.339          41.190          45.620  
 15  7 19  0 16 30.0000000  0 10G 2G 5G 6G10G12G13G15G20G25G29
 -19254188.005   -15531101.714    21476078.674           0.000    21476078.188  
  21476078.112       -1107.538        -863.020          45.760          50.710  
 -27685141.797   -21911812.807    20203136.061    20203162.640    20203136.544  
  20203138.660          49.273          38.395          46.000          56.880  
  -6226641.026    -5362820.073    24179840.565    24179867.180    24179842.123  
  24179848.781       -2398.468       -1868.941          36.370          41.840  
 -11656241.287   -11521864.592    22906575.042           0.000    22906574.414  
  22906578.287       -3307.208       -2577.047          39.580          43.750  
 -22051664.344   -17183101.926    21112646.061    21112681.370    21112646.233  
  21112648.188       -1935.614       -1508.269          46.590          51.920  
  -2576376.672    -2007562.491    24592297.773           0.000    24592297.732  
  24592304.160        2782.012        2167.795          35.360          39.540  
   -195728.418     -152516.562    25354972.678           0.000    25354973.532  
  25354980.691        3042.134        2370.501          32.520          32.510  
 -16372664.361   -13550196.708    22100626.306           0.000    22100626.051  
  22100629.348        2999.181        2337.021          43.580          45.820  
 -17104215.284   -15726672.400    21606870.053    21606903.060    21606869.704  
  21606875.054         432.598         337.089          44.740          50.140  
 -13341515.535   -10395972.130    22806569.382    22806597.880    22806568.871  
  22806571.997        2785.162        2170.252          40.970          45.700  
 15  7 19  0 17  0.0000000  0 10G 2G 5G 6G10G12G13G15G20G25G29
 -19220921.964   -15505180.138    21482408.540           0.000    21482408.045  
  21482408.064       -1110.214        -865.098          45.560          50.470  
 -27686334.040   -21912741.811    20202909.604    20202942.810    20202909.787  
  20202911.717          30.204          23.533          45.850          56.800  
  -6154701.820    -5306763.622    24193531.262    24193593.690    24193531.546  
  24193538.691       -2397.500       -1868.182          35.510          41.430  
 -11556891.596   -11444449.301    22925480.928           0.000    22925479.968  
  22925483.751       -3316.107       -2583.979          39.460          43.670  
 -21993352.648   -17137664.263    21123741.880    21123762.830    21123742.522  
  21123744.597       -1951.848       -1520.917          46.550          51.920  
  -2659871.309    -2072623.114    24576409.622           0.000    24576409.720  
  24576415.315        2784.277        2169.566          35.180          39.090  
   -287097.303     -223712.891    25337584.578           0.000    25337585.571  
  25337592.756        3049.079        2375.912          33.150          31.720  
 -16462485.838   -13620187.377    22083533.713           0.000    22083533.416  
  22083536.906        2988.888        2329.001          43.860          46.110  
 -17116897.465   -15736554.601    21604456.734    21604490.420    21604456.217  
  21604461.796         412.858         321.706          44.760          50.170  
 -13425049.061   -10461063.142    22790674.118    22790714.890    22790674.623  
  22790675.534        2783.714        2169.130          41.960          45.200  
 15  7 19  0 17 30.0000000  0 10G 2G 5G 6G10G12G13G15G20G25G29
 -19187575.717   -15479196.060    21488754.027           0.000    21488754.039  
  21488754.100       -1112.877        -867.175          45.550          50.530  
 -27686954.260   -21913225.085    20202791.233    20202825.560    20202791.731  
  20202793.651          11.153           8.690          45.810          56.800  
  -6082791.682    -5250729.811    24207214.671    24207222.630    24207215.502  
  24207222.493       -2396.520       -1867.419          35.630          41.740  
 -11457276.219   -11366826.959    22944436.296           0.000    22944436.208  
  22944440.023       -3324.916       -2590.841          39.310          42.870  
 -21934555.320   -17091848.186    21134931.346    21134963.320    21134931.428  
  21134933.417       -1967.981       -1533.492          46.430          52.030  
  -2743432.812    -2137735.802    24560508.135           0.000    24560508.498  
  24560515.015        2786.465        2171.265          34.180          40.030  
   -378674.069     -295071.223    25320156.236           0.000    25320158.300  
  25320167.197        3056.006        2381.300          31.580          33.570  
 -16551997.658   -13689936.749    22066500.171           0.000    22066499.738  
  22066503.806        2978.544        2320.938          43.930          46.480  
 -17128987.169   -15745975.131    21602155.995    21602198.650    21602156.066  
  21602161.085         393.114         306.323          44.860          50.170  
 -13508538.755   -10526119.982    22774786.119    22774819.330    22774786.987  
  22774789.033        2782.223        2167.968          42.530          46.060  
 15  7 19  0 18  0.0000000  0 10G 2G 5G 6G10G12G13G15G20G25G29
 -19154149.395   -15453149.590    21495114.264           0.000    21495114.420  
  21495114.565       -1115.550        -869.263          45.100          50.360  
 -27687003.197   -21913263.202    20202781.889    20202807.060    20202782.559  
  20202784.312          -7.889          -6.147          45.800          56.750  
  -6010910.581    -5194718.633    24220893.434    24220905.990    24220894.750  
  24220900.855       -2395.568       -1866.676          36.090          41.810  
 -11357397.954   -11288999.779    22963442.537           0.000    22963442.439  
  22963446.002       -3333.643       -2597.648          39.030          42.520  
 -21875274.558   -17045655.413    21146212.430    21146233.280    21146212.453  
  21146214.133       -1984.076       -1546.033          46.540          51.940  
  -2827058.293    -2202898.344    24544594.015           0.000    24544594.280  
  24544600.245        2788.505        2172.866          32.850          39.070  
   -470456.676     -366589.939    25302693.144           0.000    25302693.596  
  25302701.728        3062.803        2386.602          31.840          35.260  
 -16641197.893   -13759443.332    22049524.705           0.000    22049525.257  
  22049529.241        2968.115        2312.815          43.660          46.320  
 -17140484.079   -15754933.750    21599968.316    21599992.860    21599968.345  
  21599973.516         373.330         290.910          44.830          50.270  
 -13591982.598   -10591141.124    22758907.558    22758917.460    22758907.417  
  22758909.276        2780.671        2166.756          42.320          45.710  
 15  7 19  0 18 30.0000000  0 10G 2G 5G 6G10G12G13G15G20G25G29
 -19120643.330   -15427040.978    21501490.812           0.000    21501490.517  
  21501490.826       -1118.186        -871.312          45.140          50.380  
 -27686481.460   -21912856.638    20202880.759    20202913.500    20202881.698  
  20202883.582         -26.905         -20.960          46.010          56.810  
  -5939058.689    -5138730.203    24234565.990    24234607.650    24234567.709  
  24234574.329       -2394.564       -1865.896          36.470          41.630  
 -11257259.769   -11210970.048    22982498.371           0.000    22982497.389  
  22982501.456       -3342.236       -2604.343          38.000          42.280  
 -21815512.670   -16999087.740    21157584.012    21157607.790    21157584.475  
  21157586.534       -2000.039       -1558.470          46.200          52.060  
  -2910744.693    -2268108.485    24528671.060           0.000    24528670.066  
  24528675.086        2790.075        2174.452          32.640          38.720  
   -562443.072     -438267.480    25285188.324           0.000    25285188.508  
  25285197.494        3069.568        2391.869          31.470          35.250  
 -16730084.782   -13828705.755    22032610.724           0.000    22032610.797  
  22032614.552        2957.664        2304.671          43.590          46.380  
 -17151388.037   -15763430.329    21597892.957    21597931.740    21597893.272  
  21597898.603         353.588         275.522          44.860          50.250  
 -13675379.300   -10656125.525    22743037.274    22743068.180    22743037.857  
  22743040.306        2779.085        2165.521          42.360          46.540  
 15  7 19  0 19  0.0000000  0 10G 2G 5G 6G10G12G13G15G20G25G29
 -19087058.140   -15400870.705    21507882.033           0.000    21507881.327  
  21507881.580       -1120.823        -873.366          44.980          50.230  
 -27685389.819   -21912005.998    20203088.750    20203116.820    20203089.578  
  20203091.336         -45.877         -35.748          46.010          56.810  
  -5867236.156    -5082764.618    24248232.802    24248282.270    24248234.407  
  24248242.144       -2393.580       -1865.127          35.480          41.700  
 -11156864.564   -11132740.066    23001602.085           0.000    23001601.878  
  23001606.385       -3350.758       -2610.976          38.010          42.930  
 -21755272.107   -16952147.076    21169047.431    21169075.680    21169047.776  
  21169049.743       -2015.972       -1570.884          46.100          51.810  
  -2994489.486    -2333364.218    24512735.287           0.000    24512734.174  
  24512738.034        2792.445        2175.938          33.280          38.320  
   -654632.437     -510101.950    25267643.035           0.000    25267644.421  
  25267654.190        3076.266        2397.087          31.810          37.430  
 -16818656.621   -13897722.678    22015757.078           0.000    22015756.372  
  22015759.587        2947.125        2296.458          43.990          46.470  
 -17161698.982   -15771464.823    21595931.028    21595956.840    21595931.210  
  21595936.262         333.824         260.122          44.960          50.170  
 -13758727.511   -10721072.130    22727175.854    22727206.900    22727177.169  
  22727178.913        2777.433        2164.236          42.430          46.500  
 15  7 19  0 19 30.0000000  0 11G 2G 5G 6G10G12G13G15G20G21G25G29
 -19053394.196   -15374639.064    21514286.898           0.000    21514287.130  
  21514287.780       -1123.445        -875.411          44.890          50.330  
 -27683728.862   -21910711.735    20203405.124    20203433.990    20203405.931  
  20203407.425         -64.845         -50.529          46.150          56.810  
  -5795443.186    -5026822.105    24261895.944    24261939.280    24261896.366  
  24261904.055       -2392.614       -1864.371          35.090          41.300  
 -11056215.428   -11054312.220    23020756.901           0.000    23020755.212  
  23020759.083       -3359.173       -2617.534          37.640          42.870  
 -21694555.517   -16904835.484    21180601.739    21180612.970    21180601.767  
  21180603.819       -2031.804       -1583.225          46.170          51.720  
  -3078290.130    -2398663.281    24496786.773           0.000    24496786.910  
  24496791.551        2794.246        2177.327          32.640          37.760  
   -747020.792     -582091.868    25250063.512           0.000    25250063.341  
  25250072.933        3082.885        2402.234          31.040          36.490  
 -16906911.671   -13966492.764    21998962.077           0.000    21998961.728  
  21998965.074        2936.533        2288.206          44.060          46.410  
   -268613.790      -17774.914    25819663.605           0.000    25819663.720  
  25819671.615        1900.144        1480.610          29.850          28.490  
 -17171416.845   -15779037.171    21594081.834    21594112.030    21594081.864  
  21594087.114         314.054         244.716          44.990          50.190  
 -13842025.310   -10785979.450    22711324.776    22711355.350    22711325.945  
  22711328.559        2775.729        2162.906          42.410          47.200  
 15  7 19  0 20  0.0000000  0 11G 2G 5G 6G10G12G13G15G20G21G25G29
 -19019651.342   -15348345.932    21520709.226           0.000    21520708.651  
  21520708.568       -1126.066        -877.452          45.100          50.070  
 -27681499.394   -21908974.474    20203829.549    20203860.310    20203829.973  
  20203831.513         -83.783         -65.283          46.220          56.760  
  -5723679.794    -4970902.604    24275552.492    24275609.540    24275553.520  
  24275560.170       -2391.623       -1863.609          35.840          41.630  
 -10955315.113   -10975688.643    23039955.015           0.000    23039955.007  
  23039959.089       -3367.493       -2624.027          36.180          42.330  
 -21633364.705   -16857154.362    21192245.828    21192275.440    21192246.106  
  21192247.928       -2047.571       -1595.509          46.150          51.550  
  -3162143.617    -2464003.519    24480827.845           0.000    24480828.704  
  24480834.903        2795.956        2178.661          32.810          38.160  
   -839603.517     -654235.579    25232445.819           0.000    25232446.045  
  25232453.929        3089.399        2407.322          33.300          37.460  
 -16994848.002   -14035014.492    21982228.442           0.000    21982227.653  
  21982231.643        2925.865        2279.894          43.930          46.640  
   -325586.760      -62168.084    25808822.238           0.000    25808821.588  
  25808828.880        1898.053        1478.531          31.320          28.050  
 -17180541.503   -15786147.293    21592345.676    21592379.270    21592345.394  
  21592350.556         294.255         229.292          44.820          50.060  
 -13925271.216   -10850846.336    22695483.561    22695542.160    22695483.990  
  22695487.420        2773.985        2161.542          41.750          47.490  
 15  7 19  0 20 30.0000000  0 11G 2G 5G 6G10G12G13G15G20G21G25G29
 -18985830.018   -15321991.657    21527144.719           0.000    21527144.522  
  21527144.548       -1128.683        -879.489          45.190          49.970  
 -27678701.986   -21906794.670    20204361.823    20204389.940    20204362.381  
  20204363.780        -102.706         -80.030          45.970          56.780  
  -5651945.990    -4915006.165    24289203.199    24289257.810    24289204.050  
  24289210.198       -2390.632       -1862.833          35.620          40.940  
 -10854166.602   -10896871.674    23059204.622           0.000    23059202.647  
  23059207.477       -3375.735       -2630.436          35.760          42.890  
 -21571702.344   -16809105.795    21203979.550    21204017.770    21203980.273  
  21203982.154       -2063.246       -1607.724          46.110          51.570  
  -3246047.041    -2529382.636    24464862.252           0.000    24464862.493  
  24464868.605        2797.585        2179.923          33.860          38.780  
   -932383.209     -726531.228    25214790.100           0.000    25214790.650  
  25214798.947        3095.869        2412.360          32.350          36.840  
 -17082463.300   -14103286.064    21965554.964           0.000    21965554.869  
  21965558.897        2915.121        2271.522          43.860          46.450  
   -382498.008      -19951.983    25797991.957           0.000    25797992.194  
  25797999.568        1896.024        1477.407          34.180          31.980  
 -17189072.694   -15792794.982    21590721.069    21590757.950    21590721.553  
  21590727.044         274.487         213.885          44.870          49.960  
 -14008463.391   -10915671.345    22679653.888    22679677.190    22679653.106  
  22679655.781        2772.146        2160.115          41.670          47.360  
 15  7 19  0 21  0.0000000  0 11G 2G 5G 6G10G12G13G15G20G21G25G29
 -18951930.315   -15295576.308    21533595.918           0.000    21533595.325  
  21533595.475       -1131.286        -881.519          45.320          49.890  
 -27675337.480   -21904172.963    20205001.999    20205034.600    20205002.182  
  20205004.149        -121.587         -94.742          45.830          56.780  
  -5580241.978    -4859132.933    24302849.085    24302888.750    24302848.470  
  24302855.437       -2389.630       -1862.049          33.720          40.990  
 -10752772.994   -10817863.743    23078497.774           0.000    23078497.630  
  23078501.901       -3383.817       -2636.739          36.010          42.970  
 -21509570.923   -16760691.732    21215803.309    21215830.130    21215803.677  
  21215805.076       -2078.825       -1619.864          46.250          51.600  
  -3329997.725    -2594798.575    24448888.480           0.000    24448886.829  
  24448892.340        2799.093        2181.115          34.710          38.260  
  -1025355.729     -798977.136    25197098.864           0.000    25197098.303  
  25197107.436        3102.285        2417.365          32.510          36.490  
 -17169755.983   -14171306.256    21948943.866           0.000    21948944.000  
  21948947.543        2904.387        2263.160          44.110          46.710  
   -439348.018      -64250.077    25787174.290           0.000    25787172.698  
  25787181.509        1893.971        1475.829          32.720          32.960  
 -17197010.570   -15798980.343    21589211.442    21589246.830    21589211.352  
  21589216.224         254.731         198.489          45.140          49.940  
 -14091600.241   -10980453.233    22663832.778    22663854.990    22663833.338  
  22663836.183        2770.311        2158.679          42.180          47.600  
 15  7 19  0 21 30.0000000  0 11G 2G 5G 6G10G12G13G15G20G21G25G29
 -18917952.856   -15269100.368    21540062.323           0.000    21540061.739  
  21540061.159       -1133.869        -883.536          45.690          49.880  
 -27671406.442   -21901109.803    20205750.385    20205779.010    20205750.508  
  20205752.180        -140.458        -109.447          46.000          56.830  
  -5508567.574    -4803282.794    24316487.283    24316511.200    24316487.705  
  24316494.969       -2388.634       -1861.278          33.230          40.330  
 -10651137.078   -10738666.989    23097838.260           0.000    23097838.216  
  23097842.892       -3391.864       -2643.009          36.680          43.710  
 -21446972.601   -16711913.859    21227715.712    21227734.030    21227715.508  
  21227717.634       -2094.361       -1631.965          46.040          51.800  
  -3413992.415    -2660248.855    24432904.206           0.000    24432904.541  
  24432908.911        2800.550        2182.249          36.100          38.090  
  -1118519.451     -871571.644    25179368.994           0.000    25179370.215  
  25179378.106        3108.601        2422.277          33.650          35.840  
 -17256724.785   -14239074.064    21932395.098           0.000    21932394.403  
  21932397.750        2893.543        2254.704          44.260          46.750  
   -496136.979     -108501.028    25776365.886           0.000    25776366.292  
  25776374.177        1891.945        1474.248          33.170          34.840  
 -17204354.882   -15804703.188    21587813.985    21587851.180    21587814.041  
  21587818.686         234.922         183.055          45.340          49.960  
 -14174680.039   -11045190.687    22648022.960    22648072.210    22648023.784  
  22648025.786        2768.371        2157.171          42.640          46.980  
 15  7 19  0 22  0.0000000  0 11G 2G 5G 6G10G12G13G15G20G21G25G29
 -18883897.841   -15242563.994    21546542.711           0.000    21546541.994  
  21546541.790       -1136.460        -885.550          45.710          49.970  
 -27666910.135   -21897606.167    20206605.760    20206634.180    20206606.065  
  20206607.864        -159.279        -124.113          45.950          56.810  
  -5436923.284    -4747456.087    24330120.559    24330148.640    24330121.522  
  24330128.481       -2387.625       -1860.485          34.240          40.010  
 -10549262.058   -10659283.909    23117224.823           0.000    23117224.784  
  23117229.409       -3399.763       -2649.169          37.990          44.060  
 -21383909.896   -16662774.126    21239715.735    21239740.740    21239715.923  
  21239717.962       -2109.789       -1643.989          46.240          51.840  
  -3498028.728    -2725731.570    24416910.823           0.000    24416912.269  
  24416917.535        2801.879        2183.273          35.960          38.820  
  -1211871.159     -944313.086    25161605.681           0.000    25161606.115  
  25161613.500        3114.844        2427.157          33.910          36.300  
 -17343367.849   -14306588.064    21915907.001           0.000    21915906.658  
  21915909.422        2882.672        2246.237          44.480          46.420  
   -552866.106     -152705.332    25765573.643           0.000    25765570.820  
  25765577.235        1889.984        1472.705          30.730          33.460  
 -17211105.994   -15809963.799    21586528.536    21586559.230    21586529.452  
  21586534.185         215.165         167.658          45.290          50.090  
 -14257701.245   -11109882.483    22632225.060    22632267.600    22632224.513  
  22632227.483        2766.402        2155.631          42.370          46.890  
 15  7 19  0 22 30.0000000  0 11G 2G 5G 6G10G12G13G15G20G21G25G29
 -18849765.010   -15215966.986    21553038.441           0.000    21553037.594  
  21553037.202       -1139.043        -887.565          45.930          50.170  
 -27661849.015   -21893662.417    20207568.327    20207601.530    20207569.198  
  20207570.880        -178.095        -138.776          46.020          56.750  
  -5365308.681    -4691652.496    24343748.255    24343777.360    24343748.702  
  24343755.949       -2386.650       -1859.726          33.570          40.350  
 -10447150.470   -10579716.463    23136657.204           0.000    23136655.887  
  23136660.592       -3407.610       -2655.273          37.970          44.180  
 -21320384.975   -16613274.231    21251804.539    21251831.380    21251804.592  
  21251806.581       -2125.159       -1655.965          46.410          51.840  
  -3582103.185    -2791243.985    24400913.338           0.000    24400913.074  
  24400918.276        2803.088        2184.223          35.680          38.780  
  -1305409.346    -1017199.395    25143803.374           0.000    25143805.418  
  25143813.072        3121.024        2431.950          33.420          36.750  
 -17429683.106   -14373846.627    21899482.070           0.000    21899481.694  
  21899484.599        2871.705        2237.688          44.840          46.730  
   -609534.809     -196863.490    25754788.134           0.000    25754787.397  
  25754793.931        1887.972        1471.165          35.060          31.980  
 -17217263.423   -15814761.796    21585357.180    21585397.710    21585357.463  
  21585362.607         195.368         152.237          45.290          50.150  
 -14340662.102   -11174527.278    22616438.267    22616461.050    22616438.023  
  22616440.144        2764.357        2154.040          42.620          46.810  
 15  7 19  0 23  0.0000000  0 11G 2G 5G 6G10G12G13G15G20G21G25G29
 -18815554.861   -15189309.723    21559547.629           0.000    21559547.151  
  21559547.316       -1141.625        -889.577          45.750          50.360  
 -27656224.140   -21889279.380    20208639.368    20208658.440    20208639.805  
  20208640.962        -196.876        -153.410          46.250          56.630  
  -5293724.087    -4635872.318    24357371.408    24357404.270    24357370.002  
  24357377.452       -2385.674       -1858.947          32.210          41.270  
 -10344805.414   -10499967.130    23156131.140           0.000    23156131.738  
  23156136.538       -3415.367       -2661.322          38.340          44.950  
 -21256400.720   -16563416.401    21263979.387    21263998.940    21263980.355  
  21263982.150       -2140.443       -1667.878          46.510          51.610  
  -3666213.156    -2856784.096    24384907.306           0.000    24384907.273  
  24384912.932        2804.210        2185.100          35.830          39.300  
  -1399131.729    -1090229.175    25125969.862           0.000    25125970.206  
  25125979.062        3127.091        2436.687          33.430          37.220  
 -17515669.106   -14440848.628    21883119.478           0.000    21883118.676  
  21883121.474        2860.689        2229.105          44.910          46.590  
   -666144.886     -240975.165    25744014.962           0.000    25744014.629  
  25744022.418        1886.026        1469.619          34.130          34.840  
 -17222827.575   -15819097.503    21584298.367    21584342.620    21584298.414  
  21584303.816         175.574         136.814          45.190          50.190  
 -14423560.902   -11239123.697    22600662.752    22600685.260    22600663.159  
  22600664.801        2762.230        2152.386          42.760          46.870  
 15  7 19  0 23 30.0000000  0 11G 2G 5G 6G10G12G13G15G20G21G25G29
 -18781268.035   -15162592.723    21566071.750           0.000    21566071.303  
  21566072.087       -1144.155        -891.551          45.570          50.460  
 -27650036.436   -21884457.774    20209817.053    20209845.540    20209817.537  
  20209818.677        -215.621        -168.014          46.410          56.720  
  -5222170.595    -4580115.606    24370986.067    24371062.510    24370987.402  
  24370994.023       -2384.646       -1858.159          31.300          41.510  
 -10242229.900   -10420038.189    23175651.754           0.000    23175652.017  
  23175656.576       -3422.991       -2667.266          38.990          45.130  
 -21191959.335   -16513202.373    21276242.717    21276276.630    21276243.278  
  21276245.109       -2155.622       -1679.704          46.600          51.640  
  -3750356.057    -2922349.857    24368895.343           0.000    24368895.806  
  24368901.705        2805.284        2185.933          36.620          40.660  
  -1493035.270    -1163400.527    25108099.868           0.000    25108100.787  
  25108109.922        3133.129        2441.404          33.410          37.520  
 -17601323.825   -14507592.490    21866818.999           0.000    21866818.863  
  21866822.195        2849.629        2220.487          44.720          46.790  
   -722696.490     -285041.143    25733254.647           0.000    25733252.935  
  25733260.082        1884.103        1468.120          34.580          35.020  
 -17227798.593   -15822971.026    21583351.793    21583371.590    21583352.466  
  21583357.950         155.819         121.417          45.300          50.210  
 -14506396.134   -11303670.573    22584899.860    22584934.550    22584900.387  
  22584901.735        2760.099        2150.725          43.230          46.600  
 15  7 19  0 24  0.0000000  0 11G 2G 5G 6G10G12G13G15G20G21G25G29
 -18746904.578   -15135816.005    21572610.744           0.000    21572610.600  
  21572610.785       -1146.734        -893.560          45.730          50.150  
 -27643286.822   -21879198.326    20211101.635    20211128.250    20211101.967  
  20211103.132        -234.338        -182.603          46.430          56.760  
  -5150645.295    -4524382.466    24384598.995    24384643.380    24384596.708  
  24384604.884       -2383.645       -1857.372          30.230          41.610  
 -10139426.546   -10339931.735    23195214.795           0.000    23195214.642  
  23195219.321       -3430.542       -2673.149          38.640          44.770  
 -21127063.663   -16462634.348    21288592.213    21288616.370    21288592.137  
  21288594.166       -2170.756       -1691.499          46.710          51.660  
  -3834528.973    -2987939.006    24352877.365           0.000    24352878.150  
  24352883.531        2806.209        2186.651          37.500          40.970  
  -1587118.499    -1236711.897    25090197.652           0.000    25090197.407  
  25090206.046        3139.077        2446.027          33.900          37.680  
 -17686645.662   -14574076.962    21850582.155           0.000    21850582.141  
  21850585.594        2838.497        2211.813          44.570          46.670  
   -779189.849     -329061.759    25722504.807           0.000    25722502.290  
  25722509.481        1882.173        1466.625          34.960          35.500  
 -17232176.559   -15826382.435    21582518.768    21582554.410    21582519.233  
  21582524.866         136.049         106.017          45.270          50.250  
 -14589165.670   -11368166.267    22569149.454    22569194.730    22569149.465  
  22569151.974        2757.870        2148.989          43.190          46.960  
 15  7 19  0 24 30.0000000  0 11G 2G 5G 6G10G12G13G15G20G21G25G29
 -18712464.536   -15108979.611    21579164.881           0.000    21579164.527  
  21579164.406       -1149.273        -895.536          45.850          50.260  
 -27635976.631   -21873502.064    20212492.293    20212518.440    20212492.648  
  20212494.249        -253.011        -197.151          46.420          56.780  
  -5079150.180    -4468672.812    24398203.229    24398232.390    24398201.817  
  24398209.474       -2382.632       -1856.607          31.500          40.960  
 -10036398.618   -10259650.295    23214820.524           0.000    23214820.624  
  23214824.785       -3437.997       -2678.951          38.460          44.310  
 -21061715.527   -16411713.754    21301027.153    21301048.060    21301027.686  
  21301029.857       -2185.783       -1703.211          46.910          51.810  
  -3918728.827    -3053549.152    24336854.600           0.000    24336855.925  
  24336860.611        2807.071        2187.328          37.760          41.320  
  -1681379.199    -1310161.583    25072260.541           0.000    25072259.880  
  25072267.231        3144.963        2450.596          34.210          37.440  
 -17771633.115   -14640300.882    21834409.648           0.000    21834409.973  
  21834412.700        2827.300        2203.091          44.660          46.650  
   -835626.176     -373037.980    25711763.783           0.000    25711763.166  
  25711769.217        1880.261        1465.125          35.290          35.440  
 -17235961.654   -15829331.865    21581799.287    21581831.120    21581799.549  
  21581804.574         116.290          90.617          45.580          50.220  
 -14671868.242   -11432609.781    22553410.609    22553454.670    22553410.987  
  22553412.605        2755.597        2147.214          42.580          45.930  
 15  7 19  0 25  0.0000000  0 11G 2G 5G 6G10G12G13G15G20G21G25G29
 -18677948.104   -15082083.696    21585734.133           0.000    21585733.368  
  21585733.069       -1151.797        -897.502          46.190          50.380  
 -27628105.826   -21867368.966    20213990.180    20214018.950    20213990.819  
  20213992.020        -271.679        -211.697          46.330          56.750  
  -5007686.635    -4412986.416    24411800.757    24411824.970    24411801.775  
  24411809.171       -2381.136       -1855.820          32.010          41.820  
  -9933148.787   -10179195.941    23234468.210           0.000    23234468.497  
  23234472.784       -3445.319       -2684.666          37.780          43.380  
 -20995917.773   -16360442.813    21313548.344    21313580.200    21313548.757  
  21313550.756       -2200.714       -1714.844          46.980          51.810  
  -4002952.786    -3119178.053    24320828.091           0.000    24320828.436  
  24320834.083        2807.828        2187.928          36.980          42.170  
  -1775814.692    -1383747.430    25054287.415           0.000    25054288.068  
  25054297.323        3150.759        2455.127          32.710          38.670  
 -17856283.816   -14706262.404    21818302.199           0.000    21818301.320  
  21818303.993        2816.068        2194.339          44.750          46.490  
   -892005.225     -416969.475    25701034.736           0.000    25701034.478  
  25701041.065        1878.344        1463.643          34.460          35.160  
 -17239153.681   -15831819.162    21581191.931    21581215.280    21581192.084  
  21581196.941          96.526          75.219          45.620          50.010  
 -14754501.770   -11496999.497    22537686.399    22537706.600    22537686.571  
  22537689.578        2753.279        2145.409          42.520          46.500  
 15  7 19  0 25 30.0000000  0 11G 2G 5G 6G10G12G13G15G20G21G25G29
 -18643355.811   -15055128.667    21592316.278           0.000    21592316.178  
  21592315.758       -1154.332        -899.479          46.200          50.380  
 -27619675.420   -21860799.807    20215594.001    20215621.780    20215594.598  
  20215596.058        -290.311        -226.214          46.170          56.620  
  -4936252.928    -4357323.537    24425394.901    24425425.890    24425396.069  
  24425402.148       -2380.613       -1855.035          33.630          41.850  
  -9829680.050   -10098570.994    23254158.251           0.000    23254157.838  
  23254162.177       -3452.572       -2690.308          37.660          42.490  
 -20929673.218   -16308823.714    21326155.384    21326189.400    21326155.041  
  21326156.826       -2215.563       -1726.411          47.070          51.790  
  -4087197.841    -3184823.390    24304796.879           0.000    24304796.717  
  24304802.182        2808.489        2188.428          36.100          42.240  
  -1870422.858    -1457467.811    25036284.109           0.000    25036284.730  
  25036293.996        3156.460        2459.577          34.110          40.220  
 -17940596.529   -14771960.561    21802257.632           0.000    21802257.185  
  21802260.213        2804.781        2185.538          44.610          46.920  
   -948327.634     -460856.858    25690316.763           0.000    25690316.546  
  25690323.099        1876.475        1462.177          34.640          37.450  
 -17241753.108   -15833844.698    21580698.199    21580728.300    21580697.539  
  21580702.177          76.787          59.831          45.570          50.090  
 -14837064.419   -11561333.993    22521975.190    22522003.220    22521975.709  
  22521977.107        2750.894        2143.555          42.510          45.900  
 15  7 19  0 26  0.0000000  0 11G 2G 5G 6G10G12G13G15G20G21G25G29
 -18608687.316   -15028114.256    21598913.309           0.000    21598913.082  
  21598912.824       -1156.893        -901.473          46.070          50.250  
 -27610687.137   -21853795.944    20217304.282    20217338.330    20217304.841  
  20217306.325        -308.919        -240.716          46.010          56.560  
  -4864848.478    -4301684.091    24438981.958    24438996.600    24438982.686  
  24438990.178       -2379.632       -1854.267          32.750          42.090  
  -9725995.201   -10017777.634    23273887.827           0.000    23273888.146  
  23273892.676       -3459.729       -2695.898          36.710          42.270  
 -20862984.035   -16256858.150    21338844.919    21338862.750    21338845.351  
  21338847.300       -2230.371       -1737.950          46.820          51.790  
  -4171461.114    -3250482.910    24288762.038           0.000    24288761.285  
  24288766.605        2809.019        2188.842          34.390          41.680  
  -1965201.338    -1531320.906    25018249.218           0.000    25018249.920  
  25018258.038        3162.084        2463.954          34.220          41.350  
 -18024569.394   -14837393.897    21786277.586           0.000    21786277.748  
  21786280.767        2793.398        2176.678          44.700          47.200  
  -1004594.065     -504700.582    25679608.742           0.000    25679608.467  
  25679615.669        1874.602        1460.732          33.390          37.470  
 -17243760.016   -15835408.531    21580315.651    21580341.570    21580315.439  
  21580320.553          57.012          44.424          45.690          50.180  
 -14919554.541   -11625611.960    22506277.863    22506308.270    22506277.938  
  22506280.345        2748.436        2141.638          42.220          46.480  
 15  7 19  0 26 30.0000000  0 11G 2G 5G 6G10G12G13G15G20G21G25G29
 -18573943.317   -15001041.017    21605523.870           0.000    21605524.198  
  21605524.632       -1159.400        -903.430          45.800          50.380  
 -27601141.632   -21846357.877    20219120.883    20219148.680    20219121.180  
  20219122.852        -327.473        -255.171          45.900          56.550  
  -4793474.849    -4246068.290    24452564.089    24452586.430    24452565.838  
  24452572.239       -2378.614       -1853.467          32.730          41.700  
  -9622097.378    -9936818.351    23293659.433           0.000    23293659.368  
  23293663.987       -3466.793       -2701.396          36.220          42.600  
 -20795853.106   -16204548.378    21351619.959    21351638.700    21351620.286  
  21351621.712       -2245.053       -1749.391          46.960          51.560  
  -4255739.825    -3316154.454    24272723.322           0.000    24272722.930  
  24272728.838        2809.494        2189.218          32.470          41.400  
  -2060148.279    -1605305.286    25000180.032           0.000    25000181.356  
  25000189.922        3167.675        2468.308          32.980          41.010  
 -18108200.938   -14902561.276    21770363.424           0.000    21770363.170  
  21770366.372        2782.000        2167.789          44.850          47.500  
  -1060806.994     -548501.433    25668909.519           0.000    25668911.366  
  25668918.682        1872.789        1459.312          30.430          37.850  
 -17245174.935   -15836511.070    21580045.586    21580083.600    21580045.968  
  21580051.188          37.287          29.054          45.420          50.090  
 -15001970.657   -11689832.259    22490593.236    22490611.860    22490594.430  
  22490596.888        2745.937        2139.692          42.150          46.720  
 15  7 19  0 27  0.0000000  0 11G 2G 5G 6G10G12G13G15G20G21G25G29
 -18539123.896   -14973909.005    21612149.765           0.000    21612150.189  
  21612150.295       -1161.893        -905.371          45.550          50.410  
 -27591039.568   -21838486.129    20221043.355    20221066.380    20221043.555  
  20221045.184        -345.964        -269.584          46.140          56.480  
  -4722131.402    -4190476.004    24466142.767    24466166.730    24466141.308  
  24466148.174       -2377.606       -1852.676          32.380          41.630  
  -9517989.140    -9855695.117    23313471.000           0.000    23313470.268  
  23313474.933       -3473.740       -2706.800          35.990          41.590  
 -20728282.382   -16151895.900    21364478.104    21364498.470    21364478.273  
  21364479.953       -2259.648       -1760.761          46.640          51.390  
  -4340030.437    -3381835.657    24256683.019           0.000    24256682.884  
  24256688.741        2809.891        2189.515          32.080          41.530  
  -2155260.962    -1679418.818    24982080.634    24982150.880    24982081.877  
  24982090.259        3173.166        2472.590          32.900          41.230  
 -18191489.245   -14967461.188    21754513.595           0.000    21754513.853  
  21754517.444        2770.552        2158.866          44.730          47.730  
  -1116963.819     -592259.628    25658228.025           0.000    25658225.715  
  25658232.153        1870.475        1457.902          29.750          37.100  
 -17245997.921   -15837152.371    21579889.589    21579914.610    21579889.446  
  21579894.884          17.573          13.697          45.380          50.240  
 -15084310.853   -11753993.406    22474924.618    22474959.820    22474925.805  
  22474927.907        2743.391        2137.706          42.350          47.010  
 15  7 19  0 27 30.0000000  0 11G 2G 5G 6G10G12G13G15G20G21G25G29
 -18504229.110   -14946718.271    21618790.830           0.000    21618790.337  
  21618790.734       -1164.419        -907.339          45.400          50.430  
 -27580382.723   -21830182.081    20223070.699    20223105.350    20223071.557  
  20223073.046        -364.470        -284.001          46.110          56.450  
  -4650816.827    -4134907.424    24479709.870    24479744.200    24479712.099  
  24479719.292       -2376.591       -1851.890          33.340          41.960  
  -9413673.469    -9774410.242    23333321.973           0.000    23333321.084  
  23333325.223       -3480.618       -2712.166          35.580          40.790  
 -20660275.056   -16098903.215    21377419.372    21377443.280    21377419.690  
  21377421.319       -2274.157       -1772.071          46.560          51.280  
  -4424331.085    -3447524.271    24240640.078           0.000    24240641.428  
  24240646.851        2810.159        2189.728          32.870          41.780  
  -2250536.788    -1753659.867    24963951.196    24963985.300    24963951.417  
  24963959.795        3178.573        2476.812          33.180          42.160  
 -18274432.922   -15032092.563    21738730.279           0.000    21738730.091  
  21738733.431        2759.039        2149.898          44.760          47.500  
  -1173064.446     -635975.790    25647548.708           0.000    25647549.384  
  25647555.552        1869.213        1456.520          30.710          37.790  
 -17246229.498   -15837332.830    21579844.999    21579865.610    21579845.147  
  21579850.826          -2.118          -1.652          45.320          50.160  
 -15166573.469   -11818094.101    22459271.903    22459273.720    22459271.774  
  22459274.037        2740.776        2135.671          42.300          47.290  
 15  7 19  0 28  0.0000000  0 11G 2G 5G 6G10G12G13G15G20G21G25G29
 -18469258.716   -14919468.626    21625444.780           0.000    21625444.942  
  21625445.226       -1166.954        -909.313          45.310          50.320  
 -27569171.799   -21821446.288    20225204.908    20225231.980    20225205.254  
  20225206.438        -382.930        -298.388          46.270          56.470  
  -4579533.822    -4079362.220    24493277.973    24493327.870    24493276.600  
  24493284.689       -2375.614       -1851.126          33.180          42.070  
  -9309153.737    -9692965.948    23353211.198           0.000    23353210.953  
  23353215.155       -3487.394       -2717.446          36.000          41.230  
 -20591833.661   -16045572.294    21390443.110    21390468.180    21390443.638  
  21390445.565       -2288.593       -1783.319          46.480          51.280  
  -4508638.253    -3513217.967    24224594.992           0.000    24224597.850  
  24224603.758        2810.302        2189.834          33.980          41.670  
  -2345974.299    -1828026.485    24945788.949    24945804.630    24945791.051  
  24945798.380        3183.884        2480.948          34.100          42.820  
 -18357030.070   -15096453.913    21723012.504           0.000    21723012.043  
  21723015.529        2747.439        2140.857          44.650          47.410  
  -1229111.502     -679649.715    25636883.205           0.000    25636882.941  
  25636889.446        1867.213        1455.122          29.630          37.320  
 -17245869.739   -15837052.509    21579913.464    21579947.240    21579913.621  
  21579918.997         -21.845         -17.025          45.040          50.040  
 -15248756.448   -11882132.736    22443632.849    22443666.890    22443632.765  
  22443635.665        2738.062        2133.560          42.730          47.780  
 15  7 19  0 28 30.0000000  0 11G 2G 5G 6G10G12G13G15G20G21G25G29
 -18434213.357   -14892160.560    21632114.359           0.000    21632114.168  
  21632114.330       -1169.426        -911.242          45.500          50.300  
 -27557407.999   -21812279.678    20227443.453    20227476.740    20227443.956  
  20227444.970        -401.337        -312.731          46.270          56.470  
  -4508281.417    -4023840.476    24506835.538    24506880.880    24506835.844  
  24506842.896       -2374.605       -1850.332          32.750          41.070  
  -9204431.788    -9611364.488    23373138.680           0.000    23373138.465  
  23373143.103       -3494.089       -2722.658          35.420          41.530  
 -20522960.753   -15991905.138    21403548.968    21403586.950    21403549.736  
  21403551.725       -2302.937       -1794.495          46.500          51.260  
  -4592948.584    -3578914.568    24208554.271           0.000    24208555.204  
  24208560.137        2810.380        2189.895          35.220          41.290  
  -2441570.659    -1902516.893    24927598.356    24927622.430    24927598.595  
  24927606.668        3189.159        2485.045          34.390          43.210  
 -18439279.386   -15160544.235    21707361.247           0.000    21707360.650  
  21707363.806        2735.812        2131.797          44.920          47.570  
  -1285107.038     -723282.772    25626229.277           0.000    25626227.553  
  25626233.693        1865.672        1453.752          29.330          38.080  
 -17244919.082   -15836311.747    21580094.356    21580125.610    21580094.549  
  21580100.064         -41.546         -32.374          44.970          50.030  
 -15330858.146   -11946108.039    22428009.624    22428042.250    22428009.622  
  22428011.435        2735.338        2131.431          43.220          47.560  
 15  7 19  0 29  0.0000000  0 11G 2G 5G 6G10G12G13G15G20G21G25G29
 -18399093.386   -14864794.353    21638797.313           0.000    21638797.071  
  21638797.245       -1171.937        -913.198          45.220          50.190  
 -27545092.324   -21802683.040    20229786.666    20229813.540    20229787.176  
  20229788.780        -419.730        -327.060          46.040          56.530  
  -4437058.566    -3968342.153    24520386.579    24520395.750    24520387.936  
  24520396.024       -2373.617       -1849.570          30.740          40.640  
  -9099510.915    -9529608.023    23393105.898           0.000    23393104.690  
  23393108.492       -3500.675       -2727.784          36.670          41.400  
 -20453658.858   -15937903.693    21416737.955    21416751.040    21416737.836  
  21416739.518       -2317.204       -1805.612          46.220          51.120  
  -4677259.855    -3644611.518    24192510.859           0.000    24192509.944  
  24192515.626        2810.331        2189.858          35.240          40.290  
  -2537323.300    -1977129.073    24909377.191    24909383.870    24909377.676  
  24909385.137        3194.320        2489.061          34.920          43.050  
 -18521178.838   -15224361.921    21691776.212           0.000    21691775.794  
  21691779.043        2724.114        2122.685          45.020          47.740  
  -1341054.773     -766875.058    25615585.245           0.000    25615581.617  
  25615587.909        1863.909        1452.376          28.780          38.230  
 -17243377.905   -15835110.839    21580387.321    21580403.510    21580387.630  
  21580393.269         -61.230         -47.710          45.020          50.160  
 -15412876.537   -12010018.437    22412401.932    22412424.690    22412402.430  
  22412404.456        2732.518        2129.229          43.580          48.100  
 15  7 19  0 29 30.0000000  0 11G 2G 5G 6G10G12G13G15G20G21G25G29
 -18363898.548   -14837369.804    21645494.594           0.000    21645494.636  
  21645494.665       -1174.384        -915.107          45.310          50.200  
 -27532226.101   -21792657.403    20232234.786    20232259.590    20232235.522  
  20232237.067        -438.018        -341.314          46.000          56.500  
  -4365866.821    -3912867.312    24533935.080    24533974.070    24533936.340  
  24533943.949       -2372.571       -1848.763          32.490          40.600  
  -8994393.493    -9447698.760    23413108.853           0.000    23413107.783  
  23413111.572       -3507.116       -2732.821          37.160          41.640  
 -20383930.554   -15883569.999    21430005.886    21430027.070    21430005.994  
  21430008.506       -2331.339       -1816.626          45.870          51.070  
  -4761568.972    -3710306.788    24176465.965           0.000    24176466.439  
  24176471.864        2810.228        2189.792          35.330          40.270  
  -2633230.076    -2051861.353    24891127.667    24891154.740    24891127.189  
  24891134.431        3199.459        2493.068          35.910          43.350  
 -18602726.982   -15287905.863    21676258.169           0.000    21676257.498  
  21676261.021        2712.403        2113.559          45.080          48.000  
  -1396948.541     -810426.893    25604948.957           0.000    25604947.329  
  25604952.654        1862.412        1451.053          27.620          39.320  
 -17241246.622   -15833450.102    21580792.631    21580824.990    21580793.243  
  21580798.924         -80.861         -63.006          44.910          50.230  
 -15494809.994   -12073862.649    22396811.000    22396855.100    22396810.823  
  22396812.880        2729.687        2127.024          43.380          48.230  
 15  7 19  0 30  0.0000000  0 11G 2G 5G 6G10G12G13G15G20G21G25G29
 -18328628.953   -14809886.998    21652205.934           0.000    21652205.670  
  21652206.333       -1176.900        -917.066          45.110          50.210  
 -27518810.326   -21782203.537    20234787.620    20234818.470    20234788.432  
  20234789.938        -456.356        -355.603          46.000          56.470  
  -4294704.701    -3857415.874    24547477.880    24547537.900    24547477.930  
  24547484.928       -2371.609       -1847.995          31.540          38.090  
  -8889083.463    -9365639.040    23433149.017           0.000    23433147.901  
  23433151.845       -3513.528       -2737.812          37.830          41.920  
 -20313778.740   -15828906.287    21443355.027    21443387.360    21443355.354  
  21443357.718       -2345.448       -1827.619          45.590          50.820  
  -4845872.793    -3775997.947    24160422.369           0.000    24160422.717  
  24160429.758        2810.006        2189.604          36.150          40.170  
  -2729288.617    -2126711.895    24872846.143    24872911.370    24872847.555  
  24872854.950        3204.449        2496.962          36.740          43.460  
 -18683922.039   -15351174.668    21660806.689           0.000    21660806.566  
  21660810.076        2700.595        2104.361          45.180          48.000  
  -1452789.192     -853938.753    25594318.506           0.000    25594319.963  
  25594326.132        1859.497        1449.730          26.280          38.450  
 -17238525.702   -15831329.908    21581311.212    21581334.620    21581310.836  
  21581316.837        -100.534         -78.334          44.940          50.320  
 -15576656.576   -12137639.147    22381235.246    22381239.660    22381235.357  
  22381237.961        2726.744        2124.735          42.940          48.390  
 15  7 19  0 30 30.0000000  0 11G 2G 5G 6G10G12G13G15G20G21G25G29
 -18293284.651   -14782345.983    21658931.817           0.000    21658931.896  
  21658932.402       -1179.359        -918.982          45.280          50.250  
 -27504846.103   -21771322.312    20237445.247    20237469.430    20237445.762  
  20237447.114        -474.576        -369.797          45.880          56.380  
  -4223571.902    -3801987.826    24561012.947    24561069.180    24561014.749  
  24561020.681       -2371.058       -1847.190          30.540          36.420  
  -8783583.321    -9283431.172    23453224.805           0.000    23453224.160  
  23453228.145       -3519.793       -2742.697          38.120          42.270  
 -20243205.643   -15773914.312    21456785.105    21456815.810    21456785.061  
  21456786.973       -2359.405       -1838.497          45.760          50.690  
  -4930168.433    -3841682.733    24144382.792           0.000    24144383.611  
  24144388.437        2809.685        2189.368          37.310          39.740  
  -2825496.574    -2201678.878    24854539.446    24854576.010    24854539.166  
  24854546.734        3209.410        2500.824          36.960          43.220  
 -18764762.604   -15414167.256    21645423.421           0.000    21645423.098  
  21645426.405        2688.773        2095.145          45.470          47.860  
  -1508573.025     -897411.213    25583700.685           0.000    25583701.711  
  25583709.061        1858.844        1448.443          29.640          38.810  
 -17235215.498   -15828750.534    21581941.619    21581967.040    21581941.009  
  21581946.603        -120.140         -93.611          45.240          50.340  
 -15658414.735   -12201346.748    22365675.875    22365701.660    22365677.033  
  22365680.179        2723.782        2122.426          42.760          48.350  
 15  7 19  0 31  0.0000000  0 11G 2G 5G 6G10G12G13G15G20G21G25G29
 -18257866.175   -14754747.169    21665672.120           0.000    21665671.654  
  21665672.222       -1181.866        -920.933          45.240          50.330  
 -27490334.916   -21760014.880    20240206.473    20240235.780    20240206.988  
  20240208.520        -492.829        -384.024          45.990          56.370  
  -4152468.092    -3746583.276    24574545.378    24574558.070    24574544.364  
  24574550.299       -2369.594       -1846.447          29.480          36.340  
  -8677895.920    -9201077.386    23473336.222           0.000    23473335.165  
  23473340.213       -3526.029       -2747.551          38.010          42.930  
 -20172214.633   -15718596.689    21470293.305    21470316.710    21470293.942  
  21470296.416       -2373.327       -1849.343          45.710          50.630  
  -5014452.931    -3907358.865    24128342.925           0.000    24128343.159  
  24128349.449        2809.262        2189.030          37.260          39.440  
  -2921851.693    -2276760.535    24836202.287    24836257.440    24836202.865  
  24836210.981        3214.241        2504.597          37.820          43.450  
 -18845247.141   -15476882.423    21630107.723           0.000    21630107.442  
  21630110.424        2676.847        2085.853          45.740          47.860  
  -1564313.076     -940844.445    25573093.472           0.000    25573096.189  
  25573102.226        1857.139        1447.107          32.510          38.420  
 -17231316.704   -15825712.521    21582683.839    21582709.790    21582683.543  
  21582688.500        -139.775        -108.916          45.430          50.220  
 -15740082.290   -12264983.748    22350134.731    22350164.470    22350135.949  
  22350139.503        2720.709        2120.031          43.080          48.640  
 15  7 19  0 31 30.0000000  0 11G 2G 5G 6G10G12G13G15G20G21G25G29
 -18222373.414   -14727090.481    21672426.074           0.000    21672425.757  
  21672426.100       -1184.313        -922.841          45.390          50.180  
 -27475277.589   -21748281.885    20243071.598    20243109.890    20243072.309  
  20243073.986        -510.986        -398.173          45.880          56.390  
  -4081397.463    -3691202.049    24588071.885    24588099.920    24588067.598  
  24588076.743       -2368.585       -1845.639          27.280          37.380  
  -8572023.664    -9118579.578    23493483.064           0.000    23493482.624  
  23493487.088       -3532.116       -2752.297          38.590          43.310  
 -20100808.081   -15662955.266    21483882.252    21483891.240    21483882.522  
  21483884.199       -2387.106       -1860.080          45.800          50.370  
  -5098722.980    -3973023.712    24112307.050           0.000    24112308.439  
  24112312.892        2808.731        2188.619          38.530          39.330  
  -3018351.032    -2351954.556    24817840.473    24817861.390    24817840.208  
  24817847.812        3219.021        2508.327          38.180          43.500  
 -18925374.078   -15539318.941    21614860.221           0.000    21614859.939  
  21614862.844        2664.931        2076.566          45.810          47.820  
  -1620002.985     -984239.012    25562499.158           0.000    25562498.815  
  25562504.839        1855.511        1445.850          33.830          38.790  
 -17226829.636   -15822216.109    21583537.286    21583565.640    21583537.370  
  21583542.258        -159.357        -124.174          45.590          50.290  
 -15821657.396   -12328548.713    22334612.370    22334637.760    22334613.351  
  22334616.266        2717.624        2117.625          43.390          48.410  
 15  7 19  0 32  0.0000000  0 11G 2G 5G 6G10G12G13G15G20G21G25G29
 -18186806.537   -14699376.032    21679194.167           0.000    21679194.229  
  21679193.858       -1186.794        -924.776          45.700          49.970  
 -27459675.525   -21736124.419    20246040.718    20246064.910    20246041.342  
  20246042.832        -529.127        -412.306          45.870          56.270  
  -4010356.376    -3635844.107    24601583.788    24601630.860    24601585.993  
  24601594.209       -2369.586       -1844.878          23.580          33.960  
  -8465969.580    -9035940.064    23513663.713           0.000    23513664.035  
  23513668.044       -3538.139       -2756.985          38.400          43.250  
 -20028988.555   -15606992.039    21497549.007    21497582.770    21497549.454  
  21497551.562       -2400.836       -1870.780          46.010          50.570  
  -5182975.709    -4038675.075    24096274.408           0.000    24096275.335  
  24096280.348        2808.102        2188.136          38.810          39.850  
  -3114992.553    -2427259.380    24799449.762    24799468.440    24799449.994  
  24799457.131        3223.736        2511.988          38.590          43.190  
 -19005141.960   -15601475.681    21599681.028           0.000    21599680.396  
  21599683.201        2652.926        2067.218          45.520          47.790  
  -1675644.198    -1027595.642    25551911.296           0.000    25551910.168  
  25551916.734        1853.912        1444.599          33.760          37.830  
 -17221755.026   -15818261.867    21584502.337    21584538.310    21584502.923  
  21584508.145        -178.926        -139.422          45.500          50.490  
 -15903138.348   -12392040.317    22319108.119    22319143.230    22319108.430  
  22319110.779        2714.450        2115.154          43.810          48.600  
 15  7 19  0 32 30.0000000  0 11G 2G 5G 6G10G12G13G15G20G21G25G29
 -18151165.526   -14671603.815    21685976.180           0.000    21685976.106  
  21685976.485       -1189.279        -926.711          45.440          49.960  
 -27443530.195   -21723543.632    20249112.236    20249138.860    20249113.137  
  20249115.093        -547.226        -426.410          45.840          56.320  
  -3939343.760    -3580509.316    24615104.580    24615109.670    24615103.861  
  24615110.198       -2366.615       -1844.103          30.420          35.570  
  -8359736.284    -8953160.924    23533880.165           0.000    23533879.359  
  23533883.664       -3544.062       -2761.610          36.650          43.350  
 -19956758.249   -15550708.726    21511294.934    21511315.410    21511294.897  
  21511296.447       -2414.497       -1881.424          46.460          50.500  
  -5267208.285    -4104310.725    24080244.651           0.000    24080245.338  
  24080251.832        2807.385        2187.562          37.460          41.190  
  -3211773.880    -2502673.131    24781032.891    24781064.210    24781032.838  
  24781039.745        3228.325        2515.580          38.330          42.190  
 -19084549.188   -15663351.393    21584570.130           0.000    21584570.004  
  21584572.570        2640.866        2057.820          45.810          47.930  
  -1731236.590    -1070914.613    25541331.702           0.000    25541331.124  
  25541337.571        1852.291        1443.332          33.610          36.750  
 -17216093.291   -15813850.140    21585580.408    21585611.580    21585580.372  
  21585585.574        -198.497        -154.672          45.610          50.570  
 -15984523.130   -12455456.979    22303621.937    22303648.080    22303621.507  
  22303623.673        2711.186        2112.615          43.750          48.510  
 15  7 19  0 33  0.0000000  0 11G 2G 5G 6G10G12G13G15G20G21G25G29
 -18115450.608   -14643774.005    21692772.593           0.000    21692772.496  
  21692772.528       -1191.723        -928.613          45.640          49.780  
 -27426842.749   -21710540.414    20252288.827    20252319.520    20252289.297  
  20252290.633        -565.264        -440.466          46.000          56.320  
  -3868359.838    -3525197.804    24628608.454           0.000    24628607.839  
  24628615.478       -2365.086       -1843.338          28.590          32.120  
  -8253326.322    -8870244.516    23554128.059           0.000    23554128.408  
  23554133.259       -3549.874       -2766.139          36.530          43.670  
 -19884120.628   -15494108.023    21525117.008    21525153.300    21525117.214  
  21525119.143       -2428.001       -1891.947          46.470          50.750  
  -5351417.737    -4169928.331    24064220.486           0.000    24064221.654  
  24064226.428        2806.571        2186.935          37.070          41.220  
  -3308692.582    -2578193.933    24762589.312    24762628.880    24762589.364  
  24762596.157        3232.880        2519.128          37.580          40.950  
 -19163593.989   -15724944.699    21569527.506           0.000    21569527.543  
  21569530.863        2628.769        2048.389          45.650          48.040  
  -1786781.209    -1114195.994    25530760.900           0.000    25530760.813  
  25530766.862        1850.694        1442.090          34.630          35.210  
 -17209845.097   -15808981.419    21586769.374    21586806.420    21586769.522  
  21586774.470        -218.040        -169.899          45.790          50.700  
 -16065809.706   -12518797.121    22288153.329    22288176.600    22288153.200  
  22288155.198        2707.909        2110.056          43.880          48.640  
 15  7 19  0 33 30.0000000  0 11G 2G 5G 6G10G12G13G15G20G21G25G29
 -18079662.185   -14615886.926    21699583.991           0.000    21699583.284  
  21699582.626       -1194.188        -930.537          45.870          49.600  
 -27409614.686   -21697115.930    20255566.738    20255590.720    20255567.633  
  20255569.246        -583.270        -454.496          46.040          56.460  
  -3797407.623    -3469909.459    24642099.446           0.000    24642110.094  
  24642116.174       -2365.134       -1842.545          27.600          30.350  
  -8146743.484    -8787193.006    23574410.558           0.000    23574410.226  
  23574415.409       -3555.632       -2770.613          35.580          43.810  
 -19811078.567   -15437192.170    21539016.764    21539038.060    21539017.091  
  21539018.420       -2441.464       -1902.438          46.800          50.640  
  -5435601.196    -4235525.677    24048198.629           0.000    24048200.771  
  24048206.527        2805.629        2186.205          35.550          41.490  
  -3405746.272    -2653819.908    24744120.446    24744165.210    24744120.375  
  24744126.962        3237.346        2522.594          37.290          39.940  
 -19242275.175   -15786254.665    21554555.170           0.000    21554555.162  
  21554558.318        2616.623        2038.931          45.790          48.190  
  -1842279.069    -1157440.891    25520200.760           0.000    25520199.997  
  25520204.789        1849.134        1440.877          33.470          32.950  
 -17203011.248   -15803656.338    21588069.941    21588099.550    21588069.751  
  21588074.985        -237.555        -185.108          45.660          50.660  
 -16146996.779   -12582059.717    22272702.501    22272716.080    22272703.038  
  22272705.633        2704.539        2107.430          43.380          48.580  
 15  7 19  0 34  0.0000000  0 11G 2G 5G 6G10G12G13G15G20G21G25G29
 -18043799.703   -14587942.120    21706407.382           0.000    21706407.485  
  21706407.174       -1196.673        -932.473          45.610          49.710  
 -27391846.613   -21683270.666    20258948.244    20258980.090    20258948.394  
  20258950.560        -601.259        -468.514          45.930          56.510  
  -3726479.414    -3414644.126    24655605.827           0.000    24655606.971  
  24655613.659       -2363.446       -1841.803          26.130          32.610  
  -8039989.864    -8704008.448    23594726.035           0.000    23594724.218  
  23594729.879       -3561.274       -2775.022          34.740          43.280  
 -19737634.303   -15379962.910    21552992.784    21553023.000    21552992.964  
  21552994.737       -2454.823       -1912.849          47.020          50.840  
  -5519755.030    -4301099.940    24032186.908           0.000    24032187.405  
  24032192.368        2804.591        2185.385          35.530          41.760  
  -3502932.273    -2729548.984    24725626.189    24725683.560    24725626.159  
  24725632.944        3241.698        2525.991          36.800          39.550  
 -19320590.544   -15847279.579    21539652.039           0.000    21539651.993  
  21539655.367        2604.401        2029.400          45.530          48.260  
  -1897730.151    -1200649.433    25509647.657           0.000    25509648.459  
  25509654.033        1847.592        1439.676          36.250          34.830  
 -17195591.947   -15797875.061    21589481.525    21589517.680    21589481.491  
  21589486.876        -257.065        -200.311          45.680          50.610  
 -16228081.699   -12645242.712    22257272.832    22257281.970    22257272.904  
  22257275.432        2701.103        2104.755          43.260          48.310  
 15  7 19  0 34 30.0000000  0 11G 2G 5G 6G10G12G13G15G20G21G25G29
 -18007863.481   -14559939.875    21713245.354           0.000    21713245.666  
  21713245.798       -1199.106        -934.367          45.560          49.690  
 -27373540.625   -21669006.250    20262431.703    20262464.140    20262432.370  
  20262433.989        -619.144        -482.452          46.250          56.470  
5114533182.167    -3359401.868    24669081.814           0.000    24669098.784  
  24669104.930       -2357.459       -1841.032          22.000          30.540  
  -7933068.673    -8620693.304    23615071.293           0.000    23615071.090  
  23615076.182       -3566.815       -2779.324          34.550          43.170  
 -19663791.093   -15322422.779    21567044.334    21567066.590    21567044.794  
  21567046.542       -2468.078       -1923.175          47.190          50.910  
  -5603877.286    -4366649.215    24016179.213           0.000    24016179.502  
  24016184.185        2803.485        2184.520          35.120          41.860  
  -3600248.337    -2805379.409    24707106.443    24707145.400    24707106.992  
  24707114.426        3246.008        2529.349          36.470          38.830  
 -19398539.322   -15908018.845    21524819.585           0.000    21524818.990  
  21524822.270        2592.172        2019.871          45.540          48.440  
  -1953135.363    -1243822.188    25499105.113           0.000    25499104.992  
  25499109.770        1846.073        1438.493          35.670          33.660  
 -17187588.312   -15791638.459    21591004.037    21591028.940    21591004.420  
  21591010.051        -276.530        -215.477          45.750          50.580  
 -16309063.223   -12708345.151    22241862.603    22241873.580    22241862.669  
  22241865.168        2697.622        2102.043          43.350          47.980  
 15  7 19  0 35  0.0000000  0 11G 2G 5G 6G10G12G13G15G20G21G25G29
 -17971853.574   -14531880.204    21720098.466           0.000    21720098.279  
  21720097.755       -1201.552        -936.275          45.530          49.270  
 -27354697.921   -21654323.616    20266017.447    20266042.300    20266018.296  
  20266019.380        -637.031        -496.387          46.430          56.330  
5121854315.578    -3304182.613    24683361.561           0.000    24682587.799  
  24682592.612       -2361.700       -1840.264          21.430          33.530  
  -7825982.154    -8537249.721    23635448.208           0.000    23635449.145  
  23635453.845       -3572.255       -2783.574          35.370          42.850  
 -19589550.947   -15264573.344    21581171.875    21581192.500    21581172.417  
  21581174.067       -2481.244       -1933.437          47.030          50.960  
  -5687963.811    -4432171.026    24000177.744           0.000    24000178.285  
  24000183.505        2802.252        2183.573          34.710          42.310  
  -3697691.898    -2881309.180    24688564.868    24688644.960    24688564.617  
  24688571.134        3250.202        2532.619          35.780          38.390  
 -19476120.141   -15968471.379    21510056.761           0.000    21510055.795  
  21510059.236        2579.857        2010.276          45.420          48.720  
  -2008495.392    -1286959.756    25488569.452           0.000    25488570.264  
  25488576.577        1844.587        1437.348          36.370          35.050  
 -17179000.981   -15784947.030    21592638.640    21592670.320    21592639.238  
  21592644.047        -295.969        -230.626          45.970          50.530  
 -16389939.087   -12771365.261    22226472.861    22226481.350    22226472.484  
  22226474.673        2694.083        2099.277          43.270          47.530  
 15  7 19  0 35 30.0000000  0 11G 2G 5G 6G10G12G13G15G20G21G25G29
 -17935769.928   -14503763.094    21726964.995           0.000    21726964.736  
  21726964.394       -1204.027        -938.202          45.270          49.350  
 -27335319.874   -21639223.839    20269705.735    20269731.940    20269706.147  
  20269706.996        -654.850        -510.269          46.430          56.330  
5121783479.500    -3248985.649    24691224.743           0.000    24696067.073  
  24696071.149       -2360.750       -1839.524          18.340          31.250  
  -7718733.476    -8453679.397    23655858.360           0.000    23655857.890  
  23655862.477       -3577.655       -2787.776          36.370          41.980  
 -19514917.508   -15206417.445    21595373.619    21595399.080    21595374.242  
  21595376.326       -2494.335       -1943.634          46.700          50.960  
  -5772011.266    -4497662.773    23984182.548           0.000    23984183.534  
  23984190.079        2800.924        2182.529          35.170          43.080  
  -3795260.072    -2957336.072    24669996.703    24670013.540    24669997.013  
  24670003.997        3254.296        2535.810          33.660          37.670  
 -19553330.908   -16028635.556    21495363.701           0.000    21495362.778  
  21495366.759        2567.494        2000.642          45.400          48.970  
  -2063810.460    -1330062.280    25478042.335           0.000    25478043.690  
  25478050.580        1843.081        1436.160          34.080          33.490  
 -17169830.417   -15777801.138    21594383.682    21594419.870    21594384.079  
  21594389.107        -315.407        -245.774          46.040          50.440  
 -16470707.405   -12834301.572    22211102.182    22211139.330    22211102.732  
  22211105.232        2690.437        2096.444          43.500          47.680  
 15  7 19  0 36  0.0000000  0 10G 2G 5G10G12G13G15G20G21G25G29
 -17899612.676   -14475588.624    21733845.553           0.000    21733845.348  
  21733845.019       -1206.464        -940.104          45.180          49.320  
 -27315407.991   -21623708.076    20273494.408    20273520.380    20273494.704  
  20273496.103        -672.612        -524.113          46.060          56.270  
  -7611325.192    -8369984.681    23676297.549           0.000    23676297.287  
  23676301.562       -3582.907       -2791.878          37.090          39.740  
 -19439893.287   -15147957.046    21609650.777    21609683.250    21609650.803  
  21609653.246       -2507.310       -1953.749          46.160          51.030  
  -5856017.973    -4563122.393    23968197.810           0.000    23968197.959  
  23968203.398        2799.493        2181.415          35.640          43.040  
  -3892950.736    -3033458.410    24651407.806    24651383.150    24651407.038  
  24651412.806        3258.359        2538.975          30.970          37.380  
 -19630170.499   -16088510.501    21480741.293           0.000    21480740.906  
  21480744.576        2555.105        1990.990          45.570          49.140  
  -2119081.228    -1373130.290    25467524.676           0.000    25467526.052  
  25467531.274        1841.622        1435.021          34.020          32.990  
 -17160077.612   -15770201.543    21596240.311    21596266.740    21596239.853  
  21596244.629        -334.796        -260.879          45.740          50.300  
 -16551366.239   -12897152.580    22195753.322    22195784.590    22195753.810  
  22195756.208        2686.776        2093.594          43.460          47.720  
 15  7 19  0 36 30.0000000  0 10G 2G 5G10G12G13G15G20G21G25G29
 -17863382.111   -14447357.028    21740740.000           0.000    21740739.299  
  21740740.104       -1208.914        -942.007          45.160          49.590  
 -27294963.574   -21607777.349    20277384.610    20277418.530    20277384.978  
  20277386.597        -690.344        -537.929          46.110          56.300  
  -7503759.617    -8286167.759    23696766.734           0.000    23696766.176  
  23696771.325       -3588.098       -2795.907          37.500          39.300  
 -19364480.990   -15089194.250    21624001.071    21624040.870    21624001.329  
  21624003.819       -2520.178       -1963.771          46.110          51.090  
  -5939980.299    -4628547.398    23952221.035           0.000    23952220.771  
  23952225.665        2797.979        2180.237          35.980          43.010  
  -3990760.401    -3109674.400    24632794.552    24632783.510    24632794.281  
  24632800.326        3261.829        2542.068          31.120          38.750  
 -19706637.358   -16148095.000    21466190.342           0.000    21466189.978  
  21466193.268        2542.693        1981.317          45.990          49.310  
  -2174308.273    -1416164.202    25457016.599           0.000    25457016.883  
  25457021.515        1840.177        1433.899          33.400          33.490  
 -17149743.256   -15762148.797    21598206.011    21598239.040    21598206.151  
  21598211.351        -354.169        -275.975          45.710          50.350  
 -16631913.730   -12959916.826    22180426.399    22180449.670    22180426.053  
  22180428.657        2683.038        2090.681          43.590          48.000  
 15  7 19  0 37  0.0000000  0 10G 2G 5G10G12G13G15G20G21G25G29
 -17827077.882   -14419068.040    21747648.729           0.000    21747648.129  
  21747648.209       -1211.370        -943.926          45.230          49.310  
 -27273987.992   -21591432.733    20281375.736    20281397.820    20281376.267  
  20281378.026        -708.031        -551.715          46.010          56.250  
  -7396040.397    -8202230.723    23717264.352           0.000    23717264.548  
  23717269.610       -3593.172       -2799.878          38.210          39.420  
 -19288683.759   -15030131.501    21638423.785    21638460.130    21638424.622  
  21638427.766       -2532.968       -1973.743          45.890          51.010  
  -6023895.820    -4693935.571    23936251.249           0.000    23936251.927  
  23936257.262        2796.337        2178.962          36.330          43.140  
  -4088688.234    -3185982.121    24614158.605    24614153.220    24614157.969  
  24614164.536        3266.190        2545.092          32.370          38.860  
 -19782730.427   -16207388.235    21451710.207           0.000    21451710.086  
  21451713.104        2530.170        1971.559          46.060          49.310  
  -2229492.397    -1459164.670    25446514.281           0.000    25446515.456  
  25446521.021        1838.759        1432.794          32.350          33.890  
 -17138828.242   -15753643.592    21600283.111    21600307.850    21600283.172  
  21600288.288        -373.506        -291.045          45.510          50.330  
 -16712347.942   -13022592.797    22165120.441    22165140.350    22165120.106  
  22165122.662        2679.225        2087.703          43.470          48.280  
 15  7 19  0 37 30.0000000  0 10G 2G 5G10G12G13G15G20G21G25G29
 -17790700.307   -14390721.890    21754570.954           0.000    21754570.768  
  21754570.543       -1213.811        -945.829          45.400          49.290  
 -27252482.554   -21574675.238    20285468.009    20285493.900    20285468.755  
  20285470.258        -725.666        -565.454          46.030          56.100  
  -7288169.930    -8118175.825    23737791.783           0.000    23737791.739  
  23737796.499       -3598.183       -2803.774          37.680          39.630  
 -19212504.048   -14970770.716    21652920.818    21652950.890    21652921.483  
  21652923.672       -2545.667       -1983.642          45.670          50.480  
  -6107760.446    -4759284.471    23920292.076           0.000    23920292.801  
  23920297.876        2794.599        2177.605          36.240          42.870  
  -4186731.810    -3262379.482    24595502.368    24595516.820    24595501.377  
  24595507.963        3269.984        2548.051          34.840          40.110  
 -19858447.729   -16266388.655    21437301.500           0.000    21437301.125  
  21437304.326        2517.638        1961.790          45.830          49.340  
  -2284599.013    -1502132.155    25436021.635           0.000    25436022.168  
  25436028.212        1812.387        1431.705          26.980          34.280  
 -17127333.408   -15744686.586    21602470.511    21602500.620    21602470.866  
  21602475.618        -392.817        -306.090          45.580          50.400  
 -16792666.906   -13085178.969    22149835.371    22149880.210    22149835.926  
  22149838.109        2675.346        2084.689          43.550          48.190  
 15  7 19  0 38  0.0000000  0 10G 2G 5G 6G10G12G13G15G20G25G29
 -17754249.148   -14362318.407    21761506.658           0.000    21761506.783  
  21761506.692       -1216.255        -947.727          45.150          49.310  
 -27230448.753   -21557506.031    20289660.565    20289679.730    20289661.622  
  20289663.090        -743.235        -579.143          46.000          56.060  
     63624.194      126724.430    24763373.934           0.000    24763378.077  
  24763386.166       -2355.881       -1835.736          28.950          33.600  
  -7180150.658    -8034004.994    23758347.249           0.000    23758347.125  
  23758351.337       -3603.073       -2807.591          36.770          39.550  
 -19135944.285   -14911113.786    21667490.731    21667514.590    21667490.516  
  21667492.520       -2558.275       -1993.459          45.590          50.450  
  -6191571.360    -4824591.525    23904342.080           0.000    23904343.828  
  23904348.540        2792.776        2176.182          35.970          42.080  
  -4284887.584    -3338864.275    24576821.724    24576888.310    24576823.175  
  24576829.773        3273.712        2550.944          36.420          42.130  
 -19933787.765   -16325095.099    21422965.088           0.000    21422964.404  
  21422967.464        2505.043        1951.979          46.030          49.280  
 -17115259.396   -15735278.276    21604768.366    21604806.790    21604768.775  
  21604773.830        -412.105        -321.121          45.750          50.560  
 -16872868.272   -13147673.515    22134573.667    22134607.960    22134573.954  
  22134576.120        2671.414        2081.617          43.920          48.320  
 15  7 19  0 38 30.0000000  0 10G 2G 5G 6G10G12G13G15G20G25G29
 -17717724.698   -14333857.814    21768457.203           0.000    21768456.909  
  21768457.100       -1218.713        -949.646          45.180          49.290  
 -27207888.324   -21539926.462    20293954.349    20293979.210    20293954.658  
  20293956.409        -760.778        -592.816          46.000          56.120  
    134284.889      181785.467    24776821.987           0.000    24776823.972  
  24776832.104       -2354.853       -1834.991          27.820          29.400  
  -7071985.652    -7949720.624    23778930.980           0.000    23778930.255  
  23778934.078       -3607.912       -2811.354          36.840          40.010  
 -19059008.012   -14851163.473    21682131.126    21682148.460    21682130.930  
  21682132.841       -2570.800       -2003.218          45.570          50.180  
  -6275325.990    -4889854.319    23888405.402           0.000    23888405.737  
  23888410.782        2790.830        2174.663          36.370          42.290  
  -4383153.391    -3415434.815    24558121.288    24558181.530    24558122.693  
  24558130.458        3277.327        2553.751          37.130          43.850  
 -20008749.698   -16383506.916    21408700.417           0.000    21408699.873  
  21408702.603        2492.412        1942.133          46.340          49.270  
 -17102607.350   -15725419.555    21607175.997    21607199.220    21607176.474  
  21607181.131        -431.361        -336.128          45.830          50.470  
 -16952950.369   -13210075.128    22119334.537    22119346.050    22119335.044  
  22119337.034        2667.388        2078.484          44.390          48.640  
 15  7 19  0 39  0.0000000  0 10G 2G 5G 6G10G12G13G15G20G25G29
 -17681126.724   -14305339.935    21775421.885           0.000    21775421.800  
  21775421.560       -1221.151        -951.547          45.540          49.280  
 -27184802.825   -21521937.753    20298347.735    20298370.420    20298347.788  
  20298349.495        -778.244        -606.426          45.980          56.160  
     17656.590      236824.726    24790267.366           0.000    24790263.700  
  24790273.986       -2352.519       -1834.253          26.140          29.170  
  -6963678.062    -7865324.754    23799540.475           0.000    23799540.603  
  23799545.267       -3612.618       -2815.028          36.840          41.070  
 -18981698.023   -14790921.947    21696842.473    21696873.650    21696842.800  
  21696844.398       -2583.194       -2012.877          45.740          50.140  
  -6359020.653    -4955070.782    23872480.484           0.000    23872479.427  
  23872484.632        2788.791        2173.078          37.030          42.840  
  -4481526.518    -3492088.997    24539402.753    24539435.380    24539403.055  
  24539410.675        3280.865        2556.511          37.930          44.470  
 -20083331.958   -16441622.886    21394507.398           0.000    21394506.885  
  21394509.800        2479.736        1932.257          46.310          49.210  
 -17089378.142   -15715111.090    21609693.585    21609725.800    21609693.648  
  21609698.244        -450.581        -351.102          45.710          50.190  
 -17032911.179   -13272382.231    22104118.965    22104137.380    22104119.341  
  22104121.272        2663.330        2075.317          44.670          48.950  
 15  7 19  0 39 30.0000000  0 10G 2G 5G10G12G13G15G20G21G25G29
 -17644455.075   -14276764.645    21782401.183           0.000    21782400.780  
  21782399.937       -1223.603        -953.458          45.940          49.180  
 -27161193.669   -21503540.994    20302839.736    20302869.810    20302840.612  
  20302842.056        -795.682        -620.012          46.080          56.080  
  -6855229.390    -7780819.340    23820178.057           0.000    23820177.793  
  23820182.298       -3617.248       -2818.635          35.720          41.310  
 -18904016.946   -14730391.266    21711624.563    21711655.370    21711624.908  
  21711627.007       -2595.508       -2022.475          45.600          50.170  
  -6442652.266    -5020238.102    23856564.214           0.000    23856564.314  
  23856569.898        2786.641        2171.403          37.330          41.910  
  -4580004.503    -3568824.918    24520662.569    24520722.440    24520664.081  
  24520670.780        3284.326        2559.205          39.180          45.000  
 -20157532.999   -16499441.806    21380387.627           0.000    21380387.215  
  21380390.057        2467.009        1922.338          46.680          49.420  
   -107249.937      -83566.499    25394128.507           0.000    25394127.202  
  25394133.280        1831.934        1427.469          29.560          37.630  
 -17075572.550   -15704353.493    21612320.498    21612339.120    21612320.503  
  21612325.295        -469.780        -366.061          45.590          50.250  
 -17112748.496   -13334593.104    22088926.526    22088939.750    22088926.848  
  22088928.321        2659.171        2072.081          44.650          48.960  
 15  7 19  0 40  0.0000000  0 10G 2G 5G10G12G13G15G20G21G25G29
 -17607710.274   -14248132.348    21789393.479           0.000    21789392.996  
  21789392.250       -1226.057        -955.366          45.630          49.150  
 -27137062.561   -21484737.522    20307431.768    20307460.560    20307432.278  
  20307434.112        -813.053        -633.550          46.040          56.030  
  -6746643.367    -7696206.909    23840841.334           0.000    23840841.370  
  23840845.969       -3621.796       -2822.172          33.500          42.070  
 -18825967.592   -14669573.618    21726477.199    21726516.000    21726477.287  
  21726479.283       -2607.760       -2032.019          45.740          49.910  
  -6526218.096    -5085354.182    23840662.293           0.000    23840663.153  
  23840667.167        2784.385        2169.649          38.130          41.130  
  -4678585.014    -3645640.742    24501904.343    24501962.670    24501904.911  
  24501910.584        3287.701        2561.835          39.240          44.320  
 -20231351.670   -16556962.767    21366340.278           0.000    21366339.822  
  21366342.760        2454.230        1912.387          46.630          49.390  
   -162186.184     -126375.397    25383674.369           0.000    25383673.236  
  25383678.877        1830.279        1426.452          30.970          38.180  
 -17061191.821   -15693147.742    21615057.606    21615093.520    21615057.457  
  21615062.460        -488.941        -380.992          45.720          50.520  
 -17192460.720   -13396706.498    22073757.539    22073790.000    22073757.885  
  22073759.399        2654.974        2068.808          44.340          48.930  
 15  7 19  0 40 30.0000000  0 11G 2G 5G 6G10G12G13G15G20G21G25G29
 -17570891.827   -14219442.679    21796399.057           0.000    21796398.860  
  21796398.575       -1228.510        -957.278          45.360          49.350  
 -27112410.937   -21465528.454    20312123.400    20312152.000    20312124.070  
  20312125.090        -830.370        -647.044          46.300          55.960  
    162294.144       24749.899    24830555.434           0.000    24830556.133  
  24830563.651       -2351.144       -1832.034          27.640          26.360  
  -6637922.298    -7611489.304    23861529.592           0.000    23861529.365  
  23861535.085       -3626.251       -2825.641          32.810          42.900  
 -18747553.037   -14608471.392    21741399.340    21741425.150    21741399.284  
  21741400.908       -2619.859       -2041.449          46.020          49.820  
  -6609714.928    -5150416.507    23824773.204           0.000    23824773.758  
  23824778.406        2782.050        2167.836          38.580          41.580  
  -4777265.116    -3722534.178    24483126.920    24483127.370    24483126.640  
  24483132.072        3290.988        2564.395          39.060          44.370  
 -20304786.444   -16614184.592    21352366.059           0.000    21352365.586  
  21352368.576        2441.422        1902.407          46.660          49.360  
   -217085.059     -169153.984    25373227.282           0.000    25373225.947  
  25373231.911        1829.357        1425.464          31.530          38.610  
 -17046236.737   -15681494.435    21617903.606    21617933.130    21617903.830  
  21617908.453        -508.054        -395.887          45.980          50.690  
 -17272045.667   -13458720.719    22058612.836    22058652.170    22058613.365  
  22058615.114        2650.686        2065.471          44.570          49.230  
 15  7 19  0 41  0.0000000  0 10G 2G 5G10G12G13G15G20G21G25G29
 -17533999.843   -14190695.707    21803419.820           0.000    21803419.563  
  21803419.309       -1230.953        -959.182          45.690          49.630  
 -27087240.296   -21445914.956    20316913.233    20316940.870    20316913.772  
  20316914.595        -847.629        -660.488          46.170          55.840  
  -6529069.211    -7526668.804    23882244.361           0.000    23882243.855  
  23882249.294       -3630.564       -2829.022          33.780          43.730  
 -18668776.344   -14547086.977    21756390.394    21756411.090    21756390.516  
  21756391.817       -2631.885       -2050.820          46.480          49.910  
  -6693139.802    -5215422.770    23808898.899           0.000    23808899.283  
  23808902.251        2779.618        2165.928          38.790          40.390  
  -4876042.355    -3799503.298    24464329.904    24464366.410    24464329.695  
  24464335.962        3294.172        2566.887          38.730          44.770  
 -20377836.264   -16671106.457    21338464.976           0.000    21338464.706  
  21338467.153        2428.577        1892.392          46.670          49.180  
   -271945.668     -211902.766    25362787.105           0.000    25362786.324  
  25362791.929        1828.082        1424.472          32.000          39.000  
 -17030708.384   -15669394.434    21620857.770    21620892.800    21620858.191  
  21620863.375        -527.128        -410.751          45.580          50.690  
 -17351501.136   -13520634.043    22043492.439    22043512.220    22043493.608  
  22043495.426        2646.354        2062.093          44.500          49.290  
 15  7 19  0 41 30.0000000  0 10G 2G 5G10G12G13G15G20G21G25G29
 -17497034.217   -14161891.347    21810454.252           0.000    21810453.895  
  21810453.332       -1233.399        -961.091          45.580          49.220  
 -27061552.329   -21425898.345    20321801.937    20321828.620    20321802.144  
  20321802.883        -864.872        -673.925          46.250          55.700  
  -6420086.733    -7441747.489    23902984.651           0.000    23902982.625  
  23902987.924       -3634.870       -2832.374          34.530          43.340  
 -18589640.361   -14485422.593    21771449.136    21771479.350    21771449.403  
  21771450.772       -2643.822       -2060.119          46.410          49.540  
  -6776489.500    -5280370.482    23793037.604           0.000    23793037.382  
  23793041.092        2777.053        2163.926          38.390          40.400  
  -4974914.029    -3876545.995    24445513.094    24445532.490    24445514.206  
  24445521.320        3297.269        2569.299          37.810          44.660  
 -20450499.727   -16727727.265    21324637.627           0.000    21324637.128  
  21324639.495        2415.668        1882.334          46.530          48.990  
   -326770.296     -254622.351    25352353.857           0.000    25352354.065  
  25352358.969        1826.845        1423.515          33.200          38.710  
 -17014607.857   -15656848.578    21623920.974    21623961.640    21623921.579  
  21623927.311        -546.207        -425.619          45.430          50.550  
 -17430825.425   -13582445.153    22028397.874    22028426.880    22028398.442  
  22028400.520        2641.919        2058.637          44.280          49.240  
 15  7 19  0 42  0.0000000  0 11G 2G 5G 6G10G12G13G15G20G21G25G29
 -17459995.222   -14133029.813    21817502.271           0.000    21817502.180  
  21817501.504       -1235.863        -963.011          45.350          49.220  
 -27035348.692   -21405479.921    20326787.757    20326809.550    20326788.235  
  20326789.535        -882.044        -687.308          46.190          55.830  
     77518.904      134563.071    24870802.185           0.000    24870799.525  
  24870807.429       -2348.373       -1829.907          28.060          33.700  
  -6310977.063    -7356727.046    23923746.064           0.000    23923745.192  
  23923750.777       -3639.094       -2835.642          35.110          43.000  
 -18510147.900   -14423480.434    21786575.726    21786603.080    21786576.110  
  21786577.701       -2655.667       -2069.350          46.360          49.720  
  -6859761.130    -5345257.350    23777190.644           0.000    23777190.938  
  23777195.565        2774.376        2161.847          38.170          40.990  
  -5073877.636    -3953660.325    24426681.268    24426710.080    24426681.824  
  24426689.028        3300.267        2571.636          36.860          45.180  
 -20522775.377   -16784045.884    21310883.971           0.000    21310883.404  
  21310886.106        2402.710        1872.240          46.340          49.270  
   -381557.494     -297313.193    25341930.004           0.000    25341928.758  
  25341933.267        1825.591        1422.561          34.560          38.540  
 -16997936.176   -15643857.668    21627094.312    21627127.520    21627094.262  
  21627099.773        -565.243        -440.447          45.350          50.590  
 -17510016.209   -13644152.217    22013327.666    22013350.570    22013328.498  
  22013331.138        2637.440        2055.146          43.800          49.460  
 15  7 19  0 42 30.0000000  0 11G 2G 5G 6G10G12G13G15G20G21G25G29
 -17422882.869   -14104111.120    21824564.981           0.000    21824564.274  
  21824564.076       -1238.306        -964.912          45.290          49.450  
 -27008630.677   -21384660.675    20331871.983    20331895.040    20331872.395  
  20331873.790        -899.136        -700.626          45.990          55.840  
    147955.220      189449.521    24884204.186           0.000    24884204.466  
  24884209.823       -2346.964       -1829.189          29.940          33.290  
  -6201743.307    -7271609.903    23944531.932           0.000    23944532.194  
  23944537.496       -3643.154       -2838.827          36.150          42.230  
 -18430301.843   -14361262.744    21801769.505    21801802.640    21801770.353  
  21801772.427       -2667.395       -2078.490          46.230          49.870  
  -6942951.564    -5410080.943    23761359.618           0.000    23761360.353  
  23761364.608        2771.620        2159.702          37.400          40.700  
  -5172930.689    -4030844.319    24407831.911    24407877.010    24407832.094  
  24407839.673        3303.236        2573.950          36.980          44.490  
 -20594662.171   -16840061.492    21297203.692           0.000    21297203.648  
  21297206.478        2389.730        1862.127          46.260          49.400  
   -436307.410     -339975.738    25331509.284           0.000    25331509.194  
  25331514.895        1824.407        1421.617          35.290          39.290  
 -16980694.498   -15630422.601    21630374.378    21630411.750    21630374.948  
  21630380.980        -584.198        -455.219          45.120          50.690  
 -17589071.891   -13705753.994    21998283.387    21998317.100    21998284.101  
  21998287.050        2632.917        2051.618          43.070          49.300  
 15  7 19  0 43  0.0000000  0 11G 2G 5G 6G10G12G13G15G20G21G25G29
 -17385696.593   -14075134.825    21831640.108           0.000    21831640.237  
  21831639.919       -1240.787        -966.850          45.050          49.170  
 -26981400.343   -21363442.223    20337053.172    20337077.220    20337053.788  
  20337055.716        -916.215        -713.935          45.880          55.900  
    218359.271      244314.736    24897708.268           0.000    24897603.087  
  24897608.082       -2345.843       -1828.496          19.490          33.510  
  -6092387.704    -7186397.817    23965342.355           0.000    23965342.024  
  23965347.294       -3647.187       -2841.964          37.060          42.000  
 -18350104.994   -14298771.715    21817030.778    21817051.300    21817031.290  
  21817033.397       -2679.043       -2087.567          46.210          50.070  
  -7026057.466    -5474838.670    23745546.231           0.000    23745545.596  
  23745550.017        2768.752        2157.459          36.720          41.140  
  -5272070.314    -4108095.792    24388965.563    24389045.910    24388966.513  
  24388973.350        3306.063        2576.148          36.850          43.310  
 -20666158.705   -16895773.004    21283598.323           0.000    21283598.086  
  21283601.109        2376.689        1851.962          46.020          49.420  
   -491021.953     -382610.370    25321097.098           0.000    25321097.568  
  25321103.705        1823.214        1420.677          35.760          39.320  
 -16962883.831   -15616544.165    21633764.477    21633786.060    21633764.363  
  21633770.044        -603.159        -469.994          45.060          50.660  
 -17667989.952   -13767248.533    21983265.353    21983274.630    21983266.349  
  21983269.159        2628.284        2048.011          43.050          48.990  
 15  7 19  0 43 30.0000000  0 11G 2G 5G 6G10G12G13G15G20G21G25G29
 -17348436.555   -14046101.043    21838730.752           0.000    21838730.642  
  21838730.378       -1243.215        -968.739          45.050          49.160  
 -26953659.450   -21341825.929    20342332.131    20342364.520    20342332.657  
  20342334.459        -933.174        -727.149          45.890          55.850  
     66862.733      299158.727    24916821.635           0.000    24910999.808  
  24911002.477       -2345.631       -1827.764          19.810          32.790  
  -5982913.202    -7101093.044    23986174.731           0.000    23986174.233  
  23986179.029       -3651.086       -2844.998          37.430          41.270  
 -18269560.429   -14236009.734    21832358.541    21832389.310    21832358.616  
  21832361.002       -2690.582       -2096.555          46.080          50.310  
  -7109075.872    -5539528.203    23729748.821           0.000    23729748.670  
  23729752.449        2765.786        2155.157          37.120          42.030  
  -5371293.824    -4185412.665    24370085.510    24370121.920    24370084.678  
  24370090.949        3308.835        2578.305          36.120          42.820  
 -20737263.348   -16951179.154    21270067.968           0.000    21270067.539  
  21270069.946        2363.634        1841.791          45.980          49.340  
   -545701.189     -425217.452    25310693.074           0.000    25310691.983  
  25310698.603        1822.078        1419.789          35.250          40.020  
 -16944505.326   -15602223.255    21637261.469    21637290.680    21637261.938  
  21637267.371        -622.044        -484.713          45.190          50.600  
 -17746768.479   -13828634.344    21968274.257    21968293.110    21968275.373  
  21968277.997        2623.602        2044.368          43.610          49.030  
 15  7 19  0 44  0.0000000  0 11G 2G 5G 6G10G12G13G15G20G21G25G29
 -17311102.845   -14017009.854    21845835.500           0.000    21845834.953  
  21845834.714       -1245.688        -970.667          45.130          49.180  
 -26925409.618   -21319813.059    20347708.078    20347735.490    20347708.517  
  20347709.825        -950.141        -740.370          46.080          55.730  
    137219.597      353982.268    24929658.961           0.000    24924387.269  
  24924392.600       -2344.785       -1827.088          17.450          31.410  
  -5873322.493    -7015697.721    24007029.610           0.000    24007028.911  
  24007033.589       -3654.931       -2847.994          37.790          40.640  
 -18188671.187   -14172979.190    21847750.438    21847789.990    21847750.772  
  21847753.431       -2702.028       -2105.478          45.510          50.290  
  -7192003.778    -5604147.212    23713967.512           0.000    23713967.963  
  23713971.349        2762.710        2152.756          37.210          42.320  
  -5470598.733    -4262792.902    24351186.500    24351194.650    24351187.003  
  24351193.901        3311.478        2580.372          34.880          42.490  
 -20807975.331   -17006279.337    21256611.307           0.000    21256611.075  
  21256613.966        2350.502        1831.557          45.710          49.500  
   -600345.731     -467797.509    25300295.531           0.000    25300293.933  
  25300298.947        1820.899        1418.885          35.740          39.250  
 -16925560.276   -15587460.877    21640867.357    21640905.560    21640866.978  
  21640872.346        -640.946        -499.439          45.280          50.460  
 -17825405.346   -13889909.773    21953311.196    21953339.270    21953311.393  
  21953313.808        2618.845        2040.655          44.040          48.860  
 15  7 19  0 44 30.0000000  0 11G 2G 5G 6G10G12G13G15G20G21G25G29
 -17273695.061   -13987860.935    21852954.019           0.000    21852953.660  
  21852953.709       -1248.168        -972.598          45.170          49.590  
 -26896652.267   -21297404.724    20353180.259    20353209.600    20353180.839  
  20353182.164        -967.007        -753.513          46.030          55.610  
    207549.199      408784.546    24943505.875           0.000    24937777.343  
  24937774.846       -2343.885       -1826.397          17.200          32.030  
  -5763617.832    -6930213.597    24027906.580           0.000    24027904.887  
  24027909.417       -3658.693       -2850.924          37.490          39.380  
 -18107440.032   -14109682.216    21863208.378    21863238.650    21863208.562  
  21863211.446       -2713.368       -2114.309          45.350          50.440  
  -7274837.792    -5668693.067    23698204.310           0.000    23698205.221  
  23698208.320        2759.528        2150.278          37.720          42.390  
  -5569982.118    -4340234.267    24332272.462    24332338.670    24332274.924  
  24332282.174        3314.047        2582.371          33.630          41.060  
 -20878293.090   -17061072.325    21243230.730           0.000    21243230.187  
  21243233.035        2337.340        1821.303          45.560          49.730  
   -654955.766     -510351.033    25289900.651           0.000    25289900.715  
  25289907.148        1819.807        1418.012          35.460          38.930  
 -16906049.639   -15572257.780    21644579.897    21644614.710    21644580.023  
  21644584.759        -659.770        -514.105          45.500          50.170  
 -17903898.074   -13951072.891    21938374.586    21938393.720    21938375.057  
  21938376.944        2614.010        2036.886          44.440          49.000  
 15  7 19  0 45  0.0000000  0 11G 2G 5G 6G10G12G13G15G20G21G25G29
 -17236213.597   -13958654.620    21860086.851           0.000    21860086.036  
  21860086.716       -1250.622        -974.509          45.140          49.770  
 -26867389.478   -21274602.544    20358748.593    20358781.980    20358749.297  
  20358750.885        -983.830        -766.620          46.120          55.700  
    277850.218      463564.557    24959952.003           0.000    24951149.954  
  24951150.317       -2341.298       -1824.425          16.440          24.820  
  -5653802.185    -6844642.966    24048802.388           0.000    24048802.062  
  24048806.582       -3662.336       -2853.776          37.090          39.080  
 -18025870.157   -14046121.309    21878730.127    21878760.220    21878730.773  
  21878733.326       -2724.611       -2123.067          45.130          50.360  
  -7357575.013    -5733163.512    23682459.744           0.000    23682460.268  
  23682464.527        2756.258        2147.734          37.980          42.780  
  -5669441.442    -4417735.187    24313347.400    24313344.510    24313347.366  
  24313354.919        3316.580        2584.342          32.880          40.100  
 -20948215.879   -17115557.538    21229924.524           0.000    21229924.359  
  21229927.236        2324.162        1811.031          45.920          49.840  
   -709533.002     -552878.607    25279515.101           0.000    25279515.856  
  25279521.246        1818.704        1417.163          36.130          38.810  
 -16885975.047   -15556615.240    21648400.257    21648432.810    21648400.141  
  21648404.976        -678.531        -528.728          45.540          50.130  
 -17982245.481   -14012122.764    21923466.553    21923478.860    21923466.539  
  21923467.899        2609.130        2033.084          44.890          48.990  
 15  7 19  0 45 30.0000000  0 10G 2G 5G10G12G13G15G20G21G25G29
 -17198658.122   -13929390.630    21867232.825           0.000    21867232.858  
  21867233.069       -1253.094        -976.437          45.490          49.590  
 -26837622.857   -21251407.759    20364412.550    20364439.390    20364413.896  
  20364415.387       -1000.611        -779.699          46.360          55.820  
  -5543878.096    -6758987.841    24069721.937           0.000    24069719.715  
  24069724.208       -3665.924       -2856.564          35.700          39.240  
 -17943964.317   -13982298.612    21894316.312    21894350.270    21894316.717  
  21894319.803       -2735.766       -2131.763          45.000          50.610  
  -7440212.343    -5797556.119    23666733.569           0.000    23666734.412  
  23666737.874        2752.862        2145.083          38.040          42.750  
  -5768974.527    -4495293.225    24294407.197    24294430.990    24294408.018  
  24294413.924        3318.962        2586.189          35.880          38.060  
 -21017742.168   -17169733.806    21216693.931           0.000    21216693.949  
  21216696.772        2310.910        1800.707          46.170          50.010  
   -764077.157     -595380.808    25269136.976           0.000    25269135.559  
  25269141.803        1817.606        1416.307          35.300          37.950  
 -16865337.520   -15540534.050    21652327.492    21652369.120    21652327.120  
  21652332.218        -697.290        -543.342          45.650          50.240  
 -18060444.901   -14073057.335    21908585.831    21908603.530    21908585.637  
  21908587.006        2604.146        2029.203          45.420          49.110  
 15  7 19  0 46  0.0000000  0 10G 2G 5G10G12G13G15G20G21G25G29
 -17161028.249   -13900068.661    21874394.027           0.000    21874393.569  
  21874393.429       -1255.556        -978.355          44.590          49.210  
 -26807353.928   -21227821.566    20370173.595    20370195.180    20370174.245  
  20370175.607       -1017.294        -792.697          45.950          55.680  
  -5433847.334    -6673250.021    24090658.501           0.000    24090658.136  
  24090662.755       -3669.398       -2859.269          32.660          38.600  
 -17861725.476   -13918216.435    21909966.518    21909994.000    21909966.693  
  21909969.170       -2746.796       -2140.363          44.680          50.320  
  -7522746.159    -5861868.073    23651028.927           0.000    23651028.840  
  23651032.309        2749.378        2142.366          38.020          42.550  
  -5868578.239    -4572906.313    24275452.713    24275501.830    24275453.761  
  24275459.686        3321.264        2587.986          36.310          38.970  
 -21086870.548   -17223600.007    21203539.880           0.000    21203539.461  
  21203541.975        2297.645        1790.372          45.860          49.860  
   -818589.313     -637857.675    25258761.249           0.000    25258762.613  
  25258768.887        1816.537        1415.488          33.900          36.720  
 -16844138.122   -15524015.046    21656361.222    21656392.670    21656361.391  
  21656366.249        -715.987        -557.912          44.740          49.980  
 -18138494.439   -14133875.116    21893733.099    21893768.080    21893733.461  
  21893734.752        2599.131        2025.297          45.100          48.910  
 15  7 19  0 46 30.0000000  0 10G 2G 5G10G12G13G15G20G21G25G29
 -17123324.254   -13870688.939    21881568.796           0.000    21881568.431  
  21881568.206       -1258.028        -980.284          44.740          49.390  
 -26776584.803   -21203845.615    20376028.710    20376060.920    20376029.344  
  20376030.522       -1033.967        -805.690          46.080          55.600  
  -5323713.772    -6587431.666    24111617.295           0.000    24111615.989  
  24111620.950       -3672.801       -2861.925          31.720          39.070  
 -17779156.657   -13853877.144    21925678.510    21925697.640    21925678.896  
  21925681.745       -2757.763       -2148.906          44.530          50.230  
  -7605173.780    -5926097.291    23635343.156           0.000    23635343.185  
  23635347.295        2745.766        2139.560          38.230          43.110  
  -5968250.116    -4650572.497    24256485.852    24256471.920    24256486.959  
  24256492.666        3323.489        2589.736          38.030          39.920  
 -21155600.205   -17277155.523    21190460.355           0.000    21190460.356  
  21190463.019        2284.321        1779.990          45.920          49.950  
   -873069.477     -680310.019    25248396.350           0.000    25248395.144  
  25248400.403        1815.496        1414.665          33.690          35.500  
 -16822378.419   -15507059.441    21660501.992    21660532.600    21660501.872  
  21660506.932        -734.648        -572.457          44.650          49.950  
 -18216391.729   -14194574.263    21878909.505    21878942.300    21878909.836  
  21878911.699        2594.008        2021.304          44.990          48.990  
 15  7 19  0 47  0.0000000  0 10G 2G 5G10G12G13G15G20G21G25G29
 -17085546.135   -13841251.452    21888757.444           0.000    21888757.471  
  21888757.170       -1260.509        -982.218          45.310          49.330  
 -26745317.257   -21179481.282    20381978.956    20381999.910    20381979.652  
  20381980.361       -1050.546        -818.608          46.590          55.570  
  -5213478.681    -6501535.021    24132592.193           0.000    24132591.556  
  24132598.134       -3676.140       -2864.524          31.500          39.340  
 -17696261.217   -13789283.326    21941454.277    21941486.740    21941454.284  
  21941456.049       -2768.598       -2157.350          45.690          50.130  
  -7687492.060    -5990241.274    23619678.232           0.000    23619678.543  
  23619681.948        2742.076        2136.677          38.490          43.440  
  -6067987.491    -4728289.734    24237506.316    24237555.310    24237507.723  
  24237513.133        3325.629        2591.393          39.330          39.970  
 -21223929.791   -17330399.291    21177458.699           0.000    21177457.819  
  21177460.381        2270.964        1769.582          46.730          50.230  
   -927518.968     -722738.453    25238034.353           0.000    25238033.206  
  25238039.052        1814.487        1413.869          33.740          36.140  
 -16800059.759   -15489668.283    21664748.592    21664783.710    21664748.742  
  21664753.943        -753.267        -586.958          45.010          49.920  
 -18294134.855   -14255153.273    21864114.673    21864146.950    21864115.539  
  21864117.687        2588.834        2017.269          45.200          49.190  
 15  7 19  0 47 30.0000000  0 10G 2G 5G10G12G13G15G20G21G25G29
 -17047693.712   -13811756.051    21895960.744           0.000    21895960.142  
  21895960.215       -1262.983        -984.140          45.240          49.370  
 -26713553.127   -21154729.998    20388022.563    20388060.160    20388023.696  
  20388024.878       -1067.055        -831.474          46.630          55.660  
  -5103146.891    -6415561.849    24153586.076           0.000    24153587.056  
  24153593.870       -3679.355       -2867.018          31.710          40.480  
 -17613041.982   -13724437.206    21957290.280    21957317.320    21957290.071  
  21957292.258       -2779.336       -2165.717          45.540          50.190  
  -7769698.027    -6054297.764    23604035.966           0.000    23604035.600  
  23604039.410        2738.290        2133.728          39.630          43.810  
  -6167787.601    -4806055.862    24218516.179    24218560.510    24218516.925  
  24218521.537        3327.695        2593.003          40.150          41.200  
 -21291858.427   -17383330.635    21164531.061           0.000    21164531.086  
  21164533.955        2257.593        1759.166          46.860          50.360  
   -981938.787     -765143.356    25227679.375           0.000    25227677.724  
  25227682.951        1813.494        1413.113          34.360          36.350  
 -16777183.510   -15471842.636    21669101.797    21669129.100    21669101.955  
  21669107.124        -771.806        -601.408          45.300          49.960  
 -18371721.866   -14315610.637    21849350.586    21849386.790    21849351.026  
  21849353.143        2583.617        2013.206          45.270          49.180  
 15  7 19  0 48  0.0000000  0 10G 2G 5G10G12G13G15G20G21G25G29
 -17009766.431   -13782202.325    21903177.664           0.000    21903177.780  
  21903177.747       -1265.497        -986.100          44.380          49.280  
 -26681293.619   -21129592.713    20394161.427    20394190.050    20394162.186  
  20394163.846       -1083.550        -844.322          45.830          55.460  
  -4992719.560    -6329513.992    24174600.486           0.000    24174601.157  
  24174607.341       -3681.534       -2869.492          31.490          41.320  
 -17529501.674   -13659340.903    21973187.450    21973213.560    21973187.368  
  21973189.249       -2789.993       -2174.023          44.880          49.670  
  -7851788.183    -6118264.018    23588413.062           0.000    23588413.531  
  23588417.580        2734.365        2130.671          38.370          43.590  
  -6267647.480    -4883868.552    24199512.438    24199558.110    24199513.362  
  24199518.538        3329.618        2594.507          39.480          42.070  
 -21359384.501   -17435948.293    21151681.158           0.000    21151681.173  
  21151683.852        2244.154        1748.687          46.020          50.120  
  -1036328.524     -807524.815    25217327.872           0.000    25217327.580  
  25217332.509        1812.497        1412.332          32.280          35.450  
 -16753750.726   -15453583.330    21673561.132    21673585.160    21673561.529  
  21673566.349        -790.354        -615.858          44.690          49.650  
 -18449150.193   -14375944.359    21834617.241    21834651.740    21834616.964  
  21834619.230        2578.271        2009.040          44.670          49.470  
 15  7 19  0 48 30.0000000  0 10G 2G 5G10G12G13G15G20G21G25G29
 -16971764.521   -13752590.458    21910408.989           0.000    21910409.061  
  21910409.323       -1267.998        -988.049          45.010          49.530  
 -26648541.196   -21104071.338    20400394.316    20400421.910    20400394.980  
  20400396.370       -1099.956        -857.108          46.540          55.670  
  -4882198.550    -6243393.644    24195632.325           0.000    24195633.171  
  24195638.817       -3685.580       -2871.865          33.180          42.260  
 -17445643.563   -13593996.963    21989144.314    21989176.650    21989144.638  
  21989146.947       -2800.547       -2182.243          45.330          49.580  
  -7933759.677    -6182137.810    23572813.825           0.000    23572815.337  
  23572819.048        2730.357        2127.548          39.480          43.860  
  -6367564.638    -4961725.866    24180498.737    24180535.410    24180499.930  
  24180505.282        3331.487        2595.956          40.190          43.140  
 -21426507.368   -17488251.773    21138908.418           0.000    21138908.485  
  21138910.676        2230.684        1738.196          46.950          50.330  
  -1090689.971     -849883.872    25206980.726           0.000    25206982.074  
  25206987.530        1811.529        1411.592          32.190          34.720  
 -16729763.126   -15434891.702    21678126.622    21678150.060    21678126.099  
  21678130.725        -808.826        -630.258          45.610          49.980  
 -18526418.059   -14436153.028    21819912.707    21819952.960    21819912.904  
  21819915.861        2572.888        2004.847          45.060          50.080  
 15  7 19  0 49  0.0000000  0 10G 2G 5G10G12G13G15G20G21G25G29
 -16933687.420   -13722920.004    21917654.165           0.000    21917654.414  
  21917655.242       -1270.471        -989.976          44.560          49.510  
 -26615297.153   -21078166.886    20406720.705    20406745.920    20406721.222  
  20406722.725       -1116.297        -869.843          46.590          55.620  
  -4771586.722    -6157202.680    24216681.916           0.000    24216682.225  
  24216688.054       -3688.536       -2874.177          34.590          42.340  
 -17361470.363   -13528407.513    22005161.847    22005187.920    22005162.084  
  22005164.611       -2810.987       -2190.379          45.070          49.460  
  -8015609.253    -6245916.596    23557239.639           0.000    23557239.667  
  23557243.513        2726.265        2124.357          39.450          43.800  
  -6467536.321    -5039625.682    24161476.026    24161506.200    24161476.442  
  24161480.911        3333.272        2597.352          39.370          43.480  
 -21493225.740   -17540240.060    21126212.101           0.000    21126212.075  
  21126214.649        2217.199        1727.684          46.740          50.480  
  -1145021.047     -892220.581    25196643.060           0.000    25196642.788  
  25196648.256        1810.115        1410.858          31.400          34.370  
 -16705221.917   -15415768.689    21682795.599    21682825.440    21682795.755  
  21682800.890        -827.243        -644.605          45.170          49.760  
 -18603523.021   -14496234.757    21805239.186    21805278.800    21805240.005  
  21805243.246        2567.434        2000.597          44.560          50.210  
 15  7 19  0 49 30.0000000  0 10G 2G 5G10G12G13G15G20G21G25G29
 -16895535.591   -13693191.324    21924915.541           0.000    21924915.097  
  21924915.397       -1272.974        -991.925          44.930          49.450  
 -26581563.711   -21051881.086    20413140.681    20413170.530    20413140.904  
  20413141.681       -1132.582        -882.532          46.930          55.480  
  -4660886.982    -6070943.183    24237747.651           0.000    24237747.645  
  24237753.257       -3691.410       -2876.433          36.340          42.070  
 -17276985.243   -13462574.998    22021239.004    22021259.430    22021239.009  
  22021241.602       -2821.333       -2198.442          44.970          49.080  
  -8097333.599    -6309597.812    23541687.835           0.000    23541688.007  
  23541692.160        2722.011        2121.048          39.660          43.920  
  -6567559.838    -5117565.886    24142441.927    24142436.150    24142441.545  
  24142446.935        3334.946        2598.648          37.930          44.180  
 -21559538.253   -17591912.088    21113594.101           0.000    21113593.316  
  21113595.731        2203.641        1717.121          46.810          50.480  
  -1199325.425     -934535.451    25186310.331           0.000    25186310.133  
  25186314.639        1809.897        1410.133          31.730          35.800  
 -16680128.595   -15396215.461    21687571.330    21687613.340    21687570.931  
  21687575.650        -845.627        -658.928          45.020          49.630  
 -18680463.169   -14556188.063    21790597.999    21790634.950    21790599.093  
  21790602.063        2561.909        1996.289          44.820          50.410  
 15  7 19  0 50  0.0000000  0 10G 2G 5G10G12G13G15G20G21G25G29
 -16857309.088   -13663404.441    21932189.328           0.000    21932189.460  
  21932189.414       -1275.474        -993.880          44.420          49.160  
 -26547342.990   -21025215.588    20419652.651    20419677.620    20419652.917  
  20419653.587       -1148.789        -895.159          46.340          55.260  
  -4550102.135    -5984617.377    24258829.691           0.000    24258829.473  
  24258834.882       -3694.202       -2878.605          35.830          41.130  
 -17192191.527   -13396502.021    22037375.166    22037407.270    22037375.013  
  22037377.271       -2831.571       -2206.420          44.620          48.800  
  -8178929.813    -6373179.179    23526160.502           0.000    23526160.458  
  23526164.440        2717.692        2117.681          38.630          43.220  
  -6667632.571    -5195544.430    24123397.509    24123443.260    24123398.390  
  24123403.431        3336.542        2599.897          36.640          44.420  
 -21625444.186   -17643267.301    21101052.191           0.000    21101051.628  
  21101054.470        2190.082        1706.556          45.920          50.390  
  -1253602.635     -976829.227    25175979.468           0.000    25175981.351  
  25175986.196        1808.791        1409.434          30.840          36.120  
 -16654484.812   -15376233.306    21692451.365    21692481.300    21692450.949  
  21692455.679        -863.949        -673.205          44.350          49.610  
 -18757236.486   -14616011.379    21775990.356    21776011.900    21775990.157  
  21775992.106        2556.298        1991.923          44.700          49.960  
 15  7 19  0 50 30.0000000  0 10G 2G 5G10G12G13G15G20G21G25G29
 -16819007.217   -13633558.837    21939478.669           0.000    21939478.558  
  21939478.540       -1278.006        -995.848          44.280          49.400  
 -26512636.934   -20998171.903    20426256.344    20426283.800    20426256.995  
  20426258.145       -1164.965        -907.765          46.100          55.240  
  -4439234.506    -5898226.997    24279927.024           0.000    24279927.279  
  24279932.694       -3696.954       -2880.741          36.370          40.510  
 -17107092.060   -13330190.795    22053568.533    22053605.270    22053568.867  
  22053571.420       -2841.726       -2214.330          44.440          49.020  
  -8260394.763    -6436658.255    23510658.033           0.000    23510658.319  
  23510661.779        2713.256        2114.221          38.550          42.490  
  -6767751.595    -5273559.063    24104343.674    24104364.620    24104345.101  
  24104351.132        3338.017        2601.056          35.130          44.920  
 -21690942.226   -17694304.681    21088588.328           0.000    21088588.126  
  21088590.465        2176.443        1695.929          45.880          50.330  
  -1307853.834    -1019102.353    25165657.939           0.000    25165657.912  
  25165661.628        1807.910        1408.762          30.490          36.730  
 -16628292.028   -15355823.353    21697435.409    21697469.670    21697435.130  
  21697440.442        -882.227        -687.452          44.390          49.740  
 -18833840.607   -14675702.872    21761413.165    21761438.720    21761413.247  
  21761414.467        2550.611        1987.484          44.850          49.770  
 15  7 19  0 51  0.0000000  0 10G 2G 5G10G12G13G15G20G21G25G29
 -16780629.882   -13603654.432    21946781.537           0.000    21946781.111  
  21946781.146       -1280.504        -997.794          45.000          49.310  
 -26477447.139   -20970751.274    20432952.739    20432979.050    20432953.228  
  20432954.737       -1181.032        -920.284          46.660          55.500  
  -4328286.369    -5811773.915    24301039.134           0.000    24301039.746  
  24301044.888       -3699.590       -2882.802          36.210          40.540  
 -17021689.696   -13263643.554    22069820.520    22069850.650    22069820.946  
  22069822.885       -2851.766       -2222.154          45.080          48.950  
  -8341724.922    -6500032.332    23495181.098           0.000    23495181.344  
  23495185.460        2708.716        2110.680          38.890          41.900  
  -6867913.616    -5351607.569    24085284.099    24085335.280    24085284.273  
  24085290.625        3339.439        2602.158          34.160          44.970  
 -21756031.375   -17745023.443    21076202.539           0.000    21076202.059  
  21076204.142        2162.813        1685.309          46.700          50.510  
  -1362078.496    -1061355.176    25155338.304           0.000    25155338.872  
  25155342.407        1807.051        1408.088          31.310          35.970  
 -16601551.540   -15334986.627    21702523.805    21702558.780    21702524.034  
  21702528.702        -900.456        -701.655          45.360          49.920  
 -18910273.126   -14735260.652    21746868.391    21746895.350    21746868.361  
  21746869.958        2544.871        1983.015          45.580          50.020  
 15  7 19  0 51 30.0000000  0 10G 2G 5G10G12G13G15G20G21G25G29
 -16742176.853   -13573691.040    21954097.404           0.000    21954097.821  
  21954098.266       -1283.028        -999.763          44.550          49.090  
 -26441775.380   -20942955.085    20439741.455    20439764.880    20439741.534  
  20439742.769       -1197.077        -932.790          46.650          55.460  
  -4217260.177    -5725260.020    24322168.450           0.000    24322167.677  
  24322173.001       -3702.142       -2884.787          35.210          41.310  
 -16935987.567   -13196862.724    22086128.440    22086168.140    22086129.379  
  22086131.356       -2861.704       -2229.899          44.820          48.830  
  -8422917.239    -6563298.988    23479729.881           0.000    23479731.189  
  23479734.689        2704.074        2107.068          38.850          42.260  
  -6968115.463    -5429687.887    24066214.576    24066242.590    24066216.390  
  24066222.386        3340.759        2603.178          34.260          45.030  
 -21820710.752   -17795422.900    21063893.483           0.000    21063893.354  
  21063896.079        2149.122        1674.638          46.140          50.650  
  -1416277.614    -1103588.121    25145027.402           0.000    25145025.644  
  25145028.770        1806.217        1407.433          31.940          35.720  
 -16574264.977   -15313724.386    21707716.816    21707737.470    21707716.452  
  21707721.427        -918.642        -715.823          45.330          50.080  
 -18986532.126   -14794683.212    21732355.657    21732382.340    21732356.439  
  21732358.236        2539.047        1978.480          45.170          49.880  
 15  7 19  0 52  0.0000000  0 10G 2G 5G10G12G13G15G20G21G25G29
 -16703648.068   -13543668.616    21961430.276           0.000    21961429.708  
  21961429.861       -1285.550       -1001.724          44.010          48.730  
 -26405623.570   -20914784.837    20446620.663    20446652.850    20446620.851  
  20446622.065       -1213.025        -945.216          45.850          55.130  
  -4106158.366    -5638687.217    24343309.328           0.000    24343309.325  
  24343314.721       -3704.625       -2886.690          32.670          40.840  
 -16849988.802   -13129850.758    22102494.036    22102510.120    22102494.169  
  22102496.805       -2871.518       -2237.542          43.990          49.110  
  -8503968.828    -6626455.962    23464306.149           0.000    23464306.889  
  23464311.281        2699.351        2103.390          37.820          42.240  
  -7068356.820    -5507797.843    24047140.721    24047177.610    24047140.663  
  24047147.276        3341.984        2604.135          33.600          44.490  
 -21884979.117   -17845502.086    21051663.682           0.000    21051663.552  
  21051666.335        2135.440        1663.976          45.530          50.630  
  -1470451.794    -1145801.659    25134717.849           0.000    25134716.587  
  25134719.260        1805.403        1406.818          31.330          35.880  
 -16546433.923   -15292037.864    21713012.300    21713040.650    21713012.400  
  21713017.418        -936.740        -729.926          44.660          49.820  
 -19062615.370   -14853968.831    21717878.164    21717900.590    21717878.134  
  21717879.891        2533.168        1973.894          44.620          49.550  
 15  7 19  0 52 30.0000000  0 10G 2G 5G10G12G13G15G20G21G25G29
 -16665043.610   -13513587.227    21968776.743           0.000    21968776.681  
  21968776.227       -1288.085       -1003.701          44.320          48.560  
 -26368993.875   -20886242.216    20453591.008    20453614.350    20453591.412  
  20453592.435       -1228.932        -957.609          45.600          54.970  
  -3994983.614    -5552057.593    24364464.036           0.000    24364464.326  
  24364471.042       -3707.006       -2888.584          32.330          40.840  
 -16763696.616   -13062610.142    22118914.895    22118937.800    22118915.245  
  22118917.440       -2881.274       -2245.144          43.900          48.730  
  -8584876.394    -6689500.731    23448910.806           0.000    23448911.301  
  23448914.768        2694.475        2099.587          38.150          42.190  
  -7168632.817    -5585935.177    24028058.714    24028080.770    24028058.832  
  24028064.447        3343.097        2605.009          34.490          43.620  
 -21948835.751   -17895260.447    21039512.418           0.000    21039512.281  
  21039514.799        2121.674        1653.252          45.450          50.680  
  -1524601.263    -1187996.298    25124413.526           0.000    25124411.763  
  25124415.839        1804.593        1406.175          31.360          36.940  
 -16518059.969   -15269928.307    21718411.737    21718442.950    21718411.645  
  21718417.158        -954.844        -744.031          44.380          49.950  
 -19138520.778   -14913115.870    21703432.929    21703454.980    21703433.563  
  21703435.729        2527.172        1969.222          44.570          49.740  
 15  7 19  0 53  0.0000000  0 10G 2G 5G10G12G13G15G20G21G25G29
 -16626363.015   -13483446.502    21976136.998           0.000    21976137.051  
  21976137.367       -1290.613       -1005.670          44.600          49.060  
 -26331888.241   -20857328.727    20460651.246    20460678.040    20460651.891  
  20460653.291       -1244.751        -969.934          46.040          55.020  
  -3883738.447    -5465373.094    24385635.269           0.000    24385634.117  
  24385640.245       -3709.289       -2890.351          33.770          40.650  
 -16677113.908   -12995143.145    22135391.241    22135417.190    22135391.108  
  22135393.786       -2890.889       -2252.640          44.270          49.060  
  -8665636.673    -6752430.713    23433542.443           0.000    23433542.898  
  23433546.925        2689.533        2095.741          38.440          43.200  
  -7268941.908    -5664097.934    24008971.933    24008982.030    24008971.006  
  24008975.776        3344.147        2605.828          37.150          43.070  
 -22012279.482   -17944697.072    21027439.129           0.000    21027439.092  
  21027441.729        2107.905        1642.525          46.190          50.920  
  -1578727.853    -1230172.724    25114112.477           0.000    25114111.295  
  25114115.325        1803.844        1405.581          32.020          36.850  
 -16489144.736   -15247396.972    21723914.147    21723944.700    21723914.578  
  21723919.820        -972.832        -758.048          45.210          50.140  
 -19214246.061   -14972122.554    21689022.799    21689040.420    21689023.422  
  21689025.836        2521.177        1964.552          45.360          50.300  
 15  7 19  0 53 30.0000000  0 11G 2G 5G 6G10G12G13G15G20G21G25G29
 -16587605.954   -13453246.209    21983511.938           0.000    21983511.895  
  21983512.758       -1293.171       -1007.671          44.610          49.000  
 -26294308.525   -20828045.822    20467802.704    20467822.580    20467802.984  
  20467804.293       -1260.529        -982.229          46.080          54.910  
    115321.756       89860.516    25179327.266           0.000    25177841.154  
  25177845.289       -2329.102       -1814.884          18.120          31.030  
  -3772425.425    -5378635.672    24406819.471           0.000    24406816.709  
  24406821.745       -3711.538       -2892.111          33.360          38.700  
 -16590243.538   -12927451.998    22151921.390    22151951.210    22151922.068  
  22151924.989       -2900.444       -2260.082          43.990          49.370  
  -8746246.741    -6815243.641    23418201.604           0.000    23418202.815  
  23418207.057        2684.461        2091.779          38.860          43.310  
  -7369280.362    -5742283.609    23989876.027    23989904.550    23989877.332  
  23989881.926        3345.081        2606.549          39.050          42.400  
 -22075309.318   -17993811.180    21015444.992           0.000    21015444.911  
  21015447.346        2094.088        1631.754          46.340          50.860  
  -1632830.470    -1272331.226    25103815.606           0.000    25103815.849  
  25103819.945        1803.072        1404.988          32.570          37.730  
 -16459689.821   -15224445.106    21729520.045    21729550.240    21729519.887  
  21729524.737        -990.802        -772.051          45.300          50.130  
 -19289789.096   -15030987.223    21674647.828    21674674.610    21674648.317  
  21674650.654        2515.032        1959.763          45.700          50.620  
 15  7 19  0 54  0.0000000  0 11G 2G 5G 6G10G12G13G15G20G21G25G29
 -16548772.496   -13422986.376    21990901.911           0.000    21990901.811  
  21990902.146       -1295.723       -1009.652          44.370          48.590  
 -26256257.096   -20798395.342    20475043.420    20475071.440    20475044.043  
  20475045.429       -1276.225        -994.463          45.980          54.930  
    185182.837      144297.745    25194132.104           0.000    25191136.684  
  25191139.662       -2328.335       -1814.319          20.010          31.280  
  -3661046.666    -5291847.016    24428012.016           0.000    24428010.275  
  24428016.112       -3713.687       -2893.776          32.340          37.640  
 -16503088.740   -12859539.225    22168507.297    22168535.390    22168507.104  
  22168510.015       -2909.857       -2267.420          43.750          49.250  
  -8826703.317    -6877936.976    23402893.076           0.000    23402893.396  
  23402896.129        2679.300        2087.759          39.280          43.090  
  -7469645.705    -5820490.242    23970777.967    23970818.000    23970778.679  
  23970783.072        3345.933        2607.219          40.140          41.690  
 -22137924.362   -18042602.071    21003530.262           0.000    21003529.728  
  21003532.085        2080.246        1620.970          46.210          50.660  
  -1686910.993    -1314472.141    25093525.130           0.000    25093524.187  
  25093528.031        1802.333        1404.411          33.540          37.550  
 -16429696.972   -15201074.065    21735226.684    21735263.710    21735227.014  
  21735232.075       -1008.707        -786.003          44.850          50.150  
 -19365147.457   -15089707.993    21660307.962    21660330.220    21660308.430  
  21660310.478        2508.840        1954.937          46.040          50.550  
 15  7 19  0 54 30.0000000  0 11G 2G 5G 6G10G12G13G15G20G21G25G29
 -16509862.718   -13392667.083    21998306.444           0.000    21998305.981  
  21998306.153       -1298.271       -1011.639          44.200          48.320  
 -26217735.644   -20768378.613    20482374.272    20482395.570    20482374.519  
  20482375.855       -1291.846       -1006.635          45.910          54.880  
     31424.450      198718.195    25206199.257           0.000    25204424.419  
  25204431.171       -2327.658       -1813.720          19.750          30.650  
  -3549604.717    -5205009.127    24449219.123           0.000    24449217.849  
  24449222.734       -3715.755       -2895.398          32.750          37.300  
 -16415652.827   -12791407.411    22185145.153    22185182.180    22185145.603  
  22185148.837       -2919.174       -2274.676          43.100          49.530  
  -8907003.128    -6940508.150    23387612.406           0.000    23387612.208  
  23387616.106        2674.009        2083.640          39.050          43.250  
  -7570035.321    -5898715.797    23951674.105    23951738.650    23951674.546  
  23951679.113        3346.693        2607.813          39.950          40.720  
 -22200123.552   -18091068.921    20991693.808           0.000    20991693.393  
  20991695.875        2066.363        1610.151          45.880          50.630  
  -1740970.452    -1356596.246    25083238.309           0.000    25083237.148  
  25083241.146        1801.647        1403.877          33.380          38.050  
 -16399167.836   -15177285.141    21741036.506    21741073.360    21741036.122  
  21741041.714       -1026.558        -799.911          44.340          50.110  
 -19440319.075   -15148283.258    21646003.490    21646032.620    21646003.965  
  21646005.621        2502.595        1950.076          46.290          50.440  
 15  7 19  0 55  0.0000000  0 11G 2G 5G 6G10G12G13G15G20G21G25G29
 -16470875.824   -13362287.694    22005725.323           0.000    22005724.922  
  22005724.986       -1300.835       -1013.638          44.170          48.200  
 -26178746.300   -20737997.297    20489792.941    20489827.940    20489793.791  
  20489794.885       -1307.416       -1018.763          45.910          54.790  
      3489.307      253121.241    25217778.335           0.000    25217710.720  
  25217715.572       -2328.662       -1813.656          21.480          29.730  
  -3438101.199    -5118124.055    24470434.602           0.000    24470434.745  
  24470440.542       -3717.709       -2896.926          30.870          37.340  
 -16327938.613   -12723058.737    22201836.871    22201868.010    22201837.465  
  22201839.832       -2928.409       -2281.870          43.740          49.200  
  -8987143.121    -7002954.788    23372362.043           0.000    23372362.452  
  23372365.553        2668.655        2079.468          39.210          43.080  
  -7670446.243    -5976957.952    23932566.835    23932605.860    23932567.498  
  23932571.969        3347.357        2608.326          39.970          40.600  
 -22261905.920   -18139210.976    20979937.131           0.000    20979936.726  
  20979939.116        2052.481        1599.334          46.080          50.730  
  -1795008.824    -1398703.923    25072954.018           0.000    25072953.861  
  25072958.027        1800.957        1403.340          34.230          38.550  
 -16368104.069   -15153079.623    21746946.898    21746971.840    21746947.116  
  21746953.028       -1044.332        -813.764          44.190          50.080  
 -19515301.861   -15206711.382    21631734.765    21631765.110    21631735.045  
  21631736.583        2496.261        1945.139          46.300          50.260  
 15  7 19  0 55 30.0000000  0 11G 2G 5G 6G10G12G13G15G20G21G25G29
 -16431811.599   -13331848.044    22013157.892           0.000    22013158.462  
  22013158.726       -1303.438       -1015.666          43.940          48.180  
 -26139290.517   -20707252.527    20497300.928    20497326.060    20497301.690  
  20497303.284       -1322.947       -1030.868          45.610          54.750  
     73286.292      307508.240    25232780.192           0.000    25230993.060  
  25230997.757       -2326.177       -1812.612          20.780          32.040  
  -3326539.689    -5031193.445    24491661.908           0.000    24491664.048  
  24491670.621       -3719.666       -2898.436          31.190          37.820  
 -16239949.071   -12654495.500    22218581.049    22218600.570    22218581.776  
  22218584.114       -2937.554       -2288.998          44.170          49.280  
  -9067119.921    -7065274.281    23357142.178           0.000    23357143.036  
  23357146.490        2663.128        2075.167          39.200          43.310  
  -7770874.999    -6055214.017    23913456.151    23913461.630    23913456.819  
  23913459.720        3347.900        2608.751          39.090          39.910  
 -22323270.646   -18187027.603    20968259.725           0.000    20968259.298  
  20968261.918        2038.500        1588.442          45.920          50.930  
  -1849026.452    -1440795.440    25062673.744           0.000    25062674.570  
  25062679.053        1800.254        1402.781          34.210          38.540  
 -16336507.227   -15128458.721    21752959.558    21752984.330    21752959.915  
  21752965.475       -1062.101        -827.615          44.230          49.930  
 -19590093.353   -15264990.439    21617501.897    21617521.700    21617502.445  
  21617504.067        2489.824        1940.120          45.810          50.110  
 15  7 19  0 56  0.0000000  0 11G 2G 5G 6G10G12G13G15G20G21G25G29
 -16392670.338   -13301348.365    22020607.440           0.000    22020607.346  
  22020607.244       -1306.009       -1017.668          44.310          48.110  
 -26099370.875   -20676146.309    20504897.849    20504922.990    20504898.412  
  20504899.774       -1338.372       -1042.887          45.690          54.790  
      3489.590      361878.753    25244928.646           0.000    25244271.998  
  25244276.063       -2326.016       -1812.045          20.060          31.230  
  -3214922.519    -4944219.032    24512905.670           0.000    24512905.372  
  24512910.795       -3721.492       -2899.856          31.680          37.860  
 -16151687.232   -12585720.092    22235376.893    22235407.200    22235377.057  
  22235379.595       -2946.567       -2296.022          44.020          49.040  
  -9146930.634    -7127464.353    23341955.960           0.000    23341956.389  
  23341959.324        2657.545        2070.807          39.640          43.720  
  -7871319.446    -6133482.296    23894342.358    23894386.710    23894342.789  
  23894346.489        3348.361        2609.101          39.070          40.850  
 -22384216.825   -18234518.081    20956662.512           0.000    20956661.670  
  20956664.435        2024.545        1577.565          45.980          51.170  
  -1903024.188    -1482871.460    25052399.047           0.000    25052399.118  
  25052403.442        1799.593        1402.268          34.500          39.010  
 -16304379.294   -15103423.979    21759073.589    21759125.380    21759073.672  
  21759078.816       -1079.768        -841.379          44.340          49.670  
 -19664691.460   -15323118.804    21603306.399    21603345.980    21603306.593  
  21603308.454        2483.347        1935.074          45.760          50.230  
 15  7 19  0 56 30.0000000  0 11G 2G 5G 6G10G12G13G15G20G21G25G29
 -16353451.496   -13270788.230    22028070.780           0.000    22028070.586  
  22028070.325       -1308.597       -1019.686          44.000          48.430  
 -26058989.511   -20644680.305    20512582.339    20512607.820    20512582.709  
  20512584.082       -1353.717       -1054.845          45.760          54.740  
     73241.556      416232.385    25256243.159           0.000    25257548.604  
  25257550.330       -2324.795       -1811.524          16.910          31.220  
  -3103252.046    -4857203.098    24534158.447           0.000    24534155.678  
  24534160.511       -3723.215       -2901.205          32.230          38.090  
 -16063156.542   -12516735.179    22252222.672    22252250.710    22252223.864  
  22252226.492       -2955.478       -2302.964          44.140          48.990  
  -9226571.936    -7189522.408    23326799.581           0.000    23326800.087  
  23326803.079        2651.832        2066.365          39.140          43.660  
  -7971776.746    -6211760.563    23875226.201    23875252.080    23875226.022  
  23875229.994        3348.747        2609.406          38.690          42.480  
 -22444743.772   -18281681.887    20945144.228           0.000    20945143.709  
  20945146.435        2010.553        1566.662          46.060          51.270  
  -1957002.578    -1524932.422    25042128.486           0.000    25042126.683  
  25042131.057        1798.943        1401.774          33.690          38.600  
 -16271722.042   -15077976.782    21765288.029    21765323.870    21765288.075  
  21765293.565       -1097.379        -855.101          44.220          49.710  
 -19739094.002   -15381094.770    21589147.581    21589170.530    21589148.260  
  21589150.110        2476.798        1929.970          45.760          50.360  
 15  7 19  0 57  0.0000000  0 11G 2G 5G 6G10G12G13G15G20G21G25G29
 -16314154.489   -13240167.220    22035548.960           0.000    22035548.381  
  22035548.681       -1311.210       -1021.721          44.130          48.830  
 -26018148.268   -20612855.957    20520353.818    20520386.350    20520354.601  
  20520356.084       -1369.030       -1066.775          45.850          54.820  
    142974.497      470569.666    25273113.427           0.000    25270814.591  
  25270819.712       -2324.126       -1810.977          20.600          32.250  
  -2991530.269    -4770147.174    24555418.186           0.000    24555415.775  
  24555420.635       -3724.891       -2902.522          33.830          38.690  
 -15974360.266   -12447543.325    22269120.732    22269134.380    22269121.145  
  22269123.849       -2964.274       -2309.826          44.040          48.910  
  -9306040.613    -7251445.949    23311677.007           0.000    23311677.079  
  23311680.855        2646.028        2061.839          39.200          44.250  
  -8072243.843    -6290046.458    23856107.879    23856146.320    23856107.594  
  23856112.149        3349.007        2609.614          38.460          43.670  
 -22504850.699   -18328518.404    20933705.801           0.000    20933705.570  
  20933708.266        1996.541        1555.744          46.100          51.190  
  -2010962.266    -1566978.800    25031859.345           0.000    25031858.936  
  25031863.070        1798.345        1401.291          34.050          38.440  
 -16238537.210   -15052118.479    21771602.823    21771629.750    21771602.977  
  21771608.617       -1114.953        -868.798          44.170          49.670  
 -19813298.503   -15438916.416    21575027.831    21575040.740    21575027.636  
  21575029.456        2470.144        1924.784          45.620          50.330  
 15  7 19  0 57 30.0000000  0 11G 2G 5G 6G10G12G13G15G20G21G25G29
 -16274779.725   -13209485.602    22043040.564           0.000    22043040.786  
  22043041.273       -1313.800       -1023.740          43.840          48.920  
 -25976849.460   -20580675.062    20528213.560    20528243.420    20528213.582  
  20528215.142       -1384.236       -1078.625          45.840          54.820  
    212686.746      524890.942    25289082.452           0.000    25284080.034  
  25284083.802       -2323.435       -1810.463          16.920          30.550  
  -2879759.849    -4683053.323    24576685.030           0.000    24576684.699  
  24576690.322       -3726.464       -2903.745          34.760          39.760  
 -15885301.328   -12378146.799    22286069.030    22286100.070    22286068.802  
  22286071.335       -2972.981       -2316.606          44.160          48.780  
  -9385333.507    -7313232.506    23296588.323           0.000    23296588.358  
  23296591.929        2640.118        2057.232          38.760          44.510  
  -8172717.696    -6368337.616    23836987.640    23837023.120    23836987.524  
  23836992.563        3349.200        2609.764          36.870          44.170  
 -22564536.450   -18375026.736    20922347.991           0.000    20922347.842  
  20922350.362        1982.477        1544.786          46.100          51.200  
  -2064903.839    -1609011.081    25021593.463           0.000    25021593.498  
  25021597.659        1797.752        1400.839          33.700          38.010  
 -16204826.524   -15025850.421    21778019.140    21778052.320    21778018.615  
  21778023.391       -1132.440        -882.418          44.320          49.670  
 -19887302.808   -15496582.060    21560944.103    21560978.790    21560945.033  
  21560946.831        2463.439        1919.562          45.300          50.250  
 15  7 19  0 58  0.0000000  0 11G 2G 5G 6G10G12G13G15G20G21G25G29
 -16235326.894   -13178743.160    22050549.031           0.000    22050548.830  
  22050548.885       -1316.397       -1025.766          43.770          48.700  
 -25935094.969   -20548139.090    20536158.486    20536188.680    20536159.274  
  20536160.698       -1399.381       -1090.426          45.910          54.740  
    282378.838      579196.475    25305927.026           0.000    25297345.668  
  25297347.054       -2322.765       -1809.931          18.400          31.590  
  -2767942.985    -4595923.282    24597963.518           0.000    24597963.103  
  24597968.007       -3727.966       -2904.913          35.270          39.710  
 -15795982.649   -12308547.873    22303065.517    22303101.610    22303065.825  
  22303068.234       -2981.573       -2323.303          44.170          48.820  
  -9464447.495    -7374879.661    23281534.023           0.000    23281533.076  
  23281537.138        2634.122        2052.562          39.100          44.590  
  -8273195.765    -6446632.040    23817864.768    23817899.210    23817866.030  
  23817872.102        3349.308        2609.846          34.860          44.760  
 -22623799.913   -18421206.011    20911070.242           0.000    20911070.135  
  20911072.723        1968.417        1533.829          45.930          51.170  
  -2118827.891    -1651029.700    25011331.261           0.000    25011332.090  
  25011336.343        1797.179        1400.400          33.970          38.230  
 -16170591.841   -14999174.058    21784531.988    21784568.860    21784532.528  
  21784537.947       -1149.860        -895.995          44.080          49.550  
 -19961104.766   -15554090.028    21546900.657    21546927.960    21546901.068  
  21546902.862        2456.668        1914.285          45.550          50.360  
 15  7 19  0 58 30.0000000  0 11G 2G 5G 6G10G12G13G15G20G21G25G29
 -16195795.513   -13147939.492    22058071.911           0.000    22058071.229  
  22058071.270       -1319.025       -1027.809          43.710          48.560  
 -25892886.737   -20515249.552    20544190.458    20544216.210    20544191.291  
  20544192.527       -1414.489       -1102.197          45.870          54.630  
    352051.126      633486.553    25310365.714           0.000    25310603.891  
  25310602.945       -2322.098       -1809.412          18.350          31.730  
  -2656082.257    -4508759.044    24619248.880           0.000    24619249.132  
  24619254.896       -3729.405       -2906.036          35.150          40.020  
 -15706407.089   -12238748.800    22320110.746    22320134.440    22320111.169  
  22320113.804       -2990.095       -2329.942          43.860          48.490  
  -9543379.591    -7436385.090    23266511.616           0.000    23266512.073  
  23266515.815        2628.002        2047.793          38.500          44.170  
  -8373675.041    -6524927.379    23798742.763    23798764.450    23798744.043  
  23798751.388        3349.292        2609.839          34.030          45.420  
 -22682640.708   -18467055.935    20899873.472           0.000    20899872.901  
  20899875.663        1954.296        1522.827          45.930          51.240  
  -2172735.356    -1693035.407    25001075.100           0.000    25001074.179  
  25001078.439        1796.638        1399.973          33.360          38.010  
 -16135835.188   -14972090.965    21791146.049    21791177.820    21791146.347  
  21791152.052       -1167.233        -909.535          43.950          49.570  
 -20034701.930   -15611438.411    21532895.682    21532928.200    21532896.115  
  21532898.156        2449.802        1908.934          45.550          50.630  
 15  7 19  0 59  0.0000000  0 11G 2G 5G 6G10G12G13G15G20G21G25G29
 -16156185.409   -13117074.495    22065609.252           0.000    22065608.694  
  22065609.133       -1321.642       -1029.855          43.690          48.820  
 -25850226.885   -20482008.105    20552308.148    20552335.490    20552309.044  
  20552310.394       -1429.492       -1113.890          45.830          54.590  
    421703.840      687761.402    25323105.832           0.000    25323854.504  
  25323858.722       -2321.418       -1808.911          18.720          26.940  
  -2544179.979    -4421562.454    24640544.755           0.000    24640543.178  
  24640548.938       -3730.741       -2907.059          34.410          39.800  
 -15616578.037   -12168752.172    22337204.704    22337243.910    22337205.321  
  22337207.474       -2998.493       -2336.490          43.680          47.950  
  -9622126.208    -7497745.996    23251526.742           0.000    23251527.924  
  23251530.996        2621.761        2042.919          39.510          44.410  
  -8474152.440    -6603221.263    23779626.085    23779642.410    23779625.174  
  23779631.406        3349.185        2609.747          36.580          45.830  
 -22741057.633   -18512575.572    20888757.524           0.000    20888757.046  
  20888759.339        1940.169        1511.817          46.220          51.290  
  -2226626.098    -1735028.097    24990819.123           0.000    24990819.037  
  24990822.718        1796.109        1399.558          33.470          38.190  
 -16100558.182   -14944602.407    21797860.607    21797895.300    21797859.843  
  21797864.950       -1184.542        -923.017          44.110          49.490  
 -20108091.788   -15668625.258    21518930.590    21518952.550    21518930.514  
  21518932.585        2442.851        1903.519          45.570          50.850  
 15  7 19  0 59 30.0000000  0 11G 2G 5G 6G10G12G13G15G20G21G25G29
 -16116496.471   -13086148.073    22073162.022           0.000    22073161.703  
  22073161.770       -1324.277       -1031.905          44.150          49.150  
 -25807118.073   -20448416.822    20560511.728    20560535.020    20560512.672  
  20560513.791       -1444.432       -1125.531          46.290          54.610  
    491336.901      742020.954    25339361.221           0.000    25337108.646  
  25337110.006       -2320.782       -1808.393          18.600          29.980  
  -2432238.666    -4334335.478    24661847.171           0.000    24661844.521  
  24661850.429       -3732.018       -2908.056          32.730          38.860  
 -15526498.596   -12098560.456    22354345.962    22354377.690    22354346.252  
  22354349.284       -3006.780       -2342.945          42.990          48.100  
  -9700684.744    -7558960.329    23236577.643           0.000    23236578.250  
  23236582.418        2615.450        2038.009          39.120          44.930  
  -8574625.576    -6681511.845    23760505.467    23760538.670    23760505.981  
  23760511.743        3349.002        2609.607          37.300          45.760  
 -22799050.469   -18557764.750    20877721.298           0.000    20877721.232  
  20877723.454        1926.011        1500.784          46.330          51.320  
  -2280501.372    -1777008.754    24980567.009           0.000    24980566.615  
  24980570.858        1795.578        1399.152          33.890          38.490  
 -16064763.051   -14916710.117    21804670.987    21804701.660    21804671.260  
  21804676.635       -1201.785        -936.458          44.230          49.480  
 -20181272.838   -15725649.383    21505003.832    21505020.440    21505004.101  
  21505006.563        2435.852        1898.065          45.090          50.890  
 15  7 19  1  0  0.0000000  0 11G 2G 5G 6G10G12G13G15G20G21G25G29
 -16076728.089   -13055159.735    22080729.847           0.000    22080729.472  
  22080729.376       -1326.938       -1033.976          44.220          49.040  
 -25763561.986   -20414477.018    20568800.351    20568822.830    20568801.182  
  20568801.976       -1459.306       -1137.121          46.430          54.570  
    560951.080      796265.788    25352816.985           0.000    25350352.036  
  25350356.868       -2320.125       -1807.939          20.140          29.050  
  -2320260.362    -4247079.669    24683153.950           0.000    24683153.009  
  24683159.185       -3733.207       -2908.987          32.050          38.190  
 -15436172.114   -12028176.247    22371534.963    22371554.470    22371535.066  
  22371537.931       -3014.965       -2349.324          43.250          47.930  
  -9779051.640    -7620025.334    23221665.290           0.000    23221665.587  
  23221669.750        2608.990        2032.973          39.190          44.850  
  -8675091.221    -6759796.591    23741388.018    23741406.860    23741388.160  
  23741393.430        3348.704        2609.370          38.310          45.750  
 -22856618.126   -18602622.615    20866766.306           0.000    20866765.951  
  20866768.412        1911.813        1489.721          46.090          51.250  
  -2334361.317    -1818977.470    24970317.385           0.000    24970317.567  
  24970321.452        1795.089        1398.776          35.060          38.490  
 -16028451.398   -14888415.341    21811581.337    21811617.380    21811581.253  
  21811586.081       -1218.967        -949.844          44.420          49.250  
 -20254242.464   -15782508.766    21491117.416    21491151.000    21491118.084  
  21491120.611        2428.773        1892.545          45.020          50.940  
 15  7 19  1  0 30.0000000  0 11G 2G 5G 6G10G12G13G15G20G21G25G29
 -16036880.031   -13024109.313    22088312.546           0.000    22088311.954  
  22088312.074       -1329.585       -1036.039          43.590          48.880  
 -25719560.509   -20380190.150    20577174.126    20577192.680    20577174.435  
  20577175.180       -1474.094       -1148.645          46.350          54.480  
     38273.996      850497.751    25363594.458           0.000    25363593.247  
  25363599.250       -2318.610       -1806.902          25.990          24.130  
  -2208247.150    -4159796.588    24704469.212           0.000    24704468.532  
  24704473.903       -3734.310       -2909.857          31.450          37.730  
 -15345601.493   -11957601.787    22388769.115    22388790.080    22388769.650  
  22388772.719       -3023.053       -2355.627          42.430          47.790  
  -9857223.504    -7680938.351    23206789.400           0.000    23206789.715  
  23206793.658        2602.451        2027.878          38.780          44.730  
  -8775546.576    -6838073.336    23722272.276    23722298.620    23722272.799  
  23722277.605        3348.313        2609.069          39.090          45.550  
 -22913759.618   -18647148.407    20855891.978           0.000    20855891.986  
  20855894.672        1897.617        1478.662          45.920          51.270  
  -2388206.864    -1860934.979    24960072.207           0.000    24960071.631  
  24960074.767        1794.627        1398.409          34.830          38.030  
 -15991625.266   -14859719.669    21818588.743    21818618.840    21818588.974  
  21818593.788       -1236.082        -963.179          44.420          49.160  
 -20326998.327   -15839201.583    21477272.856    21477299.620    21477272.898  
  21477275.550        2421.609        1886.968          44.990          50.920  
 15  7 19  1  1  0.0000000  0 11G 2G 5G 6G10G12G13G15G20G21G25G29
 -15996952.410   -12992996.886    22095909.541           0.000    22095909.696  
  22095910.541       -1332.256       -1038.125          43.880          49.260  
 -25675116.262   -20345558.276    20585631.217    20585661.860    20585631.473  
  20585632.857       -1488.829       -1160.126          46.170          54.500  
    107851.3211     904712.3731   25376830.7371          0.000    25376834.5261 
  25376836.5941      -2319.3931      -1807.2931         28.9001         19.5401 
  -2096201.828    -4072488.489    24725790.979           0.000    24725789.305  
  24725795.632       -3735.355       -2910.667          30.340          38.210  
 -15254789.640   -11886839.376    22406050.206    22406090.590    22406050.414  
  22406054.289       -3031.042       -2361.844          42.190          48.220  
  -9935197.578    -7741697.263    23191951.641           0.000    23191951.462  
  23191955.963        2595.801        2022.696          39.040          44.980  
  -8875988.650    -6916339.740    23703157.676    23703188.140    23703158.518  
  23703163.294        3347.827        2608.691          38.970          44.890  
 -22970474.645   -18691341.893    20845099.948           0.000    20845099.609  
  20845102.223        1883.386        1467.573          46.040          51.380  
  -2442038.655    -1902881.775    24949827.399           0.000    24949826.831  
  24949831.119        1794.160        1398.046          34.660          38.170  
 -15954286.773   -14830624.751    21825694.046    21825714.280    21825694.460  
  21825699.057       -1253.129        -976.464          44.310          49.050  
 -20399538.237   -15895726.122    21463469.141    21463499.590    21463469.246  
  21463471.629        2414.376        1881.331          45.070          51.000  
 15  7 19  1  1 30.0000000  0 11G 2G 5G 6G10G12G13G15G20G21G25G29
 -15956944.460   -12961821.858    22103523.173           0.000    22103523.051  
  22103524.005       -1334.936       -1040.211          43.860          49.300  
 -25630230.998   -20310582.750    20594172.835    20594207.770    20594173.110  
  20594174.215       -1503.493       -1171.553          46.300          54.450  
    177412.336      958915.832    25390070.017           0.000    25390070.495  
  25390070.577       -2318.053       -1806.264          25.100          17.120  
  -1984125.208    -3985156.803    24747117.513           0.000    24747117.412  
  24747123.211       -3736.351       -2911.425          31.590          38.840  
 -15163739.645   -11815891.391    22423376.285    22423406.590    22423376.924  
  22423380.079       -3038.932       -2367.993          42.360          47.830  
 -10012970.399    -7802299.343    23177152.144           0.000    23177152.234  
  23177155.914        2589.042        2017.435          39.350          44.810  
  -8976414.348    -6994593.387    23684047.490    23684096.160    23684048.241  
  23684052.698        3347.233        2608.226          39.180          44.810  
 -23026762.082   -18735202.187    20834388.772           0.000    20834388.312  
  20834391.287        1869.111        1456.448          45.960          51.560  
  -2495857.243    -1944817.895    24939588.137           0.000    24939586.135  
  24939590.294        1793.719        1397.706          34.550          38.300  
 -15916437.553   -14801131.880    21832897.251    21832930.000    21832897.066  
  21832901.662       -1270.133        -989.710          44.400          49.200  
 -20471859.500   -15952080.298    21449706.909    21449725.600    21449707.048  
  21449709.383        2407.046        1875.620          45.170          50.990  
 15  7 19  1  2  0.0000000  0 10G 2G 5G10G12G13G15G20G21G25G29
 -15916856.384   -12930584.401    22111152.443           0.000    22111151.731  
  22111152.881       -1337.621       -1042.297          43.580          49.580  
 -25584907.272   -20275265.567    20602797.323    20602830.870    20602797.683  
  20602799.110       -1518.087       -1182.925          46.360          54.430  
  -1872021.325    -3897803.505    24768450.875           0.000    24768450.436  
  24768455.315       -3737.232       -2912.129          32.300          38.750  
 -15072455.494   -11744760.942    22440747.208    22440761.300    22440747.813  
  22440750.865       -3046.691       -2374.035          42.210          47.890  
 -10090539.222    -7862742.473    23162390.450           0.000    23162390.985  
  23162394.128        2582.180        2012.084          39.440          44.040  
  -9076821.371    -7072832.472    23664941.474    23664976.400    23664941.542  
  23664945.758        3346.541        2607.689          39.010          44.970  
 -23082621.541   -18778728.992    20823758.870           0.000    20823758.765  
  20823761.768        1854.841        1445.326          46.070          51.760  
  -2549662.826    -1986744.245    24929347.358           0.000    24929346.834  
  24929351.178        1793.321        1397.382          34.170          38.400  
 -15878080.064   -14771242.958    21840195.708    21840220.900    21840195.882  
  21840200.966       -1287.049       -1002.889          44.520          49.190  
 -20543960.174   -16008262.591    21435986.974    21436006.060    21435986.957  
  21435988.950        2399.646        1869.845          45.650          50.900  
 15  7 19  1  2 30.0000000  0 10G 2G 5G10G12G13G15G20G21G25G29
 -15876687.451   -12899283.953    22118794.450           0.000    22118794.786  
  22118796.211       -1340.339       -1044.415          43.220          49.240  
 -25539147.116   -20239608.302    20611505.654    20611534.330    20611505.511  
  20611507.119       -1532.602       -1194.237          46.480          54.480  
  -1759892.194    -3810430.138    24789788.937           0.000    24789787.616  
  24789792.960       -3738.070       -2912.770          32.140          37.820  
 -14980939.745   -11673450.044    22458163.379    22458198.380    22458163.080  
  22458166.363       -3054.371       -2380.027          42.790          48.510  
 -10167900.571    -7923023.942    23147670.087           0.000    23147669.650  
  23147673.245        2575.209        2006.644          39.170          44.090  
  -9177206.215    -7151054.262    23645838.209    23645868.280    23645838.788  
  23645843.289        3345.742        2607.069          39.510          44.620  
 -23138052.232   -18821921.697    20813211.145           0.000    20813210.866  
  20813213.593        1840.512        1434.167          46.060          51.800  
  -2603456.082    -2028660.979    24919112.420           0.000    24919110.244  
  24919114.623        1792.886        1397.050          34.040          39.430  
 -15839216.061   -14740959.345    21847591.116    21847621.600    21847591.506  
  21847596.493       -1303.901       -1016.025          44.610          49.200  
 -20615837.935   -16064271.195    21422308.483    21422334.250    21422308.799  
  21422310.822        2392.177        1864.033          45.780          50.830  
 15  7 19  1  3  0.0000000  0 10G 2G 5G10G12G13G15G20G21G25G29
 -15836437.262   -12867920.178    22126454.962           0.000    22126454.223  
  22126454.794       -1343.006       -1046.495          42.900          48.360  
 -25492952.660   -20203612.616    20620294.735    20620318.390    20620295.977  
  20620297.487       -1547.005       -1205.458          45.870          54.170  
  -1647739.027    -3723038.407    24811129.681           0.000    24811129.373  
  24811134.562       -3738.768       -2913.328          31.610          36.900  
 -14889195.213   -11601960.873    22475621.621    22475636.580    22475622.010  
  22475624.488       -3061.918       -2385.906          42.610          48.150  
 -10245051.049    -7983141.099    23132988.350           0.000    23132988.585  
  23132991.456        2568.149        2001.151          38.160          43.810  
  -9277565.815    -7229256.406    23626741.489    23626797.440    23626740.867  
  23626745.006        3344.886        2606.402          39.490          43.690  
 -23193053.094   -18864779.468    20802745.128           0.000    20802744.347  
  20802746.957        1826.218        1423.024          45.440          51.650  
  -2657236.930    -2070568.397    24908875.022           0.000    24908875.836  
  24908880.256        1792.553        1396.789          32.600          39.080  
 -15799847.437   -14710282.510    21855082.573    21855121.380    21855083.242  
  21855088.273       -1320.652       -1029.079          44.010          49.040  
 -20687490.459   -16120104.294    21408672.443    21408706.080    21408673.787  
  21408675.916        2384.653        1858.173          45.330          50.770  
 15  7 19  1  3 30.0000000  0 10G 2G 5G10G12G13G15G20G21G25G29
 -15796106.006   -12836493.215    22134130.058           0.000    22134129.530  
  22134129.755       -1345.722       -1048.615          43.480          48.400  
 -25446326.322   -20167280.404    20629168.322    20629190.290    20629168.595  
  20629169.950       -1561.388       -1216.667          45.880          54.090  
  -1535565.829    -3635630.255    24832476.883           0.000    24832475.249  
  24832481.042       -3739.435       -2913.842          31.180          37.790  
 -14797224.962   -11530295.808    22493122.741    22493169.780    22493123.396  
  22493126.043       -3069.385       -2391.726          43.380          48.590  
 -10321987.747    -8043091.679    23118348.417           0.000    23118348.110  
  23118351.127        2560.968        1995.547          38.630          43.600  
  -9377897.521    -7307436.826    23607648.202    23607701.160    23607648.728  
  23607652.912        3343.890        2605.625          39.930          43.260  
 -23247623.766   -18907302.029    20792360.203           0.000    20792359.811  
  20792362.510        1811.849        1411.831          45.360          51.800  
  -2711007.890    -2112467.356    24898644.965           0.000    24898644.369  
  24898647.842        1792.177        1396.491          33.150          39.420  
 -15759976.433   -14679214.222    21862670.191    21862705.480    21862670.606  
  21862675.223       -1337.375       -1042.110          44.210          49.070  
 -20758915.343   -16175760.009    21395081.506    21395109.880    21395081.907  
  21395084.177        2377.019        1852.221          45.390          50.900  
 15  7 19  1  4  0.0000000  0 10G 2G 5G10G12G13G15G20G21G25G29
 -15755693.262   -12805002.761    22141820.484           0.000    22141820.286  
  22141820.187       -1348.447       -1050.738          44.150          48.680  
 -25399269.900   -20130613.059    20638123.007    20638159.510    20638123.423  
  20638124.493       -1575.683       -1227.806          46.480          54.170  
  -1423373.627    -3548207.709    24853827.642           0.000    24853824.172  
  24853830.349       -3740.016       -2914.309          27.460          37.450  
 -14705032.917   -11458457.925    22510666.468    22510692.240    22510666.928  
  22510669.798       -3076.726       -2397.447          44.160          48.930  
 -10398707.583    -8102873.257    23103747.296           0.000    23103748.059  
  23103751.825        2553.672        1989.866          39.290          43.960  
  -9478198.530    -7385593.345    23588561.289    23588579.630    23588562.041  
  23588565.427        3342.824        2604.790          40.390          42.830  
 -23301763.792   -18949489.020    20782057.648           0.000    20782057.220  
  20782059.711        1797.484        1400.636          45.850          51.800  
  -2764768.070    -2154358.275    24888413.570           0.000    24888413.289  
  24888417.267        1791.868        1396.254          33.680          39.390  
 -15719605.313   -14647756.233    21870353.636    21870386.120    21870352.973  
  21870358.142       -1354.006       -1055.069          44.840          49.290  
 -20830110.518   -16231236.745    21381533.688    21381564.620    21381534.239  
  21381536.147        2369.323        1846.224          46.290          51.130  
 15  7 19  1  4 30.0000000  0 10G 2G 5G10G12G13G15G20G21G25G29
 -15715198.436   -12773448.341    22149526.305           0.000    22149526.418  
  22149526.446       -1351.199       -1052.879          44.120          48.660  
 -25351786.070   -20093612.669    20647158.434    20647187.280    20647159.264  
  20647160.422       -1589.893       -1238.877          46.130          54.070  
  -1311164.769    -3460772.227    24875176.547           0.000    24875178.314  
  24875182.423       -3740.525       -2914.707          28.980          37.390  
 -14612621.576   -11386449.161    22528251.834    22528273.950    22528252.034  
  22528255.079       -3083.995       -2403.109          43.600          48.700  
 -10475207.219    -8162483.277    23089189.862           0.000    23089191.228  
  23089194.238        2546.280        1984.116          39.140          43.730  
  -9578465.761    -7463723.553    23569481.506    23569534.510    23569481.674  
  23569484.683        3341.636        2603.868          39.660          42.520  
 -23355472.305   -18991339.774    20771837.772           0.000    20771837.251  
  20771839.504        1783.073        1389.409          45.750          51.830  
  -2818518.267    -2196241.395    24878186.235           0.000    24878184.198  
  24878189.061        1791.524        1395.984          33.230          39.450  
 -15678735.929   -14615909.983    21878130.601    21878152.900    21878130.574  
  21878135.159       -1370.592       -1067.990          44.710          49.190  
 -20901073.485   -16286532.542    21368030.288    21368054.000    21368030.530  
  21368032.406        2361.535        1840.156          46.020          51.180  
 15  7 19  1  5  0.0000000  0 10G 2G 5G10G12G13G15G20G21G25G29
 -15674621.397   -12741829.865    22157247.812           0.000    22157247.681  
  22157248.056       -1353.948       -1055.028          43.450          48.830  
 -25303876.564   -20056280.578    20656275.649    20656303.020    20656276.132  
  20656277.223       -1604.074       -1249.926          45.960          54.020  
  -1198939.970    -3373325.470    24896534.600           0.000    24896534.150  
  24896538.328       -3741.337       -2915.073          31.260          36.450  
 -14519994.240   -11314272.091    22545878.214    22545908.930    22545878.662  
  22545882.192       -3091.156       -2408.692          43.190          49.030  
 -10551483.783    -8221919.481    23074675.351           0.000    23074676.105  
  23074678.652        2538.783        1978.266          39.610          43.590  
  -9678696.252    -7541825.124    23550407.282    23550462.510    23550407.843  
  23550411.889        3340.353        2602.872          38.610          43.290  
 -23408748.601   -19032853.731    20761698.906           0.000    20761698.873  
  20761701.289        1768.645        1378.163          45.540          51.770  
  -2872259.441    -2238117.478    24867957.861           0.000    24867957.804  
  24867962.310        1791.208        1395.743          33.540          39.440  
 -15637370.450   -14583677.160    21886001.387    21886026.340    21886001.568  
  21886007.051       -1387.098       -1080.853          44.200          49.270  
 -20971801.966   -16341645.629    21354571.120    21354594.400    21354571.355  
  21354572.868        2353.666        1834.026          45.620          50.890  
 15  7 19  1  5 30.0000000  0 10G 2G 5G10G12G13G15G20G21G25G29
 -15633961.945   -12710147.177    22164985.320           0.000    22164984.934  
  22164985.186       -1356.691       -1057.160          43.580          48.520  
 -25255543.799   -20018618.677    20665472.967    20665504.990    20665473.512  
  20665474.666       -1618.110       -1260.867          45.920          54.010  
  -1086705.014    -3285869.188    24917891.462           0.000    24917891.684  
  24917895.115       -3741.364       -2915.349          32.450          35.460  
 -14427154.031   -11241929.157    22563545.379    22563580.190    22563545.336  
  22563548.915       -3098.185       -2414.170          42.860          48.580  
 -10627533.935    -8281179.259    23060203.935           0.000    23060204.740  
  23060207.811        2531.203        1972.362          39.830          44.070  
  -9778886.979    -7619895.693    23531342.222    23531350.790    23531342.007  
  23531346.130        3339.005        2601.812          37.450          43.440  
 -23461592.201   -19074030.525    20751643.008           0.000    20751642.841  
  20751645.646        1754.246        1366.944          45.520          51.760  
  -2925992.181    -2279986.569    24857732.798           0.000    24857732.806  
  24857737.286        1790.928        1395.526          32.630          40.090  
 -15595511.014   -14551059.442    21893966.979    21893995.350    21893967.289  
  21893972.666       -1403.525       -1093.655          44.100          49.400  
 -21042293.757   -16396574.290    21341156.660    21341181.100    21341157.110  
  21341158.531        2345.754        1827.861          45.560          50.740  
 15  7 19  1  6  0.0000000  0 10G 2G 5G10G12G13G15G20G21G25G29
 -15593219.933   -12678400.150    22172737.310           0.000    22172737.668  
  22172737.922       -1359.470       -1059.329          43.930          48.350  
 -25206790.224   -19980628.881    20674750.670    20674776.410    20674751.167  
  20674752.331       -1632.114       -1271.776          46.110          54.120  
   -974459.677    -3198405.217    24939252.973           0.000    24939250.497  
  24939255.138       -3741.672       -2915.563          31.220          34.240  
 -14334104.164   -11169422.843    22581251.840    22581272.240    22581252.291  
  22581255.528       -3105.137       -2419.583          42.680          48.160  
 -10703354.352    -8340260.022    23045776.000           0.000    23045776.358  
  23045779.267        2523.465        1966.335          40.500          44.240  
  -9879035.113    -7697933.073    23512283.387    23512308.920    23512284.437  
  23512287.730        3337.515        2600.652          37.320          43.380  
 -23514002.674   -19114869.820    20741670.037           0.000    20741669.593  
  20741672.131        1739.775        1355.664          45.890          52.040  
  -2979715.792    -2321849.341    24847509.023           0.000    24847509.548  
  24847513.964        1790.659        1395.317          34.030          40.490  
 -15553159.863   -14518058.577    21902026.647    21902048.320    21902026.506  
  21902031.993       -1419.881       -1106.402          44.400          49.570  
 -21112546.279   -16451316.509    21327787.517    21327811.570    21327788.466  
  21327789.893        2337.730        1821.608          45.920          50.810  
 15  7 19  1  6 30.0000000  0 10G 2G 5G10G12G13G15G20G21G25G29
 -15552394.349   -12646587.994    22180506.481           0.000    22180506.020  
  22180506.812       -1362.231       -1061.481          43.160          48.140  
 -25157618.114   -19942312.952    20684107.548    20684139.260    20684108.080  
  20684109.315       -1646.017       -1282.610          45.610          53.920  
   -862206.633    -3110935.247    24960612.086           0.000    24960611.880  
  24960617.284       -3741.883       -2915.765          31.100          35.440  
 -14240847.775   -11096755.599    22598998.078    22599018.300    22598998.492  
  22599001.555       -3111.939       -2424.887          42.320          47.770  
 -10778941.833    -8399159.277    23031392.201           0.000    23031392.790  
  23031394.691        2515.680        1960.263          40.110          44.060  
  -9979137.434    -7775934.769    23493234.549    23493294.570    23493235.660  
  23493239.711        3335.961        2599.449          37.840          44.120  
 -23565979.144   -19155370.927    20731779.625           0.000    20731778.825  
  20731781.489        1725.314        1344.399          45.570          52.080  
  -3033432.328    -2363706.188    24837287.076           0.000    24837286.723  
  24837292.025        1790.448        1395.142          33.480          40.440  
 -15510319.132   -14484676.212    21910178.952    21910200.360    21910179.170  
  21910184.378       -1436.159       -1119.078          43.990          49.450  
 -21182557.302   -16505870.553    21314465.566    21314491.510    21314465.977  
  21314467.200        2329.655        1815.315          45.430          50.770  
 15  7 19  1  7  0.0000000  0 10G 2G 5G10G12G13G15G20G21G25G29
 -15511485.253   -12614710.768    22188291.698           0.000    22188291.165  
  22188291.464       -1365.015       -1063.652          43.620          48.170  
 -25108029.416   -19903672.403    20693544.518    20693572.000    20693544.545  
  20693545.740       -1659.866       -1293.405          46.060          54.020  
   -749947.686    -3023460.725    24981976.611           0.000    24981973.643  
  24981980.164       -3742.033       -2915.868          32.740          36.990  
 -14147387.749   -11023929.688    22616782.008    22616804.290    22616783.204  
  22616786.177       -3118.695       -2430.149          42.100          47.350  
 -10854293.420    -8457874.724    23017053.283           0.000    23017053.854  
  23017056.377        2507.752        1954.092          41.080          44.740  
 -10079191.159    -7853898.597    23474193.924    23474222.620    23474195.804  
  23474199.989        3334.281        2598.133          38.640          44.800  
 -23617521.172   -19195533.500    20721970.907           0.000    20721970.725  
  20721973.242        1710.827        1333.113          46.140          52.260  
  -3087142.176    -2405557.689    24827067.406           0.000    24827065.868  
  24827070.659        1790.715        1394.970          33.110          40.430  
 -15466991.035   -14450914.086    21918424.376    21918462.650    21918424.097  
  21918429.260       -1452.362       -1131.708          44.200          49.400  
 -21252324.630   -16560234.702    21301189.262    21301219.170    21301189.597  
  21301191.204        2321.488        1808.952          45.650          51.200  
 15  7 19  1  7 30.0000000  0 10G 2G 5G10G12G13G15G20G21G25G29
 -15470492.354   -12582768.241    22196092.644           0.000    22196092.379  
  22196091.419       -1367.842       -1065.853          43.840          47.730  
 -25058026.449   -19864709.056    20703059.158    20703090.580    20703059.743  
  20703061.144       -1673.632       -1304.131          46.150          54.100  
   -637685.221    -2935983.410    25003337.152           0.000    25003336.521  
  25003343.131       -3742.119       -2915.932          34.630          38.490  
 -14053727.199   -10950947.512    22634606.433    22634622.490    22634606.435  
  22634609.292       -3125.320       -2435.311          42.380          47.330  
 -10929406.128    -8516404.026    23002759.000           0.000    23002759.637  
  23002763.018        2499.734        1947.838          40.250          44.960  
 -10179193.070    -7931822.046    23455166.092    23455186.160    23455166.821  
  23455170.104        3332.489        2596.741          39.510          45.330  
 -23668627.905   -19235356.892    20712245.796           0.000    20712245.348  
  20712247.694        1696.307        1321.799          46.230          52.160  
  -3140845.782    -2447404.238    24816848.494           0.000    24816847.647  
  24816851.852        1790.005        1394.809          34.570          40.310  
 -15423177.681   -14416773.839    21926761.229    21926799.640    21926761.598  
  21926766.632       -1468.515       -1144.292          44.370          49.280  
 -21321845.616   -16614406.893    21287959.602    21287981.600    21287960.055  
  21287961.797        2313.223        1802.515          45.730          51.310  
 15  7 19  1  8  0.0000000  0 10G 2G 5G10G12G13G15G20G21G25G29
 -15429415.144   -12550760.025    22203909.282           0.000    22203908.920  
  22203908.217       -1370.644       -1068.031          43.380          47.670  
 -25007611.555   -19825424.718    20712652.762    20712677.140    20712653.559  
  20712654.688       -1687.322       -1314.796          46.000          53.970  
   -525421.795    -2848505.387    25024698.466           0.000    25024699.245  
  25024705.896       -3742.083       -2915.921          31.350          37.280  
 -13959869.708   -10877811.888    22652465.580    22652512.570    22652466.535  
  22652469.993       -3131.823       -2440.381          41.560          47.140  
 -11004276.708    -8574744.661    22988512.033           0.000    22988512.289  
  22988515.055        2491.607        1941.509          39.800          44.740  
 -10279140.521    -8009703.067    23436146.930    23436177.350    23436147.200  
  23436150.821        3330.632        2595.300          40.150          45.880  
 -23719299.496   -19274841.213    20702603.219           0.000    20702603.033  
  20702604.894        1681.797        1310.490          46.250          51.950  
  -3194543.513    -2489246.465    24806628.281           0.000    24806628.436  
  24806632.646        1789.827        1394.671          34.380          40.090  
 -15378881.544   -14382257.400    21935190.724    21935202.850    21935190.983  
  21935195.924       -1484.563       -1156.800          43.950          49.120  
 -21391118.081   -16668385.433    21274777.018    21274819.240    21274777.979  
  21274779.516        2304.915        1796.042          45.510          51.250  
 15  7 19  1  8 30.0000000  0 10G 2G 5G10G12G13G15G20G21G25G29
 -15388253.289   -12518685.854    22211741.059           0.000    22211741.144  
  22211742.123       -1373.470       -1070.236          43.220          48.430  
 -24956787.032   -19785821.192    20722325.012    20722346.190    20722325.246  
  20722326.261       -1700.954       -1325.416          46.440          54.000  
   -413158.715    -2761027.612    25046060.350           0.000    25046062.561  
  25046068.745       -3742.062       -2915.880          30.990          37.480  
 -13865817.951   -10804524.887    22670363.739    22670376.850    22670364.270  
  22670367.484       -3138.258       -2445.391          42.640          46.840  
 -11078901.558    -8632893.812    22974310.100           0.000    22974311.098  
  22974315.089        2483.373        1935.087          39.470          45.230  
 -10379030.026    -8087538.940    23417138.356    23417174.020    23417138.865  
  23417142.473        3328.647        2593.752          41.140          46.370  
 -23769534.589   -19313985.407    20693044.441           0.000    20693043.989  
  20693045.587        1667.239        1299.148          46.820          52.160  
  -3248235.521    -2531084.233    24796414.022           0.000    24796411.782  
  24796415.723        1789.667        1394.551          34.780          40.140  
 -15334104.478   -14347366.199    21943711.628    21943728.330    21943711.415  
  21943716.825       -1500.547       -1169.260          43.790          49.190  
 -21460139.673   -16722168.487    21261643.253    21261671.420    21261643.802  
  21261645.487        2296.517        1789.493          45.780          51.600  
 15  7 19  1  9  0.0000000  0 10G 2G 5G10G12G13G15G20G21G25G29
 -15347006.537   -12486545.554    22219590.272           0.000    22219590.436  
  22219591.220       -1376.315       -1072.451          43.140          48.220  
 -24905555.281   -19745900.343    20732073.599    20732101.160    20732074.100  
  20732075.273       -1714.493       -1335.968          46.230          53.790  
   -300898.217    -2673552.245    25067423.296           0.000    25067424.559  
  25067430.703       -3741.930       -2915.775          30.740          38.630  
 -13771575.320   -10731089.133    22688298.572    22688319.770    22688298.750  
  22688301.411       -3144.582       -2450.324          43.220          46.800  
 -11153278.065    -8690849.454    22960156.361           0.000    22960157.343  
  22960161.470        2475.020        1928.582          39.110          45.280  
 -10478859.035    -8165327.675    23398140.883    23398153.710    23398141.429  
  23398145.690        3326.566        2592.127          40.650          46.690  
 -23819333.765   -19352789.925    20683567.981           0.000    20683567.401  
  20683569.232        1652.676        1287.799          46.870          52.190  
  -3301923.204    -2572918.621    24786195.809           0.000    24786195.045  
  24786199.114        1789.507        1394.418          34.790          40.450  
 -15288849.189   -14312102.363    21952322.524    21952366.480    21952322.954  
  21952328.780       -1516.473       -1181.668          43.650          49.130  
 -21528908.380   -16775754.480    21248557.463    21248587.690    21248557.510  
  21248559.254        2288.017        1782.871          45.800          51.640  
 15  7 19  1  9 30.0000000  0 10G 2G 5G10G12G13G15G20G21G25G29
 -15305674.694   -12454338.929    22227457.035           0.000    22227456.097  
  22227455.712       -1379.147       -1074.661          43.850          47.920  
 -24853918.603   -19705663.964    20741899.842    20741933.190    20741899.960  
  20741901.474       -1727.953       -1346.458          46.300          53.840  
   -188643.895    -2586080.916    25088786.360           0.000    25088785.824  
  25088791.942       -3741.696       -2915.629          31.520          39.780  
 -13677145.186   -10657507.269    22706268.501    22706307.450    22706268.275  
  22706270.532       -3150.758       -2455.135          43.210          46.430  
 -11227402.864    -8748608.954    22946050.422           0.000    22946051.520  
  22946055.974        2466.587        1922.023          39.220          45.590  
 -10578624.308    -8243066.725    23379156.004    23379180.730    23379156.862  
  23379160.815        3324.433        2590.460          40.620          46.920  
 -23868695.844   -19391253.849    20674174.809           0.000    20674174.125  
  20674176.027        1638.117        1276.454          46.900          52.370  
  -3355606.923    -2614749.936    24775979.879           0.000    24775979.169  
  24775983.682        1789.400        1394.338          34.680          40.190  
 -15243117.867   -14276467.598    21961025.386    21961075.550    21961025.623  
  21961031.014       -1532.269       -1193.977          43.630          49.070  
 -21597421.427   -16829141.248    21235520.068    21235540.590    21235519.918  
  21235521.751        2279.489        1776.224          45.750          51.810  
 15  7 19  1 10  0.0000000  0 10G 2G 5G10G12G13G15G20G21G25G29
 -15264257.189   -12422065.545    22235337.896           0.000    22235337.389  
  22235337.117       -1382.019       -1076.901          42.950          47.760  
 -24801879.053   -19665113.657    20751802.074    20751829.220    20751802.989  
  20751804.240       -1741.356       -1356.901          45.270          53.550  
    -76394.833    -2498615.274    25110140.831           0.000    25110145.449  
  25110151.579       -3741.436       -2915.411          27.360          37.730  
 -13582530.212   -10583781.371    22724273.197    22724279.660    22724273.251  
  22724275.370       -3156.888       -2459.910          42.780          46.510  
 -11301272.896    -8806169.924    22931994.341           0.000    22931994.946  
  22931998.246        2458.040        1915.355          38.730          45.050  
 -10678322.942    -8320753.849    23360184.349    23360204.960    23360184.574  
  23360188.656        3322.134        2588.666          39.550          46.660  
 -23917620.459   -19429376.889    20664864.299           0.000    20664863.818  
  20664865.873        1623.510        1265.072          45.980          52.100  
  -3409286.793    -2656578.246    24765763.428           0.000    24765763.957  
  24765768.291        1789.287        1394.238          33.650          39.810  
 -15196912.688   -14240463.591    21969818.657    21969842.210    21969818.405  
  21969823.541       -1548.047       -1206.267          43.000          48.750  
 -21665676.388   -16882326.902    21222531.647    21222552.380    21222531.447  
  21222533.068        2270.834        1769.481          44.900          51.500  
 15  7 19  1 10 30.0000000  0 10G 2G 5G10G12G13G15G20G21G25G29
 -15222753.513   -12389725.024    22243234.109           0.000    22243234.580  
  22243235.295       -1384.897       -1079.139          43.130          48.080  
 -24749438.797   -19624251.123    20761781.847    20761805.870    20761782.130  
  20761783.351       -1754.650       -1367.263          46.090          53.760  
3954916990.584    -2411156.586    25131504.835           0.000    25131503.732  
  25131509.404       -3741.243       -2915.162          27.770          39.540  
 -13487733.427   -10509913.809    22742311.268    22742346.410    22742312.183  
  22742314.863       -3162.875       -2464.576          43.240          47.060  
 -11374884.909    -8863529.857    22917986.402           0.000    22917987.163  
  22917990.943        2449.395        1908.614          39.520          45.860  
 -10777951.667    -8398386.508    23341224.583    23341264.200    23341225.501  
  23341229.955        3319.756        2586.819          39.800          46.660  
 -23966107.101   -19467158.653    20655637.222           0.000    20655637.092  
  20655639.083        1608.915        1253.702          46.580          52.330  
  -3462963.800    -2698404.344    24755550.054           0.000    24755549.131  
  24755553.505        1789.190        1394.168          34.840          39.790  
 -15150235.982   -14204092.160    21978700.474    21978721.560    21978700.402  
  21978705.265       -1563.726       -1218.493          43.690          48.530  
 -21733671.060   -16935309.730    21209591.879    21209615.180    21209592.440  
  21209593.965        2262.111        1762.684          45.570          51.570  
 15  7 19  1 11  0.0000000  0 10G 2G 5G10G12G13G15G20G21G25G29
 -15181163.665   -12357317.364    22251148.806           0.000    22251149.216  
  22251149.741       -1387.787       -1081.392          43.120          47.880  
 -24696600.713   -19583078.586    20771836.901    20771865.110    20771836.937  
  20771837.972       -1767.890       -1377.577          45.890          53.590  
3954804761.424    -2323706.882    25152861.331           0.000    25152859.908  
  25152865.160       -3741.145       -2914.825          26.310          39.710  
 -13392758.647   -10435907.549    22760384.781    22760400.840    22760385.462  
  22760388.172       -3168.763       -2469.164          42.780          47.220  
 -11448236.074    -8920686.502    22904029.277           0.000    22904029.281  
  22904031.907        2440.648        1901.797          39.600          45.060  
 -10877507.659    -8475962.480    23322280.663    23322307.300    23322280.594  
  23322284.590        3317.275        2584.882          38.990          46.010  
 -24014155.586   -19504598.997    20646494.010           0.000    20646493.470  
  20646495.689        1594.300        1242.309          46.100          52.240  
  -3516638.563    -2740228.723    24745336.964           0.000    24745335.256  
  24745338.649        1789.115        1394.117          33.900          38.910  
 -15103090.270   -14167355.268    21987671.820    21987707.440    21987671.881  
  21987677.285       -1579.313       -1230.630          43.060          48.540  
 -21801403.367   -16988088.107    21196702.464    21196733.030    21196702.942  
  21196704.934        2253.353        1755.856          44.950          51.410  
 15  7 19  1 11 30.0000000  0 10G 2G 5G10G12G13G15G20G21G25G29
 -15139486.630   -12324841.756    22259080.973           0.000    22259080.318  
  22259080.386       -1390.699       -1083.661          43.860          47.760  
 -24643366.707   -19541597.540    20781966.719    20781993.810    20781967.275  
  20781967.929       -1781.053       -1387.832          46.750          53.590  
3975944518.768    -2236267.367    25174218.869           0.000    25174212.916  
  25174219.102       -3749.861       -2914.460          23.450          39.590  
 -13297608.588   -10361764.720    22778491.067    22778519.860    22778491.650  
  22778495.021       -3174.569       -2473.682          43.270          47.960  
 -11521322.849    -8977637.167    22890119.721           0.000    22890120.988  
  22890123.717        2431.772        1894.889          40.110          45.160  
 -10976987.928    -8553479.437    23303348.871    23303363.820    23303349.509  
  23303353.904        3314.702        2582.877          39.510          45.800  
 -24061765.189   -19541697.350    20637433.603           0.000    20637433.455  
  20637435.971        1579.664        1230.905          46.560          52.570  
  -3570311.370    -2782051.568    24735102.969           0.000    24735121.908  
  24735125.236        1789.049        1394.065          35.040          39.600  
 -15055477.716   -14130254.603    21996732.102    21996754.350    21996732.542  
  21996737.716       -1594.846       -1242.737          43.840          48.790  
 -21868870.668   -17040659.974    21183863.953    21183898.400    21183864.430  
  21183866.145        2244.448        1748.920          45.770          51.610  
 15  7 19  1 12  0.0000000  0 10G 2G 5G10G12G13G15G20G21G25G29
 -15097722.545   -12292298.318    22267028.429           0.000    22267027.738  
  22267027.687       -1393.586       -1085.912          42.890          47.580  
 -24589739.368   -19499809.991    20792171.521    20792199.470    20792172.321  
  20792172.982       -1794.103       -1398.005          46.260          53.440  
3975832325.992    -2148839.886    25195565.842           0.000    25195564.075  
  25195569.145       -3739.697       -2914.029          28.300          38.350  
 -13202286.493   -10287487.837    22796631.150    22796663.110    22796631.229  
  22796634.386       -3180.223       -2478.095          42.100          48.000  
 -11594142.428    -9034379.612    22876263.468           0.000    22876263.585  
  22876266.626        2422.838        1887.920          39.590          44.710  
 -11076389.530    -8630935.099    23284433.355    23284458.120    23284434.462  
  23284438.511        3312.047        2580.807          39.370          45.310  
 -24108935.782   -19578453.616    20628458.013           0.000    20628457.334  
  20628459.773        1565.038        1219.509          46.060          52.540  
  -3623982.957    -2823873.491    24724881.373           0.000    24724908.254  
  24724911.939        1789.036        1394.046          33.910          39.570  
 -15007400.864   -14092792.157    22005881.479    22005900.980    22005881.130  
  22005886.587       -1610.264       -1254.748          43.170          48.770  
 -21936070.600   -17093023.501    21171076.671    21171104.190    21171076.936  
  21171078.479        2235.523        1741.965          45.580          51.730  
 15  7 19  1 12 30.0000000  0 10G 2G 5G10G12G13G15G20G21G25G29
 -15055870.961   -12259686.719    22274991.225           0.000    22274991.515  
  22274991.657       -1396.495       -1088.177          43.160          48.020  
 -24535720.920   -19457717.690    20802450.896    20802485.730    20802451.668  
  20802452.387       -1807.087       -1408.119          46.770          53.580  
3993738171.799    -2061425.906    25216914.652           0.000    25216911.910  
  25216916.103       -3739.061       -2913.529          28.150          36.740  
 -13106795.324   -10213079.220    22814802.257    22814825.600    22814801.745  
  22814805.898       -3185.813       -2482.447          41.710          48.330  
 -11666691.699    -9090911.443    22862457.045           0.000    22862457.143  
  22862461.068        2413.788        1880.866          39.460          45.000  
 -11175709.115    -8708326.849    23265533.966    23265576.100    23265534.083  
  23265538.566        3309.270        2578.646          39.750          45.000  
 -24155666.977   -19614867.489    20619564.471           0.000    20619564.683  
  20619567.128        1550.403        1208.102          46.370          52.670  
  -3677653.702    -2865694.749    24714695.464           0.000    24714695.476  
  24714699.218        1789.023        1394.046          34.060          40.470  
 -14958861.938   -14054969.653    22015117.788    22015146.420    22015117.496  
  22015123.380       -1625.627       -1266.723          43.250          48.830  
 -22003000.966   -17145176.966    21158340.745    21158370.360    21158340.866  
  21158342.092        2226.532        1734.958          46.410          52.090  
 15  7 19  1 13  0.0000000  0 11G 2G 5G10G12G13G15G18G20G21G25G29
 -15013931.354   -12227006.531    22282973.024           0.000    22282972.155  
  22282972.585       -1399.467       -1090.495          42.830          47.780  
 -24481313.494   -19415322.282    20812804.646    20812834.350    20812804.701  
  20812805.902       -1820.029       -1418.204          46.600          53.640  
3993626008.428    -1974026.978    25238256.959           0.000    25238255.602  
  25238259.531       -3738.378       -2913.034          28.610          35.900  
 -13011138.308   -10138541.374    22833004.619    22833035.210    22833005.251  
  22833009.095       -3191.298       -2486.725          42.210          48.570  
 -11738967.289    -9147230.002    22848703.261           0.000    22848704.006  
  22848707.057        2404.582        1873.692          40.290          45.210  
 -11274943.640    -8785652.320    23246650.003    23246671.920    23246650.527  
  23246654.423        3306.365        2576.388          39.920          44.290  
   -283773.454      -17797.218    25219878.546           0.000    25219879.366  
  25219885.469        3044.721        2371.343          31.020          20.700  
 -24201958.124   -19650938.474    20610756.243           0.000    20610755.721  
  20610758.000        1535.699        1196.649          46.350          52.620  
  -3731324.116    -2907515.763    24704482.424           0.000    24704481.727  
  24704485.751        1789.020        1394.040          33.730          40.160  
 -14909863.398   -14016789.000    22024442.089    22024467.360    22024441.885  
  22024447.466       -1640.919       -1278.638          43.550          48.820  
 -22069659.464   -17197118.585    21145655.275    21145682.350    21145655.826  
  21145657.175        2217.375        1727.821          46.150          52.080  
 15  7 19  1 13 30.0000000  0 11G 2G 5G10G12G13G15G18G20G21G25G29
 -14971903.296   -12194257.414    22290970.370           0.000    22290969.873  
  22290970.260       -1402.429       -1092.800          42.750          47.640  
 -24426519.750   -19372625.852    20823231.128    20823265.460    20823231.598  
  20823232.921       -1832.892       -1428.226          46.510          53.790  
3993513869.100    -1886644.838    25259594.573           0.000    25259594.663  
  25259599.609       -3737.638       -2912.451          30.170          36.880  
 -12915318.387   -10063876.598    22851237.967    22851268.480    22851238.452  
  22851242.986       -3196.689       -2490.927          41.250          48.060  
 -11810966.078    -9203332.868    22835002.904           0.000    22835003.413  
  22835006.335        2395.305        1866.467          40.340          45.430  
 -11374090.356    -8862909.372    23227781.684    23227785.950    23227782.630  
  23227786.810        3303.396        2574.068          39.350          43.840  
   -375050.218      -67567.746    25202510.858           0.000    25202509.241  
  25202518.839        3040.418        2369.160          35.740          32.470  
 -24247809.072   -19686666.451    20602031.096           0.000    20602030.734  
  20602032.816        1521.019        1185.207          46.300          52.630  
  -3784995.471    -2949337.146    24694268.388           0.000    24694267.986  
  24694272.195        1789.031        1394.053          33.040          39.870  
 -14860407.736   -13978252.150    22033853.757    22033886.910    22033853.509  
  22033858.424       -1656.126       -1290.488          43.580          48.700  
 -22136043.300   -17248846.177    21133023.194    21133049.200    21133023.314  
  21133024.881        2208.182        1720.657          45.920          52.020  
 15  7 19  1 14  0.0000000  0 11G 2G 5G10G12G13G15G18G20G21G25G29
 -14929786.480   -12161439.131    22298984.975           0.000    22298984.820  
  22298985.559       -1405.359       -1095.084          43.610          48.280  
 -24371341.797   -19329630.037    20833731.366    20833764.210    20833731.776  
  20833733.006       -1845.621       -1438.149          46.920          53.910  
3993401751.144    -1799281.071    25280930.703           0.000    25280929.839  
  25280934.230       -3737.260       -2911.784          29.000          36.430  
 -12819338.967    -9989087.513    22869502.974    22869548.280    22869503.241  
  22869507.093       -3201.917       -2495.002          41.950          47.520  
 -11882685.094    -9259217.739    22821355.510           0.000    22821355.749  
  22821358.361        2385.948        1859.180          41.260          45.560  
 -11473145.975    -8940095.441    23208933.978    23208957.820    23208933.771  
  23208936.922        3300.303        2571.662          40.160          44.040  
   -466198.338     -138591.967    25185164.562           0.000    25185163.553  
  25185174.036        3036.105        2365.780          32.780          32.570  
 -24293219.549   -19722051.199    20593389.509           0.000    20593389.194  
  20593391.469        1506.355        1173.784          46.410          52.750  
  -3838666.522    -2991159.035    24684055.140           0.000    24684055.035  
  24684058.540        1789.077        1394.102          32.460          39.610  
 -14810497.277   -13939360.912    22043350.592    22043387.060    22043351.021  
  22043356.221       -1671.226       -1302.255          44.100          48.650  
 -22202150.181   -17300357.965    21120443.095    21120473.050    21120443.729  
  21120444.892        2198.931        1713.449          46.350          52.040  
 15  7 19  1 14 30.0000000  0 11G 2G 5G10G12G13G15G18G20G21G25G29
 -14887580.793   -12128551.606    22307016.192           0.000    22307015.958  
  22307016.997       -1408.340       -1097.409          43.380          48.360  
 -24315782.101   -19286336.760    20844303.248    20844325.370    20844304.248  
  20844305.622       -1858.324       -1448.044          46.800          53.780  
3993289659.761    -1711937.355    25302260.951           0.000    25302260.604  
  25302264.196       -3735.923       -2911.116          31.100          35.920  
 -12723203.270    -9914176.659    22887797.237    22887804.180    22887797.489  
  22887801.164       -3207.094       -2499.034          41.730          47.470  
 -11954121.420    -9314882.302    22807761.254           0.000    22807761.588  
  22807764.475        2376.470        1851.795          40.760          45.380  
 -11572107.463    -9017208.160    23190101.368    23190146.890    23190101.491  
  23190104.790        3297.127        2569.179          39.610          44.310  
   -557216.541     -209514.079    25167843.942           0.000    25167843.489  
  25167853.969        3031.877        2362.345          29.190          32.220  
 -24338189.369   -19757092.583    20584832.172           0.000    20584831.874  
  20584834.097        1491.638        1162.316          46.290          52.800  
  -3892340.252    -3032982.269    24673839.642           0.000    24673840.980  
  24673844.972        1789.146        1394.141          32.510          39.490  
 -14760134.800   -13900117.467    22052934.720    22052957.950    22052934.503  
  22052939.506       -1686.256       -1313.968          43.750          48.320  
 -22267977.776   -17351652.136    21107916.818    21107946.150    21107916.932  
  21107918.196        2189.578        1706.163          46.270          51.990  
 15  7 19  1 15  0.0000000  0 10G 2G 5G12G13G15G18G20G21G25G29
 -14845285.348   -12095594.140    22315064.984           0.000    22315064.810  
  22315065.123       -1411.334       -1099.739          42.720          47.940  
 -24259842.998   -19242747.841    20854948.620    20854974.400    20854949.028  
  20854950.156       -1870.922       -1457.862          46.340          53.540  
 -12626914.323    -9839146.406    22906120.613    22906148.920    22906121.152  
  22906124.517       -3212.138       -2502.959          41.610          47.400  
 -12025271.971    -9370324.227    22794222.580           0.000    22794222.680  
  22794224.878        2366.878        1844.320          41.260          45.160  
 -11670971.542    -9094244.967    23171288.938    23171318.430    23171288.801  
  23171292.176        3293.833        2566.618          40.090          45.210  
   -648100.408     -280332.780    25150548.780           0.000    25150548.776  
  25150559.096        3027.252        2358.898          34.150          36.400  
 -24382717.923   -19791790.118    20576358.252           0.000    20576358.183  
  20576360.306        1476.934        1150.857          46.040          52.690  
  -3946015.891    -3074806.990    24663628.266           0.000    24663627.309  
  24663630.817        1789.209        1394.187          32.530          39.350  
 -14709322.507   -13860523.501    22062604.857    22062628.250    22062603.862  
  22062608.561       -1701.193       -1325.604          43.610          47.970  
 -22333524.080   -17402727.116    21095442.931    21095476.190    21095443.701  
  21095444.831        2180.177        1698.837          45.960          51.790  
 15  7 19  1 15 30.0000000  0 10G 2G 5G12G13G15G18G20G21G25G29
 -14802899.784   -12062566.447    22323131.190           0.000    22323131.120  
  22323130.519       -1414.351       -1102.090          43.510          47.810  
 -24203526.852   -19198865.127    20865664.999    20865696.660    20865665.521  
  20865666.783       -1883.453       -1467.625          46.320          53.510  
 -12530475.043    -9763999.007    22924473.065    22924504.980    22924472.883  
  22924475.970       -3217.103       -2506.834          41.890          46.830  
 -12096133.004    -9425540.518    22780737.063           0.000    22780737.314  
  22780739.851        2357.187        1836.767          41.030          44.830  
 -11769735.485    -9171203.749    23152493.803    23152524.900    23152494.325  
  23152497.616        3290.428        2563.969          40.660          45.670  
   -738851.157     -351047.376    25133279.667           0.000    25133279.195  
  25133288.617        3022.804        2355.418          33.430          34.750  
 -24426804.924   -19826143.589    20567969.042           0.000    20567968.803  
  20567970.857        1462.206        1139.381          46.310          52.750  
  -3999692.775    -3116633.468    24653413.830           0.000    24653412.805  
  24653416.318        1789.303        1394.258          33.660          39.290  
 -14658062.827   -13820580.921    22072358.132    22072390.150    22072358.494  
  22072363.218       -1716.081       -1337.208          44.030          48.220  
 -22398786.741   -17453581.089    21083024.252    21083050.220    21083024.682  
  21083025.843        2170.666        1691.427          46.100          51.880  
 15  7 19  1 16  0.0000000  0 10G 2G 5G12G13G15G18G20G21G25G29
 -14760423.903   -12029468.371    22331213.797           0.000    22331213.470  
  22331213.454       -1417.365       -1104.439          43.500          48.050  
 -24146836.062   -19154690.485    20876453.175    20876483.060    20876453.690  
  20876454.556       -1895.897       -1477.323          46.290          53.300  
 -12433888.779    -9688737.066    22942853.251    22942875.530    22942853.042  
  22942855.384       -3221.950       -2510.607          42.370          46.380  
 -12166702.012    -9480529.294    22767308.690           0.000    22767309.285  
  22767311.232        2347.414        1829.148          41.350          44.990  
 -11868396.003    -9248081.939    23133719.144    23133769.760    23133719.639  
  23133723.092        3286.941        2561.250          40.550          46.070  
   -829467.573     -421656.828    25116035.253           0.000    25116035.386  
  25116044.450        3018.243        2351.891          31.920          33.950  
 -24470450.313   -19860152.946    20559664.097           0.000    20559663.308  
  20559665.077        1447.488        1127.911          46.300          52.690  
  -4053373.215    -3158462.335    24643198.446           0.000    24643197.253  
  24643201.882        1789.385        1394.332          33.640          39.560  
 -14606358.484   -13780291.847    22082196.936    22082224.850    22082197.013  
  22082202.130       -1730.858       -1348.719          43.750          48.210  
 -22463762.960   -17504211.858    21070659.504    21070690.120    21070659.798  
  21070661.493        2161.075        1683.954          45.880          52.060  
 15  7 19  1 16 30.0000000  0 10G 2G 5G12G13G15G18G20G21G25G29
 -14717857.041   -11996299.413    22339314.045           0.000    22339313.845  
  22339314.263       -1420.407       -1106.808          43.400          48.330  
 -24089772.796   -19110225.596    20887311.314    20887337.250    20887312.137  
  20887313.548       -1908.286       -1486.976          46.140          53.390  
 -12337158.389    -9613362.813    22961259.642    22961282.590    22961259.895  
  22961262.710       -3226.713       -2514.310          42.220          46.150  
 -12236975.846    -9535288.036    22753937.281           0.000    22753937.022  
  22753939.291        2337.507        1821.432          41.640          45.750  
 -11966950.263    -9324877.335    23114963.894    23114986.340    23114965.568  
  23114969.066        3283.345        2558.440          40.690          46.610  
   -919946.889     -492159.888    25098817.830           0.000    25098817.646  
  25098826.738        3013.684        2348.343          34.450          35.190  
 -24513653.786   -19893817.952    20551441.657           0.000    20551441.729  
  20551443.805        1432.752        1116.432          45.990          52.730  
  -4107057.135    -3200293.910    24632981.652           0.000    24632981.395  
  24632986.144        1789.540        1394.428          34.150          39.150  
 -14554211.821   -13739658.110    22092119.818    22092150.070    22092120.246  
  22092126.081       -1745.551       -1360.169          43.430          48.520  
 -22528450.477   -17554617.669    21058349.991    21058364.830    21058350.090  
  21058352.026        2151.426        1676.435          45.790          52.230  
 15  7 19  1 17  0.0000000  0 10G 2G 5G12G13G15G18G20G21G25G29
 -14675198.764   -11963059.223    22347431.358           0.000    22347431.222  
  22347431.926       -1423.468       -1109.198          43.400          48.300  
 -24032339.601   -19065472.460    20898240.989    20898273.910    20898241.529  
  20898242.877       -1920.562       -1496.546          46.360          53.360  
 -12240287.266    -9537878.898    22979692.706    22979728.240    22979694.028  
  22979696.707       -3231.353       -2517.938          42.730          45.810  
 -12306951.292    -9589814.290    22740619.646           0.000    22740619.778  
  22740622.723        2327.514        1813.641          41.000          45.700  
 -12065395.001    -9401587.378    23096232.869    23096253.090    23096232.587  
  23096235.873        3279.628        2555.550          41.230          47.270  
  -1010288.348     -562555.465    25081624.625           0.000    25081625.514  
  25081635.490        3009.073        2344.718          32.830          38.380  
 -24556414.788   -19927138.177    20543304.593           0.000    20543304.351  
  20543306.915        1417.993        1104.928          46.050          52.890  
  -4160745.100    -3242128.639    24622766.131           0.000    24622764.994  
  24622769.030        1789.671        1394.555          34.670          39.010  
 -14501625.348   -13698681.666    22102127.279    22102158.210    22102127.062  
  22102132.470       -1760.170       -1371.560          43.810          48.300  
 -22592846.815   -17604796.592    21046095.275    21046132.960    21046096.204  
  21046097.996        2141.659        1668.824          46.100          52.440  
 15  7 19  1 17 30.0000000  0 10G 2G 5G12G13G15G18G20G21G25G29
 -14632449.033   -11929747.760    22355566.854           0.000    22355566.302  
  22355566.871       -1426.540       -1111.586          43.610          48.180  
 -23974538.512   -19020432.650    20909240.057    20909267.370    20909240.678  
  20909241.778       -1932.799       -1506.077          46.490          53.290  
 -12143278.755    -9462287.912    22998153.517    22998159.470    22998154.369  
  22998156.548       -3235.885       -2521.466          42.480          45.230  
 -12376625.403    -9644105.723    22727360.029           0.000    22727361.469  
  22727364.847        2317.397        1805.766          41.280          46.020  
 -12163727.161    -9478209.693    23077520.189    23077557.640    23077520.218  
  23077523.677        3275.816        2552.580          41.410          47.420  
  -1100491.244     -632842.988    25064461.216           0.000    25064460.163  
  25064470.225        3004.415        2341.100          33.220          37.270  
 -24598733.343   -19960113.636    20535251.590           0.000    20535251.459  
  20535253.899        1403.235        1093.429          46.200          53.050  
  -4214437.708    -3283966.997    24612548.119           0.000    24612548.153  
  24612551.863        1789.828        1394.669          36.110          39.070  
 -14448601.902   -13657364.721    22112217.809    22112253.180    22112217.723  
  22112222.936       -1774.716       -1382.896          44.270          48.640  
 -22656949.797   -17654746.929    21033897.561    21033924.940    21033897.935  
  21033899.167        2131.855        1661.186          46.290          52.410  
 15  7 19  1 18  0.0000000  0 10G 2G 5G12G13G15G18G20G21G25G29
 -14589607.229   -11896364.544    22363718.306           0.000    22363718.594  
  22363719.511       -1429.620       -1113.988          43.300          48.150  
 -23916372.652   -18975108.600    20920308.752    20920341.350    20920309.555  
  20920310.781       -1944.942       -1515.536          46.460          53.380  
 -12046135.565    -9386591.994    23016639.583    23016664.340    23016639.573  
  23016642.716       -3240.339       -2524.931          42.260          45.480  
 -12445995.043    -9698159.924    22714159.908           0.000    22714160.865  
  22714163.539        2307.206        1797.818          41.370          45.520  
 -12261943.759    -9554741.959    23058828.120    23058880.480    23058829.484  
  23058833.830        3271.902        2549.532          41.280          47.520  
  -1190554.583     -703021.390    25047323.147           0.000    25047322.262  
  25047331.655        2999.723        2337.435          29.950          37.310  
 -24640609.428   -19992744.318    20527282.791           0.000    20527282.767  
  20527285.235        1388.480        1081.931          46.220          53.170  
  -4268135.214    -3325809.167    24602330.801           0.000    24602330.301  
  24602333.172        1789.982        1394.790          36.640          39.280  
 -14395143.881   -13615709.156    22122390.030    22122397.080    22122390.492  
  22122395.338       -1789.155       -1394.144          44.090          48.470  
 -22720757.280   -17704467.010    21021754.992    21021784.710    21021755.616  
  21021756.981        2121.952        1653.468          46.220          52.490  
 15  7 19  1 18 30.0000000  0 10G 2G 5G12G13G15G18G20G21G25G29
 -14546672.582   -11862908.998    22371889.374           0.000    22371889.136  
  22371889.510       -1432.703       -1116.389          43.020          48.070  
 -23857843.902   -18929501.789    20931446.760    20931481.370    20931447.157  
  20931448.253       -1956.990       -1524.927          46.320          53.300  
 -11948860.245    -9310793.118    23035151.388    23035191.790    23035151.123  
  23035153.716       -3244.681       -2528.321          42.110          45.670  
 -12515057.015    -9751974.387    22701018.371           0.000    22701018.166  
  22701021.885        2296.900        1789.792          40.870          45.930  
 -12360041.265    -9631181.441    23040161.326    23040202.990    23040162.272  
  23040166.149        3267.893        2546.405          40.910          47.220  
  -1280475.060     -773089.212    25030209.359           0.000    25030209.826  
  25030219.600        2994.994        2333.743          28.920          39.560  
 -24682042.463   -20025029.761    20519399.078           0.000    20519398.506  
  20519400.869        1373.715        1070.426          46.160          53.120  
  -4321838.238    -3367655.623    24592110.898           0.000    24592110.769  
  24592113.587        1790.191        1394.954          36.050          39.180  
 -14341253.666   -13573716.817    22132644.612    22132662.830    22132644.772  
  22132650.779       -1803.515       -1405.338          43.290          48.630  
 -22784266.391   -17753954.596    21009669.337    21009697.590    21009670.102  
  21009671.513        2111.985        1645.698          45.850          52.400  
 15  7 19  1 19  0.0000000  0 10G 2G 5G12G13G15G18G20G21G25G29
 -14503645.019   -11829381.033    22380078.113           0.000    22380077.550  
  22380077.390       -1435.812       -1118.815          43.530          47.840  
 -23798955.006   -18883614.337    20942652.693    20942678.100    20942653.269  
  20942654.102       -1968.939       -1534.238          46.120          53.140  
 -11851456.782    -9234894.392    23053685.821    23053725.480    23053686.421  
  23053689.590       -3248.896       -2531.600          41.780          46.400  
 -12583808.519    -9805546.916    22687935.120           0.000    22687935.436  
  22687938.703        2286.513        1781.699          40.350          45.900  
 -12458017.171    -9707526.167    23021517.546    23021533.750    23021517.830  
  23021521.586        3263.797        2543.217          40.650          47.030  
  -1370254.847     -843045.799    25013130.414           0.000    25013125.873  
  25013134.476        2990.232        2330.032          29.910          38.120  
 -24723032.786   -20056970.236    20511598.896           0.000    20511598.311  
  20511600.399        1358.964        1058.930          46.130          53.120  
  -4375547.439    -3409506.891    24581890.972           0.000    24581889.813  
  24581893.676        1790.401        1395.114          36.180          39.150  
 -14286934.149   -13531389.959    22142981.474    22143011.720    22142981.830  
  22142987.268       -1817.771       -1416.449          43.470          48.480  
 -22847475.204   -17803208.184    20997640.624    20997669.090    20997641.161  
  20997643.141        2101.928        1637.862          45.570          52.350  
 15  7 19  1 19 30.0000000  0 10G 2G 5G12G13G15G18G20G21G25G29
 -14460523.898   -11795780.165    22388283.697           0.000    22388283.348  
  22388282.850       -1438.943       -1121.255          43.430          47.620  
 -23739707.898   -18837447.766    20953927.151    20953944.500    20953927.462  
  20953928.680       -1980.843       -1543.512          46.240          53.220  
 -11753927.927    -9158897.971    23072244.671    23072277.810    23072245.429  
  23072249.010       -3253.024       -2534.818          41.540          47.020  
 -12652246.438    -9858875.097    22674912.007           0.000    22674912.653  
  22674915.500        2275.987        1773.493          40.950          46.300  
 -12555867.852    -9783773.322    23002895.927    23002924.460    23002897.279  
  23002901.146        3259.570        2539.914          39.980          47.260  
    -17979.203     -912889.988    24996057.885           0.000    24996060.378  
  24996077.443        3029.154        2326.254          18.000          37.940  
 -24763579.785   -20088565.262    20503882.526           0.000    20503882.197  
  20503884.335        1344.172        1047.403          46.100          53.080  
  -4429262.891    -3451363.042    24571668.337           0.000    24571668.355  
  24571671.252        1790.608        1395.283          36.470          39.060  
 -14232187.763   -13488730.468    22153399.535    22153430.770    22153399.886  
  22153405.164       -1831.968       -1427.510          43.780          48.530  
 -22910380.882   -17852225.565    20985670.160    20985710.210    20985670.723  
  20985672.850        2091.764        1629.947          45.800          52.600  
 15  7 19  1 20  0.0000000  0 10G 2G 5G12G13G15G18G20G21G25G29
 -14417308.805   -11762106.067    22396506.038           0.000    22396506.121  
  22396506.565       -1442.062       -1123.688          42.590          47.400  
 -23680105.499   -18791004.347    20965268.504    20965300.650    20965268.816  
  20965270.683       -1992.642       -1552.707          45.690          53.100  
 -11656277.202    -9082806.583    23090827.608    23090868.550    23090827.762  
  23090831.365       -3257.021       -2537.934          40.650          47.030  
 -12720367.695    -9911956.508    22661948.414           0.000    22661948.548  
  22661952.360        2265.399        1765.243          40.280          46.410  
 -12653590.391    -9859920.613    22984299.924    22984325.900    22984300.750  
  22984305.229        3255.251        2536.559          39.730          47.180  
    -85022.626     -982621.076    24979037.034           0.000    24979038.348  
  24979048.231        2981.027        2322.484          28.430          38.440  
 -24803683.683   -20119815.012    20496250.688           0.000    20496250.867  
  20496252.735        1329.430        1035.919          45.930          52.950  
  -4482985.498    -3493224.776    24561444.794           0.000    24561444.764  
  24561448.834        1790.877        1395.492          35.800          39.520  
 -14177017.250   -13445740.491    22163897.747    22163915.730    22163898.221  
  22163903.660       -1846.057       -1438.481          43.250          48.350  
 -22972981.182   -17901004.986    20973758.002    20973789.800    20973758.211  
  20973760.371        2081.568        1622.000          45.490          52.560  
 15  7 19  1 20 30.0000000  0 10G 2G 5G12G13G15G18G20G21G25G29
 -14373999.482   -11728358.545    22404747.999           0.000    22404747.011  
  22404748.057       -1445.208       -1126.139          42.670          47.830  
 -23620150.040   -18744285.821    20976677.654    20976702.600    20976678.449  
  20976679.926       -2004.365       -1561.844          46.260          53.130  
 -11558507.577    -9006622.564    23109432.647    23109461.660    23109432.500  
  23109436.249       -3260.921       -2540.978          40.510          47.050  
 -12788169.448    -9964788.966    22649046.409           0.000    22649047.062  
  22649050.349        2254.713        1756.915          40.820          46.920  
 -12751181.930    -9935965.834    22965730.212    22965744.250    22965730.247  
  22965733.491        3250.846        2533.121          40.800          46.670  
   -174365.436    -1052238.036    24962037.274           0.000    24962036.278  
  24962044.807        2975.641        2318.660          30.140          35.710  
 -24843344.441   -20150719.458    20488704.310           0.000    20488703.916  
  20488705.694        1314.643        1024.396          46.500          53.230  
  -4536715.814    -3535092.518    24551220.936           0.000    24551220.464  
  24551224.259        1791.157        1395.698          36.210          40.450  
 -14121425.354   -13402422.165    22174477.055    22174514.330    22174477.005  
  22174482.741       -1860.038       -1449.383          43.330          48.620  
 -23035273.950   -17949544.777    20961903.845    20961931.660    20961904.441  
  20961906.281        2071.289        1613.991          46.030          52.680  
 15  7 19  1 21  0.0000000  0 10G 2G 5G12G13G15G18G20G21G25G29
 -14330594.990   -11694536.874    22413007.036           0.000    22413006.926  
  22413007.556       -1448.411       -1128.630          42.500          47.530  
 -23559843.482   -18697293.699    20988153.923    20988175.990    20988154.463  
  20988155.732       -2016.040       -1570.942          45.930          52.920  
 -11460621.889    -8930348.105    23128059.344    23128074.170    23128059.189  
  23128063.157       -3264.786       -2543.986          39.600          46.460  
 -12855648.010   -10017369.582    22636205.169           0.000    22636206.384  
  22636209.381        2243.851        1748.455          40.690          46.650  
 -12848639.223   -10011906.479    22947183.176    22947236.920    22947184.567  
  22947187.523        3246.282        2529.572          40.660          45.880  
   -263559.973    -1121739.720    24945063.313           0.000    24945063.738  
  24945071.857        2970.666        2314.790          32.610          36.580  
 -24882561.267   -20181277.985    20481241.507           0.000    20481240.883  
  20481242.935        1299.827        1012.852          46.030          53.210  
  -4590454.063    -3576966.414    24540994.166           0.000    24540994.554  
  24540998.273        1791.403        1395.893          35.830          40.960  
 -14065414.425   -13358777.314    22185136.124    22185160.550    22185135.736  
  22185141.566       -1873.991       -1460.252          43.250          48.800  
 -23097256.548   -17997842.874    20950109.546    20950132.150    20950109.742  
  20950111.257        2060.889        1605.887          45.970          52.510  
 15  7 19  1 21 30.0000000  0 10G 2G 5G12G13G15G18G20G21G25G29
 -14287095.307   -11660641.014    22421285.382           0.000    22421285.287  
  22421285.297       -1451.560       -1131.085          43.020          47.560  
 -23499188.294   -18650029.926    20999696.581    20999722.660    20999696.793  
  20999697.755       -2027.614       -1579.958          46.410          53.020  
 -11362622.991    -8853985.430    23146708.009    23146745.750    23146708.618  
  23146711.717       -3268.460       -2546.850          40.980          46.550  
 -12922800.954   -10069696.466    22623427.396           0.000    22623427.409  
  22623430.233        2232.984        1739.983          40.850          46.470  
 -12945958.980   -10087739.936    22928664.785    22928680.370    22928665.071  
  22928668.199        3241.667        2525.970          41.220          46.190  
   -352605.774    -1191125.485    24928118.405           0.000    24928118.078  
  24928127.236        2965.693        2310.909          35.300          36.620  
 -24921334.519   -20211490.869    20473862.618           0.000    20473862.510  
  20473864.660        1285.058        1001.343          46.460          53.340  
  -4644200.773    -3618846.916    24530765.908           0.000    24530767.125  
  24530770.255        1791.722        1396.141          36.750          41.190  
 -14008987.256   -13314808.130    22195873.240    22195888.560    22195873.341  
  22195879.197       -1887.803       -1471.016          43.400          48.940  
 -23158926.727   -18045897.536    20938374.137    20938404.110    20938374.731  
  20938375.615        2050.444        1597.745          46.800          52.610  
 15  7 19  1 22  0.0000000  0 10G 2G 5G12G13G15G18G20G21G25G29
 -14243499.909   -11626670.570    22429580.848           0.000    22429580.845  
  22429581.379       -1454.791       -1133.606          42.470          47.580  
 -23438187.297   -18602496.684    21011304.599    21011331.600    21011305.021  
  21011306.206       -2039.121       -1588.926          46.470          53.100  
 -11264514.698    -8777537.510    23165377.520    23165416.900    23165377.906  
  23165381.551       -3272.087       -2549.680          41.030          46.740  
 -12989625.382   -10121767.375    22610709.033           0.000    22610710.267  
  22610713.653        2221.942        1731.381          40.220          46.000  
 -13043138.091   -10163463.792    22910172.321    22910211.870    22910172.260  
  22910175.122        3236.910        2522.265          41.620          45.600  
   -441501.363    -1260394.264    24911200.778           0.000    24911200.823  
  24911209.981        2960.666        2306.988          33.100          35.360  
 -24959664.058   -20241358.008    20466569.303           0.000    20466568.789  
  20466570.674        1270.233         989.793          46.400          53.310  
  -4697956.622    -3660734.552    24520537.309           0.000    24520537.542  
  24520540.832        1791.990        1396.355          36.210          41.860  
 -13952146.589   -13270516.749    22206690.210    22206714.920    22206689.999  
  22206695.440       -1901.564       -1481.732          43.380          48.840  
 -23220282.092   -18093706.887    20926699.318    20926725.490    20926699.183  
  20926700.096        2039.881        1589.517          46.700          52.660  
 15  7 19  1 22 30.0000000  0 10G 2G 5G12G13G15G18G20G21G25G29
 -14199808.161   -11592625.049    22437894.332           0.000    22437895.308  
  22437895.873       -1457.992       -1136.096          42.780          47.920  
 -23376842.540   -18554695.580    21022978.046    21023008.350    21022978.653  
  21022979.857       -2050.514       -1597.802          46.750          53.170  
 -11166299.237    -8701006.079    23184068.174    23184097.810    23184068.253  
  23184071.533       -3275.577       -2552.393          41.750          46.660  
 -13056117.904   -10173579.657    22598057.383           0.000    22598057.727  
  22598060.387        2210.855        1722.742          40.930          46.030  
 -13140173.405   -10239075.619    22891707.093    22891714.520    22891707.612  
  22891709.927        3232.080        2518.499          42.380          45.890  
   -530245.485    -1329545.014    24894313.427           0.000    24894313.135  
  24894322.957        2955.603        2303.069          35.930          34.950  
 -24997549.710   -20270879.262    20459359.875           0.000    20459359.386  
  20459361.156        1255.466         978.285          46.520          53.400  
  -4751721.823    -3702629.452    24510307.215           0.000    24510305.938  
  24510309.792        1792.344        1396.628          35.310          42.040  
 -13894895.005   -13225905.171    22217585.207    22217621.380    22217584.755  
  22217590.014       -1915.194       -1492.356          43.860          48.920  
 -23281320.083   -18141268.928    20915083.715    20915118.360    20915083.959  
  20915085.030        2029.299        1581.271          46.870          52.850  
 15  7 19  1 23  0.0000000  0 10G 2G 5G12G13G15G18G20G21G25G29
 -14156020.145   -11558504.524    22446228.600           0.000    22446227.690  
  22446228.394       -1461.227       -1138.615          42.360          47.780  
 -23315156.808   -18506628.781    21034716.721    21034747.390    21034716.911  
  21034718.425       -2061.852       -1606.641          46.260          53.080  
 -11067980.362    -8624394.074    23202777.859    23202785.240    23202777.231  
  23202781.131       -3278.994       -2555.054          41.140          46.620  
 -13122275.517   -10225130.970    22585468.174           0.000    22585468.354  
  22585470.537        2199.628        1714.000          40.990          45.960  
 -13237061.878   -10314573.012    22873268.742    22873304.760    22873269.571  
  22873272.763        3227.120        2514.641          41.920          46.200  
   -618837.169    -1398577.003    24877454.365           0.000    24877454.590  
  24877463.624        2950.497        2299.065          36.160          33.790  
 -25034991.686   -20300054.795    20452234.072           0.000    20452234.001  
  20452236.220        1240.676         966.758          46.120          53.400  
  -4805496.988    -3744532.115    24500072.742           0.000    24500072.350  
  24500076.647        1792.676        1396.894          34.720          42.310  
 -13837235.372   -13180975.633    22228557.034    22228583.300    22228556.945  
  22228562.656       -1928.753       -1502.923          43.330          48.830  
 -23342038.640   -18188582.066    20903528.672    20903564.330    20903529.388  
  20903530.747        2018.590        1572.927          46.640          52.840  
 15  7 19  1 23 30.0000000  0 10G 2G 5G12G13G15G18G20G21G25G29
 -14112134.735   -11524308.105    22454577.917           0.000    22454578.289  
  22454579.156       -1464.470       -1141.143          42.080          47.350  
 -23253132.491   -18458298.154    21046519.699    21046541.320    21046519.760  
  21046520.872       -2073.094       -1615.397          46.380          52.760  
 -10969561.311    -8547704.017    23221505.808    23221543.350    23221505.913  
  23221509.846       -3282.273       -2557.610          41.670          46.340  
 -13188095.476   -10276419.190    22572942.423           0.000    22572942.840  
  22572946.338        2188.344        1705.205          41.190          46.480  
 -13333800.460   -10389953.611    22854861.378    22854884.230    22854861.559  
  22854863.644        3222.095        2510.721          42.670          46.200  
   -707275.224    -1467489.381    24860625.660           0.000    24860625.657  
  24860632.952        2945.356        2295.068          38.010          32.720  
 -25071990.202   -20328884.772    20445193.698           0.000    20445193.738  
  20445195.493        1225.901         955.243          46.310          53.430  
  -4859282.942    -3786443.181    24489836.827           0.000    24489837.913  
  24489841.597        1793.060        1397.186          35.710          42.490  
 -13779170.471   -13135730.304    22239605.358    22239626.060    22239605.945  
  22239612.189       -1942.224       -1513.417          43.130          48.780  
 -23402435.486   -18235644.518    20892035.641    20892067.120    20892035.950  
  20892037.669        2007.841        1564.551          46.510          53.020  
 15  7 19  1 24  0.0000000  0 10G 2G 5G12G13G15G18G20G21G25G29
 -14068151.616   -11490035.539    22462948.639           0.000    22462948.334  
  22462949.152       -1467.734       -1143.693          42.250          47.320  
 -23190771.832   -18409705.439    21058385.631    21058403.080    21058386.532  
  21058387.813       -2084.258       -1624.099          46.130          52.650  
 -10871044.609    -8470937.852    23240252.742    23240284.850    23240253.162  
  23240256.566       -3285.482       -2560.114          41.640          45.720  
 -13253574.888   -10327442.037    22560482.506           0.000    22560482.767  
  22560485.303        2176.929        1696.309          41.150          46.150  
 -13430385.914   -10465214.891    22836480.841    22836518.190    22836481.402  
  22836484.282        3216.925        2506.690          41.830          46.680  
   -795558.043    -1536279.896    24843825.570           0.000    24843825.464  
  24843832.688        2940.149        2291.007          35.780          31.840  
 -25108544.951   -20357368.960    20438237.956           0.000    20438237.452  
  20438239.349        1211.091         943.707          45.970          53.410  
  -4913079.896    -3828362.824    24479602.178           0.000    24479600.513  
  24479604.178        1793.406        1397.458          35.600          41.910  
 -13720702.874   -13090171.187    22250732.063    22250760.720    22250732.126  
  22250738.363       -1955.602       -1523.841          43.160          48.650  
 -23462508.034   -18282454.274    20880603.978    20880637.600    20880604.776  
  20880605.975        1996.988        1556.092          46.290          52.900  
 15  7 19  1 24 30.0000000  0 10G 2G 5G12G13G15G18G20G21G25G29
 -14024070.316   -11455686.462    22471336.732           0.000    22471337.284  
  22471337.415       -1471.013       -1146.246          43.170          47.500  
 -23128077.564   -18360852.774    21070316.050    21070343.630    21070316.720  
  21070317.895       -2095.345       -1632.736          46.520          52.740  
 -10772433.911    -8394098.430    23259017.170    23259051.670    23259018.101  
  23259021.392       -3288.554       -2562.512          42.140          45.440  
 -13318710.755   -10378197.203    22548087.299           0.000    22548087.493  
  22548089.845        2165.427        1687.344          41.580          46.190  
 -13526815.139   -10540354.424    22818131.290    22818153.770    22818131.578  
  22818134.514        3211.669        2502.592          42.020          47.250  
   -883684.699    -1604949.675    24827055.607           0.000    24827055.724  
  24827063.005        2934.938        2286.951          36.150          33.120  
 -25144655.983   -20385507.396    20431365.863           0.000    20431365.726  
  20431367.753        1196.300         932.183          46.400          53.690  
  -4966888.089    -3870291.213    24469359.626           0.000    24469360.788  
  24469364.539        1793.807        1397.767          35.590          41.960  
 -13661835.455   -13044300.519    22261935.049    22261966.820    22261934.674  
  22261940.128       -1968.882       -1534.193          43.530          48.590  
 -23522254.006   -18329009.556    20869235.575    20869264.980    20869235.704  
  20869237.027        1986.059        1547.581          46.860          53.290  
 15  7 19  1 25  0.0000000  0 10G 2G 5G12G13G15G18G20G21G25G29
 -13979890.539   -11421260.666    22479744.431           0.000    22479744.402  
  22479744.671       -1474.306       -1148.805          43.110          47.570  
 -23065051.836   -18311741.822    21082309.783    21082340.930    21082310.333  
  21082311.222       -2106.345       -1641.309          46.560          52.710  
 -10673732.186    -8317188.089    23277799.705    23277860.360    23277800.266  
  23277803.669       -3291.541       -2564.837          41.210          45.110  
 -13383499.880   -10428682.164    22535757.990           0.000    22535758.024  
  22535761.064        2153.819        1678.298          41.520          46.250  
 -13623085.440   -10615370.121    22799811.284    22799846.540    22799811.821  
  22799814.861        3206.329        2498.433          41.800          47.660  
   -971654.277    -1673497.024    24810314.761           0.000    24810314.726  
  24810323.363        2929.687        2282.843          34.180          35.160  
 -25180323.075   -20413299.907    20424579.073           0.000    20424578.684  
  20424580.505        1181.512         920.658          46.550          53.690  
  -5020708.217    -3912228.895    24459117.748           0.000    24459119.082  
  24459123.084        1794.211        1398.089          35.460          41.310  
 -13602570.886   -12998120.379    22273211.632    22273237.840    22273211.908  
  22273217.987       -1982.075       -1544.473          43.620          48.600  
 -23581670.748   -18375308.291    20857928.339    20857960.150    20857928.910  
  20857930.117        1975.053        1539.002          46.790          53.280  
 15  7 19  1 25 30.0000000  0 10G 2G 5G12G13G15G18G20G21G25G29
 -13935611.467   -11386757.501    22488171.323           0.000    22488170.492  
  22488170.627       -1477.641       -1151.410          42.300          47.190  
 -23001696.869   -18262374.321    21094366.103    21094393.310    21094366.437  
  21094367.561       -2117.318       -1649.854          45.910          52.730  
 -10574941.729    -8240208.618    23296599.114    23296655.250    23296598.828  
  23296603.009       -3294.473       -2567.118          39.220          44.500  
 -13447939.462   -10478894.760    22523495.798           0.000    22523496.450  
  22523498.709        2142.103        1669.172          41.050          46.340  
 -13719193.111   -10690259.093    22781523.099    22781557.090    22781522.875  
  22781526.196        3200.823        2494.145          40.730          47.720  
  -1059465.002    -1741920.599    24793604.552           0.000    24793604.434  
  24793612.237        2924.346        2278.689          31.160          35.640  
 -25215546.416   -20440746.646    20417876.264           0.000    20417876.047  
  20417877.634        1166.705         909.121          45.900          53.560  
  -5074540.408    -3954175.954    24448875.235           0.000    24448874.872  
  24448878.625        1794.605        1398.385          34.090          40.890  
 -13542911.855   -12951632.875    22284564.827    22284600.590    22284564.874  
  22284570.881       -1995.198       -1554.697          43.120          48.470  
 -23640756.140   -18421348.832    20846685.519    20846702.750    20846685.116  
  20846686.413        1963.948        1530.348          46.020          52.990  
 15  7 19  1 26  0.0000000  0 10G 2G 5G12G13G15G18G20G21G25G29
 -13891232.921   -11352176.819    22496615.691           0.000    22496615.572  
  22496615.462       -1480.959       -1153.994          43.210          47.320  
 -22938015.146   -18212752.206    21106484.404    21106520.600    21106484.545  
  21106485.794       -2128.163       -1658.308          46.630          52.820  
 -10476066.353    -8163162.982    23315415.051    23315433.200    23315414.761  
  23315418.099       -3297.259       -2569.290          40.270          43.660  
 -13512026.369   -10528832.527    22511299.805           0.000    22511300.346  
  22511303.241        2130.295        1659.968          41.370          46.370  
 -13815135.008   -10765018.876    22763264.911    22763305.420    22763265.512  
  22763269.052        3195.231        2489.788          41.060          48.010  
  -1147115.653    -1810219.863    24776926.154           0.000    24776924.742  
  24776932.348        2918.996        2274.534          28.590          35.000  
 -25250325.990   -20467847.587    20411257.509           0.000    20411257.483  
  20411259.327        1151.908         897.590          46.340          53.760  
  -5128385.435    -3996133.021    24438627.369           0.000    24438628.322  
  24438632.206        1795.032        1398.723          34.940          41.120  
 -13482861.167   -12904840.169    22295992.178    22296024.970    22295992.392  
  22295998.356       -2008.210       -1564.838          44.030          48.680  
 -23699507.828   -18467129.350    20835504.980    20835529.980    20835505.044  
  20835506.382        1952.775        1521.642          46.730          53.290  
 15  7 19  1 26 30.0000000  0 10G 2G 5G12G13G15G18G20G21G25G29
 -13846754.396   -11317518.232    22505080.153           0.000    22505079.385  
  22505079.234       -1484.284       -1156.585          43.030          47.190  
 -22874009.436   -18162877.626    21118664.771    21118692.090    21118664.987  
  21118665.980       -2138.893       -1666.669          46.830          52.820  
 -10377108.447    -8086052.990    23334246.772    23334261.640    23334246.225  
  23334248.880       -3299.916       -2571.362          40.020          43.540  
 -13575757.984   -10578493.473    22499172.042           0.000    22499172.861  
  22499175.857        2118.433        1650.726          41.900          46.560  
 -13910908.139   -10839647.174    22745038.588    22745075.230    22745039.524  
  22745043.872        3189.592        2485.391          41.090          48.070  
  -1234607.964    -1878393.713    24760274.301           0.000    24760275.821  
  24760282.477        2913.638        2270.365          28.000          36.260  
 -25284661.900   -20494602.820    20404723.745           0.000    20404723.542  
  20404725.273        1137.147         886.087          46.210          53.710  
  -5182243.839    -4038100.503    24428379.263           0.000    24428379.707  
  24428383.065        1795.509        1399.102          34.390          40.700  
 -13422421.685   -12857744.515    22307494.481    22307519.590    22307493.993  
  22307499.434       -2021.097       -1574.878          44.160          48.370  
 -23757923.330   -18512647.899    20824388.505    20824421.000    20824388.893  
  20824390.297        1941.556        1512.905          46.570          53.280  
