     2.10           OBSERVATION DATA    MIXED               RINEX VERSION / TYPE
RinEdit                                 06/14/2017 16:28:43 PGM / RUN BY / DATE
txau                                                        MARKER NAME
                                                            MARKER NUMBER
                                                            OBSERVER / AGENCY
4725K06326          TRIMBLE NETR5       Nav  4.03   Boot  3.REC # / TYPE / VERS
                    TRM55971.00                             ANT # / TYPE
  -743773.7423 -5460645.9227  3200347.8234                  APPROX POSITION XYZ
        0.0000        0.0000        0.0000                  ANTENNA: DELTA H/E/N
     9    C1    P1    P2    L1    L2    S1    S2    D1    D2# / TYPES OF OBSERV
     1     1                                                WAVELENGTH FACT L1/2
     5.000                                                  INTERVAL
  2012     2    16     7    20    0.0000000     GPS         TIME OF FIRST OBS
     0                                                      RCV CLOCK OFFS APPL
                                                            END OF HEADER
 12  2 16  7 22 15.0000000  0  1G15
  25304467.711           0.000    25304469.621   132975856.562 4 103617574.78845
        38.000          16.000        1382.336        1077.145  
 12  2 16  7 22 20.0000000  0  1G15
  25303154.555           0.000    25303154.711   132968950.195 5 103612193.11745
        40.000          17.000        1380.074        1075.383  
 12  2 16  7 22 25.0000000  0  1G15
  25301843.617           0.000    25301843.117   132962056.390 5 103606821.30345
        41.000          19.000        1377.539        1073.407  
 12  2 16  7 22 30.0000000  0  1G15
  25300532.273           0.000    25300534.262   132955174.868 5 103601459.06945
        40.000          20.000        1374.961        1071.398  
 12  2 16  7 22 35.0000000  0  1G15
  25299225.484           0.000    25299227.359   132948305.624 5 103596106.39746
        41.000          22.000        1372.684        1069.624  
 12  2 16  7 22 40.0000000  0  1G15
  25297921.883           0.000    25297922.988   132941448.751 5 103590763.36746
        42.000          24.000        1370.070        1067.587  
 12  2 16  7 22 45.0000000  0  1G15
  25296618.242           0.000    25296621.266   132934604.049 5 103585429.83946
        40.000          24.000        1367.574        1065.642  
 12  2 16  7 22 50.0000000  0  1G15
  25295318.867           0.000    25295321.188   132927772.246 4 103580106.36046
        38.000          22.000        1365.086        1063.703  
 12  2 16  7 22 55.0000000  0  1G15
  25294020.719           0.000    25294023.625   132920952.576 4 103574792.35046
        38.000          25.000        1362.711        1061.853  
 12  2 16  7 23  0.0000000  0  1G15
  25292725.008           0.000    25292728.582   132914145.600 4 103569488.20046
        38.000          24.000        1360.223        1059.914  
 12  2 16  7 23  5.0000000  0  1G15
  25291431.695           0.000    25291435.344   132907350.631 4 103564193.44046
        38.000          22.000        1357.711        1057.957  
 12  2 16  7 23 10.0000000  0  1G15
  25290139.609           0.000    25290145.410   132900568.354 1 103558908.58346
        33.000          22.000        1355.203        1056.002  
 12  2 16  7 23 15.0000000  0  1G15
  25288852.938           0.000    25288856.855   132893798.449 2 103553633.35745
        34.000          20.000        1352.918        1054.222  
 12  2 16  7 23 20.0000000  0  1G15
  25287562.664           0.000    25287570.629   132887040.864   103548367.74945
        30.000          19.000        1349.977        1051.930  
 12  2 16  7 23 25.0000000  0  1G15
  25286280.328           0.000    25286286.918   132880295.765 2 103543111.87545
        34.000          19.000        1347.645        1050.113  
 12  2 16  7 23 30.0000000  0  1G15
  25285001.758           0.000    25285005.879   132873563.079 1 103537865.64145
        33.000          18.000        1345.332        1048.311  
 12  2 16  7 23 35.0000000  0  1G15
  25283722.555           0.000    25283726.602   132866843.067 2 103532629.29045
        35.000          18.000        1342.793        1046.332  
 12  2 16  7 23 40.0000000  0  1G15
  25282447.109           0.000    25282450.031   132860135.160 3 103527402.32145
        37.000          19.000        1340.199        1044.311  
 12  2 16  7 23 45.0000000  0  1G15
  25281173.289           0.000    25281175.512   132853439.827 5 103522185.16045
        40.000          19.000        1337.770        1042.418  
 12  2 16  7 23 50.0000000  0  1G15
  25279902.063           0.000    25279903.551   132846757.044 4 103516977.74545
        39.000          18.000        1335.289        1040.485  
 12  2 16  7 23 55.0000000  0  1G15
  25278633.016           0.000    25278633.598   132840086.439 5 103511779.83245
        40.000          19.000        1332.926        1038.643  
 12  2 16  7 24  0.0000000  0  1G15
  25277366.367           0.000    25277366.313   132833428.240 5 103506591.55245
        40.000          20.000        1330.379        1036.659  
 12  2 16  7 24  5.0000000  0  1G15
  25276101.555           0.000    25276101.648   132826782.473 5 103501413.02545
        41.000          20.000        1327.926        1034.747  
 12  2 16  7 24 10.0000000  0  1G15
  25274839.297           0.000    25274838.949   132820148.807 5 103496243.87946
        42.000          21.000        1325.355        1032.745  
 12  2 16  7 24 15.0000000  0  1G15
  25273579.875           0.000    25273580.066   132813527.964 5 103491084.74046
        41.000          21.000        1322.852        1030.793  
 12  2 16  7 24 20.0000000  0  1G15
  25272321.828           0.000    25272323.203   132806919.614 5 103485935.37746
        40.000          22.000        1320.148        1028.687  
 12  2 16  7 24 25.0000000  0  1G15
  25271067.055           0.000    25271068.090   132800323.500 4 103480795.53346
        39.000          22.000        1318.012        1027.022  
 12  2 16  7 24 30.0000000  0  1G15
  25269813.523           0.000    25269815.715   132793740.083 3 103475665.59646
        36.000          22.000        1315.328        1024.931  
 12  2 16  7 24 35.0000000  0  1G15
  25268560.555           0.000    25268565.441   132787168.978   103470545.30446
        32.000          21.000        1313.383        1023.415  
 12  2 16  7 24 40.0000000  0  1G15
  25267308.414           0.000    25267318.047   132780611.096   103465435.34745
        28.000          19.000        1310.863        1021.452  
 12  2 16  7 24 45.0000000  0  1G15
  25266064.227           0.000    25266072.102   132774064.651   103460334.30345
        31.000          19.000        1307.996        1019.218  
 12  2 16  7 24 50.0000000  0  1G15
  25264822.430           0.000    25264828.992   132767530.989 2 103455243.14245
        35.000          20.000        1305.633        1017.376  
 12  2 16  7 24 55.0000000  0  1G15
  25263583.984           0.000    25263587.852   132761010.178 4 103450162.01145
        38.000          20.000        1302.820        1015.185  
 12  2 16  7 25  0.0000000  0  1G15
  25262345.570           0.000    25262349.465   132754501.406 5 103445090.22946
        41.000          22.000        1300.484        1013.364  
 12  2 16  7 25  5.0000000  0  1G15
  25261109.859           0.000    25261113.344   132748005.355 5 103440028.37946
        41.000          25.000        1297.922        1011.368  
 12  2 16  7 25 10.0000000  0  1G15
  25259877.000           0.000    25259879.574   132741521.887 5 103434976.31646
        42.000          24.000        1295.477        1009.462  
 12  2 16  7 25 15.0000000  0  1G15
  25258645.164           0.000    25258647.422   132735050.784 5 103429933.89746
        42.000          22.000        1292.918        1007.469  
 12  2 16  7 25 20.0000000  0  1G15
  25257415.984           0.000    25257418.426   132728592.114 5 103424901.15946
        41.000          22.000        1290.406        1005.511  
 12  2 16  7 25 25.0000000  0  1G15
  25256189.805           0.000    25256191.340   132722146.228 5 103419878.34746
        42.000          22.000        1287.863        1003.530  
 12  2 16  7 25 30.0000000  0  1G15
  25254965.047           0.000    25254966.305   132715712.700 5 103414865.17746
        40.000          21.000        1285.441        1001.643  
 12  2 16  7 25 35.0000000  0  1G15
  25253744.141           0.000    25253744.449   132709291.911 5 103409861.90945
        40.000          20.000        1282.727         999.527  
 12  2 16  7 25 40.0000000  0  1G15
  25252524.063           0.000    25252524.438   132702883.361 4 103404868.17045
        39.000          19.000        1280.289         997.628  
 12  2 16  7 25 45.0000000  0  1G15
  25251306.609           0.000    25251307.566   132696487.403 3 103399884.25245
        36.000          18.000        1277.852         995.729  
 12  2 16  7 25 50.0000000  0  1G15
  25250091.258           0.000    25250093.168   132690103.729 2 103394909.99445
        35.000          17.000        1275.336         993.768  
 12  2 16  7 25 55.0000000  0  1G15
  25248876.180           0.000    25248880.922   132683732.940   103389945.73545
        32.000          16.000        1272.652         991.677  
 12  2 16  7 26  0.0000000  0  1G15
  25247666.672           0.000    25247671.363   132677374.309 1 103384991.03945
        33.000          18.000        1270.094         989.683  
 12  2 16  7 26  5.0000000  0  1G15
  25246458.695           0.000    25246463.965   132671028.036 2 103380045.91945
        35.000          18.000        1268.066         988.104  
 12  2 16  7 26 10.0000000  0  1G15
  25245253.828           0.000    25245258.836   132664694.779 2 103375110.92845
        35.000          19.000        1265.496         986.101  
 12  2 16  7 26 15.0000000  0  1G15
  25244052.125           0.000    25244056.684   132658373.980 4 103370185.65645
        38.000          20.000        1262.820         984.016  
 12  2 16  7 26 20.0000000  0  1G15
  25242851.320           0.000    25242855.957   132652065.710 3 103365270.11746
        37.000          21.000        1260.344         982.086  
 12  2 16  7 26 25.0000000  0  1G15
  25241655.023           0.000    25241658.191   132645769.938 4 103360364.33946
        38.000          22.000        1257.832         980.129  
 12  2 16  7 26 30.0000000  0  1G15
  25240459.602           0.000    25240462.262   132639486.961 5 103355468.51346
        40.000          24.000        1255.117         978.013  
 12  2 16  7 26 35.0000000  0  1G15
  25239266.188           0.000    25239269.000   132633216.329 5 103350582.31446
        41.000          23.000        1252.895         976.281  
 12  2 16  7 26 40.0000000  0  1G15
  25238075.656           0.000    25238078.598   132626958.412 5 103345705.98746
        41.000          23.000        1250.328         974.282  
 12  2 16  7 26 45.0000000  0  1G15
  25236887.625           0.000    25236889.813   132620713.016 5 103340839.45846
        42.000          25.000        1247.926         972.410  
 12  2 16  7 26 50.0000000  0  1G15
  25235701.094           0.000    25235703.949   132614480.315 5 103335982.79846
        41.000          22.000        1245.078         970.191  
 12  2 16  7 26 55.0000000  0  1G15
  25234517.023           0.000    25234519.723   132608259.912 5 103331135.75346
        41.000          22.000        1242.871         968.471  
 12  2 16  7 27  0.0000000  0  1G15
  25233336.406           0.000    25233338.402   132602052.457 4 103326298.74846
        39.000          21.000        1240.262         966.438  
 12  2 16  7 27  5.0000000  0  1G15
  25232157.063           0.000    25232159.465   132595857.474 3 103321471.45546
        37.000          21.000        1237.652         964.404  
 12  2 16  7 27 10.0000000  0  1G15
  25230980.734           0.000    25230982.535   132589674.404 3 103316653.46845
        36.000          19.000        1235.320         962.587  
 12  2 16  7 27 15.0000000  0  1G15
  25229805.156           0.000    25229808.625   132583504.522 2 103311845.67445
        34.000          18.000        1232.898         960.700  
 12  2 16  7 27 20.0000000  0  1G15
  25228632.328           0.000    25228636.277   132577347.243   103307047.82545
        32.000          17.000        1230.512         958.840  
 12  2 16  7 27 25.0000000  0  1G15
  25227463.422           0.000    25227467.148   132571202.800 1 103302259.97245
        33.000          16.000        1227.551         956.533  
 12  2 16  7 27 30.0000000  0  1G15
  25226296.461           0.000    25226300.102   132565070.583 2 103297481.66045
        34.000          16.000        1225.414         954.868  
 12  2 16  7 27 35.0000000  0  1G15
  25225132.781           0.000    25225135.895   132558951.103 3 103292713.22745
        37.000          18.000        1222.645         952.710  
 12  2 16  7 27 40.0000000  0  1G15
  25223971.164           0.000    25223974.098   132552844.056 4 103287954.49345
        39.000          19.000        1220.020         950.665  
 12  2 16  7 27 45.0000000  0  1G15
  25222812.180           0.000    25222814.473   132546749.443 5 103283205.45145
        40.000          20.000        1217.594         948.774  
 12  2 16  7 27 50.0000000  0  1G15
  25221654.914           0.000    25221657.801   132540667.832 5 103278466.51846
        40.000          22.000        1215.121         946.848  
 12  2 16  7 27 55.0000000  0  1G15
  25220499.727           0.000    25220502.781   132534598.621 4 103273737.28346
        39.000          22.000        1212.457         944.772  
 12  2 16  7 28  0.0000000  0  1G15
  25219347.648           0.000    25219350.672   132528542.091 5 103269017.87846
        40.000          24.000        1210.074         942.915  
 12  2 16  7 28  5.0000000  0  1G15
  25218196.852           0.000    25218200.855   132522498.385 5 103264308.50046
        40.000          26.000        1207.559         940.955  
 12  2 16  7 28 10.0000000  0  1G15
  25217050.031           0.000    25217053.969   132516466.939 5 103259608.70046
        41.000          26.000        1205.070         939.016  
 12  2 16  7 28 15.0000000  0  1G15
  25215904.875           0.000    25215908.621   132510448.284 5 103254918.83646
        40.000          25.000        1202.566         937.065  
 12  2 16  7 28 20.0000000  0  1G15
  25214762.133           0.000    25214765.395   132504442.044 5 103250238.67446
        40.000          26.000        1199.965         935.038  
 12  2 16  7 28 25.0000000  0  1G15
  25213621.227           0.000    25213624.781   132498448.560 4 103245568.42546
        39.000          24.000        1197.516         933.129  
 12  2 16  7 28 30.0000000  0  1G15
  25212483.070           0.000    25212486.777   132492467.657 3 103240907.97446
        37.000          22.000        1194.949         931.129  
 12  2 16  7 28 35.0000000  0  1G15
  25211346.531           0.000    25211350.875   132486499.464 3 103236257.44346
        36.000          21.000        1192.410         929.151  
 12  2 16  7 28 40.0000000  0  1G15
  25210212.445           0.000    25210217.285   132480544.000 3 103231616.83245
        36.000          20.000        1189.965         927.245  
 12  2 16  7 28 45.0000000  0  1G15
  25209081.133           0.000    25209086.371   132474601.179 2 103226986.10145
        35.000          20.000        1187.313         925.179  
 12  2 16  7 28 50.0000000  0  1G15
  25207952.703           0.000    25207957.262   132468671.115 2 103222365.30345
        34.000          18.000        1184.594         923.060  
 12  2 16  7 28 55.0000000  0  1G15
  25206825.039           0.000    25206830.570   132462753.584 2 103217754.24945
        35.000          17.000        1182.414         921.362  
 12  2 16  7 29  0.0000000  0  1G15
  25205702.680           0.000    25205706.840   132456848.557 3 103213152.95145
        36.000          16.000        1179.688         919.237  
 12  2 16  7 29  5.0000000  0  1G15
  25204582.359           0.000    25204585.293   132450956.445 2 103208561.56945
        35.000          15.000        1177.094         917.216  
 12  2 16  7 29 10.0000000  0  1G15
  25203463.680           0.000    25203465.496   132445076.957 3 103203980.22245
        37.000          15.000        1174.797         915.426  
 12  2 16  7 29 15.0000000  0  1G15
  25202347.266           0.000    25202348.719   132439210.331 3 103199408.75445
        37.000          15.000        1171.977         913.229  
 12  2 16  7 29 20.0000000  0  1G15
  25201234.352           0.000    25201234.750   132433356.160 4 103194846.99045
        38.000          16.000        1169.516         911.311  
 12  2 16  7 29 25.0000000  0  1G15
  25200122.711           0.000    25200122.805   132427514.633 4 103190295.17245
        39.000          18.000        1167.199         909.506  
 12  2 16  7 29 30.0000000  0  1G15
  25199013.898           0.000    25199014.477   132421685.999 4 103185753.34645
        39.000          20.000        1164.516         907.415  
 12  2 16  7 29 35.0000000  0  1G15
  25197906.961           0.000    25197908.297   132415869.885 5 103181221.34545
        40.000          20.000        1162.008         905.461  
 12  2 16  7 29 40.0000000  0  1G15
  25196802.539           0.000    25196804.152   132410066.385 5 103176699.12846
        41.000          22.000        1159.438         903.458  
 12  2 16  7 29 45.0000000  0  1G15
  25195700.789           0.000    25195702.477   132404275.177 5 103172186.48946
        41.000          22.000        1156.953         901.522  
 12  2 16  7 29 50.0000000  0  1G15
  25194600.781           0.000    25194603.633   132398497.103 5 103167684.05546
        40.000          22.000        1154.293         899.449  
 12  2 16  7 29 55.0000000  0  1G15
  25193503.813           0.000    25193507.539   132392731.490 4 103163191.38446
        39.000          22.000        1151.773         897.486  
 12  2 16  7 30  0.0000000  0  1G15
  25192409.031           0.000    25192412.395   132386978.397 4 103158708.47046
        38.000          22.000        1149.004         895.328  
 12  2 16  7 30  5.0000000  0  1G15
  25191316.273           0.000    25191320.719   132381237.934 4 103154235.40946
        38.000          22.000        1146.809         893.617  
 12  2 16  7 30 10.0000000  0  1G15
  25190226.266           0.000    25190230.902   132375510.443 3 103149772.41846
        36.000          21.000        1144.262         891.633  
 12  2 16  7 30 15.0000000  0  1G15
  25189137.422           0.000    25189143.254   132369795.842 2 103145319.51546
        35.000          21.000        1141.547         889.517  
 12  2 16  7 30 20.0000000  0  1G15
  25188052.742           0.000    25188057.934   132364094.200 1 103140876.67245
        33.000          20.000        1139.051         887.572  
 12  2 16  7 30 25.0000000  0  1G15
  25186969.383           0.000    25186975.969   132358405.175 1 103136443.70645
        33.000          19.000        1136.746         885.776  
 12  2 16  7 30 30.0000000  0  1G15
  25185889.188           0.000    25185895.063   132352728.649 2 103132020.49445
        34.000          19.000        1134.043         883.670  
 12  2 16  7 30 35.0000000  0  1G15
  25184811.617           0.000    25184817.316   132347064.799 2 103127607.13845
        35.000          20.000        1131.359         881.579  
 12  2 16  7 30 40.0000000  0  1G15
  25183735.844           0.000    25183741.320   132341413.524 2 103123203.52245
        35.000          19.000        1128.727         879.527  
 12  2 16  7 30 45.0000000  0  1G15
  25182663.055           0.000    25182667.898   132335774.611 3 103118809.62045
        36.000          18.000        1126.594         877.865  
 12  2 16  7 30 50.0000000  0  1G15
  25181592.930           0.000    25181596.867   132330148.784 3 103114425.83945
        37.000          18.000        1123.773         875.668  
 12  2 16  7 30 55.0000000  0  1G15
  25180525.023           0.000    25180528.328   132324535.272 3 103110051.67445
        37.000          18.000        1121.563         873.945  
 12  2 16  7 31  0.0000000  0  1G15
  25179459.891           0.000    25179462.273   132318934.894 4 103105687.72345
        39.000          18.000        1118.844         871.826  
 12  2 16  7 31  5.0000000  0  1G15
  25178396.180           0.000    25178398.570   132313347.063 4 103101333.54545
        38.000          18.000        1116.332         869.869  
 12  2 16  7 31 10.0000000  0  1G15
  25177336.320           0.000    25177337.754   132307772.293 4 103096989.56245
        39.000          18.000        1113.676         867.799  
 12  2 16  7 31 15.0000000  0  1G15
  25176277.664           0.000    25176278.883   132302210.052 4 103092655.32545
        39.000          18.000        1111.211         865.879  
 12  2 16  7 31 20.0000000  0  1G15
  25175222.453           0.000    25175222.422   132296660.815 5 103088331.18145
        40.000          17.000        1108.461         863.736  
 12  2 16  7 31 25.0000000  0  1G15
  25174169.039           0.000    25174168.543   132291124.147 4 103084016.89645
        38.000          18.000        1106.094         861.891  
 12  2 16  7 31 30.0000000  0  1G15
  25173116.891           0.000    25173117.855   132285600.152 4 103079712.47945
        38.000          18.000        1103.645         859.983  
 12  2 16  7 31 35.0000000  0  1G15
  25172068.961           0.000    25172069.434   132280088.856 4 103075417.92845
        38.000          19.000        1100.949         857.883  
 12  2 16  7 31 40.0000000  0  1G15
  25171022.430           0.000    25171023.836   132274590.312 2 103071133.35845
        35.000          19.000        1098.652         856.093  
 12  2 16  7 31 45.0000000  0  1G15
  25169977.852           0.000    25169979.910   132269104.605 2 103066858.78645
        34.000          19.000        1095.867         853.922  
 12  2 16  7 31 50.0000000  0  1G15
  25168934.523           0.000    25168938.844   132263631.745 1 103062594.22845
        33.000          18.000        1093.625         852.175  
 12  2 16  7 31 55.0000000  0  1G15
  25167896.867           0.000    25167899.809   132258172.111   103058340.04245
        32.000          18.000        1090.852         850.014  
 12  2 16  7 32  0.0000000  0  1G15
  25166858.461           0.000    25166863.129   132252724.696   103054095.26645
        32.000          17.000        1087.914         847.725  
 12  2 16  7 32  5.0000000  0  1G15
  25165823.867           0.000    25165829.598   132247289.391   103049860.00645
        32.000          18.000        1085.652         845.963  
 12  2 16  7 32 10.0000000  0  1G15
  25164793.477           0.000    25164797.414   132241867.307 2 103045634.98245
        35.000          18.000        1083.383         844.194  
 12  2 16  7 32 15.0000000  0  1G15
  25163764.141           0.000    25163767.945   132236458.035 2 103041420.02245
        34.000          19.000        1080.664         842.076  
 12  2 16  7 32 20.0000000  0  1G15
  25162737.945           0.000    25162741.293   132231061.693 3 103037215.06145
        36.000          20.000        1078.059         840.046  
 12  2 16  7 32 25.0000000  0  1G15
  25161713.469           0.000    25161717.070   132225678.199 4 103033020.15146
        38.000          22.000        1075.504         838.055  
 12  2 16  7 32 30.0000000  0  1G15
  25160692.172           0.000    25160695.176   132220307.186 3 103028834.93646
        37.000          21.000        1072.918         836.040  
 12  2 16  7 32 35.0000000  0  1G15
  25159672.750           0.000    25159675.375   132214949.219 4 103024659.90246
        38.000          21.000        1070.254         833.964  
 12  2 16  7 32 40.0000000  0  1G15
  25158655.039           0.000    25158658.555   132209603.901 4 103020494.72146
        38.000          21.000        1067.762         832.022  
 12  2 16  7 32 45.0000000  0  1G15
  25157641.328           0.000    25157644.004   132204271.247 3 103016339.38946
        37.000          21.000        1065.266         830.077  
 12  2 16  7 32 50.0000000  0  1G15
  25156628.719           0.000    25156631.219   132198951.570 4 103012194.17346
        38.000          21.000        1062.637         828.029  
 12  2 16  7 32 55.0000000  0  1G15
  25155619.148           0.000    25155620.680   132193644.445 3 103008058.74545
        37.000          20.000        1060.027         825.995  
 12  2 16  7 33  0.0000000  0  1G15
  25154610.836           0.000    25154613.633   132188349.937 4 103003933.13745
        38.000          19.000        1057.609         824.111  
 12  2 16  7 33  5.0000000  0  1G15
  25153605.742           0.000    25153608.867   132183068.370 3 102999817.64045
        36.000          18.000        1054.945         822.035  
 12  2 16  7 33 10.0000000  0  1G15
  25152602.875           0.000    25152605.434   132177799.293 3 102995711.85045
        36.000          17.000        1052.523         820.148  
 12  2 16  7 33 15.0000000  0  1G15
  25151602.141           0.000    25151605.656   132172543.644 3 102991616.47545
        36.000          17.000        1049.945         818.139  
 12  2 16  7 33 20.0000000  0  1G15
  25150604.109           0.000    25150607.348   132167300.908 1 102987531.24545
        33.000          17.000        1047.184         815.987  
 12  2 16  7 33 25.0000000  0  1G15
  25149605.172           0.000    25149612.102   132162070.448   102983455.54145
        31.000          17.000        1044.934         814.234  
 12  2 16  7 33 30.0000000  0  1G15
  25148613.172           0.000    25148619.367   132156852.957   102979390.04745
        32.000          17.000        1042.598         812.414  
 12  2 16  7 33 35.0000000  0  1G15
  25147624.828           0.000    25147629.230   132151647.844 1 102975334.02145
        33.000          16.000        1039.949         810.350  
 12  2 16  7 33 40.0000000  0  1G15
  25146637.117           0.000    25146641.375   132146456.251 2 102971288.70045
        34.000          17.000        1036.793         807.891  
 12  2 16  7 33 45.0000000  0  1G15
  25145651.016           0.000    25145655.988   132141277.057 1 102967252.94645
        33.000          19.000        1034.383         806.013  
 12  2 16  7 33 50.0000000  0  1G15
  25144669.086           0.000    25144673.465   132136110.969 2 102963227.47245
        35.000          20.000        1031.832         804.025  
 12  2 16  7 33 55.0000000  0  1G15
  25143688.914           0.000    25143692.605   132130957.408 3 102959211.72146
        37.000          22.000        1029.387         802.120  
 12  2 16  7 34  0.0000000  0  1G15
  25142711.867           0.000    25142714.625   132125817.256 4 102955206.37046
        39.000          22.000        1026.891         800.174  
 12  2 16  7 34  5.0000000  0  1G15
  25141735.961           0.000    25141739.484   132120689.524 5 102951210.75846
        41.000          25.000        1024.270         798.132  
 12  2 16  7 34 10.0000000  0  1G15
  25140762.531           0.000    25140766.102   132115574.706 5 102947225.17946
        40.000          25.000        1021.707         796.135  
 12  2 16  7 34 15.0000000  0  1G15
  25139792.461           0.000    25139795.332   132110472.586 5 102943249.50046
        41.000          25.000        1019.164         794.154  
 12  2 16  7 34 20.0000000  0  1G15
  25138823.195           0.000    25138826.527   132105383.088 4 102939283.64346
        39.000          24.000        1016.605         792.160  
 12  2 16  7 34 25.0000000  0  1G15
  25137857.930           0.000    25137860.680   132100306.629 5 102935327.96746
        40.000          24.000        1013.891         790.045  
 12  2 16  7 34 30.0000000  0  1G15
  25136893.508           0.000    25136897.160   132095242.823 5 102931382.16246
        40.000          23.000        1011.406         788.109  
 12  2 16  7 34 35.0000000  0  1G15
  25135932.570           0.000    25135936.387   132090191.703 4 102927446.22646
        39.000          25.000        1009.023         786.252  
 12  2 16  7 34 40.0000000  0  1G15
  25134973.563           0.000    25134977.570   132085153.669 4 102923520.48246
        39.000          22.000        1006.324         784.149  
 12  2 16  7 34 45.0000000  0  1G15
  25134017.102           0.000    25134021.012   132080128.509 3 102919604.74746
        36.000          22.000        1003.848         782.219  
 12  2 16  7 34 50.0000000  0  1G15
  25133063.281           0.000    25133066.816   132075116.286 3 102915699.14146
        37.000          21.000        1001.152         780.119  
 12  2 16  7 34 55.0000000  0  1G15
  25132110.867           0.000    25132115.121   132070116.7491  102911803.39455
        32.000          19.000         998.602         778.131  
 12  2 16  7 35  0.0000000  0  1G15
  25131161.758           0.000    25131165.965   132065129.913   102907917.50945
        32.000          19.000         996.055         776.146  
 12  2 16  7 35  5.0000000  0  1G15
  25130214.711           0.000    25130219.230   132060156.276   102904041.98645
        32.000          16.000         993.508         774.162  
 12  2 16  7 35 10.0000000  0  1G15
  25129267.789           0.000    25129275.035           0.0001          0.00055
         0.000           0.000         991.668         772.728  
 12  2 16  7 35 15.0000000  0  1G15
  25128326.078           0.000           0.000   132050246.6981          0.00051
        30.000           0.000         988.262           0.000  
 12  2 16  7 35 20.0000000  0  1G15
  25127390.117           0.000           0.000   132045311.247 2         0.00051
        34.000           0.000         985.648           0.000  
 12  2 16  7 35 25.0000000  0  1G15
  25126451.055           0.000           0.000   132040388.371           0.00051
        32.000           0.000         983.340           0.000  
 12  2 16  7 35 30.0000000  0  1G15
  25125520.125           0.000           0.000   132035478.536 3         0.00051
        36.000           0.000         980.918           0.000  
 12  2 16  7 35 35.0000000  0  1G15
  25124589.039           0.000    25124589.020   132030581.573 3 102880986.71645
        37.000          18.000         978.262         762.282  
 12  2 16  7 35 40.0000000  0  1G15
  25123659.445           0.000    25123660.316   132025697.984 4 102877181.30446
        38.000          21.000         975.449         760.090  
 12  2 16  7 35 45.0000000  0  1G15
  25122732.578           0.000    25122734.379   132020826.979 4 102873385.70246
        38.000          22.000         972.863         758.075  
 12  2 16  7 35 50.0000000  0  1G15
  25121808.438           0.000    25121810.332   132015968.727 4 102869600.05046
        39.000          22.000         970.398         756.155  
 12  2 16  7 35 55.0000000  0  1G15
  25120886.172           0.000    25120888.641   132011123.354 4 102865824.40446
        39.000          22.000         967.668         754.027  
 12  2 16  7 36  0.0000000  0  1G15
  25119966.539           0.000    25119969.633   132006290.904 4 102862058.87046
        39.000          25.000         965.320         752.198  
 12  2 16  7 36  5.0000000  0  1G15
  25119050.352           0.000    25119052.883   132001471.164 4 102858303.20646
        39.000          25.000         962.422         749.939  
 12  2 16  7 36 10.0000000  0  1G15
  25118135.344           0.000    25118139.109   131996664.331 5 102854557.62546
        40.000          26.000         960.090         748.122  
 12  2 16  7 36 15.0000000  0  1G15
  25117222.813           0.000    25117226.859   131991870.206 4 102850821.94246
        39.000          25.000         957.563         746.153  
 12  2 16  7 36 20.0000000  0  1G15
  25116313.430           0.000    25116317.492   131987089.111 4 102847096.41646
        39.000          27.000         954.727         743.943  
 12  2 16  7 36 25.0000000  0  1G15
  25115406.023           0.000    25115409.875   131982320.667 4 102843380.75046
        39.000          26.000         952.340         742.083  
 12  2 16  7 36 30.0000000  0  1G15
  25114501.359           0.000    25114504.586   131977565.293 3 102839675.25846
        37.000          26.000         949.750         740.065  
 12  2 16  7 36 35.0000000  0  1G15
  25113599.352           0.000    25113602.742   131972823.003 3 102835979.99246
        37.000          25.000         947.387         738.223  
 12  2 16  7 36 40.0000000  0  1G15
  25112699.133           0.000    25112701.816   131968093.189 3 102832294.39046
        36.000          22.000         944.805         736.211  
 12  2 16  7 36 45.0000000  0  1G15
  25111799.539           0.000    25111804.891   131963376.356 2 102828618.97746
        34.000          22.000         941.809         733.877  
 12  2 16  7 36 50.0000000  0  1G15
  25110903.914           0.000    25110909.352   131958672.490   102824953.59546
        31.000          22.000         939.508         732.084  
 12  2 16  7 36 55.0000000  0  1G15
  25110011.008           0.000    25110016.527   131953981.4331  102821298.27256
        32.000          21.000         936.699         729.896  
 12  2 16  7 37  0.0000000  0  1G15
  25109118.180           0.000    25109126.355           0.0001          0.00055
         0.000           0.000         934.449         728.142  
 12  2 16  7 37 10.0000000  0  1G15
  25107345.227           0.000    25107353.125   131939984.87111 102810391.86155
        33.000          17.000         929.316         724.143  
 12  2 16  7 37 15.0000000  0  1G15
  25106463.117           0.000    25106470.113   131935345.600 1 102806776.78245
        33.000          18.000         926.680         722.088  
 12  2 16  7 37 20.0000000  0  1G15
  25105583.930           0.000    25105589.613   131930719.135 3 102803171.76545
        36.000          17.000         923.926         719.942  
 12  2 16  7 37 25.0000000  0  1G15
  25104707.820           0.000    25104711.301   131926105.246 4 102799576.55045
        39.000          19.000         921.613         718.140  
 12  2 16  7 37 30.0000000  0  1G15
  25103832.016           0.000    25103835.516   131921504.383 4 102795991.35145
        39.000          19.000         919.039         716.134  
 12  2 16  7 37 35.0000000  0  1G15
  25102959.539           0.000    25102961.246   131916916.573 5 102792416.42345
        40.000          19.000         916.402         714.080  
 12  2 16  7 37 40.0000000  0  1G15
  25102088.367           0.000    25102089.766   131912341.340 5 102788851.25845
        41.000          19.000         913.832         712.077  
 12  2 16  7 37 45.0000000  0  1G15
  25101220.750           0.000    25101221.141   131907779.072 5 102785296.15945
        41.000          19.000         911.164         709.998  
 12  2 16  7 37 50.0000000  0  1G15
  25100355.227           0.000    25100354.766   131903229.982 5 102781751.39845
        41.000          18.000         908.398         707.843  
 12  2 16  7 37 55.0000000  0  1G15
  25099492.789           0.000    25099492.094   131898693.605 5 102778216.50845
        41.000          19.000         905.887         705.886  
 12  2 16  7 38  0.0000000  0  1G15
  25098631.328           0.000    25098631.867   131894169.936 5 102774691.55545
        40.000          20.000         903.527         704.047  
 12  2 16  7 38  5.0000000  0  1G15
  25097772.938           0.000    25097774.430   131889659.187 5 102771176.69146
        40.000          22.000         900.926         702.020  
 12  2 16  7 38 10.0000000  0  1G15
  25096918.117           0.000    25096918.918   131885161.244 5 102767671.77646
        40.000          22.000         898.172         699.874  
 12  2 16  7 38 15.0000000  0  1G15
  25096063.422           0.000    25096065.891   131880676.246 4 102764176.98146
        39.000          23.000         895.539         697.823  
 12  2 16  7 38 20.0000000  0  1G15
  25095212.445           0.000    25095215.945   131876204.271 3 102760692.34246
        36.000          22.000         893.359         696.124  
 12  2 16  7 38 25.0000000  0  1G15
  25094364.906           0.000    25094367.207   131871745.167 4 102757217.70046
        38.000          22.000         890.633         694.000  
 12  2 16  7 38 30.0000000  0  1G15
  25093517.492           0.000    25093521.227   131867299.124 3 102753753.26346
        37.000          22.000         887.797         691.790  
 12  2 16  7 38 35.0000000  0  1G15
  25092673.828           0.000    25092677.758   131862865.554 3 102750298.55046
        36.000          22.000         885.430         689.945  
 12  2 16  7 38 40.0000000  0  1G15
  25091832.117           0.000    25091837.121   131858445.217 2 102746854.16446
        35.000          22.000         882.930         687.997  
 12  2 16  7 38 45.0000000  0  1G15
  25090992.375           0.000    25090998.125   131854037.644 2 102743419.70446
        35.000          22.000         880.164         685.842  
 12  2 16  7 38 50.0000000  0  1G15
  25090156.688           0.000    25090162.246   131849642.739 2 102739995.12146
        35.000          22.000         877.766         683.973  
 12  2 16  7 38 55.0000000  0  1G15
  25089321.094           0.000    25089328.363   131845261.070 1 102736580.88246
        33.000          21.000         874.949         681.779  
 12  2 16  7 39  0.0000000  0  1G15
  25088489.898           0.000    25088496.738   131840892.026 2 102733176.47446
        35.000          21.000         872.594         679.943  
 12  2 16  7 39  5.0000000  0  1G15
  25087660.828           0.000    25087667.539   131836536.067 2 102729782.22345
        35.000          20.000         870.078         677.983  
 12  2 16  7 39 10.0000000  0  1G15
  25086834.617           0.000    25086840.984   131832193.353 2 102726398.33846
        35.000          21.000         867.348         675.855  
 12  2 16  7 39 15.0000000  0  1G15
  25086011.516           0.000    25086017.223   131827863.399 3 102723024.35446
        37.000          22.000         864.715         673.804  
 12  2 16  7 39 20.0000000  0  1G15
  25085190.758           0.000    25085195.344   131823546.331 4 102719660.41346
        38.000          22.000         862.230         671.868  
 12  2 16  7 39 25.0000000  0  1G15
  25084371.766           0.000    25084376.176   131819242.085 5 102716306.47046
        40.000          23.000         859.613         669.829  
 12  2 16  7 39 30.0000000  0  1G15
  25083556.125           0.000    25083559.500   131814951.000 5 102712962.73746
        40.000          23.000         856.879         667.698  
 12  2 16  7 39 35.0000000  0  1G15
  25082742.133           0.000    25082745.598   131810672.709 5 102709629.06846
        40.000          24.000         854.355         665.732  
 12  2 16  7 39 40.0000000  0  1G15
  25081930.414           0.000    25081933.336   131806407.480 5 102706305.44646
        41.000          22.000         851.848         663.777  
 12  2 16  7 39 45.0000000  0  1G15
  25081120.930           0.000    25081124.168   131802154.886 5 102702991.68946
        41.000          22.000         849.211         661.723  
 12  2 16  7 39 50.0000000  0  1G15
  25080313.898           0.000    25080316.824   131797915.091 5 102699688.01846
        42.000          22.000         846.668         659.741  
 12  2 16  7 39 55.0000000  0  1G15
  25079510.836           0.000    25079512.316   131793688.280 5 102696394.38046
        42.000          22.000         844.074         657.720  
 12  2 16  7 40  0.0000000  0  1G15
  25078707.922           0.000    25078710.137   131789474.287 5 102693110.69845
        40.000          20.000         841.523         655.733  
 12  2 16  7 40  5.0000000  0  1G15
  25077909.867           0.000    25077909.926   131785273.654 4 102689837.41145
        39.000          19.000         838.910         653.696  
 12  2 16  7 40 10.0000000  0  1G15
  25077112.516           0.000    25077111.988   131781085.681 5 102686573.99345
        41.000          19.000         836.289         651.654  
 12  2 16  7 40 15.0000000  0  1G15
  25076317.563           0.000    25076316.902   131776910.749 4 102683320.78145
        38.000          19.000         833.574         649.538  
 12  2 16  7 40 20.0000000  0  1G15
  25075525.867           0.000    25075524.324   131772748.562 4 102680077.48645
        39.000          19.000         831.066         647.584  
 12  2 16  7 40 25.0000000  0  1G15
  25074734.344           0.000    25074735.563   131768599.412 3 102676844.40045
        37.000          18.000         828.359         645.475  
 12  2 16  7 40 30.0000000  0  1G15
  25073947.797           0.000    25073948.664   131764463.034 2 102673621.20645
        35.000          19.000         826.055         643.679  
 12  2 16  7 40 35.0000000  0  1G15
  25073162.102           0.000    25073164.297   131760339.850 3 102670408.45845
        36.000          18.000         823.301         641.533  
 12  2 16  7 40 40.0000000  0  1G15
  25072380.203           0.000    25072382.027   131756229.506 3 102667205.53345
        36.000          18.000         820.871         639.640  
 12  2 16  7 40 45.0000000  0  1G15
  25071600.250           0.000    25071602.961   131752132.066 3 102664012.77245
        36.000          18.000         818.395         637.710  
 12  2 16  7 40 50.0000000  0  1G15
  25070822.430           0.000    25070826.066   131748047.747 4 102660830.20745
        38.000          20.000         815.578         635.515  
 12  2 16  7 40 55.0000000  0  1G15
  25070048.266           0.000    25070052.074   131743976.284 4 102657657.65646
        38.000          22.000         812.820         633.366  
 12  2 16  7 41  0.0000000  0  1G15
  25069275.945           0.000    25069280.535   131739917.667 4 102654495.08246
        39.000          22.000         810.320         631.418  
 12  2 16  7 41  5.0000000  0  1G15
  25068506.641           0.000    25068510.531   131735871.970 5 102651342.60046
        40.000          26.000         808.055         629.653  
 12  2 16  7 41 10.0000000  0  1G15
  25067739.469           0.000    25067744.117   131731839.329 4 102648200.30246
        39.000          25.000         805.078         627.334  
 12  2 16  7 41 15.0000000  0  1G15
  25066975.563           0.000    25066979.102   131727819.266 5 102645067.79346
        40.000          24.000         802.777         625.541  
 12  2 16  7 41 20.0000000  0  1G15
  25066213.563           0.000    25066217.180   131723812.293 4 102641945.49346
        39.000          24.000         800.031         623.401  
 12  2 16  7 41 25.0000000  0  1G15
  25065452.906           0.000    25065456.426   131719818.138 4 102638833.15446
        38.000          25.000         797.602         621.508  
 12  2 16  7 41 30.0000000  0  1G15
  25064696.852           0.000    25064699.215   131715836.959 5 102635730.95146
        40.000          25.000         794.969         619.456  
 12  2 16  7 41 35.0000000  0  1G15
  25063940.219           0.000    25063943.914   131711868.896 5 102632638.96746
        40.000          24.000         792.516         617.545  
 12  2 16  7 41 40.0000000  0  1G15
  25063187.906           0.000    25063190.953   131707913.776 5 102629557.05546
        41.000          24.000         789.801         615.429  
 12  2 16  7 41 45.0000000  0  1G15
  25062437.758           0.000    25062440.762   131703971.574 5 102626485.20646
        40.000          23.000         787.137         613.353  
 12  2 16  7 41 50.0000000  0  1G15
  25061690.203           0.000    25061693.230   131700042.285 5 102623423.41446
        40.000          22.000         784.543         611.332  
 12  2 16  7 41 55.0000000  0  1G15
  25060945.789           0.000    25060948.031   131696126.255 4 102620371.96446
        39.000          22.000         782.023         609.369  
 12  2 16  7 42  0.0000000  0  1G15
  25060202.164           0.000    25060205.066   131692222.959 4 102617330.40546
        39.000          21.000         779.246         607.205  
 12  2 16  7 42  5.0000000  0  1G15
  25059461.977           0.000    25059464.469   131688332.459 4 102614298.86145
        38.000          20.000         777.012         605.464  
 12  2 16  7 42 10.0000000  0  1G15
  25058723.914           0.000    25058725.988   131684455.259 3 102611277.64445
        36.000          19.000         774.063         603.166  
 12  2 16  7 42 15.0000000  0  1G15
  25057988.070           0.000    25057989.965   131680590.684 2 102608266.23445
        34.000          18.000         771.582         601.233  
 12  2 16  7 42 20.0000000  0  1G15
  25057256.484           0.000    25057257.168   131676739.236 1 102605265.14345
        33.000          17.000         768.801         599.066  
 12  2 16  7 42 25.0000000  0  1G15
  25056524.469           0.000    25056526.000   131672900.497 1 102602273.83945
        33.000          16.000         766.023         596.901  
 12  2 16  7 42 30.0000000  0  1G15
  25055795.477           0.000    25055797.695   131669074.582   102599292.57245
        32.000          16.000         763.738         595.121  
 12  2 16  7 42 35.0000000  0  1G15
  25055069.883           0.000    25055071.879   131665261.969   102596321.79345
        31.000          15.000         761.059         593.033  
 12  2 16  7 42 40.0000000  0  1G15
  25054345.117           0.000    25054348.594           0.0001          0.00055
         0.000           0.000         758.875         591.331  
 12  2 16  7 42 45.0000000  0  1G15
  25053623.055           0.000    25053628.125           0.0001          0.00052
         0.000           0.000         755.832         588.960  
 12  2 16  7 42 50.0000000  0  1G15
  25052904.117           0.000    25052909.715   131653901.317   102587469.33842
        31.000          13.000         753.535         587.170  
 12  2 16  7 42 55.0000000  0  1G15
  25052188.891           0.000    25052194.195   131650140.576   102584538.86642
        31.000          14.000         751.227         585.371  
 12  2 16  7 43  0.0000000  0  1G15
  25051474.242           0.000    25051480.840   131646392.3341  102581618.19055
        30.000          15.000         748.379         583.152  
 12  2 16  7 43  5.0000000  0  1G15
  25050765.719           0.000    25050770.668           0.0001          0.00055
         0.000           0.000         745.398         580.830  
 12  2 16  7 43 10.0000000  0  1G15
  25050059.227           0.000    25050062.031   131638935.272 2 102575807.49045
        34.000          18.000         743.230         579.141  
 12  2 16  7 43 15.0000000  0  1G15
  25049353.906           0.000    25049356.676   131635226.162 2 102572917.27145
        35.000          18.000         740.828         577.269  
 12  2 16  7 43 20.0000000  0  1G15
  25048650.453           0.000    25048653.379   131631530.208 3 102570037.30945
        36.000          19.000         737.887         574.977  
 12  2 16  7 43 25.0000000  0  1G15
  25047951.055           0.000    25047953.281   131627847.176 3 102567167.39646
        37.000          21.000         734.988         572.718  
 12  2 16  7 43 30.0000000  0  1G15
  25047251.805           0.000    25047255.398   131624177.024 3 102564307.53946
        37.000          21.000         732.664         570.907  
 12  2 16  7 43 35.0000000  0  1G15
  25046556.664           0.000    25046559.594   131620519.918 3 102561457.88046
        37.000          21.000         730.160         568.956  
 12  2 16  7 43 40.0000000  0  1G15
  25045863.625           0.000    25045866.246   131616875.644 3 102558618.17246
        37.000          22.000         727.535         566.911  
 12  2 16  7 43 45.0000000  0  1G15
  25045173.289           0.000    25045175.328   131613244.470 4 102555788.66946
        38.000          22.000         724.973         564.914  
 12  2 16  7 43 50.0000000  0  1G15
  25044484.406           0.000    25044487.074   131609626.021 4 102552969.09546
        38.000          22.000         722.445         562.944  
 12  2 16  7 43 55.0000000  0  1G15
  25043797.602           0.000    25043800.879   131606020.627 4 102550159.68746
        38.000          23.000         719.719         560.820  
 12  2 16  7 44  0.0000000  0  1G15
  25043115.367           0.000    25043117.473   131602428.159 4 102547360.34546
        39.000          22.000         717.375         558.994  
 12  2 16  7 44  5.0000000  0  1G15
  25042433.398           0.000    25042435.813   131598848.695 4 102544571.16946
        38.000          22.000         714.469         556.729  
 12  2 16  7 44 10.0000000  0  1G15
  25041755.250           0.000    25041757.141   131595282.128 4 102541792.00946
        38.000          22.000         711.992         554.799  
 12  2 16  7 44 15.0000000  0  1G15
  25041079.102           0.000    25041081.133   131591728.451 4 102539022.90646
        38.000          22.000         709.527         552.878  
 12  2 16  7 44 20.0000000  0  1G15
  25040405.719           0.000    25040407.617   131588187.891 4 102536264.03646
        38.000          22.000         706.676         550.656  
 12  2 16  7 44 25.0000000  0  1G15
  25039734.273           0.000    25039736.531   131584660.159 3 102533515.16646
        37.000          22.000         704.238         548.757  
 12  2 16  7 44 30.0000000  0  1G15
  25039064.305           0.000    25039067.098   131581145.368 4 102530776.38546
        38.000          21.000         701.793         546.852  
 12  2 16  7 44 35.0000000  0  1G15
  25038397.086           0.000    25038401.195   131577643.244 3 102528047.47145
        36.000          20.000         699.355         544.952  
 12  2 16  7 44 40.0000000  0  1G15
  25037733.875           0.000    25037736.840   131574154.677 3 102525329.08445
        36.000          20.000         696.559         542.773  
 12  2 16  7 44 45.0000000  0  1G15
  25037071.992           0.000    25037075.898   131570678.804 3 102522620.59145
        36.000          20.000         693.832         540.648  
 12  2 16  7 44 50.0000000  0  1G15
  25036409.641           0.000    25036416.266   131567215.7381  102519922.18155
        31.000          19.000         691.621         538.926  
 12  2 16  7 44 55.0000000  0  1G15
  25035753.219           0.000    25035759.160   131563765.9141  102517233.97255
        32.000          18.000         688.855         536.771  
 12  2 16  7 45  0.0000000  0  1G15
  25035099.961           0.000    25035105.844           0.0001          0.00055
         0.000           0.000         686.266         534.752  
 12  2 16  7 45  5.0000000  0  1G15
  25034447.914           0.000    25034453.746           0.0001          0.00055
         0.000           0.000         683.188         532.354  
 12  2 16  7 45 10.0000000  0  1G15
  25033799.219           0.000    25033804.527   131553493.606   102509229.60645
        32.000          16.000         680.824         530.512  
 12  2 16  7 45 15.0000000  0  1G15
  25033152.922           0.000    25033157.281   131550095.412 1 102506581.74945
        33.000          16.000         678.492         528.695  
 12  2 16  7 45 20.0000000  0  1G15
  25032509.805           0.000    25032513.113   131546710.612 2 102503944.23345
        34.000          16.000         675.828         526.619  
 12  2 16  7 45 25.0000000  0  1G15
  25031867.539           0.000    25031870.859   131543338.141 2 102501316.25145
        34.000          16.000         673.309         524.656  
 12  2 16  7 45 30.0000000  0  1G15
  25031229.305           0.000    25031230.793   131539979.020 3 102498698.74745
        36.000          16.000         670.367         522.364  
 12  2 16  7 45 35.0000000  0  1G15
  25030592.680           0.000    25030593.645   131536632.742 3 102496091.12145
        36.000          17.000         667.984         520.507  
 12  2 16  7 45 40.0000000  0  1G15
  25029959.422           0.000    25029959.676   131533299.522 3 102493493.87945
        37.000          18.000         665.324         518.434  
 12  2 16  7 45 45.0000000  0  1G15
  25029327.609           0.000    25029328.223   131529979.195 4 102490906.58945
        38.000          19.000         662.730         516.413  
 12  2 16  7 45 50.0000000  0  1G15
  25028697.516           0.000    25028698.934   131526671.862 4 102488329.45245
        38.000          19.000         660.340         514.551  
 12  2 16  7 45 55.0000000  0  1G15
  25028071.070           0.000    25028072.004   131523377.406 5 102485762.34645
        40.000          19.000         657.594         512.411  
 12  2 16  7 46  0.0000000  0  1G15
  25027446.789           0.000    25027447.766   131520096.072 5 102483205.47345
        40.000          20.000         655.000         510.390  
 12  2 16  7 46  5.0000000  0  1G15
  25026824.898           0.000    25026826.227   131516827.493 5 102480658.52546
        40.000          22.000         652.340         508.317  
 12  2 16  7 46 10.0000000  0  1G15
  25026206.211           0.000    25026207.031   131513571.821 5 102478121.61246
        42.000          22.000         649.965         506.466  
 12  2 16  7 46 15.0000000  0  1G15
  25025588.508           0.000    25025590.660   131510329.427 5 102475595.06546
        41.000          22.000         647.297         504.387  
 12  2 16  7 46 20.0000000  0  1G15
  25024975.000           0.000    25024976.770   131507099.754 5 102473078.44746
        42.000          22.000         644.621         502.302  
 12  2 16  7 46 25.0000000  0  1G15
  25024362.359           0.000    25024364.496   131503882.828 5 102470571.74046
        41.000          22.000         642.090         500.330  
 12  2 16  7 46 30.0000000  0  1G15
  25023752.703           0.000    25023755.230   131500679.132 5 102468075.35546
        41.000          22.000         639.316         498.169  
 12  2 16  7 46 35.0000000  0  1G15
  25023146.484           0.000    25023148.570   131497488.405 5 102465589.07246
        42.000          23.000         636.805         496.211  
 12  2 16  7 46 40.0000000  0  1G15
  25022541.117           0.000    25022544.156   131494310.650 5 102463112.90946
        42.000          24.000         634.094         494.099  
 12  2 16  7 46 45.0000000  0  1G15
  25021938.422           0.000    25021942.195   131491145.863 4 102460646.83646
        39.000          24.000         631.793         492.306  
 12  2 16  7 46 50.0000000  0  1G15
  25021339.320           0.000    25021342.465   131487994.097 4 102458190.90446
        38.000          23.000         629.148         490.246  
 12  2 16  7 46 55.0000000  0  1G15
  25020741.203           0.000    25020744.770   131484854.981 3 102455744.84246
        36.000          22.000         626.453         488.145  
 12  2 16  7 47  0.0000000  0  1G15
  25020145.922           0.000    25020150.234   131481729.105 2 102453309.09346
        35.000          22.000         623.711         486.009  
 12  2 16  7 47  5.0000000  0  1G15
  25019554.617           0.000    25019558.516   131478616.315 2 102450883.55246
        35.000          22.000         621.414         484.219  
 12  2 16  7 47 10.0000000  0  1G15
  25018963.320           0.000    25018968.109   131475516.546 2 102448468.17746
        35.000          22.000         618.613         482.036  
 12  2 16  7 47 15.0000000  0  1G15
  25018375.656           0.000    25018380.180   131472429.300 2 102446062.54046
        34.000          21.000         616.000         480.000  
 12  2 16  7 47 20.0000000  0  1G15
  25017790.352           0.000    25017795.309   131469354.968 2 102443666.95346
        34.000          21.000         613.453         478.015  
 12  2 16  7 47 25.0000000  0  1G15
  25017207.180           0.000    25017212.836   131466293.691 1 102441281.60045
        33.000          20.000         610.941         476.058  
 12  2 16  7 47 30.0000000  0  1G15
  25016626.789           0.000    25016632.910   131463245.493 1 102438906.36645
        33.000          19.000         608.309         474.007  
 12  2 16  7 47 35.0000000  0  1G15
  25016049.867           0.000    25016054.531   131460210.063 2 102436541.10445
        35.000          18.000         605.852         472.092  
 12  2 16  7 47 40.0000000  0  1G15
  25015474.195           0.000    25015479.469   131457187.695 2 102434186.03545
        35.000          17.000         603.320         470.120  
 12  2 16  7 47 45.0000000  0  1G15
  25014901.477           0.000    25014906.297   131454178.202 2 102431841.00345
        35.000          17.000         600.695         468.074  
 12  2 16  7 47 50.0000000  0  1G15
  25014330.758           0.000    25014336.211   131451181.803 2 102429506.16945
        34.000          18.000         598.133         466.078  
 12  2 16  7 47 55.0000000  0  1G15
  25013763.305           0.000    25013768.625   131448198.298 2 102427181.36145
        34.000          19.000         595.355         463.913  
 12  2 16  7 48  0.0000000  0  1G15
  25013198.930           0.000    25013203.180   131445227.795 2 102424866.66945
        35.000          19.000         592.789         461.914  
 12  2 16  7 48  5.0000000  0  1G15
  25012635.078           0.000    25012640.586   131442270.054 2 102422561.96945
        35.000          20.000         590.285         459.962  
 12  2 16  7 48 10.0000000  0  1G15
  25012075.844           0.000    25012080.453   131439325.388 2 102420267.43545
        34.000          18.000         587.656         457.914  
 12  2 16  7 48 15.0000000  0  1G15
  25011518.273           0.000    25011521.988   131436393.656 3 102417982.96745
        36.000          18.000         585.004         455.847  
 12  2 16  7 48 20.0000000  0  1G15
  25010962.242           0.000    25010966.273   131433474.891 3 102415708.61045
        37.000          18.000         582.480         453.881  
 12  2 16  7 48 25.0000000  0  1G15
  25010409.563           0.000    25010413.027   131430568.869 4 102413444.12745
        38.000          18.000         579.941         451.902  
 12  2 16  7 48 30.0000000  0  1G15
  25009859.117           0.000    25009862.730   131427676.138 4 102411190.08645
        38.000          19.000         577.160         449.735  
 12  2 16  7 48 35.0000000  0  1G15
  25009311.563           0.000    25009313.980   131424796.151 4 102408945.93945
        38.000          19.000         574.531         447.687  
 12  2 16  7 48 40.0000000  0  1G15
  25008766.258           0.000    25008768.137   131421928.971 4 102406711.72445
        39.000          18.000         572.109         445.799  
 12  2 16  7 48 45.0000000  0  1G15
  25008221.891           0.000    25008224.609   131419074.981 4 102404487.81845
        38.000          17.000         569.609         443.851  
 12  2 16  7 48 50.0000000  0  1G15
  25007682.000           0.000    25007683.316   131416233.894 4 102402273.92745
        38.000          17.000         566.934         441.766  
 12  2 16  7 48 55.0000000  0  1G15
  25007144.164           0.000    25007144.180   131413405.761 3 102400070.08145
        37.000          16.000         564.152         439.599  
 12  2 16  7 49  0.0000000  0  1G15
  25006608.688           0.000    25006608.418   131410590.433 4 102397876.34045
        38.000          16.000         561.750         437.727  
 12  2 16  7 49  5.0000000  0  1G15
  25006074.945           0.000    25006074.621   131407788.094 4 102395692.63845
        39.000          16.000         559.266         435.791  
 12  2 16  7 49 10.0000000  0  1G15
  25005543.992           0.000    25005544.473   131404998.872 3 102393519.20145
        37.000          18.000         556.543         433.670  
 12  2 16  7 49 15.0000000  0  1G15
  25005015.352           0.000    25005016.441   131402222.351 3 102391355.65045
        36.000          17.000         553.957         431.655  
 12  2 16  7 49 20.0000000  0  1G15
  25004490.023           0.000    25004490.730   131399458.937 3 102389202.35345
        36.000          18.000         551.387         429.652  
 12  2 16  7 49 25.0000000  0  1G15
  25003965.977           0.000    25003967.570   131396708.453 3 102387059.13545
        36.000          19.000         548.645         427.515  
 12  2 16  7 49 30.0000000  0  1G15
  25003445.891           0.000    25003446.613   131393970.554 3 102384925.73145
        37.000          19.000         546.309         425.695  
 12  2 16  7 49 35.0000000  0  1G15
  25002926.711           0.000    25002928.555   131391245.835 3 102382802.51645
        37.000          20.000         543.742         423.695  
 12  2 16  7 49 40.0000000  0  1G15
  25002411.273           0.000    25002412.809   131388534.163 3 102380689.53145
        37.000          20.000         541.027         421.580  
 12  2 16  7 49 45.0000000  0  1G15
  25001897.797           0.000    25001899.660   131385835.597 4 102378586.73645
        38.000          20.000         538.441         419.565  
 12  2 16  7 49 50.0000000  0  1G15
  25001386.063           0.000    25001389.211   131383149.896 3 102376494.03045
        37.000          19.000         535.879         417.568  
 12  2 16  7 49 55.0000000  0  1G15
  25000878.469           0.000    25000880.469   131380477.063 3 102374411.25545
        37.000          19.000         533.391         415.629  
 12  2 16  7 50  0.0000000  0  1G15
  25000371.492           0.000    25000374.887   131377817.014 3 102372338.52245
        36.000          20.000         530.805         413.614  
 12  2 16  7 50  5.0000000  0  1G15
  24999868.133           0.000    24999871.477   131375170.064 3 102370275.93245
        36.000          20.000         528.207         411.590  
 12  2 16  7 50 10.0000000  0  1G15
  24999365.656           0.000    24999370.527   131372535.840 3 102368223.34746
        37.000          21.000         525.527         409.502  
 12  2 16  7 50 15.0000000  0  1G15
  24998866.469           0.000    24998872.324   131369914.689 2 102366180.89746
        34.000          21.000         522.813         407.386  
 12  2 16  7 50 20.0000000  0  1G15
  24998371.625           0.000    24998375.941   131367306.497 1 102364148.52446
        33.000          21.000         520.383         405.493  
 12  2 16  7 50 25.0000000  0  1G15
  24997876.203           0.000    24997882.379   131364711.061 2 102362126.14245
        34.000          20.000         517.824         403.499  
 12  2 16  7 50 30.0000000  0  1G15
  24997384.578           0.000    24997390.621   131362128.868 1 102360114.06745
        33.000          20.000         514.918         401.235  
 12  2 16  7 50 35.0000000  0  1G15
  24996896.133           0.000    24996901.871   131359559.386 2 102358111.92846
        34.000          21.000         512.641         399.460  
 12  2 16  7 50 40.0000000  0  1G15
  24996409.227           0.000    24996415.188   131357002.891 2 102356119.84646
        35.000          21.000         510.191         397.552  
 12  2 16  7 50 45.0000000  0  1G15
  24995925.250           0.000    24995931.027   131354459.491 3 102354137.98046
        37.000          21.000         507.402         395.378  
 12  2 16  7 50 50.0000000  0  1G15
  24995444.039           0.000    24995449.879   131351928.791 3 102352166.02446
        37.000          21.000         504.816         393.363  
 12  2 16  7 50 55.0000000  0  1G15
  24994964.602           0.000    24994970.434   131349411.131 3 102350204.20346
        37.000          22.000         502.176         391.306  
 12  2 16  7 51  0.0000000  0  1G15
  24994489.000           0.000    24994493.613   131346906.502 3 102348252.59246
        36.000          21.000         499.727         389.397  
 12  2 16  7 51  5.0000000  0  1G15
  24994014.156           0.000    24994019.500   131344414.689 3 102346310.87546
        36.000          22.000         497.078         387.334  
 12  2 16  7 51 10.0000000  0  1G15
  24993543.086           0.000    24993547.688   131341935.677 3 102344379.17146
        36.000          22.000         494.359         385.215  
 12  2 16  7 51 15.0000000  0  1G15
  24993073.906           0.000    24993078.668   131339469.664 3 102342457.61746
        37.000          22.000         491.750         383.182  
 12  2 16  7 51 20.0000000  0  1G15
  24992606.875           0.000    24992611.676   131337016.324 4 102340545.93846
        39.000          22.000         489.504         381.432  
 12  2 16  7 51 25.0000000  0  1G15
  24992142.695           0.000    24992147.383   131334575.990 4 102338644.37146
        39.000          23.000         486.934         379.429  
 12  2 16  7 51 30.0000000  0  1G15
  24991681.484           0.000    24991684.969   131332148.887 5 102336753.13646
        41.000          22.000         484.078         377.204  
 12  2 16  7 51 35.0000000  0  1G15
  24991222.227           0.000    24991225.969   131329734.524 5 102334871.83146
        40.000          23.000         481.504         375.198  
 12  2 16  7 51 40.0000000  0  1G15
  24990765.547           0.000    24990769.063   131327333.030 5 102333000.52746
        41.000          22.000         479.168         373.378  
 12  2 16  7 51 45.0000000  0  1G15
  24990310.680           0.000    24990314.262   131324944.458 5 102331139.31446
        40.000          22.000         476.324         371.162  
 12  2 16  7 51 50.0000000  0  1G15
  24989859.164           0.000    24989861.766   131322568.782 5 102329288.12146
        40.000          23.000         473.961         369.320  
 12  2 16  7 51 55.0000000  0  1G15
  24989409.414           0.000    24989412.191   131320206.237 5 102327447.16646
        41.000          24.000         471.207         367.174  
 12  2 16  7 52  0.0000000  0  1G15
  24988962.406           0.000    24988964.715   131317856.413 5 102325616.14746
        41.000          23.000         468.633         365.168  
 12  2 16  7 52  5.0000000  0  1G15
  24988518.297           0.000    24988519.895   131315519.658 6 102323795.28946
        43.000          23.000         466.258         363.318  
 12  2 16  7 52 10.0000000  0  1G15
  24988076.023           0.000    24988077.645   131313195.638 5 102321984.38346
        42.000          22.000         463.469         361.144  
 12  2 16  7 52 15.0000000  0  1G15
  24987636.031           0.000    24987637.188   131310884.668 5 102320183.61646
        42.000          22.000         460.973         359.199  
 12  2 16  7 52 20.0000000  0  1G15
  24987197.563           0.000    24987199.949   131308586.395 4 102318392.76846
        39.000          22.000         458.379         357.178  
 12  2 16  7 52 25.0000000  0  1G15
  24986763.313           0.000    24986764.508   131306301.040 5 102316611.95946
        40.000          22.000         455.883         355.233  
 12  2 16  7 52 30.0000000  0  1G15
  24986331.727           0.000    24986332.422   131304028.781 5 102314841.36446
        41.000          22.000         453.277         353.203  
 12  2 16  7 52 35.0000000  0  1G15
  24985901.164           0.000    24985902.301   131301769.149 6 102313080.60846
        43.000          22.000         450.742         351.228  
 12  2 16  7 52 40.0000000  0  1G15
  24985473.930           0.000    24985474.375   131299522.508 5 102311329.96846
        42.000          22.000         447.906         349.018  
 12  2 16  7 52 45.0000000  0  1G15
  24985048.586           0.000    24985048.930   131297288.848 5 102309589.41945
        40.000          20.000         445.527         347.164  
 12  2 16  7 52 50.0000000  0  1G15
  24984626.180           0.000    24984625.809   131295068.020 5 102307858.88445
        41.000          19.000         442.961         345.164  
 12  2 16  7 52 55.0000000  0  1G15
  24984206.445           0.000    24984204.836   131292860.143 4 102306138.40145
        39.000          19.000         440.434         343.195  
 12  2 16  7 53  0.0000000  0  1G15
  24983788.438           0.000    24983786.563   131290665.013 4 102304427.90545
        39.000          18.000         437.945         341.256  
 12  2 16  7 53  5.0000000  0  1G15
  24983372.445           0.000    24983371.211   131288482.852 4 102302727.54345
        38.000          17.000         435.105         339.043  
 12  2 16  7 53 10.0000000  0  1G15
  24982959.664           0.000    24982958.145   131286313.814 4 102301037.37945
        38.000          17.000         432.617         337.104  
 12  2 16  7 53 15.0000000  0  1G15
  24982549.539           0.000    24982547.719   131284157.442 4 102299357.09845
        38.000          18.000         430.016         335.077  
 12  2 16  7 53 20.0000000  0  1G15
  24982140.938           0.000    24982140.602   131282014.079 4 102297686.91345
        38.000          17.000         427.293         332.956  
 12  2 16  7 53 25.0000000  0  1G15
  24981734.914           0.000    24981734.766   131279883.446 3 102296026.66745
        37.000          19.000         424.785         331.001  
 12  2 16  7 53 30.0000000  0  1G15
  24981332.461           0.000    24981331.859   131277765.745 4 102294376.53045
        38.000          18.000         422.348         329.102  
 12  2 16  7 53 35.0000000  0  1G15
  24980931.961           0.000    24980931.402   131275660.971 4 102292736.47945
        38.000          18.000         419.629         326.984  
 12  2 16  7 53 40.0000000  0  1G15
  24980533.227           0.000    24980533.613   131273569.106 3 102291106.40245
        37.000          19.000         416.965         324.908  
 12  2 16  7 53 45.0000000  0  1G15
  24980137.719           0.000    24980138.141   131271490.140 3 102289486.44645
        37.000          18.000         414.309         322.838  
 12  2 16  7 53 50.0000000  0  1G15
  24979744.578           0.000    24979745.695   131269424.083 3 102287876.54045
        37.000          17.000         411.840         320.914  
 12  2 16  7 53 55.0000000  0  1G15
  24979353.734           0.000    24979354.629   131267370.837 2 102286276.63145
        35.000          18.000         409.324         318.954  
 12  2 16  7 54  0.0000000  0  1G15
  24978964.875           0.000    24978966.613   131265330.377 2 102284686.67345
        35.000          18.000         406.887         317.055  
 12  2 16  7 54  5.0000000  0  1G15
  24978578.883           0.000    24978581.223   131263302.873 2 102283106.78745
        35.000          19.000         404.223         314.979  
 12  2 16  7 54 10.0000000  0  1G15
  24978195.078           0.000    24978198.043   131261288.077 3 102281536.84645
        36.000          19.000         401.551         312.897  
 12  2 16  7 54 15.0000000  0  1G15
  24977814.859           0.000    24977817.738   131259286.304 3 102279976.98945
        36.000          20.000         399.008         310.915  
 12  2 16  7 54 20.0000000  0  1G15
  24977435.250           0.000    24977439.727   131257297.385 2 102278427.18545
        34.000          20.000         396.352         308.845  
 12  2 16  7 54 25.0000000  0  1G15
  24977060.320           0.000    24977064.375   131255321.320 3 102276887.35946
        36.000          21.000         393.871         306.913  
 12  2 16  7 54 30.0000000  0  1G15
  24976685.938           0.000    24976690.789   131253357.975 3 102275357.50746
        36.000          21.000         391.563         305.114  
 12  2 16  7 54 35.0000000  0  1G15
  24976315.672           0.000    24976320.066   131251407.906 3 102273837.95146
        36.000          23.000         388.801         302.962  
 12  2 16  7 54 40.0000000  0  1G15
  24975946.430           0.000    24975951.887   131249470.522 3 102272328.33546
        36.000          22.000         385.988         300.770  
 12  2 16  7 54 45.0000000  0  1G15
  24975580.063           0.000    24975585.891   131247545.928 3 102270828.65446
        36.000          22.000         383.355         298.719  
 12  2 16  7 54 50.0000000  0  1G15
  24975217.242           0.000    24975222.277   131245634.252 3 102269339.03646
        37.000          22.000         381.004         296.886  
 12  2 16  7 54 55.0000000  0  1G15
  24974855.641           0.000    24974861.188   131243735.418 4 102267859.42446
        39.000          23.000         378.719         295.106  
 12  2 16  7 55  0.0000000  0  1G15
  24974497.625           0.000    24974502.477   131241849.407 5 102266389.81546
        40.000          22.000         375.902         292.911  
 12  2 16  7 55  5.0000000  0  1G15
  24974141.273           0.000    24974145.543   131239975.896 4 102264929.91746
        39.000          24.000         373.313         290.893  
 12  2 16  7 55 10.0000000  0  1G15
  24973786.617           0.000    24973792.141   131238115.739 4 102263480.44046
        38.000          23.000         370.906         289.018  
 12  2 16  7 55 15.0000000  0  1G15
  24973435.547           0.000    24973440.535   131236268.367 5 102262040.92846
        40.000          24.000         368.219         286.924  
 12  2 16  7 55 20.0000000  0  1G15
  24973085.602           0.000    24973091.320   131234433.670 5 102260611.30046
        40.000          26.000         365.617         284.897  
 12  2 16  7 55 25.0000000  0  1G15
  24972740.203           0.000    24972745.137   131232611.858 4 102259191.71646
        38.000          26.000         363.027         282.878  
 12  2 16  7 55 30.0000000  0  1G15
  24972395.719           0.000    24972400.789   131230802.968 4 102257782.19246
        38.000          26.000         360.250         280.714  
 12  2 16  7 55 35.0000000  0  1G15
  24972053.734           0.000    24972058.828   131229006.752 4 102256382.54346
        38.000          27.000         357.707         278.733  
 12  2 16  7 55 40.0000000  0  1G15
  24971715.359           0.000    24971720.078   131227223.588 4 102254993.05946
        39.000          26.000         355.262         276.827  
 12  2 16  7 55 45.0000000  0  1G15
  24971378.305           0.000    24971383.371   131225453.258 5 102253613.57446
        41.000          26.000         352.707         274.837  
 12  2 16  7 55 50.0000000  0  1G15
  24971043.484           0.000    24971048.902   131223695.689 4 102252244.04946
        38.000          26.000         349.984         272.715  
 12  2 16  7 55 55.0000000  0  1G15
  24970711.477           0.000    24970716.867   131221950.713 5 102250884.34646
        40.000          26.000         347.609         270.864  
 12  2 16  7 56  0.0000000  0  1G15
  24970381.781           0.000    24970386.844   131220218.614 5 102249534.62746
        41.000          26.000         345.164         268.959  
 12  2 16  7 56  5.0000000  0  1G15
  24970055.406           0.000    24970059.379   131218499.529 5 102248195.07746
        40.000          25.000         342.586         266.950  
 12  2 16  7 56 10.0000000  0  1G15
  24969730.680           0.000    24969734.844   131216793.403 5 102246865.62546
        40.000          27.000         339.840         264.810  
 12  2 16  7 56 15.0000000  0  1G15
  24969408.477           0.000    24969412.336   131215099.928 5 102245546.04046
        41.000          27.000         337.406         262.914  
 12  2 16  7 56 20.0000000  0  1G15
  24969089.227           0.000    24969092.613   131213419.278 5 102244236.42646
        41.000          25.000         334.773         260.862  
 12  2 16  7 56 25.0000000  0  1G15
  24968771.453           0.000    24968774.941   131211751.465 5 102242936.84746
        42.000          25.000         332.273         258.914  
 12  2 16  7 56 30.0000000  0  1G15
  24968456.570           0.000    24968459.965   131210096.423 5 102241647.21046
        41.000          26.000         329.828         257.009  
 12  2 16  7 56 35.0000000  0  1G15
  24968143.844           0.000    24968147.547   131208454.288 5 102240367.61846
        40.000          26.000         327.207         254.967  
 12  2 16  7 56 40.0000000  0  1G15
  24967834.008           0.000    24967837.492   131206824.830 5 102239097.91946
        41.000          25.000         324.734         253.040  
 12  2 16  7 56 45.0000000  0  1G15
  24967525.656           0.000    24967529.984   131205208.318 5 102237838.31146
        40.000          25.000         322.117         251.000  
 12  2 16  7 56 50.0000000  0  1G15
  24967221.086           0.000    24967225.094   131203604.638 5 102236588.70246
        40.000          25.000         319.488         248.952  
 12  2 16  7 56 55.0000000  0  1G15
  24966918.305           0.000    24966922.406   131202013.619 5 102235348.95046
        41.000          24.000         316.852         246.897  
 12  2 16  7 57  0.0000000  0  1G15
  24966618.766           0.000    24966621.770   131200435.418 4 102234119.17346
        39.000          25.000         314.316         244.922  
 12  2 16  7 57  5.0000000  0  1G15
  24966319.945           0.000    24966323.699   131198869.821 4 102232899.23246
        39.000          24.000         311.680         242.867  
 12  2 16  7 57 10.0000000  0  1G15
  24966024.688           0.000    24966028.211   131197317.265 5 102231689.46246
        40.000          23.000         309.242         240.968  
 12  2 16  7 57 15.0000000  0  1G15
  24965730.922           0.000    24965735.004   131195777.457 5 102230489.62646
        41.000          24.000         306.688         238.977  
 12  2 16  7 57 20.0000000  0  1G15
  24965441.563           0.000    24965444.309   131194250.423 5 102229299.72246
        40.000          22.000         304.090         236.953  
 12  2 16  7 57 25.0000000  0  1G15
  24965152.180           0.000    24965155.770   131192736.076 4 102228119.72346
        39.000          22.000         301.648         235.051  
 12  2 16  7 57 30.0000000  0  1G15
  24964866.711           0.000    24964869.898   131191234.465 5 102226949.63646
        40.000          22.000         299.172         233.121  
 12  2 16  7 57 35.0000000  0  1G15
  24964583.758           0.000    24964586.500   131189745.958 5 102225789.75346
        41.000          22.000         296.543         231.072  
 12  2 16  7 57 40.0000000  0  1G15
  24964302.883           0.000    24964305.160   131188270.124 4 102224639.74645
        39.000          20.000         294.035         229.118  
 12  2 16  7 57 45.0000000  0  1G15
  24964024.406           0.000    24964026.523   131186807.196 5 102223499.81046
        40.000          21.000         291.504         227.146  
 12  2 16  7 57 50.0000000  0  1G15
  24963747.500           0.000    24963750.656   131185357.141 4 102222369.88946
        39.000          21.000         288.867         225.091  
 12  2 16  7 57 55.0000000  0  1G15
  24963474.523           0.000    24963476.965   131183919.568 5 102221249.69245
        40.000          20.000         286.371         223.146  
 12  2 16  7 58  0.0000000  0  1G15
  24963203.039           0.000    24963205.082   131182495.149 4 102220139.75646
        39.000          21.000         283.594         220.982  
 12  2 16  7 58  5.0000000  0  1G15
  24962935.047           0.000    24962936.367   131181083.316 5 102219039.60446
        41.000          21.000         280.965         218.934  
 12  2 16  7 58 10.0000000  0  1G15
  24962668.477           0.000    24962669.754   131179683.917 5 102217949.18846
        40.000          21.000         278.539         217.043  
 12  2 16  7 58 15.0000000  0  1G15
  24962403.992           0.000    24962406.270   131178297.679 5 102216869.00846
        40.000          21.000         275.922         215.004  
 12  2 16  7 58 20.0000000  0  1G15
  24962143.008           0.000    24962144.590   131176924.146 4 102215798.72345
        39.000          20.000         273.355         213.004  
 12  2 16  7 58 25.0000000  0  1G15
  24961884.070           0.000    24961885.605   131175563.203 3 102214738.25445
        37.000          20.000         271.059         211.214  
 12  2 16  7 58 30.0000000  0  1G15
  24961627.523           0.000    24961628.598   131174215.256 4 102213687.86845
        38.000          19.000         268.180         208.971  
 12  2 16  7 58 35.0000000  0  1G15
  24961373.141           0.000    24961374.367   131172879.807 3 102212647.29245
        37.000          19.000         265.758         207.084  
 12  2 16  7 58 40.0000000  0  1G15
  24961121.508           0.000    24961122.012   131171557.343 3 102211616.79545
        37.000          17.000         263.227         205.112  
 12  2 16  7 58 45.0000000  0  1G15
  24960872.477           0.000    24960873.094   131170247.405 3 102210596.03845
        36.000          17.000         260.789         203.212  
 12  2 16  7 58 50.0000000  0  1G15
  24960624.898           0.000    24960625.953   131168950.233 3 102209585.27545
        37.000          18.000         258.141         201.149  
 12  2 16  7 58 55.0000000  0  1G15
  24960379.883           0.000    24960381.281   131167665.935 3 102208584.50045
        37.000          17.000         255.539         199.121  
 12  2 16  7 59  0.0000000  0  1G15
  24960138.750           0.000    24960139.418   131166394.464 4 102207593.75445
        38.000          18.000         253.020         197.158  
 12  2 16  7 59  5.0000000  0  1G15
  24959899.891           0.000    24959899.648   131165135.759 4 102206612.90945
        39.000          19.000         250.633         195.298  
 12  2 16  7 59 10.0000000  0  1G15
  24959662.375           0.000    24959662.730   131163889.719 4 102205641.99445
        38.000          19.000         247.949         193.207  
 12  2 16  7 59 15.0000000  0  1G15
  24959427.492           0.000    24959428.348   131162656.663 3 102204681.13345
        37.000          19.000         245.395         191.217  
 12  2 16  7 59 20.0000000  0  1G15
  24959195.961           0.000    24959196.832   131161436.046 4 102203729.99545
        39.000          19.000         242.824         189.214  
 12  2 16  7 59 25.0000000  0  1G15
  24958964.859           0.000    24958966.672   131160228.249 4 102202788.83745
        38.000          19.000         240.266         187.220  
 12  2 16  7 59 30.0000000  0  1G15
  24958737.992           0.000    24958739.652   131159033.229 4 102201857.65645
        38.000          20.000         237.832         185.324  
 12  2 16  7 59 35.0000000  0  1G15
  24958513.734           0.000    24958514.934   131157850.688 4 102200936.20545
        39.000          20.000         235.309         183.357  
 12  2 16  7 59 40.0000000  0  1G15
  24958290.453           0.000    24958291.938   131156681.148 4 102200024.88945
        39.000          20.000         232.789         181.394  
 12  2 16  7 59 45.0000000  0  1G15
  24958069.805           0.000    24958071.633   131155524.262 4 102199123.42945
        39.000          20.000         230.301         179.455  
 12  2 16  7 59 50.0000000  0  1G15
  24957853.328           0.000    24957854.125   131154380.193 4 102198231.91746
        39.000          21.000         227.398         177.194  
 12  2 16  7 59 55.0000000  0  1G15
  24957637.180           0.000    24957638.844   131153248.600 5 102197350.18146
        40.000          21.000         225.043         175.358  
 12  2 16  8  0  0.0000000  0  1G15
  24957424.695           0.000    24957426.535   131152130.000 4 102196478.51345
        39.000          20.000         222.555         173.419  
 12  2 16  8  0  5.0000000  0  1G15
  24957213.773           0.000    24957216.449   131151023.922 5 102195616.63945
        40.000          20.000         220.031         171.453  
 12  2 16  8  0 10.0000000  0  1G15
  24957006.531           0.000    24957008.309   131149930.520 5 102194764.67045
        40.000          20.000         217.605         169.563  
 12  2 16  8  0 15.0000000  0  1G15
  24956800.992           0.000    24956803.070   131148849.915 5 102193922.63245
        41.000          20.000         214.781         167.362  
 12  2 16  8  0 20.0000000  0  1G15
  24956597.633           0.000    24956599.629   131147781.865 5 102193090.36645
        41.000          20.000         212.273         165.408  
 12  2 16  8  0 25.0000000  0  1G15
  24956396.570           0.000    24956398.980   131146726.523 5 102192268.03045
        41.000          20.000         209.871         163.536  
 12  2 16  8  0 30.0000000  0  1G15
  24956198.422           0.000    24956200.957   131145684.024 5 102191455.70445
        41.000          20.000         207.273         161.512  
 12  2 16  8  0 35.0000000  0  1G15
  24956003.000           0.000    24956004.813   131144654.180 5 102190653.20246
        40.000          21.000         204.719         159.521  
 12  2 16  8  0 40.0000000  0  1G15
  24955808.352           0.000    24955811.387   131143637.057 5 102189860.64346
        40.000          22.000         202.242         157.591  
 12  2 16  8  0 45.0000000  0  1G15
  24955617.602           0.000    24955620.141   131142632.585 5 102189077.92846
        40.000          22.000         199.660         155.579  
 12  2 16  8  0 50.0000000  0  1G15
  24955429.930           0.000    24955431.766   131141640.925 5 102188305.20646
        40.000          22.000         197.020         153.522  
 12  2 16  8  0 55.0000000  0  1G15
  24955243.086           0.000    24955245.508   131140661.698 5 102187542.16746
        41.000          22.000         194.707         151.720  
 12  2 16  8  1  0.0000000  0  1G15
  24955059.000           0.000    24955061.684   131139695.465 5 102186789.26846
        40.000          22.000         191.879         149.516  
 12  2 16  8  1  5.0000000  0  1G15
  24954877.469           0.000    24954880.383   131138741.830 4 102186046.18246
        39.000          21.000         189.434         147.611  
 12  2 16  8  1 10.0000000  0  1G15
  24954698.281           0.000    24954701.473   131137800.760 4 102185312.90446
        39.000          21.000         187.027         145.736  
 12  2 16  8  1 15.0000000  0  1G15
  24954521.375           0.000    24954524.789   131136872.305 3 102184589.44046
        37.000          22.000         184.547         143.803  
 12  2 16  8  1 20.0000000  0  1G15
  24954346.898           0.000    24954350.465   131135956.618 4 102183875.91346
        39.000          22.000         181.809         141.669  
 12  2 16  8  1 25.0000000  0  1G15
  24954175.898           0.000    24954179.402   131135053.306 5 102183172.05646
        40.000          22.000         179.348         139.751  
 12  2 16  8  1 30.0000000  0  1G15
  24954006.258           0.000    24954009.879   131134162.914 5 102182478.22446
        41.000          22.000         176.852         137.806  
 12  2 16  8  1 35.0000000  0  1G15
  24953839.219           0.000    24953842.770   131133285.263 5 102181794.35146
        40.000          23.000         174.281         135.804  
 12  2 16  8  1 40.0000000  0  1G15
  24953673.789           0.000    24953678.008   131132420.260 4 102181120.30946
        39.000          22.000         171.680         133.776  
 12  2 16  8  1 45.0000000  0  1G15
  24953512.352           0.000    24953515.699   131131567.620 4 102180455.90446
        39.000          22.000         169.168         131.819  
 12  2 16  8  1 50.0000000  0  1G15
  24953351.953           0.000    24953356.340   131130727.861 4 102179801.52946
        38.000          22.000         166.605         129.822  
 12  2 16  8  1 55.0000000  0  1G15
  24953195.078           0.000    24953199.219   131129900.704 4 102179156.98846
        39.000          22.000         164.105         127.874  
 12  2 16  8  2  0.0000000  0  1G15
  24953040.203           0.000    24953043.844   131129085.983 4 102178522.15246
        39.000          22.000         161.691         125.993  
 12  2 16  8  2  5.0000000  0  1G15
  24952887.609           0.000    24952891.094   131128284.236 4 102177897.39546
        39.000          22.000         159.137         124.003  
 12  2 16  8  2 10.0000000  0  1G15
  24952735.930           0.000    24952741.063   131127495.154 3 102177282.55046
        37.000          22.000         156.527         121.969  
 12  2 16  8  2 15.0000000  0  1G15
  24952588.305           0.000    24952593.598   131126718.780 4 102176677.58746
        38.000          21.000         154.020         120.015  
 12  2 16  8  2 20.0000000  0  1G15
  24952443.875           0.000    24952448.297   131125954.963 4 102176082.40446
        38.000          22.000         151.457         118.018  
 12  2 16  8  2 25.0000000  0  1G15
  24952300.711           0.000    24952305.016   131125203.657 4 102175496.97246
        38.000          22.000         148.875         116.006  
 12  2 16  8  2 30.0000000  0  1G15
  24952161.281           0.000    24952164.836   131124464.806 4 102174921.23546
        39.000          23.000         146.578         114.217  
 12  2 16  8  2 35.0000000  0  1G15
  24952022.164           0.000    24952026.227   131123738.816 5 102174355.52746
        40.000          23.000         144.000         112.208  
 12  2 16  8  2 40.0000000  0  1G15
  24951886.898           0.000    24951890.602   131123025.158 5 102173799.45746
        41.000          22.000         141.488         110.251  
 12  2 16  8  2 45.0000000  0  1G15
  24951753.313           0.000    24951757.129   131122324.309 5 102173253.34646
        41.000          22.000         139.008         108.318  
 12  2 16  8  2 50.0000000  0  1G15
  24951622.828           0.000    24951626.371   131121636.175 5 102172717.12446
        41.000          23.000         136.234         106.157  
 12  2 16  8  2 55.0000000  0  1G15
  24951494.227           0.000    24951497.484   131120960.399 5 102172190.53646
        40.000          24.000         133.836         104.288  
 12  2 16  8  3  0.0000000  0  1G15
  24951366.977           0.000    24951371.219   131120297.236 4 102171673.77446
        39.000          23.000         131.348         102.349  
 12  2 16  8  3  5.0000000  0  1G15
  24951243.891           0.000    24951247.207   131119646.780 5 102171166.90646
        41.000          24.000         128.773         100.343  
 12  2 16  8  3 10.0000000  0  1G15
  24951122.422           0.000    24951126.043   131119008.778 5 102170669.75946
        41.000          24.000         126.324          98.434  
 12  2 16  8  3 15.0000000  0  1G15
  24951003.531           0.000    24951007.457   131118383.486 5 102170182.53146
        41.000          24.000         123.754          96.432  
 12  2 16  8  3 20.0000000  0  1G15
  24950887.469           0.000    24950891.180   131117770.809 5 102169705.11546
        42.000          24.000         121.359          94.566  
 12  2 16  8  3 25.0000000  0  1G15
  24950773.273           0.000    24950776.613   131117170.842 5 102169237.62046
        41.000          25.000         118.734          92.520  
 12  2 16  8  3 30.0000000  0  1G15
  24950661.109           0.000    24950665.168   131116583.353 5 102168779.83846
        41.000          24.000         116.230          90.569  
 12  2 16  8  3 35.0000000  0  1G15
  24950552.297           0.000    24950556.078   131116008.415 5 102168331.83546
        41.000          25.000         113.715          88.609  
 12  2 16  8  3 40.0000000  0  1G15
  24950445.266           0.000    24950449.109   131115446.138 5 102167893.68346
        42.000          26.000         111.316          86.740  
 12  2 16  8  3 45.0000000  0  1G15
  24950339.922           0.000    24950344.223   131114896.267 5 102167465.21846
        41.000          25.000         108.625          84.643  
 12  2 16  8  3 50.0000000  0  1G15
  24950238.102           0.000    24950241.309   131114358.894 5 102167046.49046
        40.000          25.000         106.336          82.859  
 12  2 16  8  3 55.0000000  0  1G15
  24950138.438           0.000    24950140.926   131113834.346 4 102166637.71946
        39.000          25.000         103.582          80.713  
 12  2 16  8  4  0.0000000  0  1G15
  24950040.805           0.000    24950043.680   131113322.236 5 102166238.68446
        41.000          22.000         101.270          78.911  
 12  2 16  8  4  5.0000000  0  1G15
  24949945.875           0.000    24949948.762   131112822.765 5 102165849.49046
        40.000          23.000          98.629          76.854  
 12  2 16  8  4 10.0000000  0  1G15
  24949853.398           0.000    24949856.145   131112335.693 5 102165469.93646
        40.000          25.000          96.250          75.000  
 12  2 16  8  4 15.0000000  0  1G15
  24949763.273           0.000    24949765.934   131111861.329 5 102165100.30046
        41.000          23.000          93.469          72.833  
 12  2 16  8  4 20.0000000  0  1G15
  24949675.141           0.000    24949678.531   131111399.372 5 102164740.34146
        40.000          25.000          91.055          70.952  
 12  2 16  8  4 25.0000000  0  1G15
  24949589.359           0.000    24949593.031   131110949.964 4 102164390.16346
        39.000          25.000          88.695          69.113  
 12  2 16  8  4 30.0000000  0  1G15
  24949505.906           0.000    24949509.934   131110513.309 4 102164049.89646
        39.000          25.000          86.027          67.034  
 12  2 16  8  4 35.0000000  0  1G15
  24949425.836           0.000    24949429.238   131110089.134 4 102163719.36446
        39.000          26.000          83.691          65.214  
 12  2 16  8  4 40.0000000  0  1G15
  24949346.602           0.000    24949350.727   131109677.382 4 102163398.51846
        38.000          25.000          81.246          63.309  
 12  2 16  8  4 45.0000000  0  1G15
  24949270.648           0.000    24949275.234   131109278.435 4 102163087.66346
        38.000          24.000          78.488          61.160  
 12  2 16  8  4 50.0000000  0  1G15
  24949197.266           0.000    24949201.789   131108891.646 4 102162786.24946
        38.000          24.000          76.176          59.358  
 12  2 16  8  4 55.0000000  0  1G15
  24949126.188           0.000    24949130.758   131108517.509 4 102162494.70746
        39.000          25.000          73.441          57.227  
 12  2 16  8  5  0.0000000  0  1G15
  24949057.531           0.000    24949061.934   131108155.813 4 102162212.85346
        38.000          25.000          71.004          55.328  
 12  2 16  8  5  5.0000000  0  1G15
  24948990.867           0.000    24948995.063   131107806.543 4 102161940.67546
        38.000          24.000          68.727          53.553  
 12  2 16  8  5 10.0000000  0  1G15
  24948928.156           0.000    24948931.121   131107469.792 4 102161678.27146
        38.000          25.000          66.227          51.605  
 12  2 16  8  5 15.0000000  0  1G15
  24948865.156           0.000    24948869.164   131107145.863 3 102161425.84046
        37.000          22.000          63.559          49.526  
 12  2 16  8  5 20.0000000  0  1G15
  24948805.422           0.000    24948809.723   131106834.295 3 102161183.08446
        37.000          22.000          61.020          47.548  
 12  2 16  8  5 25.0000000  0  1G15
  24948748.586           0.000    24948752.945   131106535.104 3 102160949.94946
        37.000          22.000          58.746          45.776  
 12  2 16  8  5 30.0000000  0  1G15
  24948694.273           0.000    24948698.488   131106248.698 4 102160726.78946
        38.000          23.000          56.148          43.752  
 12  2 16  8  5 35.0000000  0  1G15
  24948642.125           0.000    24948646.004   131105974.572 3 102160513.18046
        37.000          23.000          53.891          41.993  
 12  2 16  8  5 40.0000000  0  1G15
  24948591.977           0.000    24948596.473   131105713.174 4 102160309.47946
        38.000          22.000          51.090          39.810  
 12  2 16  8  5 45.0000000  0  1G15
  24948544.563           0.000    24948549.254   131105464.003 4 102160115.31046
        38.000          22.000          48.586          37.859  
 12  2 16  8  5 50.0000000  0  1G15
  24948499.977           0.000    24948504.520   131105227.334 4 102159930.90446
        38.000          23.000          46.035          35.872  
 12  2 16  8  5 55.0000000  0  1G15
  24948457.539           0.000    24948461.840   131105003.253 4 102159756.29146
        39.000          22.000          43.754          34.094  
 12  2 16  8  6  0.0000000  0  1G15
  24948416.789           0.000    24948421.367   131104791.725 3 102159591.47546
        37.000          22.000          40.969          31.924  
 12  2 16  8  6  5.0000000  0  1G15
  24948378.836           0.000    24948383.219   131104592.233 4 102159436.01646
        38.000          24.000          38.508          30.006  
 12  2 16  8  6 10.0000000  0  1G15
  24948343.836           0.000    24948347.336   131104405.513 3 102159290.54146
        37.000          22.000          36.105          28.134  
 12  2 16  8  6 15.0000000  0  1G15
  24948310.531           0.000    24948313.742   131104231.411 3 102159154.86246
        37.000          22.000          33.633          26.207  
 12  2 16  8  6 20.0000000  0  1G15
  24948279.969           0.000    24948283.500   131104069.472 4 102159028.67646
        38.000          22.000          31.117          24.247  
 12  2 16  8  6 25.0000000  0  1G15
  24948251.875           0.000    24948255.309   131103919.961 4 102158912.14846
        38.000          23.000          28.773          22.421  
 12  2 16  8  6 30.0000000  0  1G15
  24948225.297           0.000    24948229.379   131103783.107 4 102158805.51146
        38.000          23.000          26.113          20.348  
 12  2 16  8  6 35.0000000  0  1G15
  24948201.617           0.000    24948205.297   131103658.788 3 102158708.62946
        37.000          22.000          23.773          18.525  
 12  2 16  8  6 40.0000000  0  1G15
  24948179.703           0.000    24948183.859   131103546.884 3 102158621.42546
        36.000          23.000          21.129          16.464  
 12  2 16  8  6 45.0000000  0  1G15
  24948161.328           0.000    24948165.309   131103447.421 3 102158543.92046
        37.000          22.000          18.492          14.409  
 12  2 16  8  6 50.0000000  0  1G15
  24948144.016           0.000    24948149.270   131103360.283 3 102158476.01546
        37.000          22.000          16.199          12.623  
 12  2 16  8  6 55.0000000  0  1G15
  24948129.930           0.000    24948134.766   131103285.572 3 102158417.78646
        36.000          22.000          13.594          10.593  
 12  2 16  8  7  0.0000000  0  1G15
  24948118.508           0.000    24948123.332   131103223.291 3 102158369.23746
        37.000          22.000          11.113           8.660  
 12  2 16  8  7  5.0000000  0  1G15
  24948109.055           0.000    24948112.629   131103173.475 3 102158330.43846
        37.000          23.000           8.809           6.864  
 12  2 16  8  7 10.0000000  0  1G15
  24948101.422           0.000    24948106.523   131103136.134 3 102158301.30546
        37.000          23.000           6.207           4.837  
 12  2 16  8  7 15.0000000  0  1G15
  24948097.297           0.000    24948101.496   131103111.105 3 102158281.81046
        37.000          22.000           3.715           2.895  
 12  2 16  8  7 20.0000000  0  1G15
  24948094.188           0.000    24948098.918   131103098.348 3 102158271.82746
        37.000          22.000           1.258           0.980  
 12  2 16  8  7 25.0000000  0  1G15
  24948094.906           0.000    24948098.723   131103097.987 3 102158271.56346
        37.000          22.000          -1.102          -0.858  
 12  2 16  8  7 30.0000000  0  1G15
  24948097.328           0.000    24948101.074   131103110.226 3 102158281.09846
        37.000          22.000          -3.656          -2.849  
 12  2 16  8  7 35.0000000  0  1G15
  24948101.414           0.000    24948105.645   131103134.703 3 102158300.17046
        36.000          22.000          -6.031          -4.700  
 12  2 16  8  7 40.0000000  0  1G15
  24948108.258           0.000    24948112.500   131103171.655 2 102158328.95146
        35.000          21.000          -8.570          -6.678  
 12  2 16  8  7 45.0000000  0  1G15
  24948117.500           0.000    24948122.305   131103221.191 3 102158367.58646
        36.000          21.000         -11.426          -8.903  
 12  2 16  8  7 50.0000000  0  1G15
  24948129.625           0.000    24948133.734   131103283.093 2 102158415.78246
        35.000          21.000         -13.863         -10.803  
 12  2 16  8  7 55.0000000  0  1G15
  24948143.125           0.000    24948148.023   131103356.974 3 102158473.33746
        37.000          21.000         -16.074         -12.525  
 12  2 16  8  8  0.0000000  0  1G15
  24948159.531           0.000    24948164.563   131103443.446 2 102158540.71846
        35.000          22.000         -18.461         -14.385  
 12  2 16  8  8  5.0000000  0  1G15
  24948179.250           0.000    24948183.395   131103542.232 3 102158617.66946
        36.000          22.000         -20.895         -16.281  
 12  2 16  8  8 10.0000000  0  1G15
  24948200.359           0.000    24948204.969   131103653.573 2 102158704.40646
        35.000          22.000         -23.641         -18.421  
 12  2 16  8  8 15.0000000  0  1G15
  24948223.492           0.000    24948228.371   131103777.409 3 102158800.90846
        36.000          22.000         -26.141         -20.369  
 12  2 16  8  8 20.0000000  0  1G15
  24948249.773           0.000    24948254.117   131103913.274 3 102158906.76546
        36.000          22.000         -28.441         -22.162  
 12  2 16  8  8 25.0000000  0  1G15
  24948276.938           0.000    24948282.641   131104061.460 2 102159022.23546
        35.000          22.000         -30.605         -23.848  
 12  2 16  8  8 30.0000000  0  1G15
  24948308.445           0.000    24948313.980   131104222.481 2 102159147.68646
        35.000          22.000         -33.367         -26.000  
 12  2 16  8  8 35.0000000  0  1G15
  24948340.188           0.000    24948346.250   131104395.374 2 102159282.42446
        34.000          21.000         -36.055         -28.095  
 12  2 16  8  8 40.0000000  0  1G15
  24948375.375           0.000    24948381.609   131104580.827 2 102159426.93946
        34.000          22.000         -38.289         -29.836  
 12  2 16  8  8 45.0000000  0  1G15
  24948412.602           0.000    24948418.941   131104778.650 2 102159581.06946
        34.000          22.000         -40.809         -31.799  
 12  2 16  8  8 50.0000000  0  1G15
  24948452.703           0.000    24948458.922   131104988.781 2 102159744.80846
        34.000          21.000         -43.367         -33.793  
 12  2 16  8  8 55.0000000  0  1G15
  24948495.969           0.000    24948500.957   131105210.969 2 102159917.95646
        35.000          21.000         -45.699         -35.610  
 12  2 16  8  9  0.0000000  0  1G15
  24948540.953           0.000    24948545.723   131105445.656 2 102160100.82546
        34.000          22.000         -47.875         -37.305  
 12  2 16  8  9  5.0000000  0  1G15
  24948587.727           0.000    24948592.723   131105692.587 2 102160293.20746
        35.000          22.000         -50.738         -39.536  
 12  2 16  8  9 10.0000000  0  1G15
  24948636.992           0.000    24948642.395   131105951.901 3 102160495.29746
        36.000          22.000         -53.391         -41.603  
 12  2 16  8  9 15.0000000  0  1G15
  24948688.453           0.000    24948693.832   131106223.386 2 102160706.83746
        35.000          24.000         -55.586         -43.314  
 12  2 16  8  9 20.0000000  0  1G15
  24948743.500           0.000    24948747.910   131106507.300 3 102160928.05046
        36.000          22.000         -58.078         -45.256  
 12  2 16  8  9 25.0000000  0  1G15
  24948799.453           0.000    24948804.383   131106803.485 2 102161158.84046
        34.000          23.000         -60.574         -47.201  
 12  2 16  8  9 30.0000000  0  1G15
  24948857.703           0.000    24948863.102   131107112.184 3 102161399.36146
        36.000          22.000         -63.172         -49.225  
 12  2 16  8  9 35.0000000  0  1G15
  24948918.344           0.000    24948924.469   131107433.144 2 102161649.46046
        35.000          22.000         -65.398         -50.960  
 12  2 16  8  9 40.0000000  0  1G15
  24948982.180           0.000    24948987.262   131107766.368 2 102161909.10946
        35.000          21.000         -67.902         -52.911  
 12  2 16  8  9 45.0000000  0  1G15
  24949046.992           0.000    24949053.281   131108111.817 2 102162178.29746
        35.000          21.000         -70.355         -54.822  
 12  2 16  8  9 50.0000000  0  1G15
  24949116.328           0.000    24949120.773   131108469.499 3 102162457.01645
        36.000          20.000         -72.840         -56.758  
 12  2 16  8  9 55.0000000  0  1G15
  24949187.227           0.000    24949190.910   131108839.443 3 102162745.24345
        36.000          20.000         -75.238         -58.627  
 12  2 16  8 10  0.0000000  0  1G15
  24949260.000           0.000    24949263.535   131109221.690 3 102163043.11646
        37.000          21.000         -77.523         -60.408  
 12  2 16  8 10  5.0000000  0  1G15
  24949334.969           0.000    24949338.945   131109616.344 3 102163350.62846
        37.000          21.000         -80.230         -62.517  
 12  2 16  8 10 10.0000000  0  1G15
  24949412.320           0.000    24949416.055   131110023.142 3 102163667.59046
        36.000          21.000         -82.453         -64.249  
 12  2 16  8 10 15.0000000  0  1G15
  24949491.625           0.000    24949495.574   131110442.134 3 102163994.06046
        37.000          21.000         -84.941         -66.188  
 12  2 16  8 10 20.0000000  0  1G15
  24949574.773           0.000    24949577.836   131110873.598 3 102164330.28246
        36.000          22.000         -87.375         -68.084  
 12  2 16  8 10 25.0000000  0  1G15
  24949658.016           0.000    24949662.430   131111317.123 3 102164675.87846
        36.000          22.000         -89.867         -70.026  
 12  2 16  8 10 30.0000000  0  1G15
  24949745.344           0.000    24949748.980   131111772.867 3 102165031.01946
        36.000          22.000         -92.277         -71.904  
 12  2 16  8 10 35.0000000  0  1G15
  24949834.297           0.000    24949838.301   131112241.028 3 102165395.79946
        37.000          22.000         -94.641         -73.746  
 12  2 16  8 10 40.0000000  0  1G15
  24949925.820           0.000    24949929.527   131112721.168 4 102165769.93146
        38.000          22.000         -97.191         -75.734  
 12  2 16  8 10 45.0000000  0  1G15
  24950018.836           0.000    24950023.195   131113213.581 4 102166153.59846
        38.000          22.000         -99.730         -77.712  
 12  2 16  8 10 50.0000000  0  1G15
  24950116.117           0.000    24950119.156   131113718.246 4 102166546.85746
        38.000          21.000        -102.133         -79.584  
 12  2 16  8 10 55.0000000  0  1G15
  24950213.383           0.000    24950217.641   131114235.163 4 102166949.61746
        38.000          22.000        -104.484         -81.416  
 12  2 16  8 11  0.0000000  0  1G15
  24950314.609           0.000    24950318.867   131114764.163 4 102167361.81846
        38.000          22.000        -107.094         -83.450  
 12  2 16  8 11  5.0000000  0  1G15
  24950416.656           0.000    24950421.930   131115305.447 3 102167783.60846
        36.000          22.000        -109.418         -85.261  
 12  2 16  8 11 10.0000000  0  1G15
  24950523.023           0.000    24950527.066   131115858.959 4 102168214.91546
        38.000          22.000        -111.961         -87.242  
 12  2 16  8 11 15.0000000  0  1G15
  24950629.773           0.000    24950634.297   131116424.568 4 102168655.61846
        38.000          22.000        -114.414         -89.154  
 12  2 16  8 11 20.0000000  0  1G15
  24950740.383           0.000    24950743.859   131117002.469 4 102169105.91546
        38.000          22.000        -116.676         -90.916  
 12  2 16  8 11 25.0000000  0  1G15
  24950851.969           0.000    24950856.004   131117592.647 4 102169565.81346
        38.000          22.000        -119.176         -92.864  
 12  2 16  8 11 30.0000000  0  1G15
  24950967.188           0.000    24950970.855   131118194.903 4 102170035.08146
        38.000          22.000        -121.691         -94.824  
 12  2 16  8 11 35.0000000  0  1G15
  24951083.836           0.000    24951087.219   131118809.365 3 102170513.90546
        37.000          22.000        -124.074         -96.681  
 12  2 16  8 11 40.0000000  0  1G15
  24951203.820           0.000    24951206.902   131119435.991 4 102171002.13446
        38.000          21.000        -126.738         -98.757  
 12  2 16  8 11 45.0000000  0  1G15
  24951326.000           0.000    24951328.238   131120074.801 5 102171499.92846
        40.000          22.000        -129.121        -100.614  
 12  2 16  8 11 50.0000000  0  1G15
  24951449.156           0.000    24951452.273   131120725.731 5 102172007.14646
        40.000          22.000        -131.305        -102.315  
 12  2 16  8 11 55.0000000  0  1G15
  24951574.984           0.000    24951578.539   131121388.676 4 102172523.71946
        39.000          21.000        -133.746        -104.218  
 12  2 16  8 12  0.0000000  0  1G15
  24951704.516           0.000    24951706.742   131122063.953 3 102173049.87946
        37.000          21.000        -136.285        -106.196  
 12  2 16  8 12  5.0000000  0  1G15
  24951834.555           0.000    24951838.168   131122751.580 3 102173585.71446
        37.000          21.000        -138.688        -108.068  
 12  2 16  8 12 10.0000000  0  1G15
  24951968.305           0.000    24951971.410   131123451.281 4 102174130.95846
        38.000          22.000        -141.355        -110.147  
 12  2 16  8 12 15.0000000  0  1G15
  24952103.414           0.000    24952106.563   131124163.016 4 102174685.53946
        38.000          22.000        -143.500        -111.818  
 12  2 16  8 12 20.0000000  0  1G15
  24952241.641           0.000    24952244.332   131124887.134 4 102175249.78046
        38.000          22.000        -145.957        -113.733  
 12  2 16  8 12 25.0000000  0  1G15
  24952382.039           0.000    24952384.941   131125623.236 4 102175823.36746
        38.000          24.000        -148.430        -115.660  
 12  2 16  8 12 30.0000000  0  1G15
  24952524.281           0.000    24952527.492   131126371.479 4 102176406.39646
        39.000          22.000        -150.953        -117.626  
 12  2 16  8 12 35.0000000  0  1G15
  24952668.078           0.000    24952672.320   131127131.713 4 102176998.77546
        39.000          22.000        -153.234        -119.403  
 12  2 16  8 12 40.0000000  0  1G15
  24952815.531           0.000    24952818.887   131127903.925 4 102177600.51646
        38.000          23.000        -155.738        -121.355  
 12  2 16  8 12 45.0000000  0  1G15
  24952965.211           0.000    24952968.184   131128688.460 5 102178211.83546
        40.000          23.000        -158.125        -123.214  
 12  2 16  8 12 50.0000000  0  1G15
  24953116.336           0.000    24953119.871   131129484.994 5 102178832.48546
        40.000          22.000        -160.652        -125.184  
 12  2 16  8 12 55.0000000  0  1G15
  24953270.367           0.000    24953273.777   131130293.549 5 102179462.53246
        40.000          22.000        -162.910        -126.943  
 12  2 16  8 13  0.0000000  0  1G15
  24953426.227           0.000    24953430.156   131131114.514 4 102180102.19946
        39.000          22.000        -165.336        -128.833  
 12  2 16  8 13  5.0000000  0  1G15
  24953584.320           0.000    24953588.160   131131947.440 4 102180751.25546
        38.000          22.000        -167.859        -130.800  
 12  2 16  8 13 10.0000000  0  1G15
  24953745.383           0.000    24953749.230   131132792.325 4 102181409.57846
        38.000          23.000        -170.313        -132.711  
 12  2 16  8 13 15.0000000  0  1G15
  24953908.852           0.000    24953912.414   131133649.488 4 102182077.48146
        39.000          22.000        -172.793        -134.644  
 12  2 16  8 13 20.0000000  0  1G15
  24954073.031           0.000    24954078.188   131134518.486 4 102182754.63446
        38.000          22.000        -175.043        -136.397  
 12  2 16  8 13 25.0000000  0  1G15
  24954241.477           0.000    24954245.473   131135399.741 4 102183441.32846
        38.000          22.000        -177.453        -138.275  
 12  2 16  8 13 30.0000000  0  1G15
  24954411.188           0.000    24954415.453   131136292.986 3 102184137.38146
        37.000          22.000        -179.652        -139.989  
 12  2 16  8 13 35.0000000  0  1G15
  24954584.281           0.000    24954587.523   131137198.254 3 102184842.75046
        37.000          22.000        -182.250        -142.013  
 12  2 16  8 13 40.0000000  0  1G15
  24954758.359           0.000    24954761.922   131138115.569 3 102185557.54846
        36.000          22.000        -184.703        -143.925  
 12  2 16  8 13 45.0000000  0  1G15
  24954934.945           0.000    24954938.824   131139045.055 3 102186281.81146
        36.000          22.000        -187.219        -145.885  
 12  2 16  8 13 50.0000000  0  1G15
  24955114.078           0.000    24955117.957   131139986.525 3 102187015.42746
        37.000          22.000        -189.563        -147.711  
 12  2 16  8 13 55.0000000  0  1G15
  24955294.875           0.000    24955299.270   131140939.900 3 102187758.29846
        36.000          22.000        -191.770        -149.431  
 12  2 16  8 14  0.0000000  0  1G15
  24955478.922           0.000    24955483.086   131141905.536 3 102188510.73946
        37.000          22.000        -194.227        -151.345  
 12  2 16  8 14  5.0000000  0  1G15
  24955665.641           0.000    24955669.117   131142882.844 4 102189272.25046
        38.000          22.000        -196.637        -153.223  
 12  2 16  8 14 10.0000000  0  1G15
  24955854.313           0.000    24955857.008   131143872.318 4 102190043.27846
        39.000          22.000        -199.063        -155.114  
 12  2 16  8 14 15.0000000  0  1G15
  24956044.430           0.000    24956047.699   131144873.889 4 102190823.71346
        39.000          22.000        -201.512        -157.022  
 12  2 16  8 14 20.0000000  0  1G15
  24956237.484           0.000    24956240.762   131145887.437 4 102191613.48946
        38.000          22.000        -203.926        -158.903  
 12  2 16  8 14 25.0000000  0  1G15
  24956432.828           0.000    24956435.906   131146912.925 4 102192412.55646
        39.000          23.000        -206.297        -160.751  
 12  2 16  8 14 30.0000000  0  1G15
  24956629.633           0.000    24956633.668   131147950.662 4 102193221.17946
        38.000          23.000        -208.770        -162.678  
 12  2 16  8 14 35.0000000  0  1G15
  24956830.430           0.000    24956833.641   131149000.116 5 102194038.93646
        40.000          24.000        -211.137        -164.522  
 12  2 16  8 14 40.0000000  0  1G15
  24957032.148           0.000    24957035.910   131150061.797 4 102194866.18846
        39.000          25.000        -213.512        -166.373  
 12  2 16  8 14 45.0000000  0  1G15
  24957235.672           0.000    24957240.246   131151135.191 4 102195702.61246
        39.000          24.000        -215.801        -168.156  
 12  2 16  8 14 50.0000000  0  1G15
  24957442.594           0.000    24957446.918   131152220.522 4 102196548.31946
        38.000          24.000        -218.180        -170.010  
 12  2 16  8 14 55.0000000  0  1G15
  24957651.133           0.000    24957655.324   131153318.056 5 102197403.51246
        40.000          23.000        -220.633        -171.922  
 12  2 16  8 15  0.0000000  0  1G15
  24957862.281           0.000    24957867.203   131154427.473 4 102198267.97146
        39.000          24.000        -223.145        -173.879  
 12  2 16  8 15  5.0000000  0  1G15
  24958075.891           0.000    24958080.082   131155548.628 4 102199141.59946
        39.000          25.000        -225.484        -175.702  
 12  2 16  8 15 10.0000000  0  1G15
  24958291.766           0.000    24958295.984   131156681.875 4 102200024.64346
        38.000          25.000        -227.883        -177.571  
 12  2 16  8 15 15.0000000  0  1G15
  24958509.648           0.000    24958514.160   131157827.050 4 102200916.95946
        38.000          25.000        -230.207        -179.382  
 12  2 16  8 15 20.0000000  0  1G15
  24958729.969           0.000    24958734.199   131158984.077 4 102201818.50146
        39.000          23.000        -232.484        -181.157  
 12  2 16  8 15 25.0000000  0  1G15
  24958952.867           0.000    24958956.430   131160153.309 4 102202729.56246
        39.000          25.000        -234.816        -182.974  
 12  2 16  8 15 30.0000000  0  1G15
  24959177.633           0.000    24959181.102   131161334.512 4 102203649.99446
        39.000          24.000        -237.594        -185.138  
 12  2 16  8 15 35.0000000  0  1G15
  24959404.586           0.000    24959408.395   131162527.452 4 102204579.53646
        39.000          25.000        -239.723        -186.797  
 12  2 16  8 15 40.0000000  0  1G15
  24959634.156           0.000    24959637.465   131163732.379 5 102205518.45246
        40.000          24.000        -242.207        -188.733  
 12  2 16  8 15 45.0000000  0  1G15
  24959865.375           0.000    24959868.625   131164949.207 5 102206466.63046
        40.000          23.000        -244.469        -190.495  
 12  2 16  8 15 50.0000000  0  1G15
  24960098.961           0.000    24960102.129   131166178.047 5 102207424.16046
        41.000          23.000        -246.961        -192.437  
 12  2 16  8 15 55.0000000  0  1G15
  24960335.258           0.000    24960337.625   131167418.720 5 102208390.92046
        41.000          25.000        -249.383        -194.324  
 12  2 16  8 16  0.0000000  0  1G15
  24960574.055           0.000    24960576.742   131168671.469 5 102209367.09446
        42.000          24.000        -251.703        -196.132  
 12  2 16  8 16  5.0000000  0  1G15
  24960814.563           0.000    24960817.426   131169936.028 5 102210352.43546
        42.000          24.000        -254.133        -198.026  
 12  2 16  8 16 10.0000000  0  1G15
  24961057.617           0.000    24961059.953   131171212.261 5 102211346.91346
        41.000          23.000        -256.441        -199.824  
 12  2 16  8 16 15.0000000  0  1G15
  24961301.922           0.000    24961304.621   131172500.475 5 102212350.70546
        40.000          22.000        -258.961        -201.788  
 12  2 16  8 16 20.0000000  0  1G15
  24961550.039           0.000    24961551.961   131173800.618 5 102213363.78946
        40.000          22.000        -261.355        -203.654  
 12  2 16  8 16 25.0000000  0  1G15
  24961798.969           0.000    24961801.273   131175112.558 5 102214386.09146
        41.000          23.000        -263.465        -205.297  
 12  2 16  8 16 30.0000000  0  1G15
  24962050.563           0.000    24962053.164   131176436.509 5 102215417.74646
        40.000          22.000        -266.035        -207.300  
 12  2 16  8 16 35.0000000  0  1G15
  24962305.219           0.000    24962307.555   131177772.124 5 102216458.45646
        40.000          22.000        -268.309        -209.072  
 12  2 16  8 16 40.0000000  0  1G15
  24962561.336           0.000    24962563.992   131179119.707 5 102217508.52146
        40.000          22.000        -270.758        -210.980  
 12  2 16  8 16 45.0000000  0  1G15
  24962820.125           0.000    24962822.766   131180479.024 5 102218567.73446
        40.000          23.000        -273.102        -212.806  
 12  2 16  8 16 50.0000000  0  1G15
  24963080.500           0.000    24963084.102   131181850.231 5 102219636.20646
        40.000          22.000        -275.426        -214.617  
 12  2 16  8 16 55.0000000  0  1G15
  24963343.914           0.000    24963346.793   131183233.240 4 102220713.91346
        39.000          21.000        -277.805        -216.471  
 12  2 16  8 17  0.0000000  0  1G15
  24963609.461           0.000    24963612.500   131184628.110 4 102221800.78946
        38.000          22.000        -280.152        -218.301  
 12  2 16  8 17  5.0000000  0  1G15
  24963876.539           0.000    24963880.020   131186034.847 4 102222896.94546
        39.000          22.000        -282.547        -220.166  
 12  2 16  8 17 10.0000000  0  1G15
  24964146.313           0.000    24964150.035   131187453.404 4 102224002.32746
        38.000          21.000        -284.992        -222.072  
 12  2 16  8 17 15.0000000  0  1G15
  24964418.953           0.000    24964422.172   131188883.697 3 102225116.83046
        37.000          22.000        -287.094        -223.709  
 12  2 16  8 17 20.0000000  0  1G15
  24964693.461           0.000    24964696.738   131190326.032 4 102226240.72946
        38.000          22.000        -289.520        -225.600  
 12  2 16  8 17 25.0000000  0  1G15
  24964970.398           0.000    24964973.004   131191779.972 4 102227373.63746
        38.000          22.000        -291.938        -227.484  
 12  2 16  8 17 30.0000000  0  1G15
  24965249.680           0.000    24965251.754   131193245.760 4 102228515.83846
        39.000          22.000        -294.195        -229.243  
 12  2 16  8 17 35.0000000  0  1G15
  24965530.391           0.000    24965533.395   131194723.213 4 102229667.06746
        39.000          22.000        -296.578        -231.100  
 12  2 16  8 17 40.0000000  0  1G15
  24965814.008           0.000    24965816.824   131196212.295 4 102230827.35046
        39.000          22.000        -298.945        -232.944  
 12  2 16  8 17 45.0000000  0  1G15
  24966099.430           0.000    24966102.328   131197713.357 4 102231997.00346
        38.000          21.000        -301.453        -234.899  
 12  2 16  8 17 50.0000000  0  1G15
  24966387.680           0.000    24966389.926   131199226.321 4 102233175.93245
        38.000          20.000        -303.738        -236.679  
 12  2 16  8 17 55.0000000  0  1G15
  24966678.031           0.000    24966679.816   131200750.909 4 102234363.91745
        39.000          20.000        -305.953        -238.405  
 12  2 16  8 18  0.0000000  0  1G15
  24966969.602           0.000    24966971.883   131202287.369 4 102235561.14746
        38.000          21.000        -308.426        -240.332  
 12  2 16  8 18  5.0000000  0  1G15
  24967265.383           0.000    24967266.125   131203835.498 4 102236767.47745
        39.000          20.000        -310.809        -242.189  
 12  2 16  8 18 10.0000000  0  1G15
  24967561.617           0.000    24967563.121   131205395.159 4 102237982.77546
        38.000          21.000        -313.008        -243.902  
 12  2 16  8 18 15.0000000  0  1G15
  24967860.508           0.000    24967862.102   131206966.927 4 102239207.54146
        38.000          21.000        -315.633        -245.948  
 12  2 16  8 18 20.0000000  0  1G15
  24968162.398           0.000    24968163.836   131208550.201 3 102240441.24146
        37.000          21.000        -317.730        -247.582  
 12  2 16  8 18 25.0000000  0  1G15
  24968466.070           0.000    24968468.070   131210145.208 4 102241684.11546
        39.000          21.000        -320.098        -249.427  
 12  2 16  8 18 30.0000000  0  1G15
  24968772.000           0.000    24968773.457   131211752.028 4 102242936.13446
        39.000          21.000        -322.461        -251.268  
 12  2 16  8 18 35.0000000  0  1G15
  24969079.656           0.000    24969081.121   131213370.442 4 102244197.25246
        38.000          21.000        -324.547        -252.894  
 12  2 16  8 18 40.0000000  0  1G15
  24969390.531           0.000    24969391.465   131215000.658 4 102245467.53646
        39.000          22.000        -327.313        -255.049  
 12  2 16  8 18 45.0000000  0  1G15
  24969702.289           0.000    24969703.762   131216642.526 4 102246746.91646
        39.000          22.000        -329.383        -256.662  
 12  2 16  8 18 50.0000000  0  1G15
  24970017.688           0.000    24970018.637   131218296.261 4 102248035.51846
        39.000          21.000        -332.012        -258.710  
 12  2 16  8 18 55.0000000  0  1G15
  24970334.211           0.000    24970336.246   131219961.561 5 102249333.15946
        40.000          22.000        -334.230        -260.439  
 12  2 16  8 19  0.0000000  0  1G15
  24970654.055           0.000    24970655.164   131221638.704 5 102250639.99646
        40.000          22.000        -336.801        -262.442  
 12  2 16  8 19  5.0000000  0  1G15
  24970975.219           0.000    24970976.934   131223327.253 5 102251955.73946
        40.000          22.000        -338.961        -264.125  
 12  2 16  8 19 10.0000000  0  1G15
  24971298.234           0.000    24971300.855   131225027.623 5 102253280.68846
        40.000          22.000        -341.289        -265.940  
 12  2 16  8 19 15.0000000  0  1G15
  24971624.555           0.000    24971626.504   131226739.656 5 102254614.73546
        40.000          23.000        -343.703        -267.821  
 12  2 16  8 19 20.0000000  0  1G15
  24971952.547           0.000    24971954.555   131228463.351 5 102255957.86846
        41.000          22.000        -345.902        -269.534  
 12  2 16  8 19 25.0000000  0  1G15
  24972282.500           0.000    24972285.336   131230198.695 5 102257310.05246
        40.000          23.000        -348.129        -271.269  
 12  2 16  8 19 30.0000000  0  1G15
  24972616.203           0.000    24972618.074   131231945.836 5 102258671.47146
        40.000          25.000        -350.469        -273.093  
 12  2 16  8 19 35.0000000  0  1G15
  24972951.008           0.000    24972953.332   131233704.550 5 102260041.87946
        41.000          26.000        -352.996        -275.062  
 12  2 16  8 19 40.0000000  0  1G15
  24973287.930           0.000    24973290.711   131235474.874 5 102261421.34846
        42.000          27.000        -355.270        -276.833  
 12  2 16  8 19 45.0000000  0  1G15
  24973626.336           0.000    24973629.457   131237256.799 5 102262809.86846
        42.000          27.000        -357.469        -278.547  
 12  2 16  8 19 50.0000000  0  1G15
  24973967.766           0.000    24973971.266   131239050.159 5 102264207.25846
        41.000          27.000        -359.887        -280.431  
 12  2 16  8 19 55.0000000  0  1G15
  24974311.188           0.000    24974314.602   131240855.217 5 102265613.79846
        42.000          27.000        -362.133        -282.181  
 12  2 16  8 20  0.0000000  0  1G15
  24974657.016           0.000    24974660.715   131242671.841 5 102267029.32846
        42.000          27.000        -364.539        -284.056  
 12  2 16  8 20  5.0000000  0  1G15
  24975005.586           0.000    24975009.215   131244500.147 5 102268453.94646
        42.000          27.000        -366.879        -285.880  
 12  2 16  8 20 10.0000000  0  1G15
  24975354.844           0.000    24975359.035   131246340.067 5 102269887.66146
        42.000          28.000        -369.168        -287.663  
 12  2 16  8 20 15.0000000  0  1G15
  24975707.750           0.000    24975711.180   131248191.526 5 102271330.33846
        41.000          29.000        -371.500        -289.481  
 12  2 16  8 20 20.0000000  0  1G15
  24976061.820           0.000    24976065.816   131250054.505 5 102272781.97746
        42.000          28.000        -373.750        -291.234  
 12  2 16  8 20 25.0000000  0  1G15
  24976418.578           0.000    24976422.641   131251929.094 5 102274242.70846
        42.000          29.000        -375.957        -292.954  
 12  2 16  8 20 30.0000000  0  1G15
  24976777.555           0.000    24976781.703   131253815.260 6 102275712.44246
        43.000          29.000        -378.363        -294.829  
 12  2 16  8 20 35.0000000  0  1G15
  24977138.047           0.000    24977143.055   131255713.114 6 102277191.29246
        43.000          30.000        -380.680        -296.634  
 12  2 16  8 20 40.0000000  0  1G15
  24977502.016           0.000    24977506.855   131257622.527 6 102278679.11346
        43.000          30.000        -383.090        -298.512  
 12  2 16  8 20 45.0000000  0  1G15
  24977867.516           0.000    24977872.457   131259543.331 5 102280175.82046
        42.000          29.000        -385.172        -300.134  
 12  2 16  8 20 50.0000000  0  1G15
  24978235.125           0.000    24978240.148   131261475.655 6 102281681.48346
        43.000          30.000        -387.668        -302.079  
 12  2 16  8 20 55.0000000  0  1G15
  24978605.086           0.000    24978609.746   131263419.546 6 102283196.16946
        43.000          30.000        -389.965        -303.869  
 12  2 16  8 21  0.0000000  0  1G15
  24978976.883           0.000    24978981.867   131265375.026 6 102284719.85946
        43.000          31.000        -392.195        -305.607  
 12  2 16  8 21  5.0000000  0  1G15
  24979351.852           0.000    24979355.953   131267341.828 6 102286252.40446
        43.000          30.000        -394.512        -307.412  
 12  2 16  8 21 10.0000000  0  1G15
  24979728.617           0.000    24979732.566   131269320.466 6 102287794.21246
        43.000          29.000        -396.914        -309.284  
 12  2 16  8 21 15.0000000  0  1G15
  24980106.609           0.000    24980110.863   131271310.550 6 102289344.94646
        44.000          30.000        -399.219        -311.080  
 12  2 16  8 21 20.0000000  0  1G15
  24980487.031           0.000    24980491.813   131273312.121 6 102290904.59846
        43.000          29.000        -401.520        -312.872  
 12  2 16  8 21 25.0000000  0  1G15
  24980870.664           0.000    24980874.930   131275325.118 6 102292473.19146
        44.000          29.000        -403.684        -314.559  
 12  2 16  8 21 30.0000000  0  1G15
  24981255.703           0.000    24981260.297   131277349.712 6 102294050.78146
        43.000          29.000        -406.125        -316.461  
 12  2 16  8 21 35.0000000  0  1G15
  24981642.828           0.000    24981647.750   131279385.694 5 102295637.23946
        42.000          29.000        -408.449        -318.272  
 12  2 16  8 21 40.0000000  0  1G15
  24982032.938           0.000    24982037.723   131281433.216 6 102297232.70746
        44.000          29.000        -410.598        -319.946  
 12  2 16  8 21 45.0000000  0  1G15
  24982424.680           0.000    24982429.316   131283492.178 6 102298837.09646
        43.000          28.000        -412.973        -321.797  
 12  2 16  8 21 50.0000000  0  1G15
  24982818.313           0.000    24982822.926   131285562.692 6 102300450.48446
        43.000          29.000        -415.219        -323.547  
 12  2 16  8 21 55.0000000  0  1G15
  24983213.703           0.000    24983219.453   131287644.547 6 102302072.68746
        43.000          28.000        -417.445        -325.282  
 12  2 16  8 22  0.0000000  0  1G15
  24983612.289           0.000    24983617.539   131289737.796 5 102303703.76246
        42.000          28.000        -419.801        -327.117  
 12  2 16  8 22  5.0000000  0  1G15
  24984012.688           0.000    24984018.121   131291842.674 5 102305343.92146
        42.000          26.000        -422.117        -328.922  
 12  2 16  8 22 10.0000000  0  1G15
  24984415.633           0.000    24984420.344   131293959.019 5 102306993.02646
        41.000          24.000        -424.488        -330.770  
 12  2 16  8 22 15.0000000  0  1G15
  24984819.328           0.000    24984825.125   131296086.722 5 102308650.96146
        40.000          26.000        -426.695        -332.490  
 12  2 16  8 22 20.0000000  0  1G15
  24985226.273           0.000    24985232.027   131298225.829 5 102310317.78746
        40.000          23.000        -429.078        -334.347  
 12  2 16  8 22 25.0000000  0  1G15
  24985634.594           0.000    24985641.504   131300376.173 4 102311993.37046
        39.000          24.000        -431.277        -336.060  
 12  2 16  8 22 30.0000000  0  1G15
  24986046.211           0.000    24986052.770   131302538.219 4 102313678.05146
        39.000          22.000        -433.770        -338.002  
 12  2 16  8 22 35.0000000  0  1G15
  24986459.992           0.000    24986466.461   131304711.621 4 102315371.57046
        39.000          22.000        -435.840        -339.615  
 12  2 16  8 22 40.0000000  0  1G15
  24986875.695           0.000    24986882.090   131306896.607 4 102317074.15046
        38.000          22.000        -438.195        -341.451  
 12  2 16  8 22 45.0000000  0  1G15
  24987293.531           0.000    24987300.016   131309092.756 4 102318785.40646
        38.000          22.000        -440.531        -343.271  
 12  2 16  8 22 50.0000000  0  1G15
  24987713.922           0.000    24987719.949   131311300.323 4 102320505.59046
        39.000          22.000        -442.629        -344.906  
 12  2 16  8 22 55.0000000  0  1G15
  24988136.164           0.000    24988142.332   131313519.270 4 102322234.59646
        38.000          22.000        -444.754        -346.561  
 12  2 16  8 23  0.0000000  0  1G15
  24988560.320           0.000    24988566.656   131315749.608 4 102323972.49846
        38.000          22.000        -447.000        -348.312  
 12  2 16  8 23  5.0000000  0  1G15
  24988987.211           0.000    24988993.469   131317991.207 3 102325719.17246
        37.000          22.000        -449.250        -350.065  
 12  2 16  8 23 10.0000000  0  1G15
  24989416.922           0.000    24989422.281   131320244.178 4 102327474.72746
        38.000          22.000        -451.727        -351.995  
 12  2 16  8 23 15.0000000  0  1G15
  24989847.789           0.000    24989853.129   131322508.491 4 102329239.09246
        38.000          22.000        -454.102        -353.845  
 12  2 16  8 23 20.0000000  0  1G15
  24990280.141           0.000    24990285.805   131324784.221 3 102331012.37746
        37.000          22.000        -456.250        -355.519  
 12  2 16  8 23 25.0000000  0  1G15
  24990715.617           0.000    24990721.051   131327071.217 4 102332794.42446
        38.000          22.000        -458.621        -357.367  
 12  2 16  8 23 30.0000000  0  1G15
  24991152.141           0.000    24991158.211   131329369.684 3 102334585.43546
        37.000          21.000        -460.816        -359.078  
 12  2 16  8 23 35.0000000  0  1G15
  24991592.898           0.000    24991597.984   131331679.410 3 102336385.22246
        37.000          22.000        -463.039        -360.810  
 12  2 16  8 23 40.0000000  0  1G15
  24992034.430           0.000    24992039.168   131334000.550 3 102338193.85546
        36.000          22.000        -465.332        -362.596  
 12  2 16  8 23 45.0000000  0  1G15
  24992478.820           0.000    24992483.676   131336332.988 4 102340011.27746
        38.000          22.000        -467.633        -364.389  
 12  2 16  8 23 50.0000000  0  1G15
  24992925.031           0.000    24992929.770   131338676.712 4 102341837.57046
        39.000          22.000        -469.680        -365.984  
 12  2 16  8 23 55.0000000  0  1G15
  24993372.992           0.000    24993377.871   131341031.882 4 102343672.74946
        39.000          22.000        -472.160        -367.917  
 12  2 16  8 24  0.0000000  0  1G15
  24993823.313           0.000    24993828.172   131343398.028 4 102345516.46346
        39.000          21.000        -474.477        -369.722  
 12  2 16  8 24  5.0000000  0  1G15
  24994276.063           0.000    24994280.340   131345775.500 5 102347369.01846
        40.000          22.000        -476.594        -371.372  
 12  2 16  8 24 10.0000000  0  1G15
  24994730.906           0.000    24994735.258   131348164.423 4 102349230.54246
        39.000          22.000        -478.883        -373.155  
 12  2 16  8 24 15.0000000  0  1G15
  24995187.344           0.000    24995191.633   131350564.752 4 102351100.91746
        39.000          21.000        -481.320        -375.055  
 12  2 16  8 24 20.0000000  0  1G15
  24995646.492           0.000    24995650.285   131352975.872 4 102352979.70346
        38.000          21.000        -483.391        -376.668  
 12  2 16  8 24 25.0000000  0  1G15
  24996107.688           0.000    24996110.789   131355398.441 5 102354867.43845
        40.000          20.000        -485.461        -378.281  
 12  2 16  8 24 30.0000000  0  1G15
  24996570.820           0.000    24996573.250   131357832.182 5 102356763.87445
        40.000          20.000        -487.855        -380.147  
 12  2 16  8 24 35.0000000  0  1G15
  24997036.266           0.000    24997038.152   131360277.205 5 102358669.08445
        41.000          20.000        -490.117        -381.909  
 12  2 16  8 24 40.0000000  0  1G15
  24997504.258           0.000    24997504.332   131362733.629 5 102360583.16845
        41.000          19.000        -492.387        -383.678  
 12  2 16  8 24 45.0000000  0  1G15
  24997973.102           0.000    24997973.129   131365201.300 5 102362506.02045
        40.000          19.000        -494.715        -385.492  
 12  2 16  8 24 50.0000000  0  1G15
  24998444.773           0.000    24998444.547   131367679.898 5 102364437.41045
        41.000          19.000        -496.813        -387.127  
 12  2 16  8 24 55.0000000  0  1G15
  24998919.414           0.000    24998917.766   131370169.854 5 102366377.59745
        41.000          19.000        -499.039        -388.862  
 12  2 16  8 25  0.0000000  0  1G15
  24999394.977           0.000    24999393.801   131372670.966 5 102368326.56445
        41.000          19.000        -501.313        -390.633  
 12  2 16  8 25  5.0000000  0  1G15
  24999872.727           0.000    24999871.316   131375183.390 5 102370284.28045
        42.000          20.000        -503.535        -392.365  
 12  2 16  8 25 10.0000000  0  1G15
  25000353.195           0.000    25000351.824   131377706.762 5 102372250.55346
        41.000          21.000        -505.734        -394.079  
 12  2 16  8 25 15.0000000  0  1G15
  25000835.953           0.000    25000834.570   131380241.448 5 102374225.60746
        42.000          22.000        -507.984        -395.832  
 12  2 16  8 25 20.0000000  0  1G15
  25001320.648           0.000    25001319.684   131382787.310 5 102376209.38346
        42.000          23.000        -510.406        -397.719  
 12  2 16  8 25 25.0000000  0  1G15
  25001807.922           0.000    25001807.141   131385344.232 6 102378201.76146
        43.000          24.000        -512.500        -399.351  
 12  2 16  8 25 30.0000000  0  1G15
  25002295.477           0.000    25002296.906   131387912.236 6 102380202.76346
        43.000          24.000        -514.613        -400.997  
 12  2 16  8 25 35.0000000  0  1G15
  25002786.023           0.000    25002787.945   131390491.699 6 102382212.74146
        43.000          22.000        -516.957        -402.824  
 12  2 16  8 25 40.0000000  0  1G15
  25003279.305           0.000    25003281.133   131393082.253 6 102384231.31746
        43.000          24.000        -519.238        -404.601  
 12  2 16  8 25 45.0000000  0  1G15
  25003774.656           0.000    25003776.559   131395684.157 5 102386258.73446
        42.000          24.000        -521.395        -406.281  
 12  2 16  8 25 50.0000000  0  1G15
  25004271.016           0.000    25004274.148   131398296.995 5 102388294.73146
        41.000          25.000        -523.574        -407.980  
 12  2 16  8 25 55.0000000  0  1G15
  25004770.766           0.000    25004773.508   131400920.950 5 102390339.34446
        41.000          25.000        -525.922        -409.809  
 12  2 16  8 26  0.0000000  0  1G15
  25005272.633           0.000    25005275.277   131403556.065 5 102392392.66046
        42.000          25.000        -528.066        -411.480  
 12  2 16  8 26  5.0000000  0  1G15
  25005774.719           0.000    25005779.051   131406202.066 5 102394454.43146
        40.000          26.000        -530.191        -413.136  
 12  2 16  8 26 10.0000000  0  1G15
  25006280.320           0.000    25006285.137   131408859.413 5 102396525.06546
        40.000          25.000        -532.500        -414.935  
 12  2 16  8 26 15.0000000  0  1G15
  25006788.766           0.000    25006792.859   131411527.664 5 102398604.21046
        40.000          23.000        -534.695        -416.646  
 12  2 16  8 26 20.0000000  0  1G15
  25007298.227           0.000    25007303.160   131414207.041 5 102400692.02146
        40.000          26.000        -537.000        -418.442  
 12  2 16  8 26 25.0000000  0  1G15
  25007810.469           0.000    25007815.484   131416897.574 5 102402788.51946
        41.000          25.000        -539.227        -420.177  
 12  2 16  8 26 30.0000000  0  1G15
  25008324.273           0.000    25008329.668   131419599.192 5 102404893.67246
        40.000          26.000        -541.398        -421.869  
 12  2 16  8 26 35.0000000  0  1G15
  25008839.992           0.000    25008845.910   131422311.907 4 102407007.44046
        39.000          25.000        -543.641        -423.616  
 12  2 16  8 26 40.0000000  0  1G15
  25009357.680           0.000    25009364.086   131425035.824 4 102409129.95346
        39.000          25.000        -545.813        -425.308  
 12  2 16  8 26 45.0000000  0  1G15
  25009878.844           0.000    25009884.641   131427770.495 5 102411260.83346
        40.000          25.000        -547.875        -426.916  
 12  2 16  8 26 50.0000000  0  1G15
  25010400.500           0.000    25010407.652   131430516.228 4 102413400.34746
        39.000          25.000        -550.289        -428.797  
 12  2 16  8 26 55.0000000  0  1G15
  25010925.609           0.000    25010932.445   131433273.099 4 102415548.54546
        38.000          24.000        -552.449        -430.480  
 12  2 16  8 27  0.0000000  0  1G15
  25011452.648           0.000    25011459.016   131436041.157 4 102417705.44946
        39.000          25.000        -554.590        -432.148  
 12  2 16  8 27  5.0000000  0  1G15
  25011981.078           0.000    25011988.230   131438820.224 4 102419870.95446
        38.000          22.000        -557.063        -434.075  
 12  2 16  8 27 10.0000000  0  1G15
  25012511.219           0.000    25012518.941   131441610.034 3 102422044.81046
        37.000          25.000        -558.945        -435.542  
 12  2 16  8 27 15.0000000  0  1G15
  25013044.320           0.000    25013051.965   131444411.017 4 102424227.35846
        38.000          22.000        -561.121        -437.237  
 12  2 16  8 27 20.0000000  0  1G15
  25013579.672           0.000    25013586.945   131447222.977 4 102426418.46846
        38.000          22.000        -563.488        -439.082  
 12  2 16  8 27 25.0000000  0  1G15
  25014116.688           0.000    25014124.207   131450046.031 3 102428618.23146
        37.000          22.000        -565.738        -440.835  
 12  2 16  8 27 30.0000000  0  1G15
  25014655.594           0.000    25014663.461   131452880.043 3 102430826.54846
        37.000          22.000        -567.746        -442.400  
 12  2 16  8 27 35.0000000  0  1G15
  25015198.086           0.000    25015204.867   131455724.885 3 102433043.29646
        36.000          22.000        -570.313        -444.399  
 12  2 16  8 27 40.0000000  0  1G15
  25015742.516           0.000    25015748.441   131458580.740 3 102435268.59146
        37.000          22.000        -572.121        -445.809  
 12  2 16  8 27 45.0000000  0  1G15
  25016287.219           0.000    25016294.496   131461447.690 3 102437502.55446
        37.000          23.000        -574.527        -447.684  
 12  2 16  8 27 50.0000000  0  1G15
  25016834.570           0.000    25016841.664   131464325.492 3 102439745.00446
        37.000          22.000        -576.848        -449.492  
 12  2 16  8 27 55.0000000  0  1G15
  25017385.227           0.000    25017391.504   131467214.148 3 102441995.84446
        37.000          22.000        -578.711        -450.944  
 12  2 16  8 28  0.0000000  0  1G15
  25017936.750           0.000    25017943.445   131470113.973 4 102444255.47046
        39.000          22.000        -580.867        -452.624  
 12  2 16  8 28  5.0000000  0  1G15
  25018492.086           0.000    25018496.703   131473024.411 5 102446523.29746
        40.000          23.000        -583.219        -454.456  
 12  2 16  8 28 10.0000000  0  1G15
  25019047.281           0.000    25019052.504   131475945.972 5 102448799.79546
        41.000          25.000        -585.492        -456.228  
 12  2 16  8 28 15.0000000  0  1G15
  25019605.703           0.000    25019610.918   131478878.358 5 102451084.71946
        40.000          23.000        -587.457        -457.759  
 12  2 16  8 28 20.0000000  0  1G15
  25020165.797           0.000    25020170.578   131481821.635 5 102453378.15946
        41.000          23.000        -589.785        -459.573  
 12  2 16  8 28 25.0000000  0  1G15
  25020728.727           0.000    25020732.844   131484775.932 5 102455680.21246
        41.000          22.000        -591.734        -461.092  
 12  2 16  8 28 30.0000000  0  1G15
  25021292.789           0.000    25021297.258   131487741.087 5 102457990.69546
        42.000          22.000        -594.121        -462.952  
 12  2 16  8 28 35.0000000  0  1G15
  25021860.844           0.000    25021863.113   131490717.087 5 102460309.59046
        42.000          22.000        -596.285        -464.638  
 12  2 16  8 28 40.0000000  0  1G15
  25022428.641           0.000    25022431.258   131493703.723 6 102462636.80146
        43.000          22.000        -598.430        -466.309  
 12  2 16  8 28 45.0000000  0  1G15
  25022998.523           0.000    25023001.684   131496701.623 6 102464972.79946
        43.000          22.000        -600.730        -468.102  
 12  2 16  8 28 50.0000000  0  1G15
  25023571.492           0.000    25023573.891   131499710.517 6 102467317.37946
        43.000          23.000        -602.992        -469.864  
 12  2 16  8 28 55.0000000  0  1G15
  25024146.156           0.000    25024148.074   131502729.915 6 102469670.16646
        43.000          22.000        -604.992        -471.422  
 12  2 16  8 29  0.0000000  0  1G15
  25024723.398           0.000    25024724.027   131505760.371 6 102472031.53146
        45.000          22.000        -606.996        -472.984  
 12  2 16  8 29  5.0000000  0  1G15
  25025301.570           0.000    25025302.324   131508801.786 6 102474401.47046
        44.000          21.000        -609.477        -474.917  
 12  2 16  8 29 10.0000000  0  1G15
  25025882.625           0.000    25025881.164   131511853.830 6 102476779.70846
        45.000          21.000        -611.473        -476.472  
 12  2 16  8 29 15.0000000  0  1G15
  25026465.094           0.000    25026463.363   131514916.641 6 102479166.33046
        45.000          21.000        -613.590        -478.122  
 12  2 16  8 29 20.0000000  0  1G15
  25027049.961           0.000    25027047.816   131517990.047 6 102481561.16846
        44.000          21.000        -615.805        -479.848  
 12  2 16  8 29 25.0000000  0  1G15
  25027637.484           0.000    25027634.402   131521074.425 6 102483964.60046
        44.000          21.000        -617.891        -481.473  
 12  2 16  8 29 30.0000000  0  1G15
  25028225.789           0.000    25028224.285   131524169.534 6 102486376.31846
        45.000          22.000        -620.031        -483.141  
 12  2 16  8 29 35.0000000  0  1G15
  25028817.422           0.000    25028815.504   131527275.368 6 102488796.42546
        45.000          22.000        -622.273        -484.888  
 12  2 16  8 29 40.0000000  0  1G15
  25029410.523           0.000    25029409.273   131530392.049 6 102491224.96146
        44.000          22.000        -624.438        -486.575  
 12  2 16  8 29 45.0000000  0  1G15
  25030005.039           0.000    25030004.910   131533519.555 6 102493661.95346
        44.000          22.000        -626.551        -488.221  
 12  2 16  8 29 50.0000000  0  1G15
  25030603.148           0.000    25030602.980   131536657.800 6 102496107.34246
        43.000          22.000        -628.711        -489.905  
 12  2 16  8 29 55.0000000  0  1G15
  25031201.281           0.000    25031203.027   131539806.919 5 102498561.14946
        42.000          22.000        -630.902        -491.612  
 12  2 16  8 30  0.0000000  0  1G15
  25031801.672           0.000    25031804.766   131542966.754 5 102501023.31246
        41.000          22.000        -633.016        -493.259  
 12  2 16  8 30  5.0000000  0  1G15
  25032404.461           0.000    25032408.879   131546137.294 5 102503493.83946
        40.000          22.000        -635.176        -494.942  
 12  2 16  8 30 10.0000000  0  1G15
  25033009.359           0.000    25033014.414   131549318.616 4 102505972.72346
        39.000          22.000        -637.520        -496.768  
 12  2 16  8 30 15.0000000  0  1G15
  25033615.625           0.000    25033621.867   131552510.722 4 102508460.02146
        38.000          22.000        -639.680        -498.452  
 12  2 16  8 30 20.0000000  0  1G15
  25034224.711           0.000    25034231.930   131555713.272 4 102510955.46446
        38.000          22.000        -641.531        -499.894  
 12  2 16  8 30 25.0000000  0  1G15
  25034835.031           0.000    25034843.852   131558926.734 3 102513459.42646
        36.000          21.000        -643.445        -501.386  
 12  2 16  8 30 30.0000000  0  1G15
  25035448.891           0.000    25035457.406   131562151.278 2 102515972.02446
        35.000          21.000        -645.887        -503.288  
 12  2 16  8 30 35.0000000  0  1G15
  25036064.055           0.000    25036072.789   131565386.038   102518492.57946
        31.000          21.000        -647.824        -504.798  
 12  2 16  8 30 40.0000000  0  1G15
  25036682.156           0.000    25036690.629   131568631.686 1 102521021.55646
        33.000          21.000        -650.074        -506.551  
 12  2 16  8 30 45.0000000  0  1G15
  25037302.547           0.000    25037310.816   131571887.929   102523558.87146
        32.000          21.000        -652.199        -508.207  
 12  2 16  8 30 50.0000000  0  1G15
  25037925.266           0.000    25037932.195   131575155.053 2 102526104.56345
        34.000          20.000        -654.613        -510.088  
 12  2 16  8 30 55.0000000  0  1G15
  25038549.555           0.000    25038556.039   131578432.656 2 102528658.48445
        35.000          20.000        -656.320        -511.418  
 12  2 16  8 31  0.0000000  0  1G15
  25039178.766           0.000    25039182.531   131581720.943 3 102531220.73845
        36.000          19.000        -658.625        -513.214  
 12  2 16  8 31  5.0000000  0  1G15
  25039805.531           0.000    25039809.566   131585020.023 3 102533791.41246
        37.000          21.000        -660.973        -515.044  
 12  2 16  8 31 10.0000000  0  1G15
  25040436.836           0.000    25040439.656   131588329.465 5 102536370.12646
        40.000          23.000        -663.094        -516.696  
 12  2 16  8 31 15.0000000  0  1G15
  25041068.438           0.000    25041072.012   131591649.789 5 102538957.34646
        41.000          26.000        -665.137        -518.288  
 12  2 16  8 31 20.0000000  0  1G15
  25041701.336           0.000    25041705.871   131594980.543 5 102541552.69446
        41.000          24.000        -667.473        -520.109  
 12  2 16  8 31 25.0000000  0  1G15
  25042338.133           0.000    25042341.574   131598321.749 5 102544156.20146
        42.000          27.000        -669.301        -521.533  
 12  2 16  8 31 30.0000000  0  1G15
  25042975.492           0.000    25042979.836   131601673.725 6 102546768.12846
        43.000          28.000        -671.480        -523.232  
 12  2 16  8 31 35.0000000  0  1G15
  25043615.078           0.000    25043619.746   131605036.320 5 102549388.30146
        42.000          26.000        -673.551        -524.845  
 12  2 16  8 31 40.0000000  0  1G15
  25044257.633           0.000    25044261.430   131608409.668 5 102552016.88046
        42.000          27.000        -675.809        -526.604  
 12  2 16  8 31 45.0000000  0  1G15
  25044901.070           0.000    25044905.719   131611793.555 6 102554653.68046
        43.000          27.000        -677.781        -528.141  
 12  2 16  8 31 50.0000000  0  1G15
  25045547.320           0.000    25045551.680   131615187.982 6 102557298.66946
        43.000          27.000        -679.953        -529.834  
 12  2 16  8 31 55.0000000  0  1G15
  25046194.867           0.000    25046199.773   131618593.099 6 102559951.97546
        44.000          26.000        -682.219        -531.599  
 12  2 16  8 32  0.0000000  0  1G15
  25046844.727           0.000    25046849.832   131622008.476 5 102562613.25846
        42.000          25.000        -684.195        -533.139  
 12  2 16  8 32  5.0000000  0  1G15
  25047496.836           0.000    25047502.137   131625434.597 6 102565282.92146
        43.000          24.000        -686.324        -534.798  
 12  2 16  8 32 10.0000000  0  1G15
  25048150.594           0.000    25048155.668   131628871.152 6 102567960.73646
        43.000          22.000        -688.316        -536.350  
 12  2 16  8 32 15.0000000  0  1G15
  25048806.164           0.000    25048811.074   131632318.481 6 102570646.94446
        43.000          22.000        -690.480        -538.037  
 12  2 16  8 32 20.0000000  0  1G15
  25049464.313           0.000    25049469.148   131635776.058 6 102573341.15046
        43.000          21.000        -692.496        -539.607  
 12  2 16  8 32 25.0000000  0  1G15
  25050123.836           0.000    25050129.559   131639244.343 6 102576043.68046
        43.000          21.000        -694.504        -541.172  
 12  2 16  8 32 30.0000000  0  1G15
  25050785.883           0.000    25050791.070   131642722.966 5 102578754.29345
        42.000          20.000        -696.883        -543.026  
 12  2 16  8 32 35.0000000  0  1G15
  25051449.156           0.000    25051454.809   131646212.178 5 102581473.15745
        41.000          18.000        -698.883        -544.584  
 12  2 16  8 32 40.0000000  0  1G15
  25052115.164           0.000    25052120.496   131649712.020 5 102584200.33545
        42.000          17.000        -700.898        -546.155  
 12  2 16  8 32 45.0000000  0  1G15
  25052782.508           0.000    25052787.074   131653222.162 5 102586935.53645
        41.000          16.000        -702.984        -547.780  
 12  2 16  8 32 50.0000000  0  1G15
  25053451.727           0.000    25053455.332   131656742.757 4 102589678.91142
        39.000          14.000        -705.168        -549.482  
 12  2 16  8 32 55.0000000  0  1G15
  25054123.852           0.000    25054126.875   131660273.792 4 102592430.30345
        38.000          15.000        -707.457        -551.265  
 12  2 16  8 33  0.0000000  0  1G15
  25054796.875           0.000    25054800.789   131663815.201 3 102595189.85142
        37.000          14.000        -709.301        -552.702  
 12  2 16  8 33  5.0000000  0  1G15
  25055471.719           0.000    25055476.383   131667367.344 2 102597957.74045
        35.000          15.000        -711.730        -554.595  
 12  2 16  8 33 10.0000000  0  1G15
  25056151.641           0.000    25056154.277   131670929.823 2 102600733.63542
        34.000          14.000        -713.242        -555.773  
 12  2 16  8 33 15.0000000  0  1G15
  25056832.148           0.000    25056834.625   131674503.061 3 102603517.95045
        36.000          16.000        -715.723        -557.706  
 12  2 16  8 33 20.0000000  0  1G15
  25057513.039           0.000    25057516.570   131678086.658 3 102606310.33445
        36.000          17.000        -717.883        -559.389  
 12  2 16  8 33 25.0000000  0  1G15
  25058198.102           0.000    25058201.090   131681680.651 4 102609110.76445
        38.000          18.000        -719.910        -560.969  
 12  2 16  8 33 30.0000000  0  1G15
  25058884.492           0.000    25058887.621   131685284.898 4 102611919.19545
        39.000          20.000        -721.961        -562.567  
 12  2 16  8 33 35.0000000  0  1G15
  25059571.586           0.000    25059575.707   131688899.716 3 102614735.89545
        37.000          20.000        -723.980        -564.141  
 12  2 16  8 33 40.0000000  0  1G15
  25060261.797           0.000    25060266.012   131692524.788 4 102617560.60246
        39.000          21.000        -726.066        -565.766  
 12  2 16  8 33 45.0000000  0  1G15
  25060953.695           0.000    25060958.316   131696160.182 4 102620393.26146
        39.000          22.000        -728.152        -567.391  
 12  2 16  8 33 50.0000000  0  1G15
  25061648.750           0.000    25061652.586   131699806.132 4 102623234.25546
        39.000          23.000        -730.195        -568.983  
 12  2 16  8 33 55.0000000  0  1G15
  25062343.828           0.000    25062348.758   131703462.392 5 102626083.27346
        40.000          24.000        -732.117        -570.481  
 12  2 16  8 34  0.0000000  0  1G15
  25063041.430           0.000    25063046.637   131707129.013 5 102628940.35746
        40.000          24.000        -734.465        -572.310  
 12  2 16  8 34  5.0000000  0  1G15
  25063741.750           0.000    25063746.680   131710805.809 4 102631805.31946
        39.000          24.000        -736.340        -573.771  
 12  2 16  8 34 10.0000000  0  1G15
  25064443.500           0.000    25064448.188   131714493.135 5 102634678.51446
        40.000          24.000        -738.535        -575.482  
 12  2 16  8 34 15.0000000  0  1G15
  25065146.813           0.000    25065151.902   131718190.826 5 102637559.78646
        41.000          23.000        -740.422        -576.952  
 12  2 16  8 34 20.0000000  0  1G15
  25065853.195           0.000    25065857.973   131721898.844 5 102640449.11246
        41.000          25.000        -742.758        -578.772  
 12  2 16  8 34 25.0000000  0  1G15
  25066560.289           0.000    25066565.285   131725617.085 5 102643346.35146
        41.000          25.000        -744.648        -580.246  
 12  2 16  8 34 30.0000000  0  1G15
  25067270.063           0.000    25067275.570   131729345.799 5 102646251.79546
        41.000          25.000        -746.723        -581.862  
 12  2 16  8 34 35.0000000  0  1G15
  25067981.375           0.000    25067987.551   131733084.764 5 102649165.21746
        40.000          26.000        -748.934        -583.585  
 12  2 16  8 34 40.0000000  0  1G15
  25068694.953           0.000    25068701.168   131736833.870 5 102652086.56046
        41.000          27.000        -750.734        -584.988  
 12  2 16  8 34 45.0000000  0  1G15
  25069410.867           0.000    25069416.613   131740593.425 5 102655016.04546
        42.000          26.000        -753.090        -586.823  
 12  2 16  8 34 50.0000000  0  1G15
  25070127.961           0.000    25070133.270   131744363.149 4 102657953.45746
        39.000          24.000        -755.012        -588.321  
 12  2 16  8 34 55.0000000  0  1G15
  25070846.938           0.000    25070852.570   131748142.925 5 102660898.74146
        41.000          25.000        -757.027        -589.891  
 12  2 16  8 35  0.0000000  0  1G15
  25071568.539           0.000    25071573.563   131751933.054 5 102663852.03746
        40.000          24.000        -759.074        -591.486  
 12  2 16  8 35  5.0000000  0  1G15
  25072290.789           0.000    25072296.277   131755733.396 5 102666813.29846
        42.000          24.000        -761.047        -593.024  
 12  2 16  8 35 10.0000000  0  1G15
  25073016.930           0.000    25073021.293   131759543.970 5 102669782.53646
        42.000          24.000        -763.141        -594.655  
 12  2 16  8 35 15.0000000  0  1G15
  25073742.813           0.000    25073748.582   131763365.006 5 102672759.92946
        41.000          22.000        -765.172        -596.238  
 12  2 16  8 35 20.0000000  0  1G15
  25074472.352           0.000    25074477.660   131767196.091 5 102675745.18846
        40.000          22.000        -767.125        -597.760  
 12  2 16  8 35 25.0000000  0  1G15
  25075202.414           0.000    25075208.105   131771037.539 4 102678738.50746
        39.000          22.000        -769.184        -599.364  
 12  2 16  8 35 30.0000000  0  1G15
  25075935.117           0.000    25075940.711   131774889.059 4 102681739.68146
        39.000          22.000        -771.508        -601.175  
 12  2 16  8 35 35.0000000  0  1G15
  25076670.883           0.000    25076675.871   131778750.674 4 102684748.68146
        39.000          21.000        -773.219        -602.508  
 12  2 16  8 35 40.0000000  0  1G15
  25077406.836           0.000    25077412.574   131782622.798 4 102687765.85345
        38.000          20.000        -775.430        -604.231  
 12  2 16  8 35 45.0000000  0  1G15
  25078145.078           0.000    25078150.328   131786504.873 4 102690790.86845
        38.000          19.000        -777.465        -605.817  
 12  2 16  8 35 50.0000000  0  1G15
  25078885.969           0.000    25078891.066   131790397.233 3 102693823.84945
        37.000          18.000        -779.500        -607.403  
 12  2 16  8 35 55.0000000  0  1G15
  25079628.195           0.000    25079632.867   131794299.849 3 102696864.80445
        36.000          18.000        -781.297        -608.803  
 12  2 16  8 36  0.0000000  0  1G15
  25080374.242           0.000    25080377.406   131798212.540 3 102699913.60345
        37.000          17.000        -783.480        -610.504  
 12  2 16  8 36  5.0000000  0  1G15
  25081120.234           0.000    25081123.953   131802135.428 3 102702970.41745
        37.000          18.000        -785.688        -612.224  
 12  2 16  8 36 10.0000000  0  1G15
  25081869.359           0.000    25081872.336   131806068.216 4 102706034.92545
        38.000          18.000        -787.523        -613.655  
 12  2 16  8 36 15.0000000  0  1G15
  25082619.906           0.000    25082622.273   131810011.383 4 102709107.51945
        39.000          18.000        -789.664        -615.323  
 12  2 16  8 36 20.0000000  0  1G15
  25083372.266           0.000    25083374.297   131813964.129 5 102712187.54345
        40.000          19.000        -791.625        -616.851  
 12  2 16  8 36 25.0000000  0  1G15
  25084127.109           0.000    25084129.098   131817927.307 5 102715275.72945
        41.000          20.000        -793.688        -618.458  
 12  2 16  8 36 30.0000000  0  1G15
  25084882.797           0.000    25084885.508   131821900.712 5 102718371.84245
        40.000          20.000        -795.781        -620.089  
 12  2 16  8 36 35.0000000  0  1G15
  25085641.727           0.000    25085643.703   131825883.908 5 102721475.63046
        41.000          21.000        -797.680        -621.569  
 12  2 16  8 36 40.0000000  0  1G15
  25086402.203           0.000    25086403.434   131829877.307 5 102724587.34446
        42.000          21.000        -799.668        -623.118  
 12  2 16  8 36 45.0000000  0  1G15
  25087163.734           0.000    25087165.754   131833880.941 5 102727707.10546
        41.000          22.000        -801.809        -624.786  
 12  2 16  8 36 50.0000000  0  1G15
  25087927.203           0.000    25087929.598   131837894.664 5 102730834.66346
        42.000          23.000        -803.660        -626.229  
 12  2 16  8 36 55.0000000  0  1G15
  25088692.570           0.000    25088695.461   131841918.321 5 102733969.94146
        42.000          22.000        -805.785        -627.885  
 12  2 16  8 37  0.0000000  0  1G15
  25089459.977           0.000    25089463.566   131845951.975 5 102737113.01046
        42.000          22.000        -807.648        -629.336  
 12  2 16  8 37  5.0000000  0  1G15
  25090229.469           0.000    25090232.977   131849995.717 5 102740263.96446
        40.000          22.000        -809.680        -630.919  
 12  2 16  8 37 10.0000000  0  1G15
  25091001.125           0.000    25091004.750   131854049.723 5 102743422.91246
        42.000          25.000        -811.883        -632.636  
 12  2 16  8 37 15.0000000  0  1G15
  25091774.492           0.000    25091778.574   131858113.579 5 102746589.56646
        41.000          25.000        -813.766        -634.103  
 12  2 16  8 37 20.0000000  0  1G15
  25092549.672           0.000    25092553.805   131862187.565 5 102749764.11046
        42.000          24.000        -815.777        -635.671  
 12  2 16  8 37 25.0000000  0  1G15
  25093325.867           0.000    25093331.414   131866271.426 5 102752946.33946
        41.000          23.000        -817.719        -637.183  
 12  2 16  8 37 30.0000000  0  1G15
  25094105.039           0.000    25094110.340   131870365.399 5 102756136.44246
        40.000          23.000        -819.707        -638.733  
 12  2 16  8 37 35.0000000  0  1G15
  25094885.305           0.000    25094891.664   131874469.397 4 102759334.34746
        39.000          22.000        -821.953        -640.483  
 12  2 16  8 37 40.0000000  0  1G15
  25095668.203           0.000    25095674.840   131878583.416 3 102762540.02746
        37.000          22.000        -823.750        -641.883  
 12  2 16  8 37 45.0000000  0  1G15
  25096453.164           0.000    25096459.344   131882707.312 4 102765753.41546
        38.000          22.000        -825.746        -643.439  
 12  2 16  8 37 50.0000000  0  1G15
  25097239.453           0.000    25097246.563   131886841.112 4 102768974.56046
        38.000          25.000        -827.727        -644.982  
 12  2 16  8 37 55.0000000  0  1G15
  25098028.633           0.000    25098034.859   131890984.887 4 102772203.46946
        38.000          22.000        -829.680        -646.504  
 12  2 16  8 38  0.0000000  0  1G15
  25098817.492           0.000    25098825.625   131895138.556 3 102775440.06746
        37.000          22.000        -831.738        -648.108  
 12  2 16  8 38  5.0000000  0  1G15
  25099609.273           0.000    25099617.742   131899302.331 2 102778684.58946
        35.000          21.000        -833.746        -649.672  
 12  2 16  8 38 10.0000000  0  1G15
  25100403.055           0.000    25100411.422   131903476.118 2 102781936.83645
        35.000          20.000        -835.766        -651.246  
 12  2 16  8 38 15.0000000  0  1G15
  25101199.844           0.000    25101207.789   131907659.689 2 102785196.73845
        35.000          20.000        -837.676        -652.734  
 12  2 16  8 38 20.0000000  0  1G15
  25101998.625           0.000    25102005.883   131911853.243 2 102788464.41845
        35.000          20.000        -839.816        -654.402  
 12  2 16  8 38 25.0000000  0  1G15
  25102798.820           0.000    25102805.559   131916056.494 3 102791739.65945
        36.000          20.000        -841.695        -655.866  
 12  2 16  8 38 30.0000000  0  1G15
  25103601.195           0.000    25103607.598   131920269.520 3 102795022.50046
        37.000          21.000        -843.508        -657.279  
 12  2 16  8 38 35.0000000  0  1G15
  25104404.461           0.000    25104411.211   131924492.639 2 102798313.21646
        35.000          22.000        -845.680        -658.971  
 12  2 16  8 38 40.0000000  0  1G15
  25105210.320           0.000    25105216.324   131928725.622 2 102801611.53946
        35.000          21.000        -847.535        -660.417  
 12  2 16  8 38 45.0000000  0  1G15
  25106018.641           0.000    25106023.508   131932968.430 3 102804917.62845
        37.000          20.000        -849.734        -662.131  
 12  2 16  8 38 50.0000000  0  1G15
  25106828.945           0.000    25106832.402   131937220.973 4 102808231.26845
        39.000          20.000        -851.371        -663.406  
 12  2 16  8 38 55.0000000  0  1G15
  25107639.023           0.000    25107642.852   131941483.421 5 102811552.66345
        40.000          20.000        -853.457        -665.031  
 12  2 16  8 39  0.0000000  0  1G15
  25108452.125           0.000    25108455.859   131945755.648 5 102814881.66446
        41.000          21.000        -855.359        -666.514  
 12  2 16  8 39  5.0000000  0  1G15
  25109266.883           0.000    25109271.113   131950037.780 5 102818218.38545
        40.000          20.000        -857.398        -668.103  
 12  2 16  8 39 10.0000000  0  1G15
  25110083.328           0.000    25110087.543   131954329.735 5 102821562.76346
        41.000          21.000        -859.305        -669.588  
 12  2 16  8 39 15.0000000  0  1G15
  25110902.695           0.000    25110906.695   131958631.549 5 102824914.78346
        41.000          22.000        -861.426        -671.241  
 12  2 16  8 39 20.0000000  0  1G15
  25111724.289           0.000    25111727.047   131962943.024 5 102828274.38546
        41.000          22.000        -863.148        -672.583  
 12  2 16  8 39 25.0000000  0  1G15
  25112545.922           0.000    25112548.965   131967264.448 5 102831641.71146
        41.000          21.000        -865.137        -674.133  
 12  2 16  8 39 30.0000000  0  1G15
  25113369.633           0.000    25113373.391   131971595.677 5 102835016.72146
        42.000          22.000        -867.301        -675.819  
 12  2 16  8 39 35.0000000  0  1G15
  25114195.820           0.000    25114198.551   131975936.574 5 102838399.20946
        42.000          21.000        -869.031        -677.167  
 12  2 16  8 39 40.0000000  0  1G15
  25115023.813           0.000    25115026.008   131980287.047 5 102841789.20346
        42.000          21.000        -871.000        -678.701  
 12  2 16  8 39 45.0000000  0  1G15
  25115853.180           0.000    25115855.641   131984647.344 5 102845186.84346
        41.000          22.000        -872.938        -680.211  
 12  2 16  8 39 50.0000000  0  1G15
  25116685.102           0.000    25116687.824   131989017.376 5 102848592.04246
        41.000          22.000        -875.016        -681.830  
 12  2 16  8 39 55.0000000  0  1G15
  25117518.391           0.000    25117521.547   131993397.206 5 102852004.89046
        42.000          22.000        -876.895        -683.294  
 12  2 16  8 40  0.0000000  0  1G15
  25118352.625           0.000    25118356.965   131997786.819 5 102855425.34446
        41.000          22.000        -878.914        -684.868  
 12  2 16  8 40  5.0000000  0  1G15
  25119189.945           0.000    25119194.082   132002186.106 5 102858853.37846
        40.000          22.000        -880.887        -686.405  
 12  2 16  8 40 10.0000000  0  1G15
  25120029.148           0.000    25120033.141   132006594.981 4 102862288.85946
        39.000          21.000        -882.695        -687.815  
 12  2 16  8 40 15.0000000  0  1G15
  25120870.047           0.000    25120873.703   132011013.456 5 102865731.81945
        40.000          20.000        -884.703        -689.379  
 12  2 16  8 40 20.0000000  0  1G15
  25121712.570           0.000    25121716.047   132015441.671 5 102869182.38445
        40.000          19.000        -886.512        -690.788  
 12  2 16  8 40 25.0000000  0  1G15
  25122555.930           0.000    25122560.227   132019879.546 4 102872640.42545
        39.000          19.000        -888.535        -692.365  
 12  2 16  8 40 30.0000000  0  1G15
  25123402.219           0.000    25123406.906   132024327.068 4 102876106.01645
        38.000          19.000        -890.496        -693.893  
 12  2 16  8 40 35.0000000  0  1G15
  25124250.422           0.000    25124255.094   132028784.414 4 102879579.24545
        38.000          19.000        -892.238        -695.251  
 12  2 16  8 40 40.0000000  0  1G15
  25125100.922           0.000    25125105.488   132033251.416 4 102883060.02445
        38.000          20.000        -894.387        -696.925  
 12  2 16  8 40 45.0000000  0  1G15
  25125951.578           0.000    25125957.035   132037728.101 3 102886548.32646
        37.000          21.000        -896.398        -698.492  
 12  2 16  8 40 50.0000000  0  1G15
  25126806.484           0.000    25126811.203   132042214.399 4 102890044.12345
        38.000          20.000        -898.375        -700.032  
 12  2 16  8 40 55.0000000  0  1G15
  25127661.195           0.000    25127667.352   132046710.173 3 102893547.30145
        37.000          20.000        -900.234        -701.481  
 12  2 16  8 41  0.0000000  0  1G15
  25128519.352           0.000    25128524.660   132051215.774 3 102897058.15445
        36.000          20.000        -902.086        -702.924  
 12  2 16  8 41  5.0000000  0  1G15
  25129378.477           0.000    25129384.242   132055730.962 3 102900576.47745
        37.000          20.000        -903.965        -704.388  
 12  2 16  8 41 10.0000000  0  1G15
  25130240.359           0.000    25130244.883   132060255.607 4 102904102.14245
        38.000          20.000        -905.914        -705.907  
 12  2 16  8 41 15.0000000  0  1G15
  25131103.766           0.000    25131108.488   132064789.880 4 102907635.31246
        38.000          21.000        -907.715        -707.310  
 12  2 16  8 41 20.0000000  0  1G15
  25131967.367           0.000    25131973.074   132069333.666 4 102911175.90046
        38.000          21.000        -909.723        -708.875  
 12  2 16  8 41 25.0000000  0  1G15
  25132834.328           0.000    25132839.574   132073887.016 4 102914723.94546
        38.000          22.000        -911.508        -710.266  
 12  2 16  8 41 30.0000000  0  1G15
  25133702.898           0.000    25133708.172   132078450.008 3 102918279.54746
        37.000          22.000        -913.516        -711.830  
 12  2 16  8 41 35.0000000  0  1G15
  25134572.805           0.000    25134578.535   132083022.464 4 102921842.45846
        39.000          22.000        -915.488        -713.367  
 12  2 16  8 41 40.0000000  0  1G15
  25135445.227           0.000    25135450.109   132087604.352 4 102925412.73446
        38.000          22.000        -917.430        -714.880  
 12  2 16  8 41 45.0000000  0  1G15
  25136318.516           0.000    25136323.918   132092195.861 4 102928990.53946
        38.000          22.000        -919.211        -716.268  
 12  2 16  8 41 50.0000000  0  1G15
  25137194.141           0.000    25137198.504   132096796.850 4 102932575.71846
        38.000          21.000        -921.020        -717.678  
 12  2 16  8 41 55.0000000  0  1G15
  25138071.914           0.000    25138076.609   132101407.373 4 102936168.34746
        39.000          22.000        -923.195        -719.373  
 12  2 16  8 42  0.0000000  0  1G15
  25138950.430           0.000    25138955.480   132106027.433 4 102939768.37846
        38.000          22.000        -925.004        -720.782  
 12  2 16  8 42  5.0000000  0  1G15
  25139831.430           0.000    25139836.621   132110656.941 4 102943375.80046
        38.000          22.000        -926.840        -722.213  
 12  2 16  8 42 10.0000000  0  1G15
  25140713.688           0.000    25140719.340   132115295.910 3 102946990.55146
        37.000          22.000        -928.711        -723.671  
 12  2 16  8 42 15.0000000  0  1G15
  25141599.117           0.000    25141604.355   132119944.413 4 102950612.76946
        39.000          22.000        -930.707        -725.226  
 12  2 16  8 42 20.0000000  0  1G15
  25142484.586           0.000    25142490.738   132124602.413 4 102954242.37046
        39.000          22.000        -932.547        -726.660  
 12  2 16  8 42 25.0000000  0  1G15
  25143372.547           0.000    25143379.078   132129269.864 4 102957879.35546
        39.000          22.000        -934.355        -728.069  
 12  2 16  8 42 30.0000000  0  1G15
  25144264.047           0.000    25144268.453   132133946.732 5 102961523.64546
        40.000          22.000        -936.332        -729.609  
 12  2 16  8 42 35.0000000  0  1G15
  25145155.273           0.000    25145160.109   132138633.050 5 102965175.33946
        40.000          21.000        -938.250        -731.104  
 12  2 16  8 42 40.0000000  0  1G15
  25146048.508           0.000    25146053.305   132143328.773 4 102968834.32745
        39.000          20.000        -940.211        -732.632  
 12  2 16  8 42 45.0000000  0  1G15
  25146944.180           0.000    25146948.051   132148034.020 4 102972500.71546
        38.000          21.000        -942.000        -734.026  
 12  2 16  8 42 50.0000000  0  1G15
  25147841.445           0.000    25147845.066   132152748.648 4 102976174.46245
        38.000          19.000        -943.820        -735.444  
 12  2 16  8 42 55.0000000  0  1G15
  25148740.328           0.000    25148744.250   132157472.565 4 102979855.45245
        39.000          19.000        -945.699        -736.909  
 12  2 16  8 43  0.0000000  0  1G15
  25149640.508           0.000    25149644.664   132162205.887 4 102983543.74845
        39.000          19.000        -947.539        -738.342  
 12  2 16  8 43  5.0000000  0  1G15
  25150543.227           0.000    25150547.348   132166948.556 5 102987239.29445
        40.000          20.000        -949.375        -739.773  
 12  2 16  8 43 10.0000000  0  1G15
  25151447.328           0.000    25151451.703   132171700.629 4 102990942.22445
        39.000          19.000        -951.316        -741.286  
 12  2 16  8 43 15.0000000  0  1G15
  25152353.195           0.000    25152358.098   132176462.091 4 102994652.43545
        38.000          19.000        -953.414        -742.920  
 12  2 16  8 43 20.0000000  0  1G15
  25153261.156           0.000    25153265.746   132181232.730 4 102998369.78645
        38.000          19.000        -955.184        -744.299  
