     2.10           OBSERVATION DATA    G (GPS)             RINEX VERSION / TYPE
RinEdit                                 06/14/2017 16:15:05 PGM / RUN BY / DATE
Unknown                                                     MARKER NAME
Unknown             Unknown                                 OBSERVER / AGENCY
1                   Unknown MDP         Unknown             REC # / TYPE / VERS
1                   Unknown                                 ANT # / TYPE
  1112158.6928 -4842855.6141  3985496.9729                  APPROX POSITION XYZ
        0.0000        0.0000        0.0000                  ANTENNA: DELTA H/E/N
    10    L1    L2    P1    P2    D1    D2    S1    S2    C1# / TYPES OF OBSERV
          C2                                                # / TYPES OF OBSERV
     1     1                                                WAVELENGTH FACT L1/2
     1.500                                                  INTERVAL
  2015     8    27     4    58   21.0000000     GPS         TIME OF FIRST OBS
                                                            END OF HEADER
 15  8 27  4 58 21.0000000  0  1G11
   -749653.037 7   -643705.855 7  25060157.611 7  25060158.261 7       949.621 7
       739.973 7        38.000          38.120    25060155.913 7         0.000  
 15  8 27  4 58 22.5000000  0  1G11
   -751076.821 7   -644815.302 7  25059887.070 7  25059887.277 7       948.759 7
       739.282 7        38.080          37.830    25059887.098 7         0.000  
 15  8 27  4 58 24.0000000  0  1G11
   -752499.310 7   -645923.725 7  25059616.194 7  25059616.251 7       947.895 7
       738.619 7        37.990          37.700    25059616.485 7         0.000  
 15  8 27  4 58 25.5000000  0  1G11
   -753920.504 7   -647031.152 7  25059345.769 7  25059345.763 7       947.026 7
       737.934 7        37.870          37.290    25059345.275 7         0.000  
 15  8 27  4 58 27.0000000  0  1G11
   -755340.393 7   -648137.551 7  25059075.455 7  25059075.599 7       946.153 7
       737.257 7        37.720          37.380    25059074.648 7         0.000  
 15  8 27  4 58 28.5000000  0  1G11
   -756758.987 7   -649242.939 7  25058805.563 7  25058805.307 7       945.300 7
       736.588 7        37.590          37.350    25058805.118 7         0.000  
 15  8 27  4 58 30.0000000  0  1G11
   -758176.278 7   -650347.331 7  25058535.653 7  25058535.512 7       944.425 7
       735.919 7        37.490          37.380    25058535.759 7         0.000  
 15  8 27  4 58 31.5000000  0  1G11
   -759592.271 7   -651450.693 7  25058266.012 7  25058266.364 7       943.571 7
       735.240 7        37.370          37.210    25058265.750 7         0.000  
 15  8 27  4 58 33.0000000  0  1G11
   -761006.950 7   -652553.044 7  25057996.616 7  25057997.062 7       942.689 7
       734.565 7        37.340          37.210    25057997.048 7         0.000  
 15  8 27  4 58 34.5000000  0  1G11
   -762420.347 7   -653654.381 7  25057727.547 7  25057728.250 7       941.828 7
       733.884 7        37.180          37.590    25057727.748 7         0.000  
 15  8 27  4 58 36.0000000  0  1G11
   -763832.423 7   -654754.706 7  25057459.107 7  25057459.823 7       940.961 7
       733.213 7        37.100          37.430    25057458.359 7         0.000  
 15  8 27  4 58 37.5000000  0  1G11
   -765243.227 7   -655854.021 7  25057190.048 7  25057190.884 7       940.091 7
       732.530 7        37.150          37.500    25057190.990 7         0.000  
 15  8 27  4 58 39.0000000  0  1G11
   -766652.703 7   -656952.310 7  25056921.786 7  25056923.244 7       939.211 7
       731.858 7        37.400          37.660    25056923.497 7         0.000  
 15  8 27  4 58 40.5000000  0  1G11
   -768060.883 7   -658049.595 7  25056653.755 7  25056655.052 7       938.349 7
       731.177 7        37.510          37.720    25056655.591 7         0.000  
 15  8 27  4 58 42.0000000  0  1G11
   -769467.749 7   -659145.842 7  25056386.418 7  25056387.954 7       937.477 7
       730.500 7        37.260          37.730    25056387.707 7         0.000  
 15  8 27  4 58 43.5000000  0  1G11
   -770873.324 7   -660241.100 7  25056118.951 7  25056120.580 7       936.617 7
       729.836 7        37.440          38.000    25056120.400 7         0.000  
 15  8 27  4 58 45.0000000  0  1G11
   -772277.601 7   -661335.340 7  25055851.537 7  25055853.320 7       935.750 7
       729.154 7        37.360          37.940    25055852.229 7         0.000  
 15  8 27  4 58 46.5000000  0  1G11
   -773680.551 7   -662428.551 7  25055584.808 7  25055586.562 7       934.873 7
       728.469 7        37.700          38.180    25055585.021 7         0.000  
 15  8 27  4 58 48.0000000  0  1G11
   -775082.212 7   -663520.755 7  25055318.121 7  25055320.193 7       934.003 7
       727.801 7        37.510          38.150    25055318.069 7         0.000  
 15  8 27  4 58 49.5000000  0  1G11
   -776482.578 7   -664611.943 7  25055051.964 7  25055053.191 7       933.140 7
       727.116 7        37.720          38.310    25055052.403 7         0.000  
 15  8 27  4 58 51.0000000  0  1G11
   -777881.636 7   -665702.123 7  25054786.047 7  25054787.187 7       932.277 7
       726.451 7        37.830          38.080    25054785.178 7         0.000  
 15  8 27  4 58 52.5000000  0  1G11
   -779279.392 7   -666791.286 7  25054520.084 7  25054521.315 7       931.405 7
       725.774 7        37.880          38.550    25054519.966 7         0.000  
 15  8 27  4 58 54.0000000  0  1G11
   -780675.850 7   -667879.434 7  25054254.396 7  25054255.321 7       930.533 7
       725.087 7        38.060          38.530    25054253.303 7         0.000  
 15  8 27  4 58 55.5000000  0  1G11
   -782070.998 7   -668966.559 7  25053988.724 7  25053989.463 7       929.654 7
       724.404 7        37.920          38.590    25053989.031 7         0.000  
 15  8 27  4 58 57.0000000  0  1G11
   -783464.831 7   -670052.661 7  25053723.668 7  25053724.490 7       928.791 7
       723.730 7        37.930          38.480    25053722.604 7         0.000  
 15  8 27  4 58 58.5000000  0  1G11
   -784857.363 7   -671137.750 7  25053458.576 7  25053459.617 7       927.926 7
       723.059 7        37.730          38.430    25053458.469 7         0.000  
 15  8 27  4 59  0.0000000  0  1G11
   -786248.594 7   -672221.823 7  25053193.554 7  25053194.561 7       927.052 7
       722.369 7        37.850          38.680    25053192.848 7         0.000  
 15  8 27  4 59  1.5000000  0  1G11
   -787638.533 7   -673304.886 7  25052929.163 7  25052929.872 7       926.182 7
       721.700 7        38.050          38.430    25052927.753 7         0.000  
 15  8 27  4 59  3.0000000  0  1G11
   -789027.144 7   -674386.930 7  25052664.772 7  25052665.724 7       925.301 7
       721.022 7        37.920          38.800    25052664.109 7         0.000  
 15  8 27  4 59  4.5000000  0  1G11
   -790414.466 7   -675467.953 7  25052400.610 7  25052401.907 7       924.451 7
       720.348 7        37.560          38.810    25052400.118 7         0.000  
 15  8 27  4 59  6.0000000  0  1G11
   -791800.479 7   -676547.961 7  25052136.686 7  25052138.049 7       923.574 7
       719.664 7        37.540          38.560    25052136.706 7         0.000  
 15  8 27  4 59  7.5000000  0  1G11
   -793185.196 7   -677626.956 7  25051873.510 7  25051874.582 7       922.708 7
       719.001 7        37.550          38.680    25051873.895 7         0.000  
 15  8 27  4 59  9.0000000  0  1G11
   -794568.596 7   -678704.933 7  25051610.172 7  25051611.533 7       921.842 7
       718.308 7        37.380          38.580    25051610.539 7         0.000  
 15  8 27  4 59 10.5000000  0  1G11
   -795950.694 7   -679781.891 7  25051346.868 7  25051348.791 7       920.959 7
       717.630 7        37.120          38.660    25051347.119 7         0.000  
 15  8 27  4 59 12.0000000  0  1G11
   -797331.488 7   -680857.829 7  25051084.194 7  25051085.806 7       920.088 7
       716.955 7        37.140          38.690    25051083.977 7         0.000  
 15  8 27  4 59 13.5000000  0  1G11
   -798710.978 7   -681932.759 7  25050821.731 7  25050823.189 7       919.223 7
       716.278 7        37.070          38.740    25050821.518 7         0.000  
 15  8 27  4 59 15.0000000  0  1G11
   -800089.157 7   -683006.658 7  25050559.510 7  25050561.185 7       918.346 7
       715.597 7        36.750          38.670    25050559.695 7         0.000  
 15  8 27  4 59 16.5000000  0  1G11
   -801466.028 7   -684079.541 7  25050297.327 7  25050299.218 7       917.473 7
       714.927 7        36.780          38.750    25050298.337 7         0.000  
 15  8 27  4 59 18.0000000  0  1G11
   -802841.584 7   -685151.412 7  25050035.435 7  25050037.244 7       916.611 7
       714.237 7        36.550          38.600    25050035.328 7         0.000  
 15  8 27  4 59 19.5000000  0  1G11
   -804215.853 7   -686222.267 7  25049773.592 7  25049775.595 7       915.738 7
       713.564 7        36.280          38.490    25049774.051 7         0.000  
 15  8 27  4 59 21.0000000  0  1G11
   -805588.809 7   -687292.098 7  25049512.546 7  25049514.194 7       914.863 7
       712.885 7        36.020          38.520    25049513.193 7         0.000  
 15  8 27  4 59 22.5000000  0  1G11
   -806960.457 7   -688360.917 7  25049251.303 7  25049253.065 7       913.996 7
       712.206 7        35.960          38.450    25049250.033 7         0.000  
 15  8 27  4 59 24.0000000  0  1G11
   -808330.815 7   -689428.724 7  25048990.539 7  25048992.422 7       913.126 7
       711.530 7        36.060          38.480    25048988.764 7         0.000  
 15  8 27  4 59 25.5000000  0  1G11
   -809699.857 7   -690495.512 7  25048730.079 7  25048731.485 7       912.261 7
       710.857 7        36.070          38.330    25048729.259 7         0.000  
 15  8 27  4 59 27.0000000  0  1G11
   -811067.590 7   -691561.279 7  25048470.166 7  25048471.366 7       911.391 7
       710.174 7        36.260          38.250    25048468.381 7         0.000  
 15  8 27  4 59 28.5000000  0  1G11
   -812434.015 7   -692626.035 7  25048210.065 7  25048211.438 7       910.519 7
       709.493 7        35.930          38.060    25048207.418 7         0.000  
 15  8 27  4 59 30.0000000  0  1G11
   -813799.137 7   -693689.767 7  25047950.373 7  25047951.441 7       909.645 7
       708.822 7        36.250          38.020    25047949.388 7         0.000  
 15  8 27  4 59 31.5000000  0  1G11
   -815162.968 7   -694752.490 7  25047690.906 7  25047691.552 7       908.782 7
       708.140 7        36.140          37.890    25047690.136 7         0.000  
 15  8 27  4 59 33.0000000  0  1G11
   -816525.477 7   -695814.202 7  25047431.891 7  25047432.573 7       907.909 7
       707.460 7        35.970          37.830    25047432.299 7         0.000  
 15  8 27  4 59 34.5000000  0  1G11
   -817886.698 7   -696874.880 7  25047173.228 7  25047173.456 7       907.037 7
       706.783 7        36.140          37.940    25047173.556 7         0.000  
 15  8 27  4 59 36.0000000  0  1G11
   -819246.604 7   -697934.560 7  25046914.464 7  25046914.494 7       906.156 7
       706.107 7        36.090          37.850    25046915.542 7         0.000  
 15  8 27  4 59 37.5000000  0  1G11
   -820605.208 7   -698993.213 7  25046655.469 7  25046656.182 7       905.302 7
       705.443 7        35.910          37.690    25046656.308 7         0.000  
 15  8 27  4 59 39.0000000  0  1G11
   -821962.504 7   -700050.844 7  25046397.668 7  25046397.808 7       904.431 7
       704.748 7        36.100          37.980    25046397.777 7         0.000  
 15  8 27  4 59 40.5000000  0  1G11
   -823318.488 7   -701107.449 7  25046139.849 7  25046139.686 7       903.561 7
       704.069 7        36.030          38.040    25046140.329 7         0.000  
 15  8 27  4 59 42.0000000  0  1G11
   -824673.170 7   -702163.053 7  25045881.641 7  25045882.427 7       902.684 7
       703.390 7        36.040          38.080    25045882.300 7         0.000  
 15  8 27  4 59 43.5000000  0  1G11
   -826026.556 7   -703217.645 7  25045624.214 7  25045624.931 7       901.815 7
       702.714 7        36.280          38.270    25045624.605 7         0.000  
 15  8 27  4 59 45.0000000  0  1G11
   -827378.635 7   -704271.208 7  25045366.709 7  25045367.369 7       900.952 7
       702.035 7        36.310          38.240    25045367.994 7         0.000  
 15  8 27  4 59 46.5000000  0  1G11
   -828729.396 7   -705323.747 7  25045109.671 7  25045110.315 7       900.079 7
       701.360 7        36.330          38.510    25045110.878 7         0.000  
 15  8 27  4 59 48.0000000  0  1G11
   -830078.863 7   -706375.280 7  25044852.888 7  25044853.596 7       899.200 7
       700.675 7        36.220          38.490    25044853.768 7         0.000  
 15  8 27  4 59 49.5000000  0  1G11
   -831427.023 7   -707425.798 7  25044596.339 7  25044596.822 7       898.336 7
       700.013 7        36.320          38.620    25044595.765 7         0.000  
 15  8 27  4 59 51.0000000  0  1G11
   -832773.877 7   -708475.302 7  25044340.252 7  25044340.739 7       897.465 7
       699.322 7        36.340          38.720    25044339.722 7         0.000  
 15  8 27  4 59 52.5000000  0  1G11
   -834119.430 7   -709523.775 7  25044083.960 7  25044084.768 7       896.611 7
       698.649 7        36.290          38.940    25044082.261 7         0.000  
 15  8 27  4 59 54.0000000  0  1G11
   -835463.674 7   -710571.234 7  25043828.050 7  25043828.656 7       895.726 7
       697.965 7        36.230          39.130    25043828.527 7         0.000  
 15  8 27  4 59 55.5000000  0  1G11
   -836806.618 7   -711617.683 7  25043572.682 7  25043573.148 7       894.854 7
       697.292 7        36.060          39.130    25043572.480 7         0.000  
 15  8 27  4 59 57.0000000  0  1G11
   -838148.250 7   -712663.110 7  25043317.116 7  25043318.250 7       893.992 7
       696.611 7        36.390          39.370    25043317.543 7         0.000  
 15  8 27  4 59 58.5000000  0  1G11
   -839488.588 7   -713707.528 7  25043062.326 7  25043063.355 7       893.121 7
       695.938 7        36.520          39.590    25043063.092 7         0.000  
 15  8 27  5  0  0.0000000  0  1G11
   -840827.607 7   -714750.918 7  25042807.826 7  25042808.754 7       892.251 7
       695.259 7        36.450          39.750    25042808.163 7         0.000  
 15  8 27  5  0  1.5000000  0  1G11
   -842165.339 7   -715793.307 7  25042553.203 7  25042554.310 7       891.381 7
       694.581 7        36.620          39.750    25042553.271 7         0.000  
 15  8 27  5  0  3.0000000  0  1G11
   -843501.743 7   -716834.666 7  25042298.626 7  25042300.056 7       890.503 7
       693.902 7        36.460          39.710    25042298.880 7         0.000  
 15  8 27  5  0  4.5000000  0  1G11
   -844836.855 7   -717875.007 7  25042044.591 7  25042045.985 7       889.632 7
       693.227 7        36.270          39.870    25042044.851 7         0.000  
 15  8 27  5  0  6.0000000  0  1G11
   -846170.665 7   -718914.340 7  25041791.102 7  25041792.292 7       888.773 7
       692.547 7        36.240          39.840    25041791.933 7         0.000  
 15  8 27  5  0  7.5000000  0  1G11
   -847503.166 7   -719952.660 7  25041537.414 7  25041538.779 7       887.905 7
       691.859 7        36.070          39.850    25041537.774 7         0.000  
 15  8 27  5  0  9.0000000  0  1G11
   -848834.364 7   -720989.954 7  25041283.689 7  25041285.519 7       887.024 7
       691.193 7        36.130          39.760    25041283.584 7         0.000  
 15  8 27  5  0 10.5000000  0  1G11
   -850164.248 7   -722026.223 7  25041030.880 7  25041032.131 7       886.154 7
       690.507 7        35.830          39.750    25041029.606 7         0.000  
 15  8 27  5  0 12.0000000  0  1G11
   -851492.824 7   -723061.479 7  25040777.546 7  25040779.263 7       885.276 7
       689.835 7        35.630          39.820    25040776.638 7         0.000  
 15  8 27  5  0 13.5000000  0  1G11
   -852820.096 7   -724095.721 7  25040524.875 7  25040526.844 7       884.419 7
       689.150 7        35.860          39.830    25040525.213 7         0.000  
 15  8 27  5  0 15.0000000  0  1G11
   -854146.064 7   -725128.940 7  25040272.375 7  25040274.184 7       883.555 7
       688.478 7        35.620          39.780    25040274.030 7         0.000  
 15  8 27  5  0 16.5000000  0  1G11
   -855470.722 7   -726161.137 7  25040020.220 7  25040022.644 7       882.684 7
       687.796 7        35.430          39.720    25040020.965 7         0.000  
 15  8 27  5  0 18.0000000  0  1G11
   -856794.078 7   -727192.318 7  25039768.278 7  25039770.299 7       881.792 7
       687.110 7        35.610          39.650    25039769.352 7         0.000  
 15  8 27  5  0 19.5000000  0  1G11
   -858116.126 7   -728222.492 7  25039516.873 7  25039518.677 7       880.930 7
       686.453 7        35.120          39.690    25039518.346 7         0.000  
 15  8 27  5  0 21.0000000  0  1G11
   -859436.876 7   -729251.643 7  25039265.441 7  25039267.439 7       880.056 7
       685.758 7        35.360          39.500    25039267.132 7         0.000  
 15  8 27  5  0 22.5000000  0  1G11
   -860756.302 7   -730279.773 7  25039014.702 7  25039016.390 7       879.186 7
       685.089 7        35.410          39.500    25039015.328 7         0.000  
 15  8 27  5  0 24.0000000  0  1G11
   -862074.431 7   -731306.883 7  25038764.272 7  25038765.540 7       878.311 7
       684.396 7        35.350          39.460    25038765.255 7         0.000  
 15  8 27  5  0 25.5000000  0  1G11
   -863391.250 7   -732332.968 7  25038513.563 7  25038514.761 7       877.451 7
       683.730 7        35.670          39.420    25038514.575 7         0.000  
 15  8 27  5  0 27.0000000  0  1G11
   -864706.760 7   -733358.046 7  25038263.062 7  25038264.266 7       876.554 7
       683.041 7        35.900          39.420    25038265.446 7         0.000  
 15  8 27  5  0 28.5000000  0  1G11
   -866020.951 7   -734382.086 7  25038013.380 7  25038014.714 7       875.703 7
       682.363 7        35.820          39.350    25038014.826 7         0.000  
 15  8 27  5  0 30.0000000  0  1G11
   -867333.839 7   -735405.109 7  25037763.498 7  25037764.665 7       874.808 7
       681.674 7        35.880          39.340    25037765.660 7         0.000  
 15  8 27  5  0 31.5000000  0  1G11
   -868645.433 7   -736427.133 7  25037514.141 7  25037515.095 7       873.959 7
       681.013 7        36.070          39.330    25037515.697 7         0.000  
 15  8 27  5  0 33.0000000  0  1G11
   -869955.700 7   -737448.117 7  25037265.124 7  25037265.924 7       873.065 7
       680.311 7        35.860          39.150    25037265.702 7         0.000  
 15  8 27  5  0 34.5000000  0  1G11
   -871264.665 7   -738468.090 7  25037015.661 7  25037016.827 7       872.220 7
       679.649 7        36.170          39.110    25037016.540 7         0.000  
 15  8 27  5  0 36.0000000  0  1G11
   -872572.326 7   -739487.049 7  25036766.993 7  25036768.215 7       871.327 7
       678.956 7        36.180          39.220    25036767.507 7         0.000  
 15  8 27  5  0 37.5000000  0  1G11
   -873878.679 7   -740504.981 7  25036518.475 7  25036519.299 7       870.477 7
       678.284 7        35.890          39.130    25036518.648 7         0.000  
 15  8 27  5  0 39.0000000  0  1G11
   -875183.713 7   -741521.888 7  25036269.719 7  25036271.036 7       869.589 7
       677.588 7        36.280          39.180    25036270.310 7         0.000  
 15  8 27  5  0 40.5000000  0  1G11
   -876487.442 7   -742537.776 7  25036021.886 7  25036022.806 7       868.706 7
       676.908 7        36.130          39.030    25036022.288 7         0.000  
 15  8 27  5  0 42.0000000  0  1G11
   -877789.855 7   -743552.640 7  25035773.693 7  25035775.103 7       867.845 7
       676.239 7        36.320          39.040    25035774.103 7         0.000  
 15  8 27  5  0 43.5000000  0  1G11
   -879090.972 7   -744566.492 7  25035526.146 7  25035527.621 7       866.959 7
       675.557 7        36.450          38.970    25035524.667 7         0.000  
 15  8 27  5  0 45.0000000  0  1G11
   -880390.772 7   -745579.327 7  25035278.550 7  25035280.321 7       866.105 7
       674.887 7        36.320          38.910    25035278.678 7         0.000  
 15  8 27  5  0 46.5000000  0  1G11
   -881689.268 7   -746591.127 7  25035031.647 7  25035033.125 7       865.220 7
       674.198 7        36.280          38.970    25035031.364 7         0.000  
 15  8 27  5  0 48.0000000  0  1G11
   -882986.436 7   -747601.917 7  25034784.525 7  25034785.574 7       864.355 7
       673.515 7        36.360          39.030    25034784.096 7         0.000  
 15  8 27  5  0 49.5000000  0  1G11
   -884282.310 7   -748611.687 7  25034538.021 7  25034539.230 7       863.465 7
       672.833 7        36.340          38.710    25034537.207 7         0.000  
 15  8 27  5  0 51.0000000  0  1G11
   -885576.870 7   -749620.433 7  25034291.509 7  25034292.931 7       862.607 7
       672.162 7        36.340          38.750    25034291.938 7         0.000  
 15  8 27  5  0 52.5000000  0  1G11
   -886870.128 7   -750628.171 7  25034045.957 7  25034046.571 7       861.732 7
       671.489 7        35.910          38.830    25034044.723 7         0.000  
 15  8 27  5  0 54.0000000  0  1G11
   -888162.085 7   -751634.883 7  25033800.071 7  25033800.907 7       860.857 7
       670.806 7        35.930          38.560    25033799.823 7         0.000  
 15  8 27  5  0 55.5000000  0  1G11
   -889452.732 7   -752640.584 7  25033554.574 7  25033555.566 7       859.990 7
       670.122 7        35.980          38.690    25033554.158 7         0.000  
 15  8 27  5  0 57.0000000  0  1G11
   -890742.057 7   -753645.248 7  25033309.223 7  25033310.072 7       859.118 7
       669.439 7        36.040          38.500    25033309.655 7         0.000  
 15  8 27  5  0 58.5000000  0  1G11
   -892030.079 7   -754648.909 7  25033064.363 7  25033065.100 7       858.244 7
       668.761 7        36.450          38.450    25033064.140 7         0.000  
 15  8 27  5  1  0.0000000  0  1G11
   -893316.788 7   -755651.536 7  25032819.419 7  25032819.916 7       857.362 7
       668.082 7        36.150          38.770    25032819.684 7         0.000  
 15  8 27  5  1  1.5000000  0  1G11
   -894602.192 7   -756653.154 7  25032575.207 7  25032575.300 7       856.506 7
       667.404 7        36.060          38.510    25032575.609 7         0.000  
 15  8 27  5  1  3.0000000  0  1G11
   -895886.282 7   -757653.742 7  25032330.710 7  25032331.175 7       855.617 7
       666.720 7        35.980          38.580    25032330.234 7         0.000  
 15  8 27  5  1  4.5000000  0  1G11
   -897169.063 7   -758653.316 7  25032086.304 7  25032087.229 7       854.749 7
       666.044 7        36.750          38.810    25032087.051 7         0.000  
 15  8 27  5  1  6.0000000  0  1G11
   -898450.543 7   -759651.869 7  25031842.290 7  25031843.609 7       853.890 7
       665.365 7        36.280          38.720    25031842.167 7         0.000  
 15  8 27  5  1  7.5000000  0  1G11
   -899730.716 7   -760649.401 7  25031598.607 7  25031600.120 7       853.017 7
       664.678 7        36.540          38.960    25031599.782 7         0.000  
 15  8 27  5  1  9.0000000  0  1G11
   -901009.565 7   -761645.913 7  25031354.928 7  25031356.698 7       852.135 7
       664.001 7        36.680          38.940    25031356.393 7         0.000  
 15  8 27  5  1 10.5000000  0  1G11
   -902287.120 7   -762641.412 7  25031112.092 7  25031114.009 7       851.253 7
       663.321 7        36.820          38.970    25031112.626 7         0.000  
 15  8 27  5  1 12.0000000  0  1G11
   -903563.358 7   -763635.887 7  25030869.030 7  25030870.942 7       850.391 7
       662.647 7        36.790          38.900    25030870.033 7         0.000  
 15  8 27  5  1 13.5000000  0  1G11
   -904838.306 7   -764629.349 7  25030626.335 7  25030628.312 7       849.526 7
       661.974 7        36.970          38.830    25030626.170 7         0.000  
 15  8 27  5  1 15.0000000  0  1G11
   -906111.925 7   -765621.782 7  25030384.225 7  25030386.087 7       848.641 7
       661.279 7        36.980          38.790    25030383.260 7         0.000  
 15  8 27  5  1 16.5000000  0  1G11
   -907384.243 7   -766613.191 7  25030142.022 7  25030143.962 7       847.788 7
       660.610 7        37.140          38.760    25030141.763 7         0.000  
 15  8 27  5  1 18.0000000  0  1G11
   -908655.253 7   -767603.590 7  25029900.044 7  25029902.237 7       846.899 7
       659.919 7        37.120          38.690    25029898.547 7         0.000  
 15  8 27  5  1 19.5000000  0  1G11
   -909924.969 7   -768592.975 7  25029658.390 7  25029660.453 7       846.028 7
       659.253 7        37.170          38.520    25029658.877 7         0.000  
 15  8 27  5  1 21.0000000  0  1G11
   -911193.363 7   -769581.337 7  25029417.183 7  25029418.850 7       845.159 7
       658.568 7        37.390          38.640    25029417.444 7         0.000  
 15  8 27  5  1 22.5000000  0  1G11
   -912460.450 7   -770568.672 7  25029176.260 7  25029177.963 7       844.282 7
       657.883 7        37.490          38.260    25029177.033 7         0.000  
 15  8 27  5  1 24.0000000  0  1G11
   -913726.234 7   -771554.997 7  25028935.309 7  25028936.765 7       843.408 7
       657.210 7        37.570          38.380    25028935.544 7         0.000  
 15  8 27  5  1 25.5000000  0  1G11
   -914990.697 7   -772540.306 7  25028694.450 7  25028695.865 7       842.545 7
       656.531 7        37.680          38.030    25028695.129 7         0.000  
 15  8 27  5  1 27.0000000  0  1G11
   -916253.840 7   -773524.563 7  25028454.052 7  25028455.580 7       841.651 7
       655.831 7        37.510          37.910    25028454.988 7         0.000  
 15  8 27  5  1 28.5000000  0  1G11
   -917515.682 7   -774507.817 7  25028213.687 7  25028215.191 7       840.794 7
       655.168 7        37.550          37.630    25028213.719 7         0.000  
 15  8 27  5  1 30.0000000  0  1G11
   -918776.218 7   -775490.051 7  25027974.124 7  25027974.981 7       839.917 7
       654.479 7        37.480          37.630    25027973.611 7         0.000  
 15  8 27  5  1 31.5000000  0  1G11
   -920035.445 7   -776471.259 7  25027734.490 7  25027735.427 7       839.050 7
       653.802 7        37.390          37.620    25027733.718 7         0.000  
 15  8 27  5  1 33.0000000  0  1G11
   -921293.378 7   -777451.465 7  25027495.183 7  25027495.938 7       838.187 7
       653.134 7        37.460          37.190    25027494.575 7         0.000  
 15  8 27  5  1 34.5000000  0  1G11
   -922549.986 7   -778430.640 7  25027256.554 7  25027257.091 7       837.295 7
       652.439 7        37.270          37.390    25027256.984 7         0.000  
 15  8 27  5  1 36.0000000  0  1G11
   -923805.290 7   -779408.802 7  25027017.433 7  25027017.957 7       836.421 7
       651.756 7        37.460          37.010    25027017.962 7         0.000  
 15  8 27  5  1 37.5000000  0  1G11
   -925059.281 7   -780385.927 7  25026778.486 7  25026779.689 7       835.565 7
       651.080 7        37.590          36.990    25026780.178 7         0.000  
 15  8 27  5  1 39.0000000  0  1G11
   -926311.961 7   -781362.053 7  25026540.447 7  25026541.337 7       834.686 7
       650.400 7        37.640          36.970    25026540.517 7         0.000  
 15  8 27  5  1 40.5000000  0  1G11
   -927563.325 7   -782337.135 7  25026302.568 7  25026303.036 7       833.805 7
       649.721 7        37.690          36.890    25026303.220 7         0.000  
 15  8 27  5  1 42.0000000  0  1G11
   -928813.376 7   -783311.208 7  25026064.758 7  25026065.579 7       832.935 7
       649.035 7        37.970          36.680    25026064.492 7         0.000  
 15  8 27  5  1 43.5000000  0  1G11
   -930062.129 7   -784284.258 7  25025826.956 7  25025827.938 7       832.056 7
       648.351 7        37.810          36.800    25025827.529 7         0.000  
 15  8 27  5  1 45.0000000  0  1G11
   -931309.557 7   -785256.280 7  25025589.590 7  25025590.434 7       831.183 7
       647.667 7        37.950          36.810    25025590.070 7         0.000  
 15  8 27  5  1 46.5000000  0  1G11
   -932555.680 7   -786227.283 7  25025352.509 7  25025353.361 7       830.316 7
       646.993 7        37.920          36.700    25025352.150 7         0.000  
 15  8 27  5  1 48.0000000  0  1G11
   -933800.493 7   -787197.270 7  25025115.265 7  25025116.305 7       829.427 7
       646.312 7        38.030          36.800    25025114.219 7         0.000  
 15  8 27  5  1 49.5000000  0  1G11
   -935044.005 7   -788166.239 7  25024878.617 7  25024880.093 7       828.562 7
       645.636 7        38.230          36.910    25024878.884 7         0.000  
 15  8 27  5  1 51.0000000  0  1G11
   -936286.191 7   -789134.178 7  25024642.118 7  25024643.851 7       827.675 7
       644.954 7        38.280          36.680    25024642.085 7         0.000  
 15  8 27  5  1 52.5000000  0  1G11
   -937527.067 7   -790101.096 7  25024406.416 7  25024407.697 7       826.815 7
       644.273 7        38.320          36.690    25024406.999 7         0.000  
 15  8 27  5  1 54.0000000  0  1G11
   -938766.623 7   -791066.989 7  25024170.518 7  25024172.488 7       825.930 7
       643.581 7        38.250          36.850    25024170.435 7         0.000  
 15  8 27  5  1 55.5000000  0  1G11
   -940004.895 7   -792031.866 7  25023934.933 7  25023936.397 7       825.068 7
       642.909 7        38.540          36.880    25023934.989 7         0.000  
 15  8 27  5  1 57.0000000  0  1G11
   -941241.846 7   -792995.716 7  25023699.381 7  25023701.272 7       824.205 7
       642.237 7        38.360          36.710    25023699.430 7         0.000  
 15  8 27  5  1 58.5000000  0  1G11
   -942477.488 7   -793958.554 7  25023464.273 7  25023465.694 7       823.327 7
       641.546 7        38.530          36.690    25023463.855 7         0.000  
 15  8 27  5  2  0.0000000  0  1G11
   -943711.814 7   -794920.375 7  25023229.051 7  25023230.811 7       822.441 7
       640.863 7        38.810          36.440    25023228.922 7         0.000  
 15  8 27  5  2  1.5000000  0  1G11
   -944944.849 7   -795881.187 7  25022994.893 7  25022995.933 7       821.589 7
       640.195 7        38.720          36.560    25022994.775 7         0.000  
 15  8 27  5  2  3.0000000  0  1G11
   -946176.569 7   -796840.952 7  25022760.341 7  25022761.649 7       820.722 7
       639.515 7        39.030          36.610    25022761.043 7         0.000  
 15  8 27  5  2  4.5000000  0  1G11
   -947406.984 7   -797799.721 7  25022526.270 7  25022526.977 7       819.828 7
       638.835 7        39.030          36.420    25022525.904 7         0.000  
 15  8 27  5  2  6.0000000  0  1G11
   -948636.086 7   -798757.463 7  25022292.220 7  25022293.319 7       818.953 7
       638.152 7        39.090          36.090    25022291.979 7         0.000  
 15  8 27  5  2  7.5000000  0  1G11
   -949863.879 7   -799714.186 7  25022058.545 7  25022059.384 7       818.092 7
       637.478 7        39.310          36.480    25022057.801 7         0.000  
 15  8 27  5  2  9.0000000  0  1G11
   -951090.354 7   -800669.880 7  25021825.354 7  25021826.188 7       817.212 7
       636.794 7        39.310          35.950    25021824.224 7         0.000  
 15  8 27  5  2 10.5000000  0  1G11
   -952315.515 7   -801624.548 7  25021592.153 7  25021593.167 7       816.336 7
       636.110 7        39.420          35.970    25021591.213 7         0.000  
 15  8 27  5  2 12.0000000  0  1G11
   -953539.374 7   -802578.196 7  25021359.162 7  25021359.919 7       815.460 7
       635.423 7        39.610          36.220    25021358.482 7         0.000  
 15  8 27  5  2 13.5000000  0  1G11
   -954761.929 7   -803530.838 7  25021126.490 7  25021127.523 7       814.600 7
       634.754 7        39.600          36.120    25021126.125 7         0.000  
 15  8 27  5  2 15.0000000  0  1G11
   -955983.158 7   -804482.435 7  25020894.132 7  25020894.832 7       813.721 7
       634.070 7        39.720          36.080    25020894.113 7         0.000  
 15  8 27  5  2 16.5000000  0  1G11
   -957203.075 7   -805433.028 7  25020662.106 7  25020662.907 7       812.835 7
       633.380 7        39.750          36.200    25020662.061 7         0.000  
 15  8 27  5  2 18.0000000  0  1G11
   -958421.676 7   -806382.590 7  25020430.584 7  25020430.860 7       811.956 7
       632.690 7        39.820          36.330    25020430.609 7         0.000  
 15  8 27  5  2 19.5000000  0  1G11
   -959638.978 7   -807331.132 7  25020198.830 7  25020199.375 7       811.095 7
       632.023 7        39.740          35.980    25020199.031 7         0.000  
 15  8 27  5  2 21.0000000  0  1G11
   -960854.945 7   -808278.638 7  25019967.603 7  25019968.189 7       810.211 7
       631.330 7        39.910          36.140    25019967.453 7         0.000  
 15  8 27  5  2 22.5000000  0  1G11
   -962069.606 7   -809225.127 7  25019736.302 7  25019736.697 7       809.340 7
       630.647 7        39.630          36.050    25019736.660 7         0.000  
 15  8 27  5  2 24.0000000  0  1G11
   -963282.955 7   -810170.594 7  25019505.557 7  25019506.367 7       808.455 7
       629.960 7        39.870          36.480    25019505.607 7         0.000  
 15  8 27  5  2 25.5000000  0  1G11
   -964495.012 7   -811115.048 7  25019275.081 7  25019275.889 7       807.599 7
       629.308 7        39.730          36.720    25019275.475 7         0.000  
 15  8 27  5  2 27.0000000  0  1G11
   -965705.742 7   -812058.482 7  25019044.622 7  25019045.256 7       806.724 7
       628.618 7        39.660          36.570    25019045.994 7         0.000  
 15  8 27  5  2 28.5000000  0  1G11
   -966915.163 7   -813000.871 7  25018814.441 7  25018815.736 7       805.841 7
       627.919 7        39.690          36.990    25018814.636 7         0.000  
 15  8 27  5  2 30.0000000  0  1G11
   -968123.264 7   -813942.259 7  25018584.485 7  25018585.705 7       804.954 7
       627.236 7        39.550          36.910    25018584.484 7         0.000  
 15  8 27  5  2 31.5000000  0  1G11
   -969330.071 7   -814882.616 7  25018354.685 7  25018356.167 7       804.099 7
       626.574 7        39.500          36.760    25018354.490 7         0.000  
 15  8 27  5  2 33.0000000  0  1G11
   -970535.562 7   -815821.972 7  25018125.099 7  25018126.998 7       803.231 7
       625.894 7        39.410          37.110    25018124.679 7         0.000  
 15  8 27  5  2 34.5000000  0  1G11
   -971739.751 7   -816760.288 7  25017895.975 7  25017897.942 7       802.353 7
       625.198 7        39.130          36.770    25017895.161 7         0.000  
 15  8 27  5  2 36.0000000  0  1G11
   -972942.616 7   -817697.583 7  25017666.772 7  25017669.028 7       801.466 7
       624.510 7        38.960          36.860    25017666.064 7         0.000  
 15  8 27  5  2 37.5000000  0  1G11
   -974144.179 7   -818633.860 7  25017438.008 7  25017439.914 7       800.588 7
       623.843 7        38.640          36.610    25017437.765 7         0.000  
 15  8 27  5  2 39.0000000  0  1G11
   -975344.417 7   -819569.111 7  25017209.473 7  25017211.558 7       799.729 7
       623.154 7        38.520          36.330    25017208.862 7         0.000  
 15  8 27  5  2 40.5000000  0  1G11
   -976543.342 7   -820503.332 7  25016981.337 7  25016983.579 7       798.852 7
       622.485 7        38.120          36.270    25016981.430 7         0.000  
 15  8 27  5  2 42.0000000  0  1G11
   -977740.957 7   -821436.528 7  25016753.244 7  25016755.216 7       797.975 7
       621.787 7        38.240          36.440    25016753.943 7         0.000  
 15  8 27  5  2 43.5000000  0  1G11
   -978937.254 7   -822368.712 7  25016525.538 7  25016527.199 7       797.103 7
       621.115 7        37.790          36.330    25016525.808 7         0.000  
 15  8 27  5  2 45.0000000  0  1G11
   -980132.236 7   -823299.864 7  25016298.340 7  25016299.933 7       796.214 7
       620.424 7        38.150          36.340    25016299.092 7         0.000  
 15  8 27  5  2 46.5000000  0  1G11
   -981325.912 7   -824229.997 7  25016071.168 7  25016072.939 7       795.346 7
       619.747 7        37.840          36.440    25016072.466 7         0.000  
 15  8 27  5  2 48.0000000  0  1G11
   -982518.280 7   -825159.108 7  25015844.633 7  25015845.527 7       794.474 7
       619.070 7        37.850          36.270    25015845.467 7         0.000  
 15  8 27  5  2 49.5000000  0  1G11
   -983709.335 7   -826087.206 7  25015617.846 7  25015618.818 7       793.608 7
       618.403 7        37.660          36.210    25015619.298 7         0.000  
 15  8 27  5  2 51.0000000  0  1G11
   -984899.083 7   -827014.270 7  25015391.605 7  25015392.205 7       792.721 7
       617.708 7        37.820          36.260    25015392.553 7         0.000  
 15  8 27  5  2 52.5000000  0  1G11
   -986087.497 7   -827940.312 7  25015165.548 7  25015166.405 7       791.832 7
       617.008 7        37.800          36.310    25015166.585 7         0.000  
 15  8 27  5  2 54.0000000  0  1G11
   -987274.611 7   -828865.325 7  25014939.399 7  25014940.520 7       790.961 7
       616.332 7        37.840          36.410    25014941.127 7         0.000  
 15  8 27  5  2 55.5000000  0  1G11
   -988460.415 7   -829789.338 7  25014714.021 7  25014714.745 7       790.095 7
       615.658 7        37.720          36.430    25014714.417 7         0.000  
 15  8 27  5  2 57.0000000  0  1G11
   -989644.902 7   -830712.313 7  25014488.624 7  25014489.335 7       789.225 7
       614.969 7        37.800          36.330    25014489.274 7         0.000  
 15  8 27  5  2 58.5000000  0  1G11
   -990828.081 7   -831634.267 7  25014263.298 7  25014264.503 7       788.349 7
       614.304 7        37.730          36.650    25014264.228 7         0.000  
 15  8 27  5  3  0.0000000  0  1G11
   -992009.948 7   -832555.209 7  25014038.872 7  25014040.203 7       787.476 7
       613.624 7        37.560          36.630    25014039.562 7         0.000  
 15  8 27  5  3  1.5000000  0  1G11
   -993190.517 7   -833475.130 7  25013813.937 7  25013815.432 7       786.604 7
       612.941 7        37.590          36.680    25013814.803 7         0.000  
 15  8 27  5  3  3.0000000  0  1G11
   -994369.767 7   -834394.023 7  25013589.699 7  25013591.492 7       785.730 7
       612.255 7        37.450          36.930    25013590.114 7         0.000  
 15  8 27  5  3  4.5000000  0  1G11
   -995547.708 7   -835311.895 7  25013365.736 7  25013367.260 7       784.846 7
       611.565 7        37.330          36.970    25013365.978 7         0.000  
 15  8 27  5  3  6.0000000  0  1G11
   -996724.329 7   -836228.752 7  25013141.783 7  25013143.246 7       783.976 7
       610.891 7        37.320          37.190    25013142.391 7         0.000  
 15  8 27  5  3  7.5000000  0  1G11
   -997899.658 7   -837144.585 7  25012918.390 7  25012919.571 7       783.103 7
       610.210 7        37.140          37.270    25012918.619 7         0.000  
 15  8 27  5  3  9.0000000  0  1G11
   -999073.654 7   -838059.387 7  25012695.119 7  25012696.077 7       782.229 7
       609.531 7        37.050          37.350    25012694.575 7         0.000  
 15  8 27  5  3 10.5000000  0  1G11
  -1000246.336 7   -838973.163 7  25012471.767 7  25012473.016 7       781.360 7
       608.852 7        37.100          37.450    25012473.580 7         0.000  
 15  8 27  5  3 12.0000000  0  1G11
  -1001417.727 7   -839885.929 7  25012248.775 7  25012249.984 7       780.485 7
       608.171 7        36.840          37.490    25012249.050 7         0.000  
 15  8 27  5  3 13.5000000  0  1G11
  -1002587.787 7   -840797.668 7  25012025.657 7  25012027.075 7       779.606 7
       607.480 7        36.610          37.720    25012025.686 7         0.000  
 15  8 27  5  3 15.0000000  0  1G11
  -1003756.532 7   -841708.374 7  25011803.687 7  25011804.414 7       778.724 7
       606.808 7        36.370          37.770    25011805.086 7         0.000  
 15  8 27  5  3 16.5000000  0  1G11
  -1004923.967 7   -842618.069 7  25011580.847 7  25011582.585 7       777.849 7
       606.111 7        36.050          37.870    25011581.327 7         0.000  
 15  8 27  5  3 18.0000000  0  1G11
  -1006090.089 7   -843526.728 7  25011358.856 7  25011360.638 7       776.969 7
       605.433 7        36.110          37.990    25011360.165 7         0.000  
 15  8 27  5  3 19.5000000  0  1G11
  -1007254.916 7   -844434.376 7  25011137.038 7  25011138.837 7       776.097 7
       604.750 7        35.830          37.940    25011137.563 7         0.000  
 15  8 27  5  3 21.0000000  0  1G11
  -1008418.405 7   -845341.006 7  25010915.455 7  25010917.383 7       775.229 7
       604.077 7        35.590          37.940    25010916.451 7         0.000  
 15  8 27  5  3 22.5000000  0  1G11
  -1009580.581 7   -846246.591 7  25010693.907 7  25010696.341 7       774.348 7
       603.386 7        35.520          38.050    25010694.523 7         0.000  
 15  8 27  5  3 24.0000000  0  1G11
  -1010741.438 7   -847151.150 7  25010472.576 7  25010475.577 7       773.475 7
       602.700 7        35.150          38.010    25010472.936 7         0.000  
 15  8 27  5  3 25.5000000  0  1G11
  -1011900.987 7   -848054.689 7  25010252.402 7  25010255.051 7       772.588 7
       602.020 7        35.160          38.070    25010252.163 7         0.000  
 15  8 27  5  3 27.0000000  0  1G11
  -1013059.212 7   -848957.199 7  25010032.266 7  25010034.890 7       771.712 7
       601.338 7        35.090          38.200    25010031.483 7         0.000  
 15  8 27  5  3 28.5000000  0  1G11
  -1014216.130 7   -849858.693 7  25009811.663 7  25009814.683 7       770.846 7
       600.655 7        34.850          38.380    25009810.846 7         0.000  
 15  8 27  5  3 30.0000000  0  1G11
  -1015371.734 7   -850759.162 7  25009591.750 7  25009594.619 7       769.963 7
       599.966 7        35.040          38.210    25009590.945 7         0.000  
 15  8 27  5  3 31.5000000  0  1G11
  -1016526.035 7   -851658.614 7  25009372.910 7  25009375.265 7       769.096 7
       599.286 7        35.080          38.250    25009371.576 7         0.000  
 15  8 27  5  3 33.0000000  0  1G11
  -1017679.015 7   -852557.034 7  25009153.719 7  25009155.992 7       768.209 7
       598.602 7        34.940          38.300    25009153.133 7         0.000  
 15  8 27  5  3 34.5000000  0  1G11
  -1018830.687 7   -853454.435 7  25008934.604 7  25008936.480 7       767.332 7
       597.927 7        34.690          38.360    25008934.447 7         0.000  
 15  8 27  5  3 36.0000000  0  1G11
  -1019981.044 7   -854350.814 7  25008715.577 7  25008717.762 7       766.456 7
       597.240 7        35.330          38.450    25008716.186 7         0.000  
 15  8 27  5  3 37.5000000  0  1G11
  -1021130.107 7   -855246.184 7  25008497.531 7  25008498.942 7       765.604 7
       596.565 7        35.190          38.320    25008498.172 7         0.000  
 15  8 27  5  3 39.0000000  0  1G11
  -1022277.852 7   -856140.520 7  25008278.816 7  25008280.345 7       764.715 7
       595.877 7        35.010          38.250    25008279.498 7         0.000  
 15  8 27  5  3 40.5000000  0  1G11
  -1023424.277 7   -857033.823 7  25008061.085 7  25008062.095 7       763.832 7
       595.201 7        34.990          37.990    25008059.986 7         0.000  
 15  8 27  5  3 42.0000000  0  1G11
  -1024569.384 7   -857926.123 7  25007843.490 7  25007844.014 7       762.965 7
       594.513 7        35.150          38.140    25007843.023 7         0.000  
 15  8 27  5  3 43.5000000  0  1G11
  -1025713.185 7   -858817.393 7  25007625.483 7  25007626.088 7       762.098 7
       593.839 7        34.820          37.980    25007624.404 7         0.000  
 15  8 27  5  3 45.0000000  0  1G11
  -1026855.677 7   -859707.643 7  25007408.234 7  25007408.420 7       761.221 7
       593.164 7        34.330          37.870    25007405.495 7         0.000  
 15  8 27  5  3 46.5000000  0  1G11
  -1027996.853 7   -860596.866 7  25007190.327 7  25007191.593 7       760.362 7
       592.477 7        34.220          37.940    25007189.102 7         0.000  
 15  8 27  5  3 48.0000000  0  1G11
  -1029136.710 7   -861485.059 7  25006973.593 7  25006974.364 7       759.469 7
       591.794 7        34.250          37.670    25006970.178 7         0.000  
 15  8 27  5  3 49.5000000  0  1G11
  -1030275.251 7   -862372.233 7  25006757.247 7  25006757.838 7       758.595 7
       591.112 7        34.270          37.380    25006754.484 7         0.000  
 15  8 27  5  3 51.0000000  0  1G11
  -1031412.494 7   -863258.388 7  25006540.635 7  25006541.360 7       757.718 7
       590.422 7        34.100          37.650    25006538.247 7         0.000  
 15  8 27  5  3 52.5000000  0  1G11
  -1032548.394 7   -864143.513 7  25006323.800 7  25006324.994 7       756.854 7
       589.739 7        33.400          37.620    25006323.159 7         0.000  
 15  8 27  5  3 54.0000000  0  1G11
  -1033682.994 7   -865027.602 7  25006107.815 7  25006109.212 7       755.958 7
       589.058 7        33.610          37.670    25006107.087 7         0.000  
 15  8 27  5  3 55.5000000  0  1G11
  -1034816.281 7   -865910.689 7  25005892.434 7  25005893.529 7       755.091 7
       588.383 7        33.220          37.500    25005891.076 7         0.000  
 15  8 27  5  3 57.0000000  0  1G11
  -1035948.244 7   -866792.734 7  25005676.442 7  25005678.327 7       754.210 7
       587.697 7        33.240          37.690    25005675.562 7         0.000  
 15  8 27  5  3 58.5000000  0  1G11
  -1037078.888 7   -867673.760 7  25005460.800 7  25005462.960 7       753.331 7
       587.015 7        32.980          37.730    25005460.348 7         0.000  
 15  8 27  5  4  0.0000000  0  1G11
  -1038208.231 7   -868553.763 7  25005246.048 7  25005248.189 7       752.465 7
       586.330 7        32.560          37.710    25005244.502 7         0.000  
 15  8 27  5  4  1.5000000  0  1G11
  -1039336.272 7   -869432.747 7  25005031.283 7  25005033.451 7       751.588 7
       585.655 7        32.680          37.550    25005027.894 7         0.000  
 15  8 27  5  4  3.0000000  0  1G11
  -1040462.986 7   -870310.698 7  25004817.194 7  25004819.685 7       750.704 7
       584.965 7        32.730          37.470    25004813.933 7         0.000  
 15  8 27  5  4  4.5000000  0  1G11
  -1041588.381 7   -871187.640 7  25004602.425 7  25004605.257 7       749.834 7
       584.287 7        32.770          37.640    25004602.026 7         0.000  
 15  8 27  5  4  6.0000000  0  1G11
  -1042712.477 7   -872063.555 7  25004388.584 7  25004391.620 7       748.969 7
       583.610 7        33.200          37.710    25004387.785 7         0.000  
 15  8 27  5  4  7.5000000  0  1G11
  -1043835.265 7   -872938.455 7  25004175.510 7  25004177.642 7       748.090 7
       582.931 7        33.540          37.880    25004174.018 7         0.000  
 15  8 27  5  4  9.0000000  0  1G11
  -1044956.720 7   -873812.317 7  25003962.018 7  25003964.324 7       747.211 7
       582.239 7        33.560          37.950    25003961.687 7         0.000  
 15  8 27  5  4 10.5000000  0  1G11
  -1046076.874 7   -874685.159 7  25003749.288 7  25003751.577 7       746.332 7
       581.550 7        33.740          38.290    25003748.508 7         0.000  
 15  8 27  5  4 12.0000000  0  1G11
  -1047195.697 7   -875556.969 7  25003536.430 7  25003538.663 7       745.455 7
       580.866 7        33.910          38.430    25003537.170 7         0.000  
 15  8 27  5  4 13.5000000  0  1G11
  -1048313.223 7   -876427.762 7  25003323.854 7  25003326.527 7       744.578 7
       580.195 7        34.300          38.330    25003324.576 7         0.000  
 15  8 27  5  4 15.0000000  0  1G11
  -1049429.421 7   -877297.519 7  25003111.722 7  25003114.007 7       743.701 7
       579.500 7        34.740          38.530    25003111.538 7         0.000  
 15  8 27  5  4 16.5000000  0  1G11
  -1050544.313 7   -878166.263 7  25002899.453 7  25002901.909 7       742.831 7
       578.826 7        34.740          38.460    25002900.966 7         0.000  
 15  8 27  5  4 18.0000000  0  1G11
  -1051657.887 7   -879033.982 7  25002687.603 7  25002690.130 7       741.944 7
       578.134 7        35.000          38.400    25002688.337 7         0.000  
 15  8 27  5  4 19.5000000  0  1G11
  -1052770.168 7   -879900.689 7  25002476.264 7  25002478.465 7       741.075 7
       577.453 7        35.040          38.310    25002474.330 7         0.000  
 15  8 27  5  4 21.0000000  0  1G11
  -1053881.122 7   -880766.365 7  25002265.303 7  25002267.006 7       740.200 7
       576.778 7        35.440          38.520    25002265.728 7         0.000  
 15  8 27  5  4 22.5000000  0  1G11
  -1054990.771 7   -881631.023 7  25002054.137 7  25002055.829 7       739.327 7
       576.097 7        35.490          38.030    25002054.697 7         0.000  
 15  8 27  5  4 24.0000000  0  1G11
  -1056099.105 7   -882494.654 7  25001843.257 7  25001844.556 7       738.446 7
       575.401 7        35.760          37.950    25001845.287 7         0.000  
 15  8 27  5  4 25.5000000  0  1G11
  -1057206.115 7   -883357.264 7  25001632.791 7  25001633.814 7       737.569 7
       574.722 7        35.740          37.800    25001634.140 7         0.000  
 15  8 27  5  4 27.0000000  0  1G11
  -1058311.818 7   -884218.839 7  25001422.173 7  25001422.933 7       736.685 7
       574.047 7        36.060          37.710    25001422.667 7         0.000  
 15  8 27  5  4 28.5000000  0  1G11
  -1059416.196 7   -885079.397 7  25001212.113 7  25001212.783 7       735.812 7
       573.359 7        36.150          37.440    25001213.111 7         0.000  
 15  8 27  5  4 30.0000000  0  1G11
  -1060519.254 7   -885938.917 7  25001002.013 7  25001002.697 7       734.942 7
       572.668 7        36.270          37.400    25001002.142 7         0.000  
 15  8 27  5  4 31.5000000  0  1G11
  -1061621.022 7   -886797.430 7  25000792.430 7  25000792.739 7       734.073 7
       571.996 7        36.090          37.130    25000792.530 7         0.000  
 15  8 27  5  4 33.0000000  0  1G11
  -1062721.458 7   -887654.918 7  25000582.842 7  25000583.287 7       733.194 7
       571.311 7        36.220          37.040    25000582.572 7         0.000  
 15  8 27  5  4 34.5000000  0  1G11
  -1063820.591 7   -888511.381 7  25000373.109 7  25000373.526 7       732.308 7
       570.632 7        36.090          36.580    25000372.809 7         0.000  
 15  8 27  5  4 36.0000000  0  1G11
  -1064918.399 7   -889366.814 7  25000164.725 7  25000164.360 7       731.425 7
       569.961 7        36.010          36.530    25000164.347 7         0.000  
 15  8 27  5  4 37.5000000  0  1G11
  -1066014.910 7   -890221.245 7  24999955.649 7  24999955.816 7       730.568 7
       569.271 7        35.910          36.590    24999955.217 7         0.000  
 15  8 27  5  4 39.0000000  0  1G11
  -1067110.096 7   -891074.624 7  24999747.465 7  24999746.926 7       729.681 7
       568.589 7        36.080          36.570    24999747.523 7         0.000  
 15  8 27  5  4 40.5000000  0  1G11
  -1068203.943 7   -891926.988 7  24999539.523 7  24999539.625 7       728.809 7
       567.898 7        36.100          36.250    24999538.801 7         0.000  
 15  8 27  5  4 42.0000000  0  1G11
  -1069296.498 7   -892778.326 7  24999331.708 7  24999331.159 7       727.913 7
       567.205 7        35.890          36.170    24999331.832 7         0.000  
 15  8 27  5  4 43.5000000  0  1G11
  -1070387.725 7   -893628.635 7  24999123.822 7  24999123.850 7       727.045 7
       566.535 7        35.910          35.970    24999124.069 7         0.000  
 15  8 27  5  4 45.0000000  0  1G11
  -1071477.645 7   -894477.925 7  24998916.509 7  24998916.549 7       726.177 7
       565.834 7        35.840          35.730    24998917.124 7         0.000  
 15  8 27  5  4 46.5000000  0  1G11
  -1072566.248 7   -895326.185 7  24998709.382 7  24998709.424 7       725.285 7
       565.175 7        35.560          35.930    24998709.799 7         0.000  
 15  8 27  5  4 48.0000000  0  1G11
  -1073653.528 7   -896173.429 7  24998502.451 7  24998502.769 7       724.425 7
       564.477 7        35.390          35.740    24998501.715 7         0.000  
 15  8 27  5  4 49.5000000  0  1G11
  -1074739.523 7   -897019.656 7  24998295.930 7  24998296.268 7       723.556 7
       563.808 7        35.460          35.960    24998295.240 7         0.000  
 15  8 27  5  4 51.0000000  0  1G11
  -1075824.189 7   -897864.840 7  24998089.046 7  24998090.104 7       722.675 7
       563.118 7        35.400          35.860    24998088.419 7         0.000  
 15  8 27  5  4 52.5000000  0  1G11
  -1076907.532 7   -898709.018 7  24997882.644 7  24997884.362 7       721.792 7
       562.436 7        35.280          36.000    24997882.752 7         0.000  
 15  8 27  5  4 54.0000000  0  1G11
  -1077989.556 7   -899552.153 7  24997677.286 7  24997678.651 7       720.897 7
       561.754 7        35.290          36.190    24997676.031 7         0.000  
 15  8 27  5  4 55.5000000  0  1G11
  -1079070.279 7   -900394.276 7  24997471.463 7  24997472.708 7       720.039 7
       561.075 7        35.500          36.180    24997470.267 7         0.000  
 15  8 27  5  4 57.0000000  0  1G11
  -1080149.679 7   -901235.360 7  24997266.189 7  24997267.419 7       719.155 7
       560.379 7        35.180          36.170    24997266.002 7         0.000  
 15  8 27  5  4 58.5000000  0  1G11
  -1081227.742 7   -902075.422 7  24997061.277 7  24997061.734 7       718.282 7
       559.702 7        35.450          35.990    24997061.459 7         0.000  
 15  8 27  5  5  0.0000000  0  1G11
  -1082304.517 7   -902914.455 7  24996855.760 7  24996857.179 7       717.398 7
       559.023 7        35.240          36.000    24996856.590 7         0.000  
 15  8 27  5  5  1.5000000  0  1G11
  -1083379.971 7   -903752.473 7  24996651.230 7  24996652.346 7       716.542 7
       558.333 7        35.270          35.870    24996651.752 7         0.000  
 15  8 27  5  5  3.0000000  0  1G11
  -1084454.122 7   -904589.458 7  24996446.838 7  24996447.523 7       715.662 7
       557.651 7        35.530          36.020    24996447.509 7         0.000  
 15  8 27  5  5  4.5000000  0  1G11
  -1085526.935 7   -905425.423 7  24996242.485 7  24996243.515 7       714.790 7
       556.970 7        35.360          36.040    24996242.101 7         0.000  
 15  8 27  5  5  6.0000000  0  1G11
  -1086598.455 7   -906260.354 7  24996038.974 7  24996039.287 7       713.899 7
       556.280 7        35.470          35.930    24996038.941 7         0.000  
 15  8 27  5  5  7.5000000  0  1G11
  -1087668.656 7   -907094.281 7  24995835.062 7  24995835.811 7       713.031 7
       555.595 7        35.680          35.970    24995834.566 7         0.000  
 15  8 27  5  5  9.0000000  0  1G11
  -1088737.534 7   -907927.170 7  24995632.060 7  24995632.263 7       712.148 7
       554.910 7        35.360          35.730    24995631.020 7         0.000  
 15  8 27  5  5 10.5000000  0  1G11
  -1089805.102 7   -908759.041 7  24995429.476 7  24995428.957 7       711.285 7
       554.243 7        35.170          36.030    24995428.594 7         0.000  
 15  8 27  5  5 12.0000000  0  1G11
  -1090871.356 7   -909589.877 7  24995226.343 7  24995226.654 7       710.397 7
       553.555 7        35.380          35.930    24995226.551 7         0.000  
 15  8 27  5  5 13.5000000  0  1G11
  -1091936.317 7   -910419.712 7  24995023.747 7  24995023.762 7       709.530 7
       552.877 7        35.180          35.870    24995022.665 7         0.000  
 15  8 27  5  5 15.0000000  0  1G11
  -1092999.944 7   -911248.506 7  24994820.846 7  24994821.758 7       708.640 7
       552.182 7        34.920          35.890    24994820.847 7         0.000  
 15  8 27  5  5 16.5000000  0  1G11
  -1094062.238 7   -912076.266 7  24994618.722 7  24994619.657 7       707.763 7
       551.502 7        35.070          36.050    24994618.799 7         0.000  
 15  8 27  5  5 18.0000000  0  1G11
  -1095123.231 7   -912903.009 7  24994417.432 7  24994417.808 7       706.887 7
       550.820 7        34.790          36.300    24994417.630 7         0.000  
 15  8 27  5  5 19.5000000  0  1G11
  -1096182.919 7   -913728.743 7  24994215.301 7  24994216.179 7       706.018 7
       550.141 7        35.050          36.260    24994215.397 7         0.000  
 15  8 27  5  5 21.0000000  0  1G11
  -1097241.270 7   -914553.441 7  24994013.254 7  24994014.814 7       705.127 7
       549.460 7        34.890          36.200    24994013.993 7         0.000  
 15  8 27  5  5 22.5000000  0  1G11
  -1098298.315 7   -915377.108 7  24993813.170 7  24993813.356 7       704.243 7
       548.771 7        34.650          35.880    24993811.511 7         0.000  
 15  8 27  5  5 24.0000000  0  1G11
  -1099354.036 7   -916199.751 7  24993611.586 7  24993612.049 7       703.374 7
       548.080 7        34.540          36.140    24993609.760 7         0.000  
 15  8 27  5  5 25.5000000  0  1G11
  -1100408.455 7   -917021.376 7  24993410.105 7  24993412.192 7       702.509 7
       547.414 7        34.180          36.160    24993408.794 7         0.000  
 15  8 27  5  5 27.0000000  0  1G11
  -1101461.540 7   -917841.973 7  24993209.777 7  24993211.579 7       701.619 7
       546.731 7        34.460          36.430    24993208.745 7         0.000  
 15  8 27  5  5 28.5000000  0  1G11
  -1102513.314 7   -918661.538 7  24993010.319 7  24993011.128 7       700.746 7
       546.030 7        34.050          36.000    24993009.771 7         0.000  
 15  8 27  5  5 30.0000000  0  1G11
  -1103563.761 7   -919480.072 7  24992809.317 7  24992811.466 7       699.857 7
       545.359 7        33.610          36.020    24992806.303 7         0.000  
 15  8 27  5  5 31.5000000  0  1G11
  -1104612.912 7   -920297.599 7  24992609.512 7  24992611.711 7       698.992 7
       544.678 7        33.830          36.070    24992608.744 7         0.000  
 15  8 27  5  5 33.0000000  0  1G11
  -1105660.733 7   -921114.085 7  24992410.452 7  24992412.199 7       698.112 7
       543.986 7        34.210          35.920    24992409.964 7         0.000  
 15  8 27  5  5 34.5000000  0  1G11
  -1106707.236 7   -921929.550 7  24992211.415 7  24992212.489 7       697.239 7
       543.300 7        33.910          35.760    24992210.905 7         0.000  
 15  8 27  5  5 36.0000000  0  1G11
  -1107752.432 7   -922743.983 7  24992012.725 7  24992014.092 7       696.357 7
       542.619 7        33.860          35.780    24992013.784 7         0.000  
 15  8 27  5  5 37.5000000  0  1G11
  -1108796.327 7   -923557.404 7  24991814.199 7  24991815.309 7       695.486 7
       541.929 7        34.020          35.790    24991816.237 7         0.000  
 15  8 27  5  5 39.0000000  0  1G11
  -1109838.879 7   -924369.789 7  24991616.093 7  24991616.701 7       694.611 7
       541.252 7        34.190          35.790    24991615.014 7         0.000  
 15  8 27  5  5 40.5000000  0  1G11
  -1110880.142 7   -925181.153 7  24991417.896 7  24991418.511 7       693.722 7
       540.575 7        33.900          35.960    24991418.513 7         0.000  
 15  8 27  5  5 42.0000000  0  1G11
  -1111920.078 7   -925991.489 7  24991219.980 7  24991220.723 7       692.851 7
       539.872 7        34.150          35.570    24991220.052 7         0.000  
 15  8 27  5  5 43.5000000  0  1G11
  -1112958.709 7   -926800.800 7  24991022.603 7  24991023.134 7       691.992 7
       539.204 7        34.280          35.760    24991022.213 7         0.000  
 15  8 27  5  5 45.0000000  0  1G11
  -1113996.003 7   -927609.075 7  24990824.758 7  24990825.580 7       691.094 7
       538.516 7        34.150          35.420    24990825.216 7         0.000  
 15  8 27  5  5 46.5000000  0  1G11
  -1115032.004 7   -928416.328 7  24990627.977 7  24990628.786 7       690.225 7
       537.834 7        34.500          35.390    24990628.488 7         0.000  
 15  8 27  5  5 48.0000000  0  1G11
  -1116066.674 7   -929222.570 7  24990430.867 7  24990431.646 7       689.349 7
       537.147 7        34.590          35.550    24990433.384 7         0.000  
 15  8 27  5  5 49.5000000  0  1G11
  -1117100.051 7   -930027.783 7  24990234.324 7  24990234.819 7       688.461 7
       536.461 7        34.870          35.440    24990234.774 7         0.000  
 15  8 27  5  5 51.0000000  0  1G11
  -1118132.089 7   -930831.968 7  24990037.858 7  24990038.822 7       687.593 7
       535.785 7        35.050          35.460    24990039.386 7         0.000  
 15  8 27  5  5 52.5000000  0  1G11
  -1119162.832 7   -931635.130 7  24989841.640 7  24989842.959 7       686.711 7
       535.099 7        35.310          35.640    24989842.982 7         0.000  
 15  8 27  5  5 54.0000000  0  1G11
  -1120192.241 7   -932437.254 7  24989646.438 7  24989646.898 7       685.830 7
       534.401 7        35.730          35.400    24989646.314 7         0.000  
 15  8 27  5  5 55.5000000  0  1G11
  -1121220.350 7   -933238.383 7  24989450.609 7  24989451.232 7       684.960 7
       533.743 7        36.030          35.400    24989450.692 7         0.000  
 15  8 27  5  5 57.0000000  0  1G11
  -1122247.124 7   -934038.473 7  24989255.674 7  24989255.771 7       684.075 7
       533.043 7        35.930          35.480    24989255.581 7         0.000  
 15  8 27  5  5 58.5000000  0  1G11
  -1123272.582 7   -934837.519 7  24989060.382 7  24989060.960 7       683.205 7
       532.366 7        36.500          35.250    24989060.375 7         0.000  
 15  8 27  5  6  0.0000000  0  1G11
  -1124296.720 7   -935635.540 7  24988865.784 7  24988865.826 7       682.313 7
       531.661 7        36.360          35.170    24988865.719 7         0.000  
 15  8 27  5  6  1.5000000  0  1G11
  -1125319.563 7   -936432.566 7  24988670.878 7  24988671.675 7       681.453 7
       531.000 7        36.640          35.050    24988669.838 7         0.000  
 15  8 27  5  6  3.0000000  0  1G11
  -1126341.077 7   -937228.547 7  24988476.193 7  24988477.180 7       680.567 7
       530.318 7        36.410          34.940    24988475.429 7         0.000  
 15  8 27  5  6  4.5000000  0  1G11
  -1127361.259 7   -938023.504 7  24988282.069 7  24988282.683 7       679.680 7
       529.634 7        36.650          35.050    24988281.326 7         0.000  
 15  8 27  5  6  6.0000000  0  1G11
  -1128380.148 7   -938817.431 7  24988087.927 7  24988089.188 7       678.811 7
       528.937 7        36.650          35.020    24988087.620 7         0.000  
 15  8 27  5  6  7.5000000  0  1G11
  -1129397.712 7   -939610.356 7  24987893.840 7  24987895.484 7       677.934 7
       528.255 7        36.530          35.210    24987894.848 7         0.000  
 15  8 27  5  6  9.0000000  0  1G11
  -1130413.951 7   -940402.229 7  24987700.480 7  24987701.974 7       677.056 7
       527.576 7        36.550          34.810    24987699.988 7         0.000  
 15  8 27  5  6 10.5000000  0  1G11
  -1131428.883 7   -941193.085 7  24987507.183 7  24987508.419 7       676.175 7
       526.910 7        36.560          35.120    24987507.732 7         0.000  
 15  8 27  5  6 12.0000000  0  1G11
  -1132442.498 7   -941982.900 7  24987314.539 7  24987315.814 7       675.295 7
       526.207 7        36.390          34.740    24987315.051 7         0.000  
 15  8 27  5  6 13.5000000  0  1G11
  -1133454.814 7   -942771.734 7  24987121.725 7  24987122.580 7       674.435 7
       525.534 7        36.720          34.740    24987121.957 7         0.000  
 15  8 27  5  6 15.0000000  0  1G11
  -1134465.787 7   -943559.505 7  24986929.607 7  24986930.037 7       673.558 7
       524.831 7        36.800          34.700    24986928.455 7         0.000  
 15  8 27  5  6 16.5000000  0  1G11
  -1135475.456 7   -944346.260 7  24986737.971 7  24986737.738 7       672.676 7
       524.162 7        36.900          34.860    24986736.275 7         0.000  
 15  8 27  5  6 18.0000000  0  1G11
  -1136483.809 7   -945131.980 7  24986545.974 7  24986545.598 7       671.790 7
       523.482 7        37.090          35.240    24986543.599 7         0.000  
 15  8 27  5  6 19.5000000  0  1G11
  -1137490.854 7   -945916.695 7  24986354.236 7  24986353.987 7       670.929 7
       522.782 7        37.100          34.920    24986354.213 7         0.000  
 15  8 27  5  6 21.0000000  0  1G11
  -1138496.563 7   -946700.354 7  24986163.419 7  24986162.757 7       670.036 7
       522.101 7        37.490          35.240    24986162.826 7         0.000  
 15  8 27  5  6 22.5000000  0  1G11
  -1139500.954 7   -947482.998 7  24985972.421 7  24985972.237 7       669.152 7
       521.423 7        37.380          35.130    24985972.722 7         0.000  
 15  8 27  5  6 24.0000000  0  1G11
  -1140504.033 7   -948264.613 7  24985781.346 7  24985780.470 7       668.274 7
       520.728 7        37.690          35.340    24985782.564 7         0.000  
 15  8 27  5  6 25.5000000  0  1G11
  -1141505.789 7   -949045.197 7  24985590.982 7  24985590.446 7       667.399 7
       520.051 7        37.600          35.700    24985591.083 7         0.000  
 15  8 27  5  6 27.0000000  0  1G11
  -1142506.223 7   -949824.758 7  24985400.688 7  24985400.301 7       666.522 7
       519.360 7        37.340          35.770    24985399.924 7         0.000  
 15  8 27  5  6 28.5000000  0  1G11
  -1143505.345 7   -950603.296 7  24985210.255 7  24985210.023 7       665.649 7
       518.679 7        37.720          35.710    24985210.230 7         0.000  
 15  8 27  5  6 30.0000000  0  1G11
  -1144503.153 7   -951380.795 7  24985020.556 7  24985020.628 7       664.769 7
       517.981 7        37.540          36.120    24985020.181 7         0.000  
 15  8 27  5  6 31.5000000  0  1G11
  -1145499.658 7   -952157.289 7  24984830.781 7  24984831.046 7       663.895 7
       517.325 7        37.730          36.440    24984829.885 7         0.000  
 15  8 27  5  6 33.0000000  0  1G11
  -1146494.837 7   -952932.750 7  24984640.891 7  24984641.678 7       663.017 7
       516.629 7        37.710          36.480    24984640.268 7         0.000  
 15  8 27  5  6 34.5000000  0  1G11
  -1147488.712 7   -953707.195 7  24984451.737 7  24984452.650 7       662.145 7
       515.955 7        37.380          36.160    24984450.963 7         0.000  
 15  8 27  5  6 36.0000000  0  1G11
  -1148481.264 7   -954480.616 7  24984262.688 7  24984264.092 7       661.261 7
       515.262 7        37.390          36.470    24984263.231 7         0.000  
 15  8 27  5  6 37.5000000  0  1G11
  -1149472.498 7   -955252.995 7  24984073.974 7  24984075.324 7       660.380 7
       514.580 7        37.470          36.520    24984074.082 7         0.000  
 15  8 27  5  6 39.0000000  0  1G11
  -1150462.419 7   -956024.366 7  24983885.350 7  24983887.347 7       659.498 7
       513.896 7        37.300          36.720    24983885.766 7         0.000  
 15  8 27  5  6 40.5000000  0  1G11
  -1151451.007 7   -956794.684 7  24983697.194 7  24983699.351 7       658.629 7
       513.224 7        37.270          36.870    24983697.220 7         0.000  
 15  8 27  5  6 42.0000000  0  1G11
  -1152438.288 7   -957563.991 7  24983509.035 7  24983511.276 7       657.745 7
       512.528 7        37.160          36.460    24983508.865 7         0.000  
 15  8 27  5  6 43.5000000  0  1G11
  -1153424.251 7   -958332.270 7  24983321.710 7  24983323.547 7       656.872 7
       511.848 7        37.040          36.860    24983321.582 7         0.000  
 15  8 27  5  6 45.0000000  0  1G11
  -1154408.901 7   -959099.517 7  24983134.043 7  24983136.150 7       655.984 7
       511.161 7        36.950          36.520    24983133.954 7         0.000  
 15  8 27  5  6 46.5000000  0  1G11
  -1155392.222 7   -959865.753 7  24982947.261 7  24982948.829 7       655.123 7
       510.472 7        37.160          36.490    24982946.961 7         0.000  
 15  8 27  5  6 48.0000000  0  1G11
  -1156374.237 7   -960630.956 7  24982760.097 7  24982762.093 7       654.227 7
       509.787 7        37.140          36.700    24982758.251 7         0.000  
 15  8 27  5  6 49.5000000  0  1G11
  -1157354.934 7   -961395.138 7  24982573.591 7  24982575.301 7       653.355 7
       509.104 7        36.900          36.520    24982573.241 7         0.000  
 15  8 27  5  6 51.0000000  0  1G11
  -1158334.311 7   -962158.284 7  24982387.449 7  24982388.768 7       652.462 7
       508.424 7        37.420          36.690    24982387.059 7         0.000  
 15  8 27  5  6 52.5000000  0  1G11
  -1159312.362 7   -962920.400 7  24982201.326 7  24982202.784 7       651.608 7
       507.744 7        37.300          36.570    24982201.065 7         0.000  
 15  8 27  5  6 54.0000000  0  1G11
  -1160289.112 7   -963681.505 7  24982015.781 7  24982016.819 7       650.721 7
       507.052 7        37.220          36.440    24982016.655 7         0.000  
 15  8 27  5  6 55.5000000  0  1G11
  -1161264.545 7   -964441.581 7  24981829.842 7  24981831.283 7       649.848 7
       506.375 7        37.250          36.400    24981831.199 7         0.000  
 15  8 27  5  6 57.0000000  0  1G11
  -1162238.653 7   -965200.620 7  24981645.120 7  24981645.703 7       648.962 7
       505.670 7        37.210          36.450    24981646.011 7         0.000  
 15  8 27  5  6 58.5000000  0  1G11
  -1163211.437 7   -965958.632 7  24981459.914 7  24981460.515 7       648.090 7
       504.986 7        37.330          36.350    24981460.624 7         0.000  
 15  8 27  5  7  0.0000000  0  1G11
  -1164182.910 7   -966715.620 7  24981275.420 7  24981275.945 7       647.210 7
       504.305 7        37.370          36.060    24981275.817 7         0.000  
 15  8 27  5  7  1.5000000  0  1G11
  -1165153.070 7   -967471.598 7  24981090.936 7  24981091.172 7       646.333 7
       503.637 7        37.330          36.440    24981091.353 7         0.000  
 15  8 27  5  7  3.0000000  0  1G11
  -1166121.906 7   -968226.531 7  24980906.993 7  24980906.779 7       645.458 7
       502.951 7        37.400          36.340    24980907.563 7         0.000  
 15  8 27  5  7  4.5000000  0  1G11
  -1167089.428 7   -968980.439 7  24980722.383 7  24980723.276 7       644.557 7
       502.263 7        37.200          36.130    24980722.871 7         0.000  
 15  8 27  5  7  6.0000000  0  1G11
  -1168055.633 7   -969733.321 7  24980538.185 7  24980539.220 7       643.688 7
       501.582 7        37.270          36.090    24980539.808 7         0.000  
 15  8 27  5  7  7.5000000  0  1G11
  -1169020.515 7   -970485.191 7  24980355.069 7  24980355.033 7       642.809 7
       500.897 7        37.070          36.330    24980356.489 7         0.000  
 15  8 27  5  7  9.0000000  0  1G11
  -1169984.083 7   -971236.014 7  24980171.585 7  24980172.275 7       641.940 7
       500.214 7        36.830          36.510    24980172.316 7         0.000  
 15  8 27  5  7 10.5000000  0  1G11
  -1170946.326 7   -971985.811 7  24979987.943 7  24979988.898 7       641.062 7
       499.520 7        37.060          36.320    24979989.508 7         0.000  
 15  8 27  5  7 12.0000000  0  1G11
  -1171907.260 7   -972734.599 7  24979805.322 7  24979806.005 7       640.175 7
       498.840 7        36.770          36.390    24979806.218 7         0.000  
 15  8 27  5  7 13.5000000  0  1G11
  -1172866.881 7   -973482.358 7  24979622.322 7  24979623.349 7       639.298 7
       498.180 7        37.030          36.360    24979622.177 7         0.000  
 15  8 27  5  7 15.0000000  0  1G11
  -1173825.177 7   -974229.088 7  24979439.432 7  24979440.757 7       638.425 7
       497.469 7        36.440          36.360    24979439.209 7         0.000  
 15  8 27  5  7 16.5000000  0  1G11
  -1174782.164 7   -974974.781 7  24979257.361 7  24979258.627 7       637.563 7
       496.794 7        36.270          36.200    24979255.334 7         0.000  
 15  8 27  5  7 18.0000000  0  1G11
  -1175737.835 7   -975719.468 7  24979075.271 7  24979076.623 7       636.660 7
       496.105 7        35.940          36.270    24979073.150 7         0.000  
 15  8 27  5  7 19.5000000  0  1G11
  -1176692.198 7   -976463.130 7  24978893.759 7  24978894.686 7       635.802 7
       495.420 7        35.740          36.120    24978892.143 7         0.000  
 15  8 27  5  7 21.0000000  0  1G11
  -1177645.226 7   -977205.739 7  24978712.335 7  24978713.141 7       634.916 7
       494.734 7        35.680          36.130    24978711.164 7         0.000  
 15  8 27  5  7 22.5000000  0  1G11
  -1178596.943 7   -977947.346 7  24978530.777 7  24978532.042 7       634.029 7
       494.054 7        35.900          36.380    24978530.190 7         0.000  
 15  8 27  5  7 24.0000000  0  1G11
  -1179547.345 7   -978687.914 7  24978350.063 7  24978351.068 7       633.167 7
       493.373 7        35.390          36.350    24978349.380 7         0.000  
 15  8 27  5  7 25.5000000  0  1G11
  -1180496.438 7   -979427.462 7  24978169.639 7  24978170.694 7       632.296 7
       492.697 7        35.580          36.210    24978170.798 7         0.000  
 15  8 27  5  7 27.0000000  0  1G11
  -1181444.190 7   -980165.975 7  24977989.535 7  24977990.456 7       631.412 7
       492.007 7        35.680          36.290    24977990.193 7         0.000  
 15  8 27  5  7 28.5000000  0  1G11
  -1182390.637 7   -980903.464 7  24977809.277 7  24977810.273 7       630.520 7
       491.314 7        35.670          36.230    24977810.295 7         0.000  
 15  8 27  5  7 30.0000000  0  1G11
  -1183335.754 7   -981639.910 7  24977629.565 7  24977630.336 7       629.641 7
       490.626 7        35.490          36.410    24977630.553 7         0.000  
 15  8 27  5  7 31.5000000  0  1G11
  -1184279.574 7   -982375.355 7  24977449.927 7  24977451.007 7       628.770 7
       489.954 7        35.460          36.370    24977452.060 7         0.000  
 15  8 27  5  7 33.0000000  0  1G11
  -1185222.074 7   -983109.767 7  24977271.015 7  24977271.779 7       627.875 7
       489.264 7        35.760          36.720    24977272.574 7         0.000  
 15  8 27  5  7 34.5000000  0  1G11
  -1186163.247 7   -983843.149 7  24977092.661 7  24977092.808 7       627.019 7
       488.578 7        35.570          36.650    24977094.157 7         0.000  
 15  8 27  5  7 36.0000000  0  1G11
  -1187103.108 7   -984575.505 7  24976913.262 7  24976914.057 7       626.132 7
       487.889 7        35.690          36.850    24976914.622 7         0.000  
 15  8 27  5  7 37.5000000  0  1G11
  -1188041.665 7   -985306.838 7  24976734.769 7  24976735.426 7       625.254 7
       487.207 7        36.120          36.550    24976735.081 7         0.000  
 15  8 27  5  7 39.0000000  0  1G11
  -1188978.887 7   -986037.144 7  24976556.503 7  24976557.085 7       624.372 7
       486.533 7        35.820          36.850    24976557.445 7         0.000  
 15  8 27  5  7 40.5000000  0  1G11
  -1189914.797 7   -986766.414 7  24976378.658 7  24976378.687 7       623.498 7
       485.842 7        35.410          36.700    24976378.484 7         0.000  
 15  8 27  5  7 42.0000000  0  1G11
  -1190849.387 7   -987494.667 7  24976200.550 7  24976201.145 7       622.615 7
       485.155 7        35.320          36.810    24976198.453 7         0.000  
 15  8 27  5  7 43.5000000  0  1G11
  -1191782.663 7   -988221.889 7  24976022.523 7  24976023.750 7       621.745 7
       484.479 7        35.060          36.670    24976020.957 7         0.000  
 15  8 27  5  7 45.0000000  0  1G11
  -1192714.613 7   -988948.082 7  24975845.206 7  24975846.189 7       620.862 7
       483.791 7        35.120          36.640    24975842.951 7         0.000  
 15  8 27  5  7 46.5000000  0  1G11
  -1193645.245 7   -989673.252 7  24975668.312 7  24975669.062 7       619.994 7
       483.098 7        34.870          36.680    24975667.956 7         0.000  
 15  8 27  5  7 48.0000000  0  1G11
  -1194574.562 7   -990397.400 7  24975491.360 7  24975491.995 7       619.100 7
       482.421 7        34.920          36.560    24975489.706 7         0.000  
 15  8 27  5  7 49.5000000  0  1G11
  -1195502.564 7   -991120.523 7  24975314.364 7  24975315.442 7       618.234 7
       481.749 7        34.840          36.400    24975314.078 7         0.000  
 15  8 27  5  7 51.0000000  0  1G11
  -1196429.252 7   -991842.620 7  24975137.889 7  24975139.131 7       617.354 7
       481.059 7        34.950          36.600    24975137.931 7         0.000  
 15  8 27  5  7 52.5000000  0  1G11
  -1197354.623 7   -992563.693 7  24974961.866 7  24974963.182 7       616.478 7
       480.372 7        34.810          36.440    24974961.456 7         0.000  
 15  8 27  5  7 54.0000000  0  1G11
  -1198278.654 7   -993283.732 7  24974786.368 7  24974786.928 7       615.576 7
       479.667 7        35.030          36.260    24974786.046 7         0.000  
 15  8 27  5  7 55.5000000  0  1G11
  -1199201.390 7   -994002.737 7  24974610.609 7  24974611.546 7       614.706 7
       479.006 7        35.140          36.230    24974610.630 7         0.000  
 15  8 27  5  7 57.0000000  0  1G11
  -1200122.773 7   -994720.710 7  24974435.331 7  24974436.246 7       613.813 7
       478.303 7        35.350          36.390    24974435.186 7         0.000  
 15  8 27  5  7 58.5000000  0  1G11
  -1201042.850 7   -995437.655 7  24974259.851 7  24974261.400 7       612.950 7
       477.622 7        35.450          35.980    24974260.077 7         0.000  
 15  8 27  5  8  0.0000000  0  1G11
  -1201961.610 7   -996153.580 7  24974085.582 7  24974086.155 7       612.062 7
       476.942 7        35.830          35.950    24974085.143 7         0.000  
 15  8 27  5  8  1.5000000  0  1G11
  -1202879.078 7   -996868.480 7  24973910.817 7  24973911.200 7       611.202 7
       476.263 7        35.790          35.980    24973911.101 7         0.000  
 15  8 27  5  8  3.0000000  0  1G11
  -1203795.204 7   -997582.356 7  24973736.592 7  24973737.132 7       610.318 7
       475.568 7        35.540          35.940    24973735.616 7         0.000  
 15  8 27  5  8  4.5000000  0  1G11
  -1204710.035 7   -998295.203 7  24973562.557 7  24973563.295 7       609.431 7
       474.886 7        36.020          35.940    24973561.623 7         0.000  
 15  8 27  5  8  6.0000000  0  1G11
  -1205623.539 7   -999007.024 7  24973388.586 7  24973388.900 7       608.567 7
       474.207 7        35.940          35.980    24973389.414 7         0.000  
 15  8 27  5  8  7.5000000  0  1G11
  -1206535.735 7   -999717.813 7  24973214.956 7  24973215.788 7       607.679 7
       473.512 7        36.010          35.940    24973215.593 7         0.000  
 15  8 27  5  8  9.0000000  0  1G11
  -1207446.601 7  -1000427.589 7  24973041.794 7  24973041.796 7       606.812 7
       472.833 7        36.250          35.950    24973042.131 7         0.000  
 15  8 27  5  8 10.5000000  0  1G11
  -1208356.148 7  -1001136.326 7  24972868.696 7  24972868.233 7       605.931 7
       472.134 7        36.140          35.730    24972868.188 7         0.000  
 15  8 27  5  8 12.0000000  0  1G11
  -1209264.391 7  -1001844.038 7  24972695.921 7  24972696.026 7       605.048 7
       471.460 7        35.960          36.220    24972695.730 7         0.000  
 15  8 27  5  8 13.5000000  0  1G11
  -1210171.319 7  -1002550.730 7  24972523.002 7  24972523.343 7       604.173 7
       470.783 7        35.940          36.020    24972522.390 7         0.000  
 15  8 27  5  8 15.0000000  0  1G11
  -1211076.921 7  -1003256.392 7  24972350.890 7  24972351.073 7       603.287 7
       470.090 7        35.770          35.810    24972351.077 7         0.000  
 15  8 27  5  8 16.5000000  0  1G11
  -1211981.204 7  -1003961.019 7  24972178.862 7  24972178.926 7       602.432 7
       469.414 7        36.020          36.310    24972178.647 7         0.000  
 15  8 27  5  8 18.0000000  0  1G11
  -1212884.174 7  -1004664.629 7  24972007.043 7  24972007.108 7       601.529 7
       468.728 7        36.120          36.030    24972007.265 7         0.000  
 15  8 27  5  8 19.5000000  0  1G11
  -1213785.827 7  -1005367.220 7  24971835.504 7  24971835.820 7       600.648 7
       468.045 7        36.190          36.020    24971835.338 7         0.000  
 15  8 27  5  8 21.0000000  0  1G11
  -1214686.156 7  -1006068.769 7  24971664.089 7  24971664.435 7       599.780 7
       467.364 7        35.980          36.290    24971664.469 7         0.000  
 15  8 27  5  8 22.5000000  0  1G11
  -1215585.159 7  -1006769.301 7  24971493.053 7  24971493.899 7       598.891 7
       466.672 7        36.530          36.130    24971493.824 7         0.000  
 15  8 27  5  8 24.0000000  0  1G11
  -1216482.857 7  -1007468.806 7  24971322.528 7  24971322.789 7       598.019 7
       465.986 7        36.150          36.340    24971322.864 7         0.000  
 15  8 27  5  8 25.5000000  0  1G11
  -1217379.239 7  -1008167.279 7  24971152.452 7  24971152.146 7       597.145 7
       465.310 7        36.590          36.320    24971152.289 7         0.000  
 15  8 27  5  8 27.0000000  0  1G11
  -1218274.290 7  -1008864.720 7  24970982.127 7  24970982.797 7       596.259 7
       464.619 7        36.340          36.100    24970981.671 7         0.000  
 15  8 27  5  8 28.5000000  0  1G11
  -1219168.034 7  -1009561.155 7  24970812.385 7  24970812.349 7       595.384 7
       463.940 7        36.630          36.270    24970811.758 7         0.000  
 15  8 27  5  8 30.0000000  0  1G11
  -1220060.450 7  -1010256.542 7  24970642.385 7  24970642.685 7       594.505 7
       463.251 7        36.620          36.240    24970642.222 7         0.000  
 15  8 27  5  8 31.5000000  0  1G11
  -1220951.559 7  -1010950.905 7  24970472.337 7  24970472.974 7       593.640 7
       462.570 7        36.730          35.960    24970471.175 7         0.000  
 15  8 27  5  8 33.0000000  0  1G11
  -1221841.358 7  -1011644.258 7  24970303.656 7  24970304.065 7       592.763 7
       461.897 7        36.730          36.090    24970303.937 7         0.000  
 15  8 27  5  8 34.5000000  0  1G11
  -1222729.832 7  -1012336.573 7  24970134.581 7  24970134.623 7       591.869 7
       461.197 7        36.730          36.040    24970133.851 7         0.000  
 15  8 27  5  8 36.0000000  0  1G11
  -1223616.981 7  -1013027.858 7  24969965.478 7  24969965.596 7       590.995 7
       460.513 7        37.130          35.990    24969965.828 7         0.000  
 15  8 27  5  8 37.5000000  0  1G11
  -1224502.818 7  -1013718.122 7  24969796.461 7  24969797.414 7       590.119 7
       459.822 7        36.990          35.970    24969797.184 7         0.000  
 15  8 27  5  8 39.0000000  0  1G11
  -1225387.327 7  -1014407.343 7  24969628.230 7  24969628.586 7       589.227 7
       459.133 7        36.990          36.010    24969627.128 7         0.000  
 15  8 27  5  8 40.5000000  0  1G11
  -1226270.514 7  -1015095.541 7  24969459.885 7  24969460.744 7       588.359 7
       458.457 7        36.820          36.180    24969459.120 7         0.000  
 15  8 27  5  8 42.0000000  0  1G11
  -1227152.392 7  -1015782.702 7  24969291.734 7  24969292.465 7       587.473 7
       457.773 7        37.040          35.980    24969291.067 7         0.000  
 15  8 27  5  8 43.5000000  0  1G11
  -1228032.955 7  -1016468.859 7  24969124.102 7  24969125.051 7       586.600 7
       457.090 7        37.140          35.680    24969124.184 7         0.000  
 15  8 27  5  8 45.0000000  0  1G11
  -1228912.188 7  -1017153.967 7  24968956.528 7  24968957.525 7       585.719 7
       456.409 7        36.920          35.930    24968956.082 7         0.000  
 15  8 27  5  8 46.5000000  0  1G11
  -1229790.101 7  -1017838.061 7  24968789.633 7  24968790.329 7       584.837 7
       455.723 7        37.190          35.840    24968791.507 7         0.000  
 15  8 27  5  8 48.0000000  0  1G11
  -1230666.714 7  -1018521.129 7  24968622.462 7  24968623.282 7       583.959 7
       455.035 7        37.480          35.860    24968623.479 7         0.000  
 15  8 27  5  8 49.5000000  0  1G11
  -1231542.004 7  -1019203.170 7  24968456.267 7  24968456.619 7       583.093 7
       454.346 7        37.500          35.700    24968457.636 7         0.000  
 15  8 27  5  8 51.0000000  0  1G11
  -1232415.968 7  -1019884.188 7  24968290.320 7  24968290.680 7       582.202 7
       453.671 7        37.510          35.380    24968290.474 7         0.000  
 15  8 27  5  8 52.5000000  0  1G11
  -1233288.606 7  -1020564.160 7  24968123.991 7  24968124.654 7       581.329 7
       452.969 7        37.580          35.620    24968124.937 7         0.000  
 15  8 27  5  8 54.0000000  0  1G11
  -1234159.932 7  -1021243.110 7  24967958.344 7  24967958.643 7       580.447 7
       452.296 7        37.410          36.060    24967959.406 7         0.000  
 15  8 27  5  8 55.5000000  0  1G11
  -1235029.937 7  -1021921.042 7  24967792.711 7  24967792.890 7       579.568 7
       451.620 7        37.740          35.860    24967792.060 7         0.000  
 15  8 27  5  8 57.0000000  0  1G11
  -1235898.622 7  -1022597.944 7  24967627.319 7  24967627.581 7       578.687 7
       450.919 7        37.860          35.940    24967627.270 7         0.000  
 15  8 27  5  8 58.5000000  0  1G11
  -1236766.000 7  -1023273.812 7  24967462.285 7  24967462.863 7       577.815 7
       450.247 7        37.940          36.040    24967460.640 7         0.000  
 15  8 27  5  9  0.0000000  0  1G11
  -1237632.052 7  -1023948.660 7  24967297.907 7  24967297.831 7       576.927 7
       449.557 7        37.890          35.940    24967296.533 7         0.000  
 15  8 27  5  9  1.5000000  0  1G11
  -1238496.798 7  -1024622.491 7  24967133.317 7  24967133.730 7       576.060 7
       448.881 7        37.950          36.130    24967132.543 7         0.000  
 15  8 27  5  9  3.0000000  0  1G11
  -1239360.215 7  -1025295.278 7  24966968.608 7  24966969.191 7       575.175 7
       448.189 7        37.800          36.040    24966967.787 7         0.000  
 15  8 27  5  9  4.5000000  0  1G11
  -1240222.316 7  -1025967.053 7  24966804.741 7  24966805.536 7       574.296 7
       447.504 7        38.110          36.470    24966804.418 7         0.000  
 15  8 27  5  9  6.0000000  0  1G11
  -1241083.102 7  -1026637.790 7  24966641.092 7  24966641.457 7       573.406 7
       446.809 7        38.130          36.210    24966640.555 7         0.000  
 15  8 27  5  9  7.5000000  0  1G11
  -1241942.566 7  -1027307.500 7  24966477.724 7  24966478.397 7       572.521 7
       446.121 7        37.990          36.290    24966478.061 7         0.000  
 15  8 27  5  9  9.0000000  0  1G11
  -1242800.709 7  -1027976.187 7  24966314.597 7  24966314.507 7       571.672 7
       445.460 7        38.300          36.330    24966315.551 7         0.000  
 15  8 27  5  9 10.5000000  0  1G11
  -1243657.555 7  -1028643.856 7  24966151.423 7  24966151.500 7       570.784 7
       444.777 7        38.050          36.610    24966152.462 7         0.000  
 15  8 27  5  9 12.0000000  0  1G11
  -1244513.073 7  -1029310.489 7  24965988.579 7  24965988.859 7       569.906 7
       444.078 7        38.200          36.360    24965989.570 7         0.000  
 15  8 27  5  9 13.5000000  0  1G11
  -1245367.284 7  -1029976.116 7  24965826.365 7  24965826.336 7       569.029 7
       443.399 7        38.180          36.690    24965827.056 7         0.000  
 15  8 27  5  9 15.0000000  0  1G11
  -1246220.172 7  -1030640.697 7  24965663.524 7  24965664.229 7       568.168 7
       442.723 7        38.250          36.610    24965665.135 7         0.000  
 15  8 27  5  9 16.5000000  0  1G11
  -1247071.741 7  -1031304.258 7  24965501.526 7  24965501.766 7       567.285 7
       442.031 7        38.190          37.070    24965502.558 7         0.000  
 15  8 27  5  9 18.0000000  0  1G11
  -1247921.999 7  -1031966.789 7  24965339.598 7  24965339.971 7       566.399 7
       441.338 7        38.220          36.980    24965340.419 7         0.000  
 15  8 27  5  9 19.5000000  0  1G11
  -1248770.944 7  -1032628.317 7  24965177.872 7  24965178.479 7       565.514 7
       440.671 7        38.000          36.860    24965178.154 7         0.000  
 15  8 27  5  9 21.0000000  0  1G11
  -1249618.567 7  -1033288.798 7  24965016.628 7  24965016.968 7       564.654 7
       439.983 7        38.020          37.410    24965017.763 7         0.000  
 15  8 27  5  9 22.5000000  0  1G11
  -1250464.868 7  -1033948.252 7  24964855.330 7  24964856.417 7       563.775 7
       439.296 7        38.190          37.220    24964856.006 7         0.000  
 15  8 27  5  9 24.0000000  0  1G11
  -1251309.855 7  -1034606.683 7  24964694.620 7  24964695.440 7       562.868 7
       438.598 7        38.090          37.440    24964695.156 7         0.000  
 15  8 27  5  9 25.5000000  0  1G11
  -1252153.529 7  -1035264.093 7  24964533.791 7  24964535.065 7       562.007 7
       437.931 7        38.410          37.590    24964535.312 7         0.000  
 15  8 27  5  9 27.0000000  0  1G11
  -1252995.882 7  -1035920.465 7  24964374.007 7  24964374.990 7       561.138 7
       437.251 7        38.410          37.690    24964373.519 7         0.000  
 15  8 27  5  9 28.5000000  0  1G11
  -1253836.910 7  -1036575.820 7  24964214.164 7  24964214.937 7       560.250 7
       436.553 7        38.550          37.820    24964214.377 7         0.000  
 15  8 27  5  9 30.0000000  0  1G11
  -1254676.621 7  -1037230.140 7  24964054.368 7  24964055.350 7       559.367 7
       435.868 7        38.680          38.070    24964054.022 7         0.000  
 15  8 27  5  9 31.5000000  0  1G11
  -1255515.031 7  -1037883.447 7  24963895.067 7  24963896.009 7       558.497 7
       435.183 7        38.610          38.070    24963894.722 7         0.000  
 15  8 27  5  9 33.0000000  0  1G11
  -1256352.103 7  -1038535.704 7  24963735.902 7  24963736.861 7       557.610 7
       434.511 7        38.730          38.060    24963736.002 7         0.000  
 15  8 27  5  9 34.5000000  0  1G11
  -1257187.850 7  -1039186.943 7  24963577.039 7  24963577.944 7       556.722 7
       433.812 7        38.620          38.310    24963577.620 7         0.000  
 15  8 27  5  9 36.0000000  0  1G11
  -1258022.288 7  -1039837.149 7  24963417.976 7  24963419.019 7       555.839 7
       433.118 7        38.340          38.040    24963418.669 7         0.000  
 15  8 27  5  9 37.5000000  0  1G11
  -1258855.407 7  -1040486.330 7  24963259.589 7  24963260.350 7       554.965 7
       432.443 7        38.450          38.250    24963259.728 7         0.000  
 15  8 27  5  9 39.0000000  0  1G11
  -1259687.199 7  -1041134.485 7  24963101.109 7  24963101.919 7       554.082 7
       431.758 7        38.140          38.380    24963102.001 7         0.000  
 15  8 27  5  9 40.5000000  0  1G11
  -1260517.683 7  -1041781.608 7  24962943.462 7  24962943.842 7       553.212 7
       431.077 7        37.810          38.360    24962943.908 7         0.000  
 15  8 27  5  9 42.0000000  0  1G11
  -1261346.834 7  -1042427.703 7  24962784.827 7  24962786.123 7       552.331 7
       430.392 7        38.030          38.100    24962785.031 7         0.000  
 15  8 27  5  9 43.5000000  0  1G11
  -1262174.678 7  -1043072.771 7  24962627.542 7  24962628.319 7       551.448 7
       429.704 7        37.720          38.460    24962627.641 7         0.000  
 15  8 27  5  9 45.0000000  0  1G11
  -1263001.207 7  -1043716.825 7  24962469.883 7  24962471.028 7       550.571 7
       429.018 7        37.770          38.260    24962468.988 7         0.000  
 15  8 27  5  9 46.5000000  0  1G11
  -1263826.388 7  -1044359.824 7  24962313.003 7  24962313.934 7       549.682 7
       428.323 7        37.700          38.580    24962312.492 7         0.000  
 15  8 27  5  9 48.0000000  0  1G11
  -1264650.256 7  -1045001.794 7  24962155.677 7  24962157.093 7       548.810 7
       427.638 7        37.620          38.630    24962156.780 7         0.000  
 15  8 27  5  9 49.5000000  0  1G11
  -1265472.809 7  -1045642.747 7  24961999.435 7  24962000.699 7       547.930 7
       426.955 7        37.610          38.630    24961999.947 7         0.000  
 15  8 27  5  9 51.0000000  0  1G11
  -1266294.024 7  -1046282.658 7  24961843.515 7  24961844.024 7       547.039 7
       426.261 7        37.680          38.490    24961845.020 7         0.000  
 15  8 27  5  9 52.5000000  0  1G11
  -1267113.928 7  -1046921.548 7  24961687.705 7  24961688.089 7       546.159 7
       425.581 7        37.910          38.620    24961688.662 7         0.000  
 15  8 27  5  9 54.0000000  0  1G11
  -1267932.516 7  -1047559.411 7  24961531.901 7  24961532.600 7       545.288 7
       424.896 7        37.740          38.420    24961532.962 7         0.000  
 15  8 27  5  9 55.5000000  0  1G11
  -1268749.792 7  -1048196.246 7  24961376.571 7  24961376.982 7       544.414 7
       424.213 7        37.710          38.700    24961377.732 7         0.000  
 15  8 27  5  9 57.0000000  0  1G11
  -1269565.742 7  -1048832.046 7  24961221.615 7  24961221.400 7       543.534 7
       423.529 7        38.080          38.570    24961221.963 7         0.000  
 15  8 27  5  9 58.5000000  0  1G11
  -1270380.382 7  -1049466.827 7  24961066.926 7  24961066.822 7       542.651 7
       422.847 7        37.710          38.620    24961066.882 7         0.000  
 15  8 27  5 10  0.0000000  0  1G11
  -1271193.705 7  -1050100.583 7  24960912.308 7  24960911.799 7       541.780 7
       422.150 7        37.770          38.530    24960912.062 7         0.000  
 15  8 27  5 10  1.5000000  0  1G11
  -1272005.726 7  -1050733.322 7  24960757.454 7  24960757.373 7       540.900 7
       421.487 7        37.820          38.820    24960757.652 7         0.000  
 15  8 27  5 10  3.0000000  0  1G11
  -1272816.418 7  -1051365.032 7  24960603.373 7  24960603.366 7       540.019 7
       420.789 7        37.900          38.760    24960603.012 7         0.000  
 15  8 27  5 10  4.5000000  0  1G11
  -1273625.792 7  -1051995.703 7  24960448.972 7  24960449.093 7       539.157 7
       420.116 7        38.010          38.540    24960450.054 7         0.000  
 15  8 27  5 10  6.0000000  0  1G11
  -1274433.839 7  -1052625.353 7  24960294.837 7  24960295.407 7       538.265 7
       419.431 7        37.760          38.760    24960294.869 7         0.000  
 15  8 27  5 10  7.5000000  0  1G11
  -1275240.592 7  -1053253.983 7  24960141.202 7  24960141.957 7       537.393 7
       418.749 7        37.790          38.760    24960141.398 7         0.000  
 15  8 27  5 10  9.0000000  0  1G11
  -1276046.004 7  -1053881.573 7  24959987.494 7  24959988.598 7       536.503 7
       418.054 7        37.600          38.680    24959988.487 7         0.000  
 15  8 27  5 10 10.5000000  0  1G11
  -1276850.096 7  -1054508.138 7  24959834.427 7  24959836.124 7       535.626 7
       417.368 7        37.300          38.730    24959834.425 7         0.000  
 15  8 27  5 10 12.0000000  0  1G11
  -1277652.872 7  -1055133.668 7  24959681.493 7  24959683.474 7       534.737 7
       416.674 7        37.490          38.790    24959681.651 7         0.000  
 15  8 27  5 10 13.5000000  0  1G11
  -1278454.338 7  -1055758.196 7  24959529.283 7  24959530.796 7       533.865 7
       415.999 7        37.350          38.920    24959528.412 7         0.000  
 15  8 27  5 10 15.0000000  0  1G11
  -1279254.484 7  -1056381.677 7  24959377.186 7  24959378.501 7       532.992 7
       415.316 7        37.440          38.810    24959376.499 7         0.000  
 15  8 27  5 10 16.5000000  0  1G11
  -1280053.320 7  -1057004.144 7  24959224.690 7  24959226.591 7       532.114 7
       414.637 7        37.350          38.680    24959224.807 7         0.000  
 15  8 27  5 10 18.0000000  0  1G11
  -1280850.819 7  -1057625.573 7  24959073.392 7  24959074.962 7       531.236 7
       413.956 7        37.160          38.690    24959074.599 7         0.000  
 15  8 27  5 10 19.5000000  0  1G11
  -1281647.013 7  -1058245.982 7  24958922.032 7  24958923.327 7       530.354 7
       413.259 7        37.290          38.830    24958921.715 7         0.000  
 15  8 27  5 10 21.0000000  0  1G11
  -1282441.886 7  -1058865.360 7  24958770.944 7  24958772.175 7       529.472 7
       412.574 7        37.130          38.800    24958770.561 7         0.000  
 15  8 27  5 10 22.5000000  0  1G11
  -1283235.436 7  -1059483.714 7  24958619.641 7  24958620.798 7       528.581 7
       411.878 7        36.930          38.670    24958618.809 7         0.000  
 15  8 27  5 10 24.0000000  0  1G11
  -1284027.662 7  -1060101.037 7  24958469.301 7  24958470.290 7       527.708 7
       411.197 7        37.280          38.710    24958468.332 7         0.000  
 15  8 27  5 10 25.5000000  0  1G11
  -1284818.580 7  -1060717.336 7  24958318.804 7  24958319.569 7       526.840 7
       410.521 7        37.010          38.750    24958317.602 7         0.000  
 15  8 27  5 10 27.0000000  0  1G11
  -1285608.173 7  -1061332.610 7  24958168.394 7  24958169.091 7       525.952 7
       409.831 7        37.330          38.510    24958168.047 7         0.000  
 15  8 27  5 10 28.5000000  0  1G11
  -1286396.453 7  -1061946.843 7  24958018.541 7  24958018.931 7       525.084 7
       409.152 7        37.360          38.800    24958017.153 7         0.000  
 15  8 27  5 10 30.0000000  0  1G11
  -1287183.403 7  -1062560.067 7  24957868.647 7  24957869.235 7       524.203 7
       408.469 7        37.220          38.680    24957867.754 7         0.000  
 15  8 27  5 10 31.5000000  0  1G11
  -1287969.074 7  -1063172.263 7  24957718.937 7  24957719.715 7       523.334 7
       407.797 7        37.310          38.610    24957718.442 7         0.000  
 15  8 27  5 10 33.0000000  0  1G11
  -1288753.400 7  -1063783.422 7  24957569.582 7  24957570.373 7       522.449 7
       407.103 7        37.350          38.390    24957569.830 7         0.000  
 15  8 27  5 10 34.5000000  0  1G11
  -1289536.401 7  -1064393.557 7  24957420.524 7  24957421.025 7       521.568 7
       406.413 7        37.110          38.380    24957420.146 7         0.000  
 15  8 27  5 10 36.0000000  0  1G11
  -1290318.098 7  -1065002.661 7  24957272.112 7  24957272.893 7       520.687 7
       405.726 7        37.100          38.490    24957271.281 7         0.000  
 15  8 27  5 10 37.5000000  0  1G11
  -1291098.469 7  -1065610.744 7  24957123.720 7  24957124.120 7       519.806 7
       405.048 7        37.310          38.330    24957123.811 7         0.000  
 15  8 27  5 10 39.0000000  0  1G11
  -1291877.510 7  -1066217.792 7  24956975.573 7  24956975.814 7       518.918 7
       404.350 7        37.430          38.480    24956975.440 7         0.000  
 15  8 27  5 10 40.5000000  0  1G11
  -1292655.242 7  -1066823.810 7  24956827.625 7  24956827.713 7       518.042 7
       403.667 7        37.350          38.540    24956827.330 7         0.000  
 15  8 27  5 10 42.0000000  0  1G11
  -1293431.647 7  -1067428.803 7  24956680.304 7  24956680.259 7       517.158 7
       402.971 7        37.180          38.370    24956679.533 7         0.000  
 15  8 27  5 10 43.5000000  0  1G11
  -1294206.748 7  -1068032.777 7  24956532.587 7  24956532.853 7       516.289 7
       402.300 7        37.240          38.400    24956532.102 7         0.000  
 15  8 27  5 10 45.0000000  0  1G11
  -1294980.516 7  -1068635.714 7  24956385.255 7  24956385.573 7       515.405 7
       401.618 7        37.330          38.560    24956385.086 7         0.000  
 15  8 27  5 10 46.5000000  0  1G11
  -1295752.974 7  -1069237.629 7  24956237.861 7  24956238.546 7       514.525 7
       400.941 7        37.360          38.440    24956238.041 7         0.000  
 15  8 27  5 10 48.0000000  0  1G11
  -1296524.122 7  -1069838.520 7  24956090.826 7  24956091.601 7       513.657 7
       400.258 7        37.100          38.510    24956090.491 7         0.000  
 15  8 27  5 10 49.5000000  0  1G11
  -1297293.955 7  -1070438.392 7  24955944.932 7  24955945.440 7       512.785 7
       399.563 7        37.050          38.550    24955943.630 7         0.000  
 15  8 27  5 10 51.0000000  0  1G11
  -1298062.461 7  -1071037.230 7  24955798.169 7  24955799.109 7       511.901 7
       398.889 7        37.100          38.490    24955797.995 7         0.000  
 15  8 27  5 10 52.5000000  0  1G11
  -1298829.643 7  -1071635.037 7  24955651.910 7  24955653.230 7       511.020 7
       398.202 7        37.130          38.610    24955651.559 7         0.000  
 15  8 27  5 10 54.0000000  0  1G11
  -1299595.513 7  -1072231.821 7  24955506.348 7  24955507.337 7       510.151 7
       397.515 7        37.130          38.550    24955505.444 7         0.000  
 15  8 27  5 10 55.5000000  0  1G11
  -1300360.072 7  -1072827.590 7  24955360.782 7  24955361.717 7       509.273 7
       396.835 7        36.860          38.740    24955359.483 7         0.000  
 15  8 27  5 10 57.0000000  0  1G11
  -1301123.315 7  -1073422.314 7  24955215.474 7  24955216.711 7       508.405 7
       396.150 7        37.150          38.630    24955214.717 7         0.000  
 15  8 27  5 10 58.5000000  0  1G11
  -1301885.220 7  -1074016.020 7  24955070.540 7  24955071.857 7       507.515 7
       395.462 7        37.050          38.590    24955070.586 7         0.000  
 15  8 27  5 11  0.0000000  0  1G11
  -1302645.836 7  -1074608.696 7  24954925.761 7  24954926.748 7       506.628 7
       394.785 7        37.030          38.560    24954925.940 7         0.000  
 15  8 27  5 11  1.5000000  0  1G11
  -1303405.128 7  -1075200.361 7  24954781.721 7  24954782.684 7       505.762 7
       394.095 7        37.240          38.520    24954780.705 7         0.000  
 15  8 27  5 11  3.0000000  0  1G11
  -1304163.078 7  -1075790.972 7  24954636.941 7  24954638.046 7       504.865 7
       393.403 7        36.870          38.200    24954636.683 7         0.000  
 15  8 27  5 11  4.5000000  0  1G11
  -1304919.727 7  -1076380.560 7  24954493.064 7  24954494.415 7       503.995 7
       392.725 7        36.920          38.450    24954493.626 7         0.000  
 15  8 27  5 11  6.0000000  0  1G11
  -1305675.056 7  -1076969.129 7  24954349.414 7  24954350.289 7       503.119 7
       392.041 7        37.200          38.430    24954349.478 7         0.000  
 15  8 27  5 11  7.5000000  0  1G11
  -1306429.072 7  -1077556.680 7  24954205.934 7  24954207.412 7       502.242 7
       391.352 7        36.960          38.590    24954206.270 7         0.000  
 15  8 27  5 11  9.0000000  0  1G11
  -1307181.762 7  -1078143.192 7  24954062.828 7  24954064.203 7       501.359 7
       390.664 7        36.970          38.400    24954062.605 7         0.000  
 15  8 27  5 11 10.5000000  0  1G11
  -1307933.134 7  -1078728.668 7  24953919.786 7  24953920.890 7       500.475 7
       389.983 7        36.930          38.170    24953919.461 7         0.000  
 15  8 27  5 11 12.0000000  0  1G11
  -1308683.181 7  -1079313.125 7  24953777.226 7  24953778.245 7       499.595 7
       389.286 7        37.300          38.330    24953777.065 7         0.000  
 15  8 27  5 11 13.5000000  0  1G11
  -1309431.918 7  -1079896.552 7  24953634.849 7  24953636.028 7       498.726 7
       388.614 7        36.960          38.290    24953634.346 7         0.000  
 15  8 27  5 11 15.0000000  0  1G11
  -1310179.327 7  -1080478.949 7  24953492.712 7  24953493.613 7       497.836 7
       387.925 7        37.040          38.270    24953492.561 7         0.000  
 15  8 27  5 11 16.5000000  0  1G11
  -1310925.427 7  -1081060.311 7  24953350.767 7  24953351.575 7       496.963 7
       387.240 7        37.090          38.330    24953349.691 7         0.000  
 15  8 27  5 11 18.0000000  0  1G11
  -1311670.193 7  -1081640.655 7  24953208.936 7  24953209.660 7       496.078 7
       386.558 7        37.230          38.180    24953208.314 7         0.000  
 15  8 27  5 11 19.5000000  0  1G11
  -1312413.662 7  -1082219.975 7  24953067.738 7  24953068.064 7       495.207 7
       385.873 7        37.100          38.200    24953067.747 7         0.000  
 15  8 27  5 11 21.0000000  0  1G11
  -1313155.819 7  -1082798.269 7  24952926.530 7  24952926.608 7       494.329 7
       385.191 7        37.050          38.370    24952927.277 7         0.000  
 15  8 27  5 11 22.5000000  0  1G11
  -1313896.631 7  -1083375.529 7  24952785.706 7  24952786.053 7       493.457 7
       384.506 7        37.250          38.350    24952784.917 7         0.000  
 15  8 27  5 11 24.0000000  0  1G11
  -1314636.149 7  -1083951.765 7  24952645.094 7  24952645.049 7       492.570 7
       383.813 7        37.210          38.440    24952644.711 7         0.000  
 15  8 27  5 11 25.5000000  0  1G11
  -1315374.342 7  -1084526.978 7  24952504.416 7  24952504.194 7       491.690 7
       383.134 7        37.350          38.280    24952504.888 7         0.000  
 15  8 27  5 11 27.0000000  0  1G11
  -1316111.209 7  -1085101.150 7  24952364.375 7  24952364.254 7       490.804 7
       382.438 7        37.150          38.580    24952365.076 7         0.000  
 15  8 27  5 11 28.5000000  0  1G11
  -1316846.757 7  -1085674.309 7  24952224.639 7  24952224.574 7       489.928 7
       381.763 7        37.380          38.390    24952224.805 7         0.000  
 15  8 27  5 11 30.0000000  0  1G11
  -1317580.991 7  -1086246.431 7  24952084.662 7  24952084.674 7       489.046 7
       381.071 7        37.290          38.520    24952085.137 7         0.000  
 15  8 27  5 11 31.5000000  0  1G11
  -1318313.906 7  -1086817.535 7  24951945.036 7  24951945.382 7       488.171 7
       380.389 7        37.130          38.530    24951946.238 7         0.000  
 15  8 27  5 11 33.0000000  0  1G11
  -1319045.510 7  -1087387.608 7  24951805.806 7  24951805.721 7       487.286 7
       379.704 7        37.300          38.470    24951806.500 7         0.000  
 15  8 27  5 11 34.5000000  0  1G11
  -1319775.790 7  -1087956.655 7  24951666.898 7  24951667.342 7       486.416 7
       379.024 7        37.000          38.400    24951667.321 7         0.000  
 15  8 27  5 11 36.0000000  0  1G11
  -1320504.762 7  -1088524.684 7  24951528.187 7  24951528.491 7       485.532 7
       378.327 7        37.110          38.380    24951528.120 7         0.000  
 15  8 27  5 11 37.5000000  0  1G11
  -1321232.408 7  -1089091.688 7  24951389.703 7  24951390.293 7       484.652 7
       377.657 7        37.290          38.260    24951389.726 7         0.000  
 15  8 27  5 11 39.0000000  0  1G11
  -1321958.738 7  -1089657.652 7  24951251.170 7  24951251.987 7       483.779 7
       376.975 7        36.950          38.130    24951251.355 7         0.000  
 15  8 27  5 11 40.5000000  0  1G11
  -1322683.757 7  -1090222.600 7  24951113.275 7  24951114.017 7       482.898 7
       376.286 7        37.240          38.130    24951113.618 7         0.000  
 15  8 27  5 11 42.0000000  0  1G11
  -1323407.446 7  -1090786.523 7  24950975.701 7  24950976.421 7       482.027 7
       375.598 7        37.190          38.010    24950975.824 7         0.000  
 15  8 27  5 11 43.5000000  0  1G11
  -1324129.838 7  -1091349.429 7  24950837.998 7  24950838.986 7       481.151 7
       374.926 7        37.240          38.040    24950837.999 7         0.000  
 15  8 27  5 11 45.0000000  0  1G11
  -1324850.912 7  -1091911.305 7  24950700.866 7  24950701.742 7       480.284 7
       374.249 7        36.970          37.820    24950700.617 7         0.000  
 15  8 27  5 11 46.5000000  0  1G11
  -1325570.671 7  -1092472.151 7  24950563.613 7  24950564.547 7       479.392 7
       373.565 7        37.090          37.540    24950562.211 7         0.000  
 15  8 27  5 11 48.0000000  0  1G11
  -1326289.110 7  -1093031.968 7  24950426.725 7  24950428.002 7       478.519 7
       372.870 7        36.740          37.430    24950426.025 7         0.000  
 15  8 27  5 11 49.5000000  0  1G11
  -1327006.233 7  -1093590.773 7  24950290.362 7  24950291.140 7       477.638 7
       372.177 7        36.980          37.320    24950289.044 7         0.000  
 15  8 27  5 11 51.0000000  0  1G11
  -1327722.034 7  -1094148.526 7  24950153.808 7  24950154.717 7       476.756 7
       371.492 7        36.700          37.090    24950153.859 7         0.000  
 15  8 27  5 11 52.5000000  0  1G11
  -1328436.501 7  -1094705.253 7  24950018.047 7  24950018.598 7       475.870 7
       370.806 7        36.820          36.890    24950018.587 7         0.000  
 15  8 27  5 11 54.0000000  0  1G11
  -1329149.653 7  -1095260.962 7  24949882.720 7  24949882.254 7       474.988 7
       370.123 7        36.880          36.650    24949883.406 7         0.000  
 15  8 27  5 11 55.5000000  0  1G11
  -1329861.504 7  -1095815.634 7  24949746.984 7  24949746.793 7       474.123 7
       369.443 7        36.730          36.390    24949748.238 7         0.000  
 15  8 27  5 11 57.0000000  0  1G11
  -1330572.029 7  -1096369.294 7  24949611.810 7  24949611.954 7       473.240 7
       368.754 7        36.760          36.260    24949614.130 7         0.000  
 15  8 27  5 11 58.5000000  0  1G11
  -1331281.225 7  -1096921.906 7  24949476.840 7  24949476.413 7       472.360 7
       368.068 7        36.690          36.100    24949479.047 7         0.000  
 15  8 27  5 12  0.0000000  0  1G11
  -1331989.108 7  -1097473.508 7  24949342.291 7  24949341.452 7       471.482 7
       367.393 7        36.700          36.130    24949344.249 7         0.000  
 15  8 27  5 12  1.5000000  0  1G11
  -1332695.682 7  -1098024.093 7  24949207.982 7  24949207.493 7       470.607 7
       366.701 7        36.670          35.820    24949210.039 7         0.000  
 15  8 27  5 12  3.0000000  0  1G11
  -1333400.934 7  -1098573.631 7  24949073.698 7  24949073.117 7       469.722 7
       366.027 7        36.470          35.740    24949075.271 7         0.000  
 15  8 27  5 12  4.5000000  0  1G11
  -1334104.879 7  -1099122.154 7  24948939.818 7  24948938.858 7       468.849 7
       365.345 7        36.870          36.100    24948940.473 7         0.000  
 15  8 27  5 12  6.0000000  0  1G11
  -1334807.495 7  -1099669.644 7  24948805.837 7  24948805.680 7       467.964 7
       364.642 7        36.610          35.910    24948806.284 7         0.000  
 15  8 27  5 12  7.5000000  0  1G11
  -1335508.804 7  -1100216.105 7  24948672.567 7  24948672.807 7       467.089 7
       363.966 7        37.040          36.100    24948672.023 7         0.000  
 15  8 27  5 12  9.0000000  0  1G11
  -1336208.786 7  -1100761.547 7  24948539.370 7  24948539.461 7       466.210 7
       363.286 7        36.890          36.370    24948540.110 7         0.000  
 15  8 27  5 12 10.5000000  0  1G11
  -1336907.433 7  -1101305.957 7  24948406.452 7  24948406.571 7       465.339 7
       362.605 7        36.820          36.510    24948406.580 7         0.000  
 15  8 27  5 12 12.0000000  0  1G11
  -1337604.780 7  -1101849.341 7  24948273.654 7  24948274.552 7       464.462 7
       361.906 7        37.100          36.620    24948274.339 7         0.000  
 15  8 27  5 12 13.5000000  0  1G11
  -1338300.812 7  -1102391.711 7  24948141.526 7  24948141.564 7       463.581 7
       361.223 7        37.100          36.710    24948141.507 7         0.000  
 15  8 27  5 12 15.0000000  0  1G11
  -1338995.516 7  -1102933.020 7  24948009.051 7  24948009.968 7       462.700 7
       360.543 7        37.070          36.630    24948008.676 7         0.000  
 15  8 27  5 12 16.5000000  0  1G11
  -1339688.904 7  -1103473.325 7  24947877.162 7  24947877.876 7       461.826 7
       359.860 7        37.160          36.970    24947877.258 7         0.000  
 15  8 27  5 12 18.0000000  0  1G11
  -1340380.981 7  -1104012.602 7  24947745.317 7  24947745.991 7       460.946 7
       359.164 7        37.120          36.790    24947744.733 7         0.000  
 15  8 27  5 12 19.5000000  0  1G11
  -1341071.745 7  -1104550.852 7  24947613.704 7  24947614.633 7       460.063 7
       358.497 7        37.250          36.790    24947613.032 7         0.000  
 15  8 27  5 12 21.0000000  0  1G11
  -1341761.177 7  -1105088.066 7  24947482.689 7  24947483.243 7       459.182 7
       357.808 7        37.210          36.920    24947481.276 7         0.000  
 15  8 27  5 12 22.5000000  0  1G11
  -1342449.301 7  -1105624.271 7  24947351.562 7  24947351.851 7       458.305 7
       357.126 7        37.290          37.290    24947350.349 7         0.000  
 15  8 27  5 12 24.0000000  0  1G11
  -1343136.104 7  -1106159.433 7  24947221.109 7  24947221.418 7       457.429 7
       356.435 7        37.270          37.170    24947220.266 7         0.000  
 15  8 27  5 12 25.5000000  0  1G11
  -1343821.598 7  -1106693.575 7  24947090.443 7  24947090.785 7       456.550 7
       355.741 7        37.030          37.260    24947088.664 7         0.000  
 15  8 27  5 12 27.0000000  0  1G11
  -1344505.754 7  -1107226.689 7  24946960.216 7  24946960.514 7       455.675 7
       355.065 7        36.890          37.390    24946958.569 7         0.000  
 15  8 27  5 12 28.5000000  0  1G11
  -1345188.606 7  -1107758.769 7  24946830.333 7  24946830.586 7       454.795 7
       354.379 7        36.890          37.310    24946828.807 7         0.000  
 15  8 27  5 12 30.0000000  0  1G11
  -1345870.130 7  -1108289.825 7  24946700.264 7  24946700.995 7       453.918 7
       353.703 7        36.850          37.780    24946699.402 7         0.000  
 15  8 27  5 12 31.5000000  0  1G11
  -1346550.358 7  -1108819.868 7  24946570.806 7  24946571.548 7       453.048 7
       353.022 7        36.650          37.620    24946570.454 7         0.000  
 15  8 27  5 12 33.0000000  0  1G11
  -1347229.248 7  -1109348.866 7  24946441.987 7  24946442.497 7       452.150 7
       352.325 7        36.770          37.780    24946441.699 7         0.000  
 15  8 27  5 12 34.5000000  0  1G11
  -1347906.828 7  -1109876.846 7  24946313.092 7  24946314.146 7       451.271 7
       351.640 7        36.610          37.730    24946314.057 7         0.000  
 15  8 27  5 12 36.0000000  0  1G11
  -1348583.073 7  -1110403.796 7  24946184.439 7  24946185.142 7       450.397 7
       350.958 7        36.610          37.690    24946184.863 7         0.000  
 15  8 27  5 12 37.5000000  0  1G11
  -1349258.015 7  -1110929.731 7  24946056.223 7  24946057.164 7       449.514 7
       350.276 7        36.300          37.940    24946056.196 7         0.000  
 15  8 27  5 12 39.0000000  0  1G11
  -1349931.639 7  -1111454.624 7  24945927.669 7  24945929.119 7       448.638 7
       349.592 7        36.380          38.000    24945927.988 7         0.000  
 15  8 27  5 12 40.5000000  0  1G11
  -1350603.931 7  -1111978.492 7  24945799.907 7  24945801.010 7       447.755 7
       348.902 7        36.300          38.100    24945799.797 7         0.000  
 15  8 27  5 12 42.0000000  0  1G11
  -1351274.909 7  -1112501.326 7  24945672.094 7  24945673.515 7       446.881 7
       348.212 7        36.300          38.100    24945672.389 7         0.000  
 15  8 27  5 12 43.5000000  0  1G11
  -1351944.577 7  -1113023.144 7  24945544.963 7  24945545.900 7       446.019 7
       347.541 7        36.350          37.870    24945544.425 7         0.000  
 15  8 27  5 12 45.0000000  0  1G11
  -1352612.930 7  -1113543.940 7  24945418.004 7  24945418.846 7       445.130 7
       346.850 7        36.430          38.030    24945417.661 7         0.000  
 15  8 27  5 12 46.5000000  0  1G11
  -1353279.959 7  -1114063.703 7  24945290.801 7  24945291.830 7       444.245 7
       346.166 7        36.390          38.140    24945292.686 7         0.000  
 15  8 27  5 12 48.0000000  0  1G11
  -1353945.666 7  -1114582.437 7  24945164.146 7  24945165.332 7       443.368 7
       345.487 7        36.410          37.860    24945165.513 7         0.000  
 15  8 27  5 12 49.5000000  0  1G11
  -1354610.063 7  -1115100.146 7  24945037.890 7  24945038.564 7       442.493 7
       344.792 7        36.250          37.960    24945038.963 7         0.000  
 15  8 27  5 12 51.0000000  0  1G11
  -1355273.141 7  -1115616.824 7  24944911.789 7  24944912.037 7       441.614 7
       344.115 7        36.530          37.650    24944913.036 7         0.000  
 15  8 27  5 12 52.5000000  0  1G11
  -1355934.907 7  -1116132.480 7  24944785.774 7  24944785.911 7       440.734 7
       343.427 7        36.450          37.760    24944786.939 7         0.000  
 15  8 27  5 12 54.0000000  0  1G11
  -1356595.359 7  -1116647.119 7  24944659.696 7  24944660.225 7       439.849 7
       342.740 7        36.400          37.920    24944660.182 7         0.000  
 15  8 27  5 12 55.5000000  0  1G11
  -1357254.495 7  -1117160.736 7  24944534.315 7  24944534.468 7       438.984 7
       342.063 7        36.230          37.640    24944534.918 7         0.000  
 15  8 27  5 12 57.0000000  0  1G11
  -1357912.300 7  -1117673.307 7  24944409.161 7  24944409.168 7       438.104 7
       341.379 7        36.160          37.500    24944408.302 7         0.000  
 15  8 27  5 12 58.5000000  0  1G11
  -1358568.795 7  -1118184.864 7  24944284.040 7  24944284.524 7       437.206 7
       340.693 7        36.080          37.780    24944283.215 7         0.000  
 15  8 27  5 13  0.0000000  0  1G11
  -1359223.967 7  -1118695.387 7  24944159.648 7  24944159.504 7       436.346 7
       339.999 7        35.780          37.280    24944157.336 7         0.000  
 15  8 27  5 13  1.5000000  0  1G11
  -1359877.845 7  -1119204.898 7  24944034.761 7  24944035.296 7       435.480 7
       339.338 7        35.610          37.340    24944031.871 7         0.000  
 15  8 27  5 13  3.0000000  0  1G11
  -1360530.398 7  -1119713.380 7  24943910.623 7  24943911.185 7       434.590 7
       338.644 7        35.530          37.430    24943909.588 7         0.000  
 15  8 27  5 13  4.5000000  0  1G11
  -1361181.638 7  -1120220.834 7  24943786.673 7  24943786.848 7       433.719 7
       337.963 7        35.340          37.290    24943786.620 7         0.000  
 15  8 27  5 13  6.0000000  0  1G11
  -1361831.542 7  -1120727.268 7  24943662.747 7  24943663.707 7       432.823 7
       337.278 7        35.160          37.190    24943662.421 7         0.000  
 15  8 27  5 13  7.5000000  0  1G11
  -1362480.148 7  -1121232.666 7  24943539.080 7  24943540.277 7       431.960 7
       336.602 7        34.540          37.600    24943538.259 7         0.000  
 15  8 27  5 13  9.0000000  0  1G11
  -1363127.426 7  -1121737.039 7  24943415.918 7  24943417.088 7       431.081 7
       335.903 7        34.540          37.320    24943414.896 7         0.000  
 15  8 27  5 13 10.5000000  0  1G11
  -1363773.371 7  -1122240.389 7  24943292.804 7  24943294.303 7       430.200 7
       335.218 7        34.210          37.140    24943293.095 7         0.000  
 15  8 27  5 13 12.0000000  0  1G11
  -1364418.016 7  -1122742.694 7  24943170.377 7  24943172.001 7       429.328 7
       334.537 7        34.110          37.260    24943170.401 7         0.000  
 15  8 27  5 13 13.5000000  0  1G11
  -1365061.331 7  -1123243.996 7  24943047.477 7  24943049.471 7       428.448 7
       333.857 7        33.800          37.270    24943049.407 7         0.000  
 15  8 27  5 13 15.0000000  0  1G11
  -1365703.336 7  -1123744.263 7  24942926.200 7  24942927.219 7       427.564 7
       333.162 7        33.760          37.200    24942927.735 7         0.000  
 15  8 27  5 13 16.5000000  0  1G11
  -1366344.039 7  -1124243.502 7  24942804.493 7  24942805.550 7       426.695 7
       332.489 7        33.630          36.950    24942804.515 7         0.000  
 15  8 27  5 13 18.0000000  0  1G11
  -1366983.404 7  -1124741.718 7  24942682.673 7  24942683.617 7       425.806 7
       331.794 7        33.300          36.790    24942684.086 7         0.000  
 15  8 27  5 13 19.5000000  0  1G11
  -1367621.467 7  -1125238.914 7  24942561.157 7  24942562.240 7       424.925 7
       331.121 7        33.560          36.750    24942563.241 7         0.000  
 15  8 27  5 13 21.0000000  0  1G11
  -1368258.199 7  -1125735.076 7  24942440.041 7  24942440.701 7       424.037 7
       330.430 7        33.220          36.840    24942441.807 7         0.000  
 15  8 27  5 13 22.5000000  0  1G11
  -1368893.635 7  -1126230.200 7  24942319.549 7  24942320.138 7       423.180 7
       329.739 7        33.080          36.540    24942321.770 7         0.000  
 15  8 27  5 13 24.0000000  0  1G11
  -1369527.717 7  -1126724.307 7  24942199.451 7  24942199.175 7       422.287 7
       329.048 7        33.260          36.170    24942202.548 7         0.000  
 15  8 27  5 13 25.5000000  0  1G11
  -1370160.513 7  -1127217.394 7  24942078.835 7  24942078.783 7       421.406 7
       328.386 7        32.960          36.420    24942080.413 7         0.000  
 15  8 27  5 13 27.0000000  0  1G11
  -1370791.981 7  -1127709.449 7  24941958.477 7  24941958.380 7       420.545 7
       327.703 7        32.580          36.130    24941960.171 7         0.000  
 15  8 27  5 13 28.5000000  0  1G11
  -1371422.135 7  -1128200.480 7  24941838.320 7  24941838.392 7       419.657 7
       327.006 7        32.270          36.000    24941840.971 7         0.000  
 15  8 27  5 13 30.0000000  0  1G11
  -1372050.960 7  -1128690.471 7  24941718.700 7  24941718.863 7       418.785 7
       326.320 7        32.110          36.100    24941718.576 7         0.000  
 15  8 27  5 13 31.5000000  0  1G11
  -1372678.481 7  -1129179.451 7  24941598.907 7  24941599.131 7       417.908 7
       325.647 7        32.090          36.110    24941599.306 7         0.000  
 15  8 27  5 13 33.0000000  0  1G11
  -1373304.686 7  -1129667.404 7  24941479.189 7  24941480.166 7       417.030 7
       324.967 7        32.230          35.690    24941478.832 7         0.000  
 15  8 27  5 13 34.5000000  0  1G11
  -1373929.591 6  -1130154.323 7  24941360.693 6  24941361.570 7       416.147 6
       324.270 7        31.440          35.630    24941359.626 7         0.000  
 15  8 27  5 13 36.0000000  0  1G11
  -1374553.166 7  -1130640.224 7  24941241.968 7  24941242.914 7       415.280 7
       323.594 7        31.900          35.620    24941241.345 7         0.000  
 15  8 27  5 13 37.5000000  0  1G11
  -1375175.426 6  -1131125.099 7  24941123.619 6  24941124.404 7       414.398 6
       322.907 7        31.380          35.510    24941123.049 7         0.000  
 15  8 27  5 13 39.0000000  0  1G11
  -1375796.354 6  -1131608.945 7  24941005.417 6  24941006.024 7       413.530 6
       322.214 7        31.560          35.150    24941007.833 7         0.000  
 15  8 27  5 13 40.5000000  0  1G11
  -1376415.960 6  -1132091.763 7  24940887.358 6  24940888.592 7       412.637 6
       321.538 7        31.110          35.310    24940887.665 7         0.000  
 15  8 27  5 13 42.0000000  0  1G11
  -1377034.260 6  -1132573.554 7  24940769.294 6  24940771.026 7       411.772 6
       320.856 7        30.940          35.530    24940771.774 7         0.000  
 15  8 27  5 13 43.5000000  0  1G11
  -1377651.257 6  -1133054.328 7  24940652.541 6  24940653.831 7       410.872 6
       320.177 7        30.750          35.540    24940653.712 7         0.000  
 15  8 27  5 13 45.0000000  0  1G11
  -1378266.918 6  -1133534.060 7  24940534.780 6  24940536.808 7       409.983 6
       319.490 7        30.320          35.470    24940534.155 7         0.000  
 15  8 27  5 13 46.5000000  0  1G11
  -1378881.257 6  -1134012.776 7  24940417.679 6  24940420.285 7       409.110 6
       318.794 7        30.900          35.640    24940418.539 7         0.000  
 15  8 27  5 13 48.0000000  0  1G11
  -1379494.275 6  -1134490.458 7  24940301.721 6  24940303.346 7       408.255 6
       318.119 7        30.700          35.280    24940300.865 7         0.000  
 15  8 27  5 13 49.5000000  0  1G11
  -1380106.003 6  -1134967.128 7  24940185.092 6  24940186.726 7       407.381 6
       317.430 7        30.440          35.940    24940181.720 7         0.000  
 15  8 27  5 13 51.0000000  0  1G11
  -1380716.394 6  -1135442.764 7  24940068.684 6  24940071.109 7       406.477 6
       316.745 7        30.170          35.600    24940066.372 7         0.000  
 15  8 27  5 13 52.5000000  0  1G11
  -1381325.476 6  -1135917.373 7  24939953.109 6  24939954.843 7       405.619 6
       316.065 7        30.450          35.500    24939950.812 7         0.000  
 15  8 27  5 13 54.0000000  0  1G11
  -1381933.244 6  -1136390.952 7  24939838.037 6  24939839.198 7       404.723 6
       315.380 7        29.880          35.560    24939837.136 7         0.000  
 15  8 27  5 13 55.5000000  0  1G11
  -1382539.695 6  -1136863.532 7  24939722.426 6  24939723.731 7       403.859 6
       314.694 7        30.300          35.320    24939722.583 7         0.000  
 15  8 27  5 13 57.0000000  0  1G11
  -1383144.823 6  -1137335.068 7  24939607.592 6  24939608.748 7       402.990 6
       314.015 7        29.900          35.310    24939607.326 7         0.000  
 15  8 27  5 13 58.5000000  0  1G11
  -1383748.662 6  -1137805.578 7  24939492.304 6  24939493.680 7       402.114 6
       313.334 7        29.850          35.390    24939493.726 7         0.000  
 15  8 27  5 14  0.0000000  0  1G11
  -1384351.163 6  -1138275.063 7  24939377.745 6  24939379.031 7       401.232 6
       312.646 7        29.690          35.450    24939376.762 7         0.000  
 15  8 27  5 14  1.5000000  0  1G11
  -1384952.191 6  -1138743.529 7  24939263.486 6  24939264.873 7       399.875 6
       311.970 7        28.540          35.150    24939261.937 7         0.000  
 15  8 27  5 14  3.0000000  0  1G11
  -1385551.728 6  -1139210.961 7  24939148.544 6  24939150.071 7       399.472 6
       311.273 7        28.470          35.450    24939148.145 7         0.000  
 15  8 27  5 14  4.5000000  0  1G11
  -1386150.267 6  -1139677.349 7  24939035.176 6  24939036.695 7       398.598 6
       310.595 7        29.100          35.370    24939034.009 7         0.000  
 15  8 27  5 14  6.0000000  0  1G11
  -1386747.515 6  -1140142.725 7  24938919.915 6  24938922.679 7       397.731 6
       309.909 7        27.960          35.360    24938921.558 7         0.000  
 15  8 27  5 14  7.5000000  0  1G11
  -1387343.424 6  -1140607.072 7  24938807.759 6  24938809.345 7       396.846 6
       309.235 7        28.770          35.430    24938809.028 7         0.000  
 15  8 27  5 14  9.0000000  0  1G11
  -1387937.53116  -1141070.388 7  24938693.86316  24938695.964 7       395.97016
       308.527 7        29.130          35.450    24938696.521 7         0.000  
 15  8 27  5 14 10.5000000  0  1G11
  -1388530.811 6  -1141532.686 7  24938581.364 6  24938583.588 7       395.098 6
       307.857 7        28.800          34.970    24938584.906 7         0.000  
 15  8 27  5 14 12.0000000  0  1G11
  -1389122.766 6  -1141993.957 7  24938468.984 6  24938470.659 7       394.207 6
       307.167 7        28.850          35.100    24938469.532 7         0.000  
 15  8 27  5 14 13.5000000  0  1G11
  -1389713.459 6  -1142454.204 7  24938356.500 6  24938358.404 7       393.325 6
       306.492 7        28.710          34.860    24938357.384 7         0.000  
 15  8 27  5 14 15.0000000  0  1G11
  -1390302.797 6  -1142913.423 7  24938243.728 6  24938246.057 7       392.455 6
       305.806 7        29.470          34.610    24938246.665 7         0.000  
 15  8 27  5 14 16.5000000  0  1G11
  -1390890.811 6  -1143371.629 7  24938132.230 6  24938134.270 7       391.582 6
       305.131 7        29.630          34.620    24938130.579 7         0.000  
 15  8 27  5 14 18.0000000  0  1G11
  -1391477.008 6  -1143828.797 7  24938020.064 6  24938022.527 7       390.384 6
       304.445 7        29.690          34.810    24938017.183 7         0.000  
 15  8 27  5 14 19.5000000  0  1G11
  -1392062.416 6  -1144284.934 7  24937908.134 6  24937910.512 7       389.823 6
       303.749 7        29.800          34.510    24937905.568 7         0.000  
 15  8 27  5 14 21.0000000  0  1G11
  -1392646.97816  -1144740.049 7  24937797.26316  24937799.864 7       388.93016
       303.064 7        30.440          34.650    24937795.914 7         0.000  
 15  8 27  5 14 22.5000000  0  1G11
  -1393229.711 6  -1145194.121 7  24937686.777 6  24937688.756 7       388.043 6
       302.365 7        30.730          34.440    24937685.221 7         0.000  
 15  8 27  5 14 24.0000000  0  1G11
  -1393811.160 6  -1145647.178 7  24937576.949 6  24937578.452 7       387.184 6
       301.700 7        30.970          34.280    24937574.538 7         0.000  
 15  8 27  5 14 25.5000000  0  1G11
  -1394391.254 6  -1146099.214 7  24937465.425 6  24937467.776 7       386.309 6
       301.025 7        30.800          34.490    24937465.943 7         0.000  
 15  8 27  5 14 27.0000000  0  1G11
  -1394970.063 6  -1146550.234 7  24937355.310 6  24937357.100 7       385.417 6
       300.331 7        31.170          34.350    24937354.072 7         0.000  
 15  8 27  5 14 28.5000000  0  1G11
  -1395547.562 6  -1147000.221 7  24937246.089 6  24937247.666 7       384.562 6
       299.650 7        31.160          34.590    24937242.974 7         0.000  
 15  8 27  5 14 30.0000000  0  1G11
  -1396123.733 6  -1147449.183 7  24937137.053 6  24937137.777 7       383.680 6
       298.961 7        31.480          33.870    24937134.841 7         0.000  
 15  8 27  5 14 31.5000000  0  1G11
  -1396698.612 7  -1147897.125 7  24937026.573 7  24937027.983 7       382.795 7
       298.290 7        31.620          34.060    24937027.894 7         0.000  
 15  8 27  5 14 33.0000000  0  1G11
  -1397272.151 7  -1148344.037 7  24936917.848 7  24936919.241 7       381.929 7
       297.607 7        31.780          34.010    24936917.605 7         0.000  
 15  8 27  5 14 34.5000000  0  1G11
  -1397844.386 7  -1148789.931 7  24936809.550 7  24936810.633 7       381.046 7
       296.913 7        31.810          33.420    24936808.178 7         0.000  
 15  8 27  5 14 36.0000000  0  1G11
  -1398415.304 7  -1149234.799 7  24936701.174 7  24936701.211 7       380.170 7
       296.236 7        32.030          33.500    24936699.878 7         0.000  
 15  8 27  5 14 37.5000000  0  1G11
  -1398984.910 7  -1149678.651 7  24936592.784 7  24936592.822 7       379.303 7
       295.562 7        32.050          33.280    24936593.929 7         0.000  
 15  8 27  5 14 39.0000000  0  1G11
  -1399553.201 7  -1150121.479 7  24936484.895 7  24936484.770 7       378.422 7
       294.865 7        32.090          33.100    24936484.804 7         0.000  
 15  8 27  5 14 40.5000000  0  1G11
  -1400120.162 7  -1150563.269 7  24936376.763 7  24936376.414 7       377.550 7
       294.189 7        32.170          32.860    24936375.718 7         0.000  
 15  8 27  5 14 42.0000000  0  1G11
  -1400685.810 7  -1151004.033 7  24936269.286 7  24936269.190 7       376.654 7
       293.508 7        32.690          32.850    24936269.448 7         0.000  
 15  8 27  5 14 43.5000000  0  1G11
  -1401250.175 7  -1151443.776 7  24936162.062 7  24936161.879 7       375.795 7
       292.834 7        32.750          32.680    24936161.369 7         0.000  
 15  8 27  5 14 45.0000000  0  1G11
  -1401813.183 7  -1151882.488 7  24936054.525 7  24936054.543 7       374.895 7
       292.133 7        32.430          32.540    24936055.566 7         0.000  
 15  8 27  5 14 46.5000000  0  1G11
  -1402374.889 7  -1152320.194 7  24935948.282 7  24935948.411 7       374.037 7
       291.477 7        32.040          32.850    24935948.697 7         0.000  
 15  8 27  5 14 48.0000000  0  1G11
  -1402935.449 7  -1152756.869 7  24935841.169 7  24935841.333 7       373.647 7
       290.756 7        31.680          31.780    24935841.229 7         0.000  
 15  8 27  5 14 49.5000000  0  1G11
  -1403494.847 7  -1153192.507 7  24935734.096 7  24935734.977 7       372.276 7
       290.083 7        31.980          31.940    24935736.215 7         0.000  
 15  8 27  5 14 51.0000000  0  1G11
  -1404052.09917  -1153627.120 7  24935628.52617  24935628.985 7       371.41717
       289.415 7        32.030          32.250    24935631.571 7         0.000  
 15  8 27  5 14 52.5000000  0  1G11
  -1404608.540 7  -1154060.721 7  24935522.693 7  24935523.979 7       370.531 7
       288.712 7        31.810          31.990    24935524.445 7         0.000  
 15  8 27  5 14 54.0000000  0  1G11
  -1405163.667 7  -1154493.294 7  24935416.729 7  24935417.792 7       369.659 7
       288.033 7        31.980          32.360    24935417.120 7         0.000  
 15  8 27  5 14 55.5000000  0  1G11
  -1405717.490 7  -1154924.846 7  24935311.442 7  24935312.793 7       368.773 7
       287.356 7        31.740          32.120    24935309.881 7         0.000  
 15  8 27  5 14 57.0000000  0  1G11
  -1406269.977 6  -1155355.355 7  24935205.614 6  24935207.944 7       367.910 6
       286.690 7        31.570          32.190    24935202.674 7         0.000  
 15  8 27  5 14 58.5000000  0  1G11
  -1406821.173 6  -1155784.864 7  24935101.172 6  24935102.333 7       367.015 6
       285.991 7        31.420          32.310    24935097.033 7         0.000  
 15  8 27  5 15  0.0000000  0  1G11
  -1407371.052 6  -1156213.323 7  24934996.191 6  24934998.150 7       366.135 6
       285.314 7        31.460          32.440    24934993.021 7         0.000  
 15  8 27  5 15  1.5000000  0  1G11
  -1407919.613 7  -1156640.783 7  24934892.060 7  24934893.542 7       365.257 7
       284.616 7        31.960          32.560    24934890.484 7         0.000  
 15  8 27  5 15  3.0000000  0  1G11
  -1408466.849 7  -1157067.195 7  24934788.619 7  24934789.773 7       364.396 7
       283.933 7        31.740          32.410    24934788.823 7         0.000  
 15  8 27  5 15  4.5000000  0  1G11
  -1409012.760 7  -1157492.572 7  24934684.307 7  24934685.571 7       363.496 7
       283.243 7        31.750          32.300    24934684.118 7         0.000  
 15  8 27  5 15  6.0000000  0  1G11
  -1409557.365 7  -1157916.924 7  24934580.770 7  24934580.399 7       362.633 7
       282.566 7        31.910          32.540    24934580.697 7         0.000  
 15  8 27  5 15  7.5000000  0  1G11
  -1410100.658 7  -1158340.254 7  24934477.478 7  24934478.051 7       361.740 7
       281.876 7        31.700          32.520    24934478.948 7         0.000  
 15  8 27  5 15  9.0000000  0  1G11
  -1410642.632 7  -1158762.563 7  24934374.241 7  24934374.065 7       360.868 7
       281.204 7        31.780          32.400    24934374.895 7         0.000  
 15  8 27  5 15 10.5000000  0  1G11
  -1411183.295 7  -1159183.853 7  24934271.499 7  24934271.858 7       359.993 7
       280.530 7        32.280          32.280    24934270.854 7         0.000  
 15  8 27  5 15 12.0000000  0  1G11
  -1411722.634 7  -1159604.109 7  24934168.786 7  24934168.228 7       359.123 7
       279.831 7        32.880          32.250    24934165.879 7         0.000  
 15  8 27  5 15 13.5000000  0  1G11
  -1412260.674 7  -1160023.344 7  24934067.049 7  24934066.141 7       358.256 7
       279.144 7        32.730          32.570    24934064.918 7         0.000  
 15  8 27  5 15 15.0000000  0  1G11
  -1412797.369 7  -1160441.551 7  24933964.625 7  24933964.239 7       357.360 7
       278.464 7        32.890          32.300    24933963.440 7         0.000  
 15  8 27  5 15 16.5000000  0  1G11
  -1413332.773 7  -1160858.735 7  24933863.036 7  24933862.187 7       356.492 7
       277.775 7        33.430          32.840    24933863.464 7         0.000  
 15  8 27  5 15 18.0000000  0  1G11
  -1413866.842 7  -1161274.892 7  24933761.283 7  24933760.888 7       355.604 7
       277.095 7        33.080          32.710    24933762.620 7         0.000  
 15  8 27  5 15 19.5000000  0  1G11
  -1414399.614 7  -1161690.027 7  24933660.248 7  24933660.098 7       354.738 7
       276.409 7        33.400          32.540    24933662.219 7         0.000  
 15  8 27  5 15 21.0000000  0  1G11
  -1414931.047 7  -1162104.138 7  24933559.375 7  24933559.319 7       353.842 7
       275.746 7        33.540          32.820    24933559.673 7         0.000  
 15  8 27  5 15 22.5000000  0  1G11
  -1415461.178 7  -1162517.224 7  24933457.298 7  24933458.188 7       352.980 7
       275.054 7        33.120          33.060    24933458.236 7         0.000  
 15  8 27  5 15 24.0000000  0  1G11
  -1415989.983 7  -1162929.279 7  24933357.345 7  24933358.176 7       352.100 7
       274.365 7        33.590          33.330    24933357.100 7         0.000  
 15  8 27  5 15 25.5000000  0  1G11
  -1416517.488 7  -1163340.322 7  24933256.721 7  24933258.353 7       351.228 7
       273.691 7        34.450          33.240    24933257.272 7         0.000  
 15  8 27  5 15 27.0000000  0  1G11
  -1417043.671 7  -1163750.337 7  24933156.707 7  24933158.097 7       350.363 7
       273.005 7        33.980          33.270    24933155.821 7         0.000  
 15  8 27  5 15 28.5000000  0  1G11
  -1417568.538 7  -1164159.321 7  24933056.847 7  24933057.528 7       349.461 7
       272.305 7        34.250          33.530    24933057.321 7         0.000  
 15  8 27  5 15 30.0000000  0  1G11
  -1418092.090 7  -1164567.292 7  24932956.556 7  24932958.789 7       348.595 7
       271.618 7        34.240          33.680    24932956.448 7         0.000  
 15  8 27  5 15 31.5000000  0  1G11
  -1418614.331 7  -1164974.237 7  24932857.727 7  24932859.356 7       347.735 7
       270.958 7        34.280          33.690    24932857.153 7         0.000  
 15  8 27  5 15 33.0000000  0  1G11
  -1419135.251 7  -1165380.155 7  24932758.704 7  24932759.956 7       346.848 7
       270.264 7        34.090          33.490    24932758.034 7         0.000  
 15  8 27  5 15 34.5000000  0  1G11
  -1419654.851 7  -1165785.035 7  24932659.647 7  24932661.268 7       345.968 7
       269.568 7        34.280          33.740    24932658.625 7         0.000  
 15  8 27  5 15 36.0000000  0  1G11
  -1420173.140 7  -1166188.888 7  24932560.785 7  24932562.594 7       345.092 7
       268.904 7        33.870          33.720    24932560.429 7         0.000  
 15  8 27  5 15 37.5000000  0  1G11
  -1420690.115 7  -1166591.736 7  24932461.806 7  24932464.003 7       344.189 7
       268.207 7        33.720          33.980    24932461.344 7         0.000  
 15  8 27  5 15 39.0000000  0  1G11
  -1421205.767 7  -1166993.543 7  24932364.460 7  24932365.703 7       343.348 7
       267.527 7        33.710          33.660    24932363.679 7         0.000  
 15  8 27  5 15 40.5000000  0  1G11
  -1421720.123 7  -1167394.327 7  24932266.277 7  24932267.868 7       342.458 7
       266.855 7        33.660          33.650    24932265.588 7         0.000  
 15  8 27  5 15 42.0000000  0  1G11
  -1422233.141 7  -1167794.097 7  24932168.726 7  24932169.725 7       341.568 7
       266.169 7        33.930          33.650    24932169.235 7         0.000  
 15  8 27  5 15 43.5000000  0  1G11
  -1422744.864 7  -1168192.824 7  24932071.685 7  24932072.601 7       340.704 7
       265.489 7        33.400          33.800    24932071.245 7         0.000  
 15  8 27  5 15 45.0000000  0  1G11
  -1423255.250 7  -1168590.540 7  24931974.328 7  24931974.962 7       339.825 7
       264.792 7        33.280          34.100    24931973.199 7         0.000  
 15  8 27  5 15 46.5000000  0  1G11
  -1423764.340 7  -1168987.231 7  24931877.698 7  24931878.464 7       338.943 7
       264.118 7        33.620          33.710    24931877.221 7         0.000  
 15  8 27  5 15 48.0000000  0  1G11
  -1424272.108 7  -1169382.911 7  24931781.272 7  24931781.810 7       338.077 7
       263.435 7        33.320          33.910    24931781.034 7         0.000  
 15  8 27  5 15 49.5000000  0  1G11
  -1424778.580 7  -1169777.544 7  24931684.735 7  24931685.494 7       337.192 7
       262.735 7        33.470          34.020    24931684.953 7         0.000  
 15  8 27  5 15 51.0000000  0  1G11
  -1425283.691 7  -1170171.162 7  24931588.901 7  24931588.854 7       336.320 7
       262.070 7        33.540          33.910    24931589.826 7         0.000  
 15  8 27  5 15 52.5000000  0  1G11
  -1425787.517 7  -1170563.749 7  24931492.885 7  24931493.631 7       335.435 7
       261.388 7        33.670          34.060    24931493.762 7         0.000  
 15  8 27  5 15 54.0000000  0  1G11
  -1426290.022 7  -1170955.316 7  24931397.156 7  24931397.500 7       334.552 7
       260.689 7        33.680          34.110    24931398.415 7         0.000  
 15  8 27  5 15 55.5000000  0  1G11
  -1426791.230 7  -1171345.863 7  24931302.129 7  24931302.313 7       333.678 7
       260.016 7        33.920          34.180    24931302.490 7         0.000  
 15  8 27  5 15 57.0000000  0  1G11
  -1427291.120 7  -1171735.383 7  24931206.869 7  24931206.869 7       332.808 7
       259.334 7        34.030          34.160    24931207.799 7         0.000  
 15  8 27  5 15 58.5000000  0  1G11
  -1427789.696 7  -1172123.887 7  24931111.748 7  24931112.344 7       331.934 7
       258.652 7        33.730          34.290    24931113.971 7         0.000  
 15  8 27  5 16  0.0000000  0  1G11
  -1428286.951 7  -1172511.363 7  24931017.008 7  24931017.466 7       331.077 7
       257.973 7        34.240          34.490    24931018.895 7         0.000  
 15  8 27  5 16  1.5000000  0  1G11
  -1428782.931 7  -1172897.822 7  24930923.077 7  24930923.064 7       330.201 7
       257.314 7        34.130          34.750    24930923.802 7         0.000  
 15  8 27  5 16  3.0000000  0  1G11
  -1429277.554 7  -1173283.261 7  24930828.929 7  24930829.466 7       329.323 7
       256.617 7        34.380          34.740    24930828.534 7         0.000  
 15  8 27  5 16  4.5000000  0  1G11
  -1429770.874 7  -1173667.668 7  24930735.169 7  24930735.606 7       328.429 7
       255.929 7        34.660          35.010    24930734.094 7         0.000  
 15  8 27  5 16  6.0000000  0  1G11
  -1430262.891 7  -1174051.051 7  24930641.338 7  24930641.807 7       327.563 7
       255.251 7        34.650          35.200    24930641.001 7         0.000  
 15  8 27  5 16  7.5000000  0  1G11
  -1430753.592 7  -1174433.413 7  24930548.024 7  24930548.488 7       326.701 7
       254.568 7        34.770          35.360    24930547.679 7         0.000  
 15  8 27  5 16  9.0000000  0  1G11
  -1431242.972 7  -1174814.741 7  24930454.729 7  24930455.641 7       325.817 7
       253.887 7        35.080          35.500    24930454.676 7         0.000  
 15  8 27  5 16 10.5000000  0  1G11
  -1431731.034 7  -1175195.052 7  24930362.375 7  24930362.376 7       324.938 7
       253.207 7        35.240          35.520    24930361.485 7         0.000  
 15  8 27  5 16 12.0000000  0  1G11
  -1432217.799 7  -1175574.345 7  24930269.727 7  24930269.920 7       324.061 7
       252.524 7        35.460          35.280    24930269.302 7         0.000  
 15  8 27  5 16 13.5000000  0  1G11
  -1432703.246 7  -1175952.619 7  24930176.955 7  24930177.404 7       323.190 7
       251.838 7        35.490          35.600    24930176.257 7         0.000  
 15  8 27  5 16 15.0000000  0  1G11
  -1433187.376 7  -1176329.866 7  24930084.974 7  24930085.397 7       322.321 7
       251.155 7        35.500          35.720    24930083.139 7         0.000  
 15  8 27  5 16 16.5000000  0  1G11
  -1433670.191 7  -1176706.093 7  24929992.528 7  24929993.933 7       321.440 7
       250.483 7        35.630          35.790    24929992.718 7         0.000  
 15  8 27  5 16 18.0000000  0  1G11
  -1434151.700 7  -1177081.290 7  24929901.086 7  24929902.292 7       320.555 7
       249.779 7        35.460          35.670    24929900.664 7         0.000  
 15  8 27  5 16 19.5000000  0  1G11
  -1434631.869 7  -1177455.442 7  24929809.559 7  24929811.266 7       319.666 7
       249.092 7        35.720          35.760    24929808.955 7         0.000  
 15  8 27  5 16 21.0000000  0  1G11
  -1435110.709 7  -1177828.564 7  24929717.972 7  24929719.946 7       318.789 7
       248.408 7        35.700          35.630    24929719.055 7         0.000  
 15  8 27  5 16 22.5000000  0  1G11
  -1435588.238 7  -1178200.674 7  24929627.524 7  24929628.912 7       317.924 7
       247.726 7        35.330          36.040    24929629.308 7         0.000  
 15  8 27  5 16 24.0000000  0  1G11
  -1436064.448 7  -1178571.754 7  24929536.706 7  24929538.124 7       317.031 7
       247.038 7        35.860          35.960    24929538.551 7         0.000  
 15  8 27  5 16 25.5000000  0  1G11
  -1436539.363 7  -1178941.813 7  24929446.428 7  24929447.963 7       316.174 7
       246.362 7        35.960          35.920    24929447.281 7         0.000  
 15  8 27  5 16 27.0000000  0  1G11
  -1437012.957 7  -1179310.835 7  24929355.838 7  24929358.108 7       315.302 7
       245.683 7        35.750          35.970    24929356.825 7         0.000  
 15  8 27  5 16 28.5000000  0  1G11
  -1437485.235 7  -1179678.847 7  24929266.456 7  24929268.120 7       314.434 7
       244.999 7        35.830          36.000    24929265.715 7         0.000  
 15  8 27  5 16 30.0000000  0  1G11
  -1437956.193 7  -1180045.840 7  24929176.384 7  24929178.372 7       313.545 7
       244.320 7        35.860          35.600    24929177.097 7         0.000  
 15  8 27  5 16 31.5000000  0  1G11
  -1438425.865 7  -1180411.816 7  24929087.238 7  24929088.943 7       312.668 7
       243.639 7        36.090          35.700    24929088.282 7         0.000  
 15  8 27  5 16 33.0000000  0  1G11
  -1438894.217 7  -1180776.763 7  24928998.205 7  24928999.787 7       311.795 7
       242.957 7        35.680          35.550    24928998.908 7         0.000  
 15  8 27  5 16 34.5000000  0  1G11
  -1439361.244 7  -1181140.674 7  24928909.380 7  24928911.085 7       310.922 7
       242.277 7        35.670          35.310    24928909.242 7         0.000  
 15  8 27  5 16 36.0000000  0  1G11
  -1439826.953 7  -1181503.576 7  24928820.697 7  24928822.065 7       310.021 7
       241.588 7        35.990          35.500    24928821.309 7         0.000  
 15  8 27  5 16 37.5000000  0  1G11
  -1440291.359 7  -1181865.449 7  24928732.200 7  24928733.742 7       309.165 7
       240.899 7        36.070          35.470    24928733.623 7         0.000  
 15  8 27  5 16 39.0000000  0  1G11
  -1440754.464 7  -1182226.294 7  24928644.593 7  24928645.744 7       308.287 7
       240.220 7        36.130          35.460    24928645.806 7         0.000  
 15  8 27  5 16 40.5000000  0  1G11
  -1441216.239 7  -1182586.132 7  24928556.732 7  24928557.355 7       307.419 7
       239.550 7        36.050          35.440    24928556.616 7         0.000  
 15  8 27  5 16 42.0000000  0  1G11
  -1441676.696 7  -1182944.923 7  24928469.238 7  24928469.790 7       306.532 7
       238.855 7        36.180          35.150    24928469.803 7         0.000  
 15  8 27  5 16 43.5000000  0  1G11
  -1442135.861 7  -1183302.711 7  24928381.841 7  24928382.221 7       305.662 7
       238.184 7        36.180          35.000    24928383.486 7         0.000  
 15  8 27  5 16 45.0000000  0  1G11
  -1442593.711 7  -1183659.485 7  24928294.623 7  24928294.898 7       304.805 7
       237.500 7        36.090          35.170    24928296.469 7         0.000  
 15  8 27  5 16 46.5000000  0  1G11
  -1443050.254 7  -1184015.224 7  24928207.887 7  24928207.688 7       303.931 7
       236.822 7        36.100          35.050    24928209.321 7         0.000  
 15  8 27  5 16 48.0000000  0  1G11
  -1443505.468 7  -1184369.945 7  24928121.169 7  24928120.957 7       303.036 7
       236.128 7        35.900          34.830    24928121.862 7         0.000  
 15  8 27  5 16 49.5000000  0  1G11
  -1443959.382 7  -1184723.651 7  24928034.385 7  24928035.065 7       302.168 7
       235.459 7        35.980          34.480    24928034.154 7         0.000  
 15  8 27  5 16 51.0000000  0  1G11
  -1444411.977 7  -1185076.327 7  24927948.608 7  24927948.511 7       301.285 7
       234.765 7        35.860          34.530    24927948.687 7         0.000  
 15  8 27  5 16 52.5000000  0  1G11
  -1444863.265 7  -1185427.986 7  24927863.252 7  24927862.915 7       300.400 7
       234.095 7        35.690          34.620    24927861.804 7         0.000  
 15  8 27  5 16 54.0000000  0  1G11
  -1445313.229 7  -1185778.602 7  24927777.346 7  24927777.387 7       299.549 7
       233.409 7        35.700          34.280    24927776.458 7         0.000  
 15  8 27  5 16 55.5000000  0  1G11
  -1445761.895 7  -1186128.216 7  24927691.887 7  24927692.239 7       298.672 7
       232.732 7        35.330          34.150    24927690.907 7         0.000  
 15  8 27  5 16 57.0000000  0  1G11
  -1446209.230 7  -1186476.799 7  24927606.841 7  24927606.788 7       297.783 7
       232.049 7        35.140          34.530    24927606.992 7         0.000  
 15  8 27  5 16 58.5000000  0  1G11
  -1446655.262 7  -1186824.358 7  24927521.846 7  24927522.507 7       296.913 7
       231.361 7        34.880          34.470    24927520.794 7         0.000  
 15  8 27  5 17  0.0000000  0  1G11
  -1447099.974 7  -1187170.884 7  24927437.052 7  24927438.028 7       296.039 7
       230.680 7        35.160          34.420    24927436.182 7         0.000  
 15  8 27  5 17  1.5000000  0  1G11
  -1447543.384 7  -1187516.394 7  24927352.884 7  24927353.280 7       295.175 7
       230.022 7        34.850          34.590    24927351.904 7         0.000  
 15  8 27  5 17  3.0000000  0  1G11
  -1447985.481 7  -1187860.892 7  24927268.918 7  24927269.137 7       294.287 7
       229.330 7        34.500          34.760    24927268.874 7         0.000  
 15  8 27  5 17  4.5000000  0  1G11
  -1448426.253 7  -1188204.363 7  24927184.470 7  24927185.463 7       293.413 7
       228.634 7        34.300          35.080    24927184.897 7         0.000  
 15  8 27  5 17  6.0000000  0  1G11
  -1448865.706 7  -1188546.794 7  24927101.420 7  24927102.071 7       292.523 7
       227.947 7        34.450          35.020    24927100.741 7         0.000  
 15  8 27  5 17  7.5000000  0  1G11
  -1449303.853 7  -1188888.215 7  24927017.905 7  24927018.798 7       291.658 7
       227.275 7        34.230          35.180    24927016.992 7         0.000  
 15  8 27  5 17  9.0000000  0  1G11
  -1449740.693 7  -1189228.603 7  24926934.792 7  24926935.568 7       290.774 7
       226.583 7        33.930          35.410    24926933.049 7         0.000  
 15  8 27  5 17 10.5000000  0  1G11
  -1450176.218 7  -1189567.967 7  24926851.164 7  24926852.735 7       289.912 7
       225.913 7        34.040          35.530    24926852.562 7         0.000  
 15  8 27  5 17 12.0000000  0  1G11
  -1450610.424 7  -1189906.320 7  24926768.912 7  24926769.951 7       289.022 7
       225.222 7        33.970          35.700    24926769.279 7         0.000  
 15  8 27  5 17 13.5000000  0  1G11
  -1451043.346 7  -1190243.656 7  24926686.937 7  24926687.849 7       288.167 7
       224.545 7        33.740          35.570    24926685.797 7         0.000  
 15  8 27  5 17 15.0000000  0  1G11
  -1451474.929 7  -1190579.954 7  24926604.265 7  24926605.487 7       287.282 7
       223.853 7        33.940          35.830    24926604.932 7         0.000  
 15  8 27  5 17 16.5000000  0  1G11
  -1451905.206 7  -1190915.233 7  24926521.849 7  24926523.880 7       286.417 7
       223.177 7        33.700          35.990    24926523.178 7         0.000  
 15  8 27  5 17 18.0000000  0  1G11
  -1452334.162 7  -1191249.482 7  24926440.258 7  24926442.414 7       285.506 7
       222.478 7        34.050          36.040    24926440.862 7         0.000  
 15  8 27  5 17 19.5000000  0  1G11
  -1452761.802 7  -1191582.716 7  24926359.085 7  24926361.116 7       284.662 7
       221.817 7        33.910          36.170    24926359.824 7         0.000  
 15  8 27  5 17 21.0000000  0  1G11
  -1453188.134 7  -1191914.914 7  24926277.859 7  24926279.873 7       283.787 7
       221.126 7        33.760          36.360    24926277.480 7         0.000  
 15  8 27  5 17 22.5000000  0  1G11
  -1453613.148 7  -1192246.094 7  24926197.348 7  24926198.773 7       282.918 7
       220.449 7        33.760          36.060    24926196.432 7         0.000  
 15  8 27  5 17 24.0000000  0  1G11
  -1454036.853 7  -1192576.242 7  24926117.456 7  24926118.380 7       282.034 7
       219.773 7        33.930          36.330    24926114.680 7         0.000  
 15  8 27  5 17 25.5000000  0  1G11
  -1454459.254 7  -1192905.394 7  24926036.790 7  24926037.673 7       281.162 7
       219.081 7        33.970          36.340    24926035.057 7         0.000  
 15  8 27  5 17 27.0000000  0  1G11
  -1454880.338 7  -1193233.502 7  24925956.399 7  24925957.294 7       280.280 7
       218.396 7        34.140          36.370    24925952.567 7         0.000  
 15  8 27  5 17 28.5000000  0  1G11
  -1455300.099 7  -1193560.592 7  24925876.920 7  24925877.307 7       279.410 7
       217.714 7        33.930          36.420    24925871.839 7         0.000  
 15  8 27  5 17 30.0000000  0  1G11
  -1455718.563 7  -1193886.663 7  24925797.632 7  24925797.562 7       278.530 7
       217.048 7        33.730          36.270    24925793.719 7         0.000  
 15  8 27  5 17 31.5000000  0  1G11
  -1456135.730 7  -1194211.731 7  24925717.246 7  24925718.246 7       277.665 7
       216.353 7        33.610          36.110    24925716.022 7         0.000  
 15  8 27  5 17 33.0000000  0  1G11
  -1456551.570 7  -1194535.752 7  24925637.578 7  24925638.630 7       276.798 7
       215.682 7        33.500          36.200    24925637.990 7         0.000  
 15  8 27  5 17 34.5000000  0  1G11
  -1456966.093 7  -1194858.764 7  24925558.275 7  24925559.563 7       275.914 7
       215.009 7        33.410          36.230    24925559.186 7         0.000  
 15  8 27  5 17 36.0000000  0  1G11
  -1457379.333 7  -1195180.757 7  24925479.306 7  24925480.984 7       275.041 7
       214.322 7        32.940          36.030    24925479.929 7         0.000  
 15  8 27  5 17 37.5000000  0  1G11
  -1457791.254 7  -1195501.728 7  24925400.634 7  24925402.417 7       274.182 7
       213.638 7        33.150          36.080    24925400.402 7         0.000  
 15  8 27  5 17 39.0000000  0  1G11
  -1458201.856 7  -1195821.676 7  24925321.747 7  24925324.245 7       273.295 7
       212.953 7        32.520          36.150    24925323.700 7         0.000  
 15  8 27  5 17 40.5000000  0  1G11
  -1458611.153 7  -1196140.604 7  24925244.689 7  24925245.898 7       272.410 7
       212.263 7        32.720          35.970    24925243.095 7         0.000  
 15  8 27  5 17 42.0000000  0  1G11
  -1459019.140 7  -1196458.519 7  24925167.419 7  24925168.833 7       271.556 7
       211.608 7        32.380          35.880    24925165.660 7         0.000  
 15  8 27  5 17 43.5000000  0  1G11
  -1459425.838 7  -1196775.425 7  24925089.988 7  24925091.329 7       270.685 7
       210.930 7        33.090          36.070    24925089.602 7         0.000  
 15  8 27  5 17 45.0000000  0  1G11
  -1459831.216 7  -1197091.292 7  24925013.093 7  24925014.667 7       269.805 7
       210.231 7        33.300          35.910    24925014.724 7         0.000  
 15  8 27  5 17 46.5000000  0  1G11
  -1460235.269 7  -1197406.143 7  24924936.685 7  24924937.625 7       268.931 7
       209.554 7        33.510          36.010    24924938.827 7         0.000  
 15  8 27  5 17 48.0000000  0  1G11
  -1460638.023 7  -1197719.965 7  24924860.649 7  24924861.645 7       268.051 7
       208.868 7        33.440          36.170    24924863.924 7         0.000  
 15  8 27  5 17 49.5000000  0  1G11
  -1461039.467 7  -1198032.772 7  24924784.524 7  24924785.121 7       267.184 7
       208.185 7        33.680          36.030    24924787.019 7         0.000  
 15  8 27  5 17 51.0000000  0  1G11
  -1461439.575 7  -1198344.549 7  24924709.276 7  24924709.137 7       266.309 7
       207.513 7        33.460          36.140    24924712.045 7         0.000  
 15  8 27  5 17 52.5000000  0  1G11
  -1461838.389 7  -1198655.303 7  24924632.981 7  24924633.691 7       265.421 7
       206.828 7        33.610          36.530    24924633.283 7         0.000  
 15  8 27  5 17 54.0000000  0  1G11
  -1462235.885 7  -1198965.049 7  24924557.667 7  24924557.974 7       264.562 7
       206.160 7        33.530          36.540    24924557.569 7         0.000  
 15  8 27  5 17 55.5000000  0  1G11
  -1462632.069 7  -1199273.765 7  24924482.002 7  24924482.721 7       263.703 7
       205.464 7        33.780          36.710    24924480.702 7         0.000  
 15  8 27  5 17 57.0000000  0  1G11
  -1463026.944 7  -1199581.455 7  24924406.394 7  24924407.413 7       262.822 7
       204.793 7        33.710          36.710    24924406.069 7         0.000  
 15  8 27  5 17 58.5000000  0  1G11
  -1463420.506 7  -1199888.125 7  24924331.532 7  24924332.560 7       261.943 7
       204.109 7        33.590          36.890    24924331.724 7         0.000  
 15  8 27  5 18  0.0000000  0  1G11
  -1463812.750 7  -1200193.760 7  24924256.276 7  24924258.154 7       261.051 7
       203.421 7        33.170          36.960    24924256.978 7         0.000  
 15  8 27  5 18  1.5000000  0  1G11
  -1464203.681 7  -1200498.391 7  24924180.935 7  24924183.772 7       260.201 7
       202.741 7        33.460          37.020    24924183.508 7         0.000  
 15  8 27  5 18  3.0000000  0  1G11
  -1464593.293 7  -1200801.987 7  24924106.746 7  24924109.542 7       259.304 7
       202.056 7        33.820          37.130    24924108.161 7         0.000  
 15  8 27  5 18  4.5000000  0  1G11
  -1464981.583 7  -1201104.537 7  24924032.534 7  24924035.626 7       258.417 7
       201.361 7        33.440          37.400    24924035.003 7         0.000  
 15  8 27  5 18  6.0000000  0  1G11
  -1465368.562 7  -1201406.084 7  24923959.652 7  24923961.749 7       257.549 7
       200.683 7        33.730          37.210    24923959.500 7         0.000  
 15  8 27  5 18  7.5000000  0  1G11
  -1465754.227 7  -1201706.608 7  24923885.825 7  24923888.165 7       256.668 7
       200.004 7        34.100          37.290    24923885.236 7         0.000  
 15  8 27  5 18  9.0000000  0  1G11
  -1466138.566 7  -1202006.100 7  24923813.302 7  24923814.662 7       255.805 7
       199.313 7        34.350          37.200    24923811.792 7         0.000  
 15  8 27  5 18 10.5000000  0  1G11
  -1466521.611 7  -1202304.569 7  24923740.816 7  24923741.813 7       254.921 7
       198.637 7        33.820          37.410    24923739.376 7         0.000  
 15  8 27  5 18 12.0000000  0  1G11
  -1466903.345 7  -1202602.023 7  24923668.746 7  24923668.713 7       254.051 7
       197.955 7        34.020          37.550    24923667.061 7         0.000  
 15  8 27  5 18 13.5000000  0  1G11
  -1467283.778 7  -1202898.474 7  24923596.300 7  24923596.608 7       253.179 7
       197.285 7        34.410          37.570    24923595.441 7         0.000  
 15  8 27  5 18 15.0000000  0  1G11
  -1467662.901 7  -1203193.890 7  24923524.197 7  24923524.131 7       252.308 7
       196.609 7        34.430          37.340    24923524.548 7         0.000  
 15  8 27  5 18 16.5000000  0  1G11
  -1468040.697 7  -1203488.272 7  24923452.720 7  24923452.395 7       251.425 7
       195.927 7        34.430          37.660    24923453.072 7         0.000  
 15  8 27  5 18 18.0000000  0  1G11
  -1468417.200 7  -1203781.641 7  24923380.858 7  24923380.486 7       250.561 7
       195.237 7        34.300          37.750    24923381.905 7         0.000  
 15  8 27  5 18 19.5000000  0  1G11
  -1468792.376 7  -1204073.997 7  24923309.905 7  24923309.256 7       249.685 7
       194.553 7        34.590          37.610    24923310.201 7         0.000  
 15  8 27  5 18 21.0000000  0  1G11
  -1469166.249 7  -1204365.325 7  24923238.654 7  24923238.062 7       248.808 7
       193.883 7        34.290          37.730    24923237.827 7         0.000  
 15  8 27  5 18 22.5000000  0  1G11
  -1469538.795 7  -1204655.625 7  24923167.552 7  24923167.422 7       247.927 7
       193.198 7        34.290          37.800    24923166.962 7         0.000  
 15  8 27  5 18 24.0000000  0  1G11
  -1469910.044 7  -1204944.913 7  24923096.549 7  24923096.662 7       247.058 7
       192.509 7        34.080          37.740    24923095.138 7         0.000  
 15  8 27  5 18 25.5000000  0  1G11
  -1470279.995 7  -1205233.175 7  24923025.546 7  24923026.505 7       246.175 7
       191.830 7        33.850          38.040    24923026.653 7         0.000  
 15  8 27  5 18 27.0000000  0  1G11
  -1470648.623 7  -1205520.419 7  24922955.363 7  24922956.189 7       245.312 7
       191.155 7        33.570          37.780    24922955.613 7         0.000  
 15  8 27  5 18 28.5000000  0  1G11
  -1471015.934 7  -1205806.637 7  24922885.209 7  24922886.273 7       244.443 7
       190.482 7        33.530          37.630    24922885.570 7         0.000  
 15  8 27  5 18 30.0000000  0  1G11
  -1471381.949 7  -1206091.843 7  24922815.290 7  24922816.370 7       243.570 7
       189.794 7        33.400          37.770    24922818.440 7         0.000  
 15  8 27  5 18 31.5000000  0  1G11
  -1471746.667 7  -1206376.032 7  24922745.545 7  24922747.193 7       242.717 7
       189.122 7        33.420          37.530    24922746.915 7         0.000  
 15  8 27  5 18 33.0000000  0  1G11
  -1472110.068 7  -1206659.198 7  24922676.367 7  24922678.236 7       241.826 7
       188.438 7        32.890          37.640    24922678.966 7         0.000  
 15  8 27  5 18 34.5000000  0  1G11
  -1472472.140 7  -1206941.350 7  24922608.077 7  24922609.183 7       240.951 7
       187.758 7        33.330          37.610    24922609.457 7         0.000  
 15  8 27  5 18 36.0000000  0  1G11
  -1472832.906 7  -1207222.466 7  24922538.783 7  24922540.731 7       240.073 7
       187.067 7        33.180          37.530    24922540.431 7         0.000  
 15  8 27  5 18 37.5000000  0  1G11
  -1473192.374 7  -1207502.572 7  24922471.307 7  24922472.412 7       239.218 7
       186.398 7        33.460          37.490    24922471.691 7         0.000  
 15  8 27  5 18 39.0000000  0  1G11
  -1473550.526 7  -1207781.649 7  24922402.693 7  24922404.499 7       238.344 7
       185.718 7        33.510          37.600    24922403.398 7         0.000  
 15  8 27  5 18 40.5000000  0  1G11
  -1473907.369 7  -1208059.712 7  24922335.255 7  24922336.854 7       237.455 7
       185.033 7        33.420          37.790    24922333.901 7         0.000  
 15  8 27  5 18 42.0000000  0  1G11
  -1474262.907 7  -1208336.758 7  24922267.243 7  24922269.153 7       236.596 7
       184.350 7        34.110          37.760    24922265.311 7         0.000  
 15  8 27  5 18 43.5000000  0  1G11
  -1474617.151 7  -1208612.789 7  24922200.050 7  24922201.719 7       235.728 7
       183.684 7        34.190          37.650    24922199.561 7         0.000  
 15  8 27  5 18 45.0000000  0  1G11
  -1474970.080 7  -1208887.804 7  24922132.872 7  24922135.271 7       234.848 7
       183.006 7        34.130          37.570    24922131.135 7         0.000  
 15  8 27  5 18 46.5000000  0  1G11
  -1475321.707 7  -1209161.794 7  24922066.040 7  24922068.157 7       233.982 7
       182.315 7        34.690          37.460    24922066.293 7         0.000  
 15  8 27  5 18 48.0000000  0  1G11
  -1475672.018 7  -1209434.774 7  24921998.933 7  24922001.300 7       233.102 7
       181.630 7        34.670          37.310    24921997.888 7         0.000  
 15  8 27  5 18 49.5000000  0  1G11
  -1476021.027 7  -1209706.722 7  24921932.658 7  24921934.534 7       232.223 7
       180.961 7        34.850          37.640    24921931.707 7         0.000  
 15  8 27  5 18 51.0000000  0  1G11
  -1476368.714 7  -1209977.651 7  24921866.464 7  24921868.823 7       231.358 7
       180.275 7        35.200          37.420    24921865.984 7         0.000  
 15  8 27  5 18 52.5000000  0  1G11
  -1476715.099 7  -1210247.559 7  24921800.917 7  24921802.686 7       230.473 7
       179.596 7        35.600          37.390    24921800.936 7         0.000  
 15  8 27  5 18 54.0000000  0  1G11
  -1477060.177 7  -1210516.445 7  24921734.894 7  24921737.325 7       229.615 7
       178.920 7        35.600          37.650    24921736.534 7         0.000  
 15  8 27  5 18 55.5000000  0  1G11
  -1477403.938 7  -1210784.316 7  24921670.014 7  24921671.843 7       228.735 7
       178.241 7        35.810          37.170    24921671.091 7         0.000  
 15  8 27  5 18 57.0000000  0  1G11
  -1477746.398 7  -1211051.154 7  24921604.969 7  24921606.996 7       227.867 7
       177.555 7        36.200          37.070    24921606.487 7         0.000  
 15  8 27  5 18 58.5000000  0  1G11
  -1478087.539 7  -1211316.984 7  24921540.153 7  24921541.787 7       226.986 7
       176.878 7        36.390          36.990    24921541.274 7         0.000  
 15  8 27  5 19  0.0000000  0  1G11
  -1478427.363 7  -1211581.778 7  24921475.838 7  24921476.835 7       226.107 7
       176.188 7        36.340          36.830    24921476.760 7         0.000  
 15  8 27  5 19  1.5000000  0  1G11
  -1478765.898 7  -1211845.568 7  24921411.989 7  24921412.265 7       225.246 7
       175.518 7        36.740          36.570    24921411.974 7         0.000  
 15  8 27  5 19  3.0000000  0  1G11
  -1479103.105 7  -1212108.338 7  24921348.046 7  24921347.960 7       224.374 7
       174.835 7        36.840          36.590    24921348.873 7         0.000  
 15  8 27  5 19  4.5000000  0  1G11
  -1479439.007 7  -1212370.072 7  24921284.154 7  24921283.804 7       223.497 7
       174.154 7        36.680          36.630    24921284.935 7         0.000  
 15  8 27  5 19  6.0000000  0  1G11
  -1479773.604 7  -1212630.799 7  24921220.825 7  24921219.835 7       222.619 7
       173.468 7        36.810          35.850    24921221.146 7         0.000  
 15  8 27  5 19  7.5000000  0  1G11
  -1480106.889 7  -1212890.483 7  24921157.566 7  24921156.583 7       221.756 7
       172.785 7        36.890          36.010    24921157.630 7         0.000  
 15  8 27  5 19  9.0000000  0  1G11
  -1480438.851 7  -1213149.162 7  24921093.898 7  24921092.722 7       220.875 7
       172.098 7        36.890          35.700    24921094.050 7         0.000  
 15  8 27  5 19 10.5000000  0  1G11
  -1480769.521 7  -1213406.816 7  24921030.649 7  24921030.034 7       220.010 7
       171.437 7        36.790          35.490    24921028.933 7         0.000  
 15  8 27  5 19 12.0000000  0  1G11
  -1481098.863 7  -1213663.454 7  24920967.862 7  24920966.472 7       219.131 7
       170.752 7        36.430          35.340    24920966.494 7         0.000  
 15  8 27  5 19 13.5000000  0  1G11
  -1481426.916 7  -1213919.078 7  24920905.550 7  24920904.124 7       218.268 7
       170.061 7        36.690          35.160    24920904.191 7         0.000  
 15  8 27  5 19 15.0000000  0  1G11
  -1481753.657 7  -1214173.676 7  24920842.850 7  24920841.726 7       217.385 7
       169.386 7        36.480          35.210    24920841.288 7         0.000  
 15  8 27  5 19 16.5000000  0  1G11
  -1482079.091 7  -1214427.247 7  24920780.878 7  24920780.089 7       216.513 7
       168.714 7        36.020          34.890    24920779.902 7         0.000  
 15  8 27  5 19 18.0000000  0  1G11
  -1482403.204 7  -1214679.803 7  24920719.213 7  24920717.384 7       215.634 7
       168.032 7        35.650          35.020    24920718.374 7         0.000  
 15  8 27  5 19 19.5000000  0  1G11
  -1482726.017 7  -1214931.354 7  24920657.289 7  24920656.193 7       214.771 7
       167.345 7        35.780          35.200    24920655.934 7         0.000  
 15  8 27  5 19 21.0000000  0  1G11
  -1483047.531 7  -1215181.878 7  24920596.290 7  24920595.231 7       213.902 7
       166.679 7        35.880          35.090    24920593.732 7         0.000  
 15  8 27  5 19 22.5000000  0  1G11
  -1483367.728 7  -1215431.384 7  24920535.166 7  24920534.310 7       213.031 7
       166.003 7        35.580          35.170    24920532.801 7         0.000  
 15  8 27  5 19 24.0000000  0  1G11
  -1483686.616 7  -1215679.866 7  24920474.596 7  24920473.861 7       212.165 7
       165.314 7        35.140          35.190    24920472.644 7         0.000  
 15  8 27  5 19 25.5000000  0  1G11
  -1484004.205 7  -1215927.333 7  24920414.466 7  24920413.744 7       211.282 7
       164.648 7        35.190          35.170    24920412.936 7         0.000  
 15  8 27  5 19 27.0000000  0  1G11
  -1484320.476 7  -1216173.784 7  24920353.921 7  24920354.066 7       210.406 7
       163.957 7        35.030          35.350    24920352.882 7         0.000  
 15  8 27  5 19 28.5000000  0  1G11
  -1484635.440 7  -1216419.201 7  24920294.254 7  24920294.854 7       209.534 7
       163.269 7        34.840          35.560    24920294.956 7         0.000  
 15  8 27  5 19 30.0000000  0  1G11
  -1484949.086 7  -1216663.599 7  24920235.092 7  24920235.116 7       208.667 7
       162.589 7        35.340          35.360    24920234.833 7         0.000  
 15  8 27  5 19 31.5000000  0  1G11
  -1485261.443 7  -1216906.992 7  24920175.493 7  24920175.847 7       207.799 7
       161.934 7        35.270          35.700    24920176.644 7         0.000  
 15  8 27  5 19 33.0000000  0  1G11
  -1485572.476 7  -1217149.362 7  24920115.977 7  24920116.664 7       206.921 7
       161.244 7        34.960          35.910    24920116.935 7         0.000  
 15  8 27  5 19 34.5000000  0  1G11
  -1485882.215 7  -1217390.706 7  24920057.220 7  24920058.107 7       206.062 7
       160.555 7        35.200          35.970    24920056.797 7         0.000  
 15  8 27  5 19 36.0000000  0  1G11
  -1486190.625 7  -1217631.038 7  24919998.333 7  24920000.142 7       205.166 7
       159.877 7        34.690          36.190    24919996.809 7         0.000  
 15  8 27  5 19 37.5000000  0  1G11
  -1486497.754 7  -1217870.351 7  24919940.169 7  24919941.716 7       204.301 7
       159.197 7        34.980          36.360    24919938.297 7         0.000  
 15  8 27  5 19 39.0000000  0  1G11
  -1486803.554 7  -1218108.633 7  24919882.040 7  24919883.967 7       203.428 7
       158.519 7        34.990          36.450    24919881.641 7         0.000  
 15  8 27  5 19 40.5000000  0  1G11
  -1487108.045 7  -1218345.898 7  24919824.151 7  24919825.561 7       202.566 7
       157.837 7        34.700          36.360    24919823.314 7         0.000  
 15  8 27  5 19 42.0000000  0  1G11
  -1487411.242 7  -1218582.157 7  24919766.140 7  24919767.763 7       201.676 7
       157.165 7        34.370          36.280    24919766.218 7         0.000  
 15  8 27  5 19 43.5000000  0  1G11
  -1487713.122 7  -1218817.385 7  24919708.783 7  24919710.474 7       200.817 7
       156.479 7        34.540          36.490    24919709.081 7         0.000  
 15  8 27  5 19 45.0000000  0  1G11
  -1488013.698 7  -1219051.601 7  24919651.134 7  24919652.748 7       199.931 7
       155.805 7        34.060          36.380    24919652.834 7         0.000  
 15  8 27  5 19 46.5000000  0  1G11
  -1488312.954 7  -1219284.794 7  24919594.640 7  24919595.260 7       199.073 7
       155.122 7        34.180          36.330    24919596.082 7         0.000  
 15  8 27  5 19 48.0000000  0  1G11
  -1488610.910 7  -1219516.963 7  24919537.600 7  24919538.471 7       198.193 7
       154.437 7        34.040          36.240    24919539.636 7         0.000  
 15  8 27  5 19 49.5000000  0  1G11
  -1488907.575 7  -1219748.134 7  24919480.855 7  24919482.105 7       197.338 7
       153.772 7        34.110          35.840    24919483.467 7         0.000  
 15  8 27  5 19 51.0000000  0  1G11
  -1489202.915 7  -1219978.276 7  24919424.469 7  24919425.590 7       196.445 7
       153.079 7        34.350          35.910    24919427.870 7         0.000  
 15  8 27  5 19 52.5000000  0  1G11
  -1489496.940 7  -1220207.391 7  24919369.339 7  24919369.571 7       195.571 7
       152.418 7        34.280          35.730    24919370.770 7         0.000  
 15  8 27  5 19 54.0000000  0  1G11
  -1489789.652 7  -1220435.495 7  24919312.728 7  24919313.855 7       194.703 7
       151.719 7        34.300          35.990    24919315.360 7         0.000  
 15  8 27  5 19 55.5000000  0  1G11
  -1490081.095 7  -1220662.579 7  24919257.634 7  24919258.062 7       193.848 7
       151.043 7        34.790          35.770    24919259.599 7         0.000  
 15  8 27  5 19 57.0000000  0  1G11
  -1490371.204 7  -1220888.645 7  24919201.920 7  24919203.112 7       192.965 7
       150.373 7        34.280          35.840    24919203.913 7         0.000  
 15  8 27  5 19 58.5000000  0  1G11
  -1490660.009 7  -1221113.690 7  24919147.906 7  24919148.026 7       192.111 7
       149.699 7        34.780          35.500    24919148.331 7         0.000  
 15  8 27  5 20  0.0000000  0  1G11
  -1490947.515 7  -1221337.716 7  24919092.631 7  24919092.945 7       191.238 7
       149.018 7        34.880          35.650    24919091.236 7         0.000  
 15  8 27  5 20  1.5000000  0  1G11
  -1491233.713 7  -1221560.725 7  24919038.045 7  24919038.549 7       190.365 7
       148.331 7        34.470          35.310    24919035.325 7         0.000  
 15  8 27  5 20  3.0000000  0  1G11
  -1491518.595 7  -1221782.722 7  24918983.762 7  24918984.743 7       189.489 7
       147.640 7        35.000          35.530    24918980.803 7         0.000  
 15  8 27  5 20  4.5000000  0  1G11
  -1491802.179 7  -1222003.681 7  24918930.045 7  24918930.744 7       188.625 7
       146.966 7        34.980          35.610    24918928.988 7         0.000  
 15  8 27  5 20  6.0000000  0  1G11
  -1492084.454 7  -1222223.632 7  24918876.076 7  24918877.400 7       187.746 7
       146.304 7        35.120          35.630    24918874.587 7         0.000  
 15  8 27  5 20  7.5000000  0  1G11
  -1492365.426 7  -1222442.577 7  24918823.173 7  24918823.612 7       186.880 7
       145.626 7        34.960          35.390    24918822.962 7         0.000  
 15  8 27  5 20  9.0000000  0  1G11
  -1492645.084 7  -1222660.481 7  24918770.276 7  24918770.184 7       185.995 7
       144.933 7        35.230          35.420    24918770.771 7         0.000  
 15  8 27  5 20 10.5000000  0  1G11
  -1492923.425 7  -1222877.374 7  24918717.081 7  24918717.538 7       185.130 7
       144.263 7        35.430          35.580    24918718.295 7         0.000  
 15  8 27  5 20 12.0000000  0  1G11
  -1493200.458 7  -1223093.242 7  24918664.540 7  24918665.041 7       184.248 7
       143.569 7        35.500          35.630    24918665.956 7         0.000  
 15  8 27  5 20 13.5000000  0  1G11
  -1493476.194 7  -1223308.111 7  24918612.127 7  24918612.754 7       183.383 7
       142.908 7        35.470          35.740    24918613.419 7         0.000  
 15  8 27  5 20 15.0000000  0  1G11
  -1493750.634 7  -1223521.951 7  24918560.437 7  24918560.553 7       182.508 7
       142.211 7        35.580          35.830    24918561.233 7         0.000  
 15  8 27  5 20 16.5000000  0  1G11
  -1494023.750 7  -1223734.760 7  24918508.340 7  24918508.777 7       181.648 7
       141.543 7        35.520          35.710    24918510.057 7         0.000  
 15  8 27  5 20 18.0000000  0  1G11
  -1494295.551 7  -1223946.550 7  24918456.891 7  24918457.024 7       180.766 7
       140.854 7        35.610          35.610    24918457.292 7         0.000  
 15  8 27  5 20 19.5000000  0  1G11
  -1494566.073 7  -1224157.347 7  24918404.826 7  24918405.950 7       179.901 7
       140.175 7        35.360          36.000    24918406.368 7         0.000  
 15  8 27  5 20 21.0000000  0  1G11
  -1494835.268 7  -1224367.100 7  24918353.791 7  24918354.871 7       179.027 7
       139.497 7        35.460          35.770    24918354.319 7         0.000  
 15  8 27  5 20 22.5000000  0  1G11
  -1495103.160 7  -1224575.840 7  24918302.924 7  24918304.049 7       178.162 7
       138.832 7        35.420          36.230    24918303.510 7         0.000  
 15  8 27  5 20 24.0000000  0  1G11
  -1495369.727 7  -1224783.558 7  24918251.904 7  24918253.838 7       177.273 7
       138.133 7        35.630          36.310    24918252.702 7         0.000  
 15  8 27  5 20 25.5000000  0  1G11
  -1495635.018 7  -1224990.274 7  24918201.195 7  24918203.237 7       176.419 7
       137.469 7        35.700          36.420    24918201.137 7         0.000  
 15  8 27  5 20 27.0000000  0  1G11
  -1495898.985 7  -1225195.959 7  24918151.043 7  24918152.966 7       175.541 7
       136.782 7        35.820          36.480    24918150.103 7         0.000  
 15  8 27  5 20 28.5000000  0  1G11
  -1496161.646 7  -1225400.623 7  24918100.811 7  24918103.104 7       174.669 7
       136.109 7        36.140          36.460    24918101.251 7         0.000  
 15  8 27  5 20 30.0000000  0  1G11
  -1496423.001 7  -1225604.282 7  24918051.262 7  24918053.485 7       173.796 7
       135.420 7        35.610          36.510    24918051.455 7         0.000  
 15  8 27  5 20 31.5000000  0  1G11
  -1496683.054 7  -1225806.918 7  24918001.625 7  24918003.584 7       172.941 7
       134.755 7        35.700          36.490    24918000.733 7         0.000  
 15  8 27  5 20 33.0000000  0  1G11
  -1496941.811 7  -1226008.535 7  24917952.704 7  24917954.160 7       172.077 7
       134.077 7        35.700          36.520    24917953.662 7         0.000  
 15  8 27  5 20 34.5000000  0  1G11
  -1497199.244 7  -1226209.139 7  24917903.148 7  24917905.267 7       171.198 7
       133.390 7        35.710          36.530    24917903.278 7         0.000  
 15  8 27  5 20 36.0000000  0  1G11
  -1497455.391 7  -1226408.727 7  24917854.606 7  24917855.985 7       170.315 7
       132.725 7        36.030          36.300    24917853.977 7         0.000  
 15  8 27  5 20 37.5000000  0  1G11
  -1497710.235 7  -1226607.298 7  24917805.987 7  24917807.037 7       169.467 7
       132.052 7        35.620          36.250    24917805.575 7         0.000  
 15  8 27  5 20 39.0000000  0  1G11
  -1497963.777 7  -1226804.862 7  24917757.766 7  24917759.143 7       168.581 7
       131.363 7        35.360          36.260    24917755.388 7         0.000  
 15  8 27  5 20 40.5000000  0  1G11
  -1498216.007 7  -1227001.407 7  24917709.683 7  24917710.649 7       167.719 7
       130.688 7        35.220          36.210    24917708.384 7         0.000  
 15  8 27  5 20 42.0000000  0  1G11
  -1498466.931 7  -1227196.927 7  24917661.662 7  24917662.431 7       166.854 7
       130.015 7        35.390          36.440    24917660.853 7         0.000  
 15  8 27  5 20 43.5000000  0  1G11
  -1498716.566 7  -1227391.446 7  24917614.529 7  24917615.112 7       165.990 7
       129.333 7        34.990          35.940    24917612.804 7         0.000  
 15  8 27  5 20 45.0000000  0  1G11
  -1498964.895 7  -1227584.937 7  24917567.220 7  24917567.655 7       165.113 7
       128.653 7        34.580          35.940    24917568.111 7         0.000  
 15  8 27  5 20 46.5000000  0  1G11
  -1499211.911 7  -1227777.410 7  24917520.702 7  24917520.897 7       164.249 7
       127.978 7        34.560          35.920    24917519.441 7         0.000  
 15  8 27  5 20 48.0000000  0  1G11
  -1499457.617 7  -1227968.863 7  24917474.088 7  24917473.827 7       163.365 7
       127.304 7        34.460          35.750    24917474.222 7         0.000  
 15  8 27  5 20 49.5000000  0  1G11
  -1499702.029 7  -1228159.302 7  24917427.240 7  24917427.512 7       162.506 7
       126.620 7        34.040          35.660    24917430.071 7         0.000  
 15  8 27  5 20 51.0000000  0  1G11
  -1499945.134 7  -1228348.724 7  24917381.693 7  24917381.481 7       161.639 7
       125.942 7        33.900          35.440    24917383.014 7         0.000  
 15  8 27  5 20 52.5000000  0  1G11
  -1500186.928 7  -1228537.128 7  24917336.212 7  24917335.612 7       160.761 7
       125.263 7        33.600          35.500    24917336.777 7         0.000  
 15  8 27  5 20 54.0000000  0  1G11
  -1500427.410 7  -1228724.511 7  24917290.795 7  24917289.843 7       159.888 7
       124.582 7        33.860          35.320    24917292.331 7         0.000  
 15  8 27  5 20 55.5000000  0  1G11
  -1500666.617 7  -1228910.892 7  24917244.492 7  24917243.942 7       159.030 7
       123.908 7        33.290          35.660    24917246.713 7         0.000  
 15  8 27  5 20 57.0000000  0  1G11
  -1500904.494 7  -1229096.260 7  24917199.426 7  24917198.945 7       158.148 7
       123.238 7        32.460          35.550    24917199.949 7         0.000  
 15  8 27  5 20 58.5000000  0  1G11
  -1501141.070 7  -1229280.590 7  24917153.378 7  24917153.870 7       157.286 7
       122.559 7        32.390          35.740    24917154.287 7         0.000  
 15  8 27  5 21  0.0000000  0  1G11
  -1501376.334 7  -1229463.923 7  24917108.085 7  24917108.741 7       156.404 7
       121.870 7        31.680          35.560    24917108.817 7         0.000  
 15  8 27  5 21  1.5000000  0  1G11
  -1501610.299 6  -1229646.241 7  24917063.185 6  24917064.541 7       155.546 6
       121.211 7        31.450          35.810    24917064.025 7         0.000  
 15  8 27  5 21  3.0000000  0  1G11
  -1501842.962 6  -1229827.521 7  24917019.170 6  24917020.304 7       154.674 6
       120.520 7        31.520          35.600    24917019.546 7         0.000  
 15  8 27  5 21  4.5000000  0  1G11
  -1502074.300 6  -1230007.786 7  24916974.858 6  24916976.149 7       153.779 6
       119.847 7        31.300          35.570    24916977.614 7         0.000  
 15  8 27  5 21  6.0000000  0  1G11
  -1502304.334 6  -1230187.039 7  24916930.202 6  24916932.480 7       152.919 6
       119.165 7        31.490          35.510    24916931.976 7         0.000  
 15  8 27  5 21  7.5000000  0  1G11
  -1502533.092 7  -1230365.285 7  24916887.360 7  24916888.840 7       152.076 7
       118.485 7        31.660          35.720    24916889.239 7         0.000  
 15  8 27  5 21  9.0000000  0  1G11
  -1502760.530 7  -1230542.511 7  24916844.256 7  24916845.235 7       151.185 7
       117.811 7        31.760          35.620    24916847.085 7         0.000  
 15  8 27  5 21 10.5000000  0  1G11
  -1502986.655 7  -1230718.710 7  24916801.923 7  24916802.526 7       150.327 7
       117.122 7        32.160          35.990    24916801.870 7         0.000  
 15  8 27  5 21 12.0000000  0  1G11
  -1503211.494 7  -1230893.912 7  24916758.691 7  24916759.622 7       149.465 7
       116.457 7        32.290          35.860    24916757.659 7         0.000  
 15  8 27  5 21 13.5000000  0  1G11
  -1503435.015 7  -1231068.080 7  24916716.322 7  24916717.779 7       148.571 7
       115.778 7        32.700          36.100    24916715.634 7         0.000  
 15  8 27  5 21 15.0000000  0  1G11
  -1503657.235 7  -1231241.236 7  24916674.314 7  24916675.823 7       147.701 7
       115.105 7        32.730          35.850    24916673.057 7         0.000  
 15  8 27  5 21 16.5000000  0  1G11
  -1503878.157 7  -1231413.388 7  24916632.130 7  24916633.535 7       146.836 7
       114.426 7        33.150          36.560    24916630.142 7         0.000  
 15  8 27  5 21 18.0000000  0  1G11
  -1504097.758 7  -1231584.502 7  24916590.488 7  24916591.833 7       145.970 7
       113.746 7        33.660          36.470    24916590.865 7         0.000  
 15  8 27  5 21 19.5000000  0  1G11
  -1504316.071 7  -1231754.626 7  24916549.286 7  24916550.192 7       145.096 7
       113.058 7        33.510          36.630    24916549.766 7         0.000  
 15  8 27  5 21 21.0000000  0  1G11
  -1504533.060 7  -1231923.705 7  24916507.938 7  24916509.205 7       144.236 7
       112.389 7        33.680          36.870    24916508.820 7         0.000  
 15  8 27  5 21 22.5000000  0  1G11
  -1504748.746 7  -1232091.776 7  24916467.033 7  24916467.671 7       143.354 7
       111.708 7        33.610          36.930    24916466.505 7         0.000  
 15  8 27  5 21 24.0000000  0  1G11
  -1504963.125 7  -1232258.831 7  24916426.258 7  24916427.142 7       142.479 7
       111.031 7        33.760          37.050    24916426.698 7         0.000  
 15  8 27  5 21 25.5000000  0  1G11
  -1505176.220 7  -1232424.875 7  24916385.919 7  24916386.727 7       141.622 7
       110.352 7        33.480          37.190    24916386.568 7         0.000  
 15  8 27  5 21 27.0000000  0  1G11
  -1505387.996 7  -1232589.907 7  24916345.279 7  24916345.923 7       140.754 7
       109.680 7        33.800          37.370    24916345.643 7         0.000  
 15  8 27  5 21 28.5000000  0  1G11
  -1505598.481 7  -1232753.925 7  24916305.369 7  24916305.938 7       139.883 7
       109.001 7        33.890          37.340    24916305.982 7         0.000  
 15  8 27  5 21 30.0000000  0  1G11
  -1505807.660 7  -1232916.923 7  24916265.461 7  24916266.178 7       139.005 7
       108.325 7        33.830          37.400    24916266.205 7         0.000  
 15  8 27  5 21 31.5000000  0  1G11
  -1506015.527 7  -1233078.904 7  24916225.669 7  24916226.660 7       138.165 7
       107.650 7        33.330          37.280    24916226.686 7         0.000  
 15  8 27  5 21 33.0000000  0  1G11
  -1506222.101 7  -1233239.870 7  24916186.078 7  24916187.010 7       137.276 7
       106.973 7        33.060          37.650    24916187.790 7         0.000  
 15  8 27  5 21 34.5000000  0  1G11
  -1506427.350 7  -1233399.815 7  24916147.113 7  24916147.402 7       136.404 7
       106.294 7        33.480          37.660    24916149.007 7         0.000  
 15  8 27  5 21 36.0000000  0  1G11
  -1506631.305 7  -1233558.740 7  24916108.478 7  24916108.710 7       135.525 7
       105.613 7        32.960          37.620    24916111.837 7         0.000  
 15  8 27  5 21 37.5000000  0  1G11
  -1506833.971 7  -1233716.662 7  24916069.671 7  24916070.002 7       134.665 7
       104.945 7        33.350          37.550    24916073.018 7         0.000  
 15  8 27  5 21 39.0000000  0  1G11
  -1507035.323 7  -1233873.569 7  24916031.747 7  24916031.652 7       133.795 7
       104.256 7        33.780          37.550    24916035.076 7         0.000  
 15  8 27  5 21 40.5000000  0  1G11
  -1507235.374 7  -1234029.445 7  24915994.275 7  24915993.754 7       132.933 7
       103.580 7        33.790          37.650    24915995.539 7         0.000  
 15  8 27  5 21 42.0000000  0  1G11
  -1507434.108 7  -1234184.319 7  24915955.848 7  24915955.898 7       132.062 7
       102.903 7        33.460          37.530    24915957.500 7         0.000  
 15  8 27  5 21 43.5000000  0  1G11
  -1507631.578 7  -1234338.187 7  24915917.769 7  24915918.583 7       131.213 7
       102.230 7        33.710          37.860    24915918.141 7         0.000  
 15  8 27  5 21 45.0000000  0  1G11
  -1507827.712 7  -1234491.029 7  24915880.289 7  24915881.113 7       130.331 7
       101.558 7        33.840          37.710    24915880.828 7         0.000  
 15  8 27  5 21 46.5000000  0  1G11
  -1508022.562 7  -1234642.871 7  24915843.467 7  24915844.340 7       129.472 7
       100.888 7        33.580          37.940    24915843.392 7         0.000  
 15  8 27  5 21 48.0000000  0  1G11
  -1508216.103 7  -1234793.680 7  24915806.252 7  24915807.660 7       128.607 7
       100.200 7        34.010          37.890    24915805.585 7         0.000  
 15  8 27  5 21 49.5000000  0  1G11
  -1508408.353 7  -1234943.484 7  24915770.001 7  24915771.386 7       127.727 7
        99.530 7        34.060          38.040    24915769.744 7         0.000  
 15  8 27  5 21 51.0000000  0  1G11
  -1508599.289 7  -1235092.274 7  24915732.754 7  24915735.097 7       126.859 7
        98.852 7        34.260          38.030    24915732.680 7         0.000  
 15  8 27  5 21 52.5000000  0  1G11
  -1508788.933 7  -1235240.048 7  24915697.201 7  24915698.948 7       125.992 7
        98.177 7        34.520          38.170    24915696.740 7         0.000  
 15  8 27  5 21 54.0000000  0  1G11
  -1508977.257 7  -1235386.803 7  24915661.213 7  24915663.171 7       125.128 7
        97.511 7        34.660          37.840    24915659.852 7         0.000  
 15  8 27  5 21 55.5000000  0  1G11
  -1509164.311 7  -1235532.560 7  24915625.508 7  24915627.876 7       124.266 7
        96.833 7        34.570          38.150    24915621.656 7         0.000  
 15  8 27  5 21 57.0000000  0  1G11
  -1509350.051 7  -1235677.290 7  24915590.416 7  24915592.402 7       123.390 7
        96.145 7        34.920          38.140    24915588.062 7         0.000  
 15  8 27  5 21 58.5000000  0  1G11
  -1509534.478 7  -1235821.009 7  24915555.652 7  24915557.594 7       122.513 7
        95.467 7        34.640          38.120    24915555.024 7         0.000  
 15  8 27  5 22  0.0000000  0  1G11
  -1509717.601 7  -1235963.709 7  24915520.682 7  24915522.881 7       121.650 7
        94.783 7        35.130          38.220    24915519.312 7         0.000  
 15  8 27  5 22  1.5000000  0  1G11
  -1509899.445 7  -1236105.400 7  24915486.477 7  24915488.068 7       120.793 7
        94.120 7        35.220          38.090    24915485.449 7         0.000  
 15  8 27  5 22  3.0000000  0  1G11
  -1510079.960 7  -1236246.064 7  24915451.570 7  24915453.805 7       119.904 7
        93.429 7        35.360          37.930    24915452.390 7         0.000  
 15  8 27  5 22  4.5000000  0  1G11
  -1510259.173 7  -1236385.714 7  24915417.760 7  24915419.639 7       119.049 7
        92.768 7        35.510          38.030    24915417.990 7         0.000  
 15  8 27  5 22  6.0000000  0  1G11
  -1510437.079 7  -1236524.342 7  24915384.213 7  24915385.482 7       118.159 7
        92.081 7        35.720          37.880    24915383.673 7         0.000  
 15  8 27  5 22  7.5000000  0  1G11
  -1510613.711 7  -1236661.977 7  24915350.705 7  24915351.663 7       117.312 7
        91.414 7        35.600          37.630    24915350.972 7         0.000  
 15  8 27  5 22  9.0000000  0  1G11
  -1510789.020 7  -1236798.586 7  24915317.095 7  24915318.461 7       116.441 7
        90.721 7        35.850          37.570    24915319.076 7         0.000  
 15  8 27  5 22 10.5000000  0  1G11
  -1510963.035 7  -1236934.173 7  24915284.278 7  24915285.085 7       115.574 7
        90.067 7        35.870          37.650    24915286.342 7         0.000  
 15  8 27  5 22 12.0000000  0  1G11
  -1511135.763 7  -1237068.759 7  24915251.636 7  24915252.024 7       114.711 7
        89.379 7        35.880          37.430    24915253.070 7         0.000  
 15  8 27  5 22 13.5000000  0  1G11
  -1511307.168 7  -1237202.324 7  24915218.669 7  24915219.384 7       113.844 7
        88.707 7        36.030          37.360    24915219.798 7         0.000  
 15  8 27  5 22 15.0000000  0  1G11
  -1511477.281 7  -1237334.872 7  24915186.340 7  24915186.822 7       112.955 7
        88.023 7        35.800          37.230    24915186.529 7         0.000  
 15  8 27  5 22 16.5000000  0  1G11
  -1511646.090 7  -1237466.404 7  24915153.551 7  24915154.478 7       112.102 7
        87.363 7        35.950          37.190    24915154.884 7         0.000  
 15  8 27  5 22 18.0000000  0  1G11
  -1511813.606 7  -1237596.929 7  24915122.144 7  24915122.602 7       111.237 7
        86.670 7        35.970          36.960    24915122.805 7         0.000  
 15  8 27  5 22 19.5000000  0  1G11
  -1511979.819 7  -1237726.446 7  24915090.356 7  24915090.975 7       110.374 7
        85.999 7        36.390          36.690    24915090.136 7         0.000  
 15  8 27  5 22 21.0000000  0  1G11
  -1512144.714 7  -1237854.939 7  24915058.854 7  24915059.174 7       109.506 7
        85.316 7        36.690          36.730    24915058.257 7         0.000  
 15  8 27  5 22 22.5000000  0  1G11
  -1512308.311 7  -1237982.413 7  24915027.753 7  24915028.193 7       108.625 7
        84.647 7        36.740          36.750    24915028.308 7         0.000  
 15  8 27  5 22 24.0000000  0  1G11
  -1512470.607 7  -1238108.888 7  24914996.420 7  24914997.441 7       107.775 7
        83.977 7        36.860          36.880    24914997.445 7         0.000  
 15  8 27  5 22 25.5000000  0  1G11
  -1512631.628 7  -1238234.343 7  24914965.824 7  24914966.711 7       106.905 7
        83.303 7        37.080          36.870    24914965.784 7         0.000  
 15  8 27  5 22 27.0000000  0  1G11
  -1512791.323 7  -1238358.789 7  24914935.434 7  24914936.852 7       106.033 7
        82.619 7        37.070          36.750    24914936.318 7         0.000  
 15  8 27  5 22 28.5000000  0  1G11
  -1512949.717 7  -1238482.222 7  24914904.935 7  24914906.593 7       105.165 7
        81.955 7        37.240          36.900    24914905.214 7         0.000  
 15  8 27  5 22 30.0000000  0  1G11
  -1513106.803 7  -1238604.617 7  24914874.801 7  24914876.978 7       104.295 7
        81.274 7        37.350          36.680    24914875.035 7         0.000  
 15  8 27  5 22 31.5000000  0  1G11
  -1513262.600 7  -1238726.028 7  24914845.641 7  24914847.241 7       103.437 7
        80.603 7        37.180          37.000    24914844.191 7         0.000  
 15  8 27  5 22 33.0000000  0  1G11
  -1513417.083 7  -1238846.408 7  24914816.464 7  24914818.137 7       102.548 7
        79.909 7        37.110          36.820    24914814.300 7         0.000  
 15  8 27  5 22 34.5000000  0  1G11
  -1513570.268 7  -1238965.779 7  24914787.455 7  24914788.788 7       101.697 7
        79.241 7        37.230          36.750    24914785.333 7         0.000  
 15  8 27  5 22 36.0000000  0  1G11
  -1513722.161 7  -1239084.129 7  24914758.898 7  24914760.184 7       100.821 7
        78.564 7        37.080          36.860    24914757.421 7         0.000  
 15  8 27  5 22 37.5000000  0  1G11
  -1513872.748 7  -1239201.486 7  24914730.279 7  24914731.379 7        99.964 7
        77.899 7        37.100          36.760    24914729.308 7         0.000  
 15  8 27  5 22 39.0000000  0  1G11
  -1514022.056 7  -1239317.816 7  24914701.916 7  24914703.190 7        99.101 7
        77.222 7        37.110          36.800    24914700.045 7         0.000  
 15  8 27  5 22 40.5000000  0  1G11
  -1514170.031 7  -1239433.138 7  24914674.278 7  24914675.047 7        98.220 7
        76.545 7        37.170          36.900    24914672.386 7         0.000  
 15  8 27  5 22 42.0000000  0  1G11
  -1514316.725 7  -1239547.439 7  24914646.335 7  24914646.649 7        97.366 7
        75.875 7        37.000          36.650    24914646.251 7         0.000  
 15  8 27  5 22 43.5000000  0  1G11
  -1514462.126 7  -1239660.740 7  24914618.540 7  24914619.445 7        96.501 7
        75.196 7        36.720          36.640    24914618.651 7         0.000  
 15  8 27  5 22 45.0000000  0  1G11
  -1514606.215 7  -1239773.017 7  24914590.886 7  24914591.605 7        95.630 7
        74.516 7        36.700          36.880    24914591.901 7         0.000  
 15  8 27  5 22 46.5000000  0  1G11
  -1514749.017 7  -1239884.295 7  24914563.546 7  24914564.625 7        94.771 7
        73.854 7        36.580          36.610    24914564.434 7         0.000  
 15  8 27  5 22 48.0000000  0  1G11
  -1514890.522 7  -1239994.551 7  24914536.469 7  24914537.426 7        93.892 7
        73.168 7        36.310          36.650    24914537.467 7         0.000  
 15  8 27  5 22 49.5000000  0  1G11
  -1515030.719 7  -1240103.807 7  24914509.740 7  24914510.718 7        93.032 7
        72.495 7        36.610          36.610    24914510.500 7         0.000  
 15  8 27  5 22 51.0000000  0  1G11
  -1515169.621 7  -1240212.037 7  24914483.118 7  24914483.953 7        92.172 7
        71.823 7        36.450          36.620    24914483.806 7         0.000  
 15  8 27  5 22 52.5000000  0  1G11
  -1515307.220 7  -1240319.264 7  24914456.699 7  24914458.101 7        91.300 7
        71.139 7        36.390          36.490    24914457.893 7         0.000  
 15  8 27  5 22 54.0000000  0  1G11
  -1515443.527 7  -1240425.489 7  24914430.928 7  24914432.048 7        90.440 7
        70.469 7        36.400          36.420    24914432.282 7         0.000  
 15  8 27  5 22 55.5000000  0  1G11
  -1515578.535 7  -1240530.692 7  24914405.366 7  24914406.206 7        89.571 7
        69.792 7        36.700          36.580    24914406.129 7         0.000  
 15  8 27  5 22 57.0000000  0  1G11
  -1515712.231 7  -1240634.869 7  24914379.876 7  24914380.888 7        88.690 7
        69.116 7        36.650          36.470    24914382.487 7         0.000  
 15  8 27  5 22 58.5000000  0  1G11
  -1515844.629 7  -1240738.031 7  24914354.788 7  24914355.345 7        87.841 7
        68.444 7        36.970          36.400    24914356.949 7         0.000  
 15  8 27  5 23  0.0000000  0  1G11
  -1515975.742 7  -1240840.197 7  24914330.454 7  24914330.461 7        86.964 7
        67.770 7        37.110          36.270    24914331.985 7         0.000  
 15  8 27  5 23  1.5000000  0  1G11
  -1516105.540 7  -1240941.348 7  24914305.115 7  24914305.500 7        86.109 7
        67.095 7        37.020          36.450    24914306.588 7         0.000  
 15  8 27  5 23  3.0000000  0  1G11
  -1516234.048 7  -1241041.489 7  24914281.312 7  24914281.028 7        85.243 7
        66.427 7        37.250          36.590    24914282.005 7         0.000  
 15  8 27  5 23  4.5000000  0  1G11
  -1516361.263 7  -1241140.608 7  24914256.900 7  24914256.689 7        84.383 7
        65.745 7        37.090          36.470    24914257.536 7         0.000  
 15  8 27  5 23  6.0000000  0  1G11
  -1516487.162 7  -1241238.712 7  24914232.979 7  24914232.741 7        83.494 7
        65.054 7        37.390          36.440    24914231.998 7         0.000  
 15  8 27  5 23  7.5000000  0  1G11
  -1516611.771 7  -1241335.816 7  24914209.442 7  24914209.138 7        82.652 7
        64.401 7        37.630          36.530    24914208.636 7         0.000  
 15  8 27  5 23  9.0000000  0  1G11
  -1516735.091 7  -1241431.904 7  24914185.579 7  24914185.467 7        81.781 7
        63.727 7        37.370          36.470    24914184.212 7         0.000  
 15  8 27  5 23 10.5000000  0  1G11
  -1516857.100 7  -1241526.969 7  24914162.539 7  24914162.259 7        80.906 7
        63.046 7        37.410          36.450    24914160.795 7         0.000  
 15  8 27  5 23 12.0000000  0  1G11
  -1516977.819 7  -1241621.036 7  24914139.213 7  24914139.557 7        80.043 7
        62.373 7        37.460          36.680    24914137.453 7         0.000  
 15  8 27  5 23 13.5000000  0  1G11
  -1517097.247 7  -1241714.097 7  24914116.627 7  24914116.533 7        79.182 7
        61.697 7        37.440          36.560    24914115.164 7         0.000  
 15  8 27  5 23 15.0000000  0  1G11
  -1517215.366 7  -1241806.137 7  24914093.428 7  24914094.200 7        78.305 7
        61.017 7        37.270          36.530    24914092.562 7         0.000  
 15  8 27  5 23 16.5000000  0  1G11
  -1517332.183 7  -1241897.168 7  24914071.054 7  24914072.034 7        77.436 7
        60.352 7        37.320          36.760    24914071.737 7         0.000  
 15  8 27  5 23 18.0000000  0  1G11
  -1517447.698 7  -1241987.173 7  24914049.321 7  24914050.206 7        76.571 7
        59.675 7        37.510          37.120    24914049.040 7         0.000  
 15  8 27  5 23 19.5000000  0  1G11
  -1517561.933 7  -1242076.175 7  24914027.699 7  24914028.817 7        75.715 7
        59.002 7        37.390          37.200    24914026.984 7         0.000  
 15  8 27  5 23 21.0000000  0  1G11
  -1517674.855 7  -1242164.171 7  24914006.060 7  24914007.142 7        74.851 7
        58.325 7        37.220          37.510    24914005.372 7         0.000  
 15  8 27  5 23 22.5000000  0  1G11
  -1517786.475 7  -1242251.151 7  24913984.880 7  24913985.881 7        73.991 7
        57.666 7        37.130          37.700    24913985.162 7         0.000  
 15  8 27  5 23 24.0000000  0  1G11
  -1517896.813 7  -1242337.126 7  24913964.025 7  24913965.258 7        73.123 7
        56.967 7        37.410          37.860    24913964.115 7         0.000  
 15  8 27  5 23 25.5000000  0  1G11
  -1518005.850 7  -1242422.090 7  24913943.495 7  24913944.688 7        72.265 7
        56.298 7        36.940          37.760    24913943.500 7         0.000  
 15  8 27  5 23 27.0000000  0  1G11
  -1518113.594 7  -1242506.038 7  24913922.916 7  24913924.267 7        71.394 7
        55.636 7        37.380          37.970    24913922.646 7         0.000  
 15  8 27  5 23 28.5000000  0  1G11
  -1518220.027 7  -1242588.975 7  24913902.615 7  24913903.820 7        70.531 7
        54.946 7        37.480          38.340    24913903.817 7         0.000  
 15  8 27  5 23 30.0000000  0  1G11
  -1518325.170 7  -1242670.902 7  24913882.472 7  24913884.193 7        69.653 7
        54.274 7        37.430          38.580    24913883.935 7         0.000  
 15  8 27  5 23 31.5000000  0  1G11
  -1518429.026 7  -1242751.825 7  24913862.782 7  24913864.683 7        68.795 7
        53.612 7        37.520          38.440    24913864.458 7         0.000  
 15  8 27  5 23 33.0000000  0  1G11
  -1518531.582 7  -1242831.725 7  24913843.486 7  24913845.282 7        67.939 7
        52.936 7        37.540          38.520    24913845.548 7         0.000  
 15  8 27  5 23 34.5000000  0  1G11
  -1518632.820 7  -1242910.613 7  24913824.192 7  24913826.113 7        67.064 7
        52.264 7        37.660          38.490    24913825.344 7         0.000  
 15  8 27  5 23 36.0000000  0  1G11
  -1518732.767 7  -1242988.493 7  24913805.259 7  24913807.212 7        66.198 7
        51.579 7        37.710          38.550    24913806.584 7         0.000  
 15  8 27  5 23 37.5000000  0  1G11
  -1518831.431 7  -1243065.370 7  24913786.435 7  24913788.658 7        65.343 7
        50.915 7        37.860          38.480    24913786.821 7         0.000  
 15  8 27  5 23 39.0000000  0  1G11
  -1518928.785 7  -1243141.235 7  24913767.753 7  24913769.877 7        64.472 7
        50.238 7        37.990          38.690    24913767.653 7         0.000  
 15  8 27  5 23 40.5000000  0  1G11
  -1519024.849 7  -1243216.075 7  24913749.523 7  24913751.539 7        63.596 7
        49.560 7        38.070          38.490    24913749.467 7         0.000  
 15  8 27  5 23 42.0000000  0  1G11
  -1519119.607 7  -1243289.922 7  24913731.506 7  24913733.279 7        62.728 7
        48.889 7        37.870          38.670    24913730.400 7         0.000  
 15  8 27  5 23 43.5000000  0  1G11
  -1519213.086 7  -1243362.756 7  24913713.554 7  24913715.311 7        61.884 7
        48.212 7        38.090          38.350    24913713.210 7         0.000  
 15  8 27  5 23 45.0000000  0  1G11
  -1519305.251 7  -1243434.571 7  24913696.021 7  24913697.601 7        61.014 7
        47.546 7        38.100          38.280    24913695.069 7         0.000  
 15  8 27  5 23 46.5000000  0  1G11
  -1519396.114 7  -1243505.374 7  24913678.722 7  24913680.169 7        60.146 7
        46.868 7        38.340          38.220    24913678.556 7         0.000  
 15  8 27  5 23 48.0000000  0  1G11
  -1519485.672 7  -1243575.164 7  24913661.566 7  24913662.890 7        59.263 7
        46.189 7        38.030          38.220    24913660.889 7         0.000  
 15  8 27  5 23 49.5000000  0  1G11
  -1519573.945 7  -1243643.947 7  24913644.982 7  24913646.093 7        58.423 7
        45.526 7        38.140          38.240    24913644.361 7         0.000  
 15  8 27  5 23 51.0000000  0  1G11
  -1519660.910 7  -1243711.708 7  24913628.385 7  24913629.168 7        57.548 7
        44.849 7        37.960          37.960    24913627.729 7         0.000  
 15  8 27  5 23 52.5000000  0  1G11
  -1519746.586 7  -1243778.471 7  24913612.083 7  24913612.712 7        56.690 7
        44.171 7        38.190          38.080    24913612.525 7         0.000  
 15  8 27  5 23 54.0000000  0  1G11
  -1519830.954 7  -1243844.210 7  24913596.059 7  24913596.565 7        55.810 7
        43.485 7        38.070          38.080    24913596.039 7         0.000  
 15  8 27  5 23 55.5000000  0  1G11
  -1519914.054 7  -1243908.960 7  24913580.227 7  24913580.833 7        54.952 7
        42.823 7        38.090          38.110    24913581.122 7         0.000  
 15  8 27  5 23 57.0000000  0  1G11
  -1519995.828 7  -1243972.686 7  24913565.047 7  24913565.371 7        54.090 7
        42.147 7        37.920          38.070    24913565.872 7         0.000  
 15  8 27  5 23 58.5000000  0  1G11
  -1520076.319 7  -1244035.399 7  24913549.589 7  24913550.322 7        53.231 7
        41.484 7        38.050          38.150    24913550.820 7         0.000  
 15  8 27  5 24  0.0000000  0  1G11
  -1520155.515 7  -1244097.108 7  24913534.776 7  24913535.284 7        52.371 7
        40.795 7        37.860          38.260    24913535.714 7         0.000  
 15  8 27  5 24  1.5000000  0  1G11
  -1520233.415 7  -1244157.805 7  24913520.115 7  24913520.872 7        51.489 7
        40.125 7        38.040          38.170    24913521.191 7         0.000  
 15  8 27  5 24  3.0000000  0  1G11
  -1520310.007 7  -1244217.486 7  24913505.423 7  24913506.448 7        50.626 7
        39.445 7        37.960          38.150    24913506.139 7         0.000  
 15  8 27  5 24  4.5000000  0  1G11
  -1520385.302 7  -1244276.160 7  24913491.164 7  24913491.837 7        49.770 7
        38.778 7        37.830          38.440    24913492.122 7         0.000  
 15  8 27  5 24  6.0000000  0  1G11
  -1520459.306 7  -1244333.823 7  24913477.045 7  24913477.936 7        48.912 7
        38.109 7        37.720          38.160    24913478.504 7         0.000  
 15  8 27  5 24  7.5000000  0  1G11
  -1520532.017 7  -1244390.478 7  24913463.167 7  24913464.014 7        48.050 7
        37.433 7        37.790          38.540    24913463.872 7         0.000  
 15  8 27  5 24  9.0000000  0  1G11
  -1520603.439 7  -1244446.131 7  24913449.210 7  24913450.567 7        47.176 7
        36.758 7        37.750          38.270    24913449.971 7         0.000  
 15  8 27  5 24 10.5000000  0  1G11
  -1520673.563 7  -1244500.763 7  24913435.994 7  24913436.971 7        46.301 7
        36.081 7        37.560          38.250    24913436.024 7         0.000  
 15  8 27  5 24 12.0000000  0  1G11
  -1520742.378 7  -1244554.387 7  24913422.811 7  24913423.897 7        45.454 7
        35.416 7        37.460          38.160    24913422.860 7         0.000  
 15  8 27  5 24 13.5000000  0  1G11
  -1520809.915 7  -1244607.008 7  24913409.596 7  24913410.704 7        44.586 7
        34.738 7        37.410          38.070    24913410.158 7         0.000  
 15  8 27  5 24 15.0000000  0  1G11
  -1520876.136 7  -1244658.618 7  24913397.033 7  24913398.136 7        43.723 7
        34.080 7        37.550          38.060    24913397.645 7         0.000  
 15  8 27  5 24 16.5000000  0  1G11
  -1520941.069 7  -1244709.209 7  24913384.873 7  24913385.667 7        42.856 7
        33.391 7        37.520          37.960    24913384.980 7         0.000  
 15  8 27  5 24 18.0000000  0  1G11
  -1521004.709 7  -1244758.793 7  24913372.658 7  24913373.340 7        41.971 7
        32.714 7        37.370          37.770    24913373.129 7         0.000  
 15  8 27  5 24 19.5000000  0  1G11
  -1521067.058 7  -1244807.378 7  24913361.146 7  24913361.232 7        41.135 7
        32.052 7        37.660          37.810    24913361.001 7         0.000  
 15  8 27  5 24 21.0000000  0  1G11
  -1521128.109 7  -1244854.955 7  24913349.130 7  24913349.364 7        40.274 7
        31.381 7        37.580          37.720    24913348.713 7         0.000  
 15  8 27  5 24 22.5000000  0  1G11
  -1521187.864 7  -1244901.516 7  24913338.094 7  24913338.005 7        39.407 7
        30.714 7        37.590          37.790    24913338.123 7         0.000  
 15  8 27  5 24 24.0000000  0  1G11
  -1521246.320 7  -1244947.071 7  24913326.665 7  24913326.887 7        38.548 7
        30.039 7        37.800          37.500    24913327.504 7         0.000  
 15  8 27  5 24 25.5000000  0  1G11
  -1521303.496 7  -1244991.622 7  24913316.243 7  24913316.092 7        37.682 7
        29.367 7        37.540          37.780    24913315.984 7         0.000  
 15  8 27  5 24 27.0000000  0  1G11
  -1521359.365 7  -1245035.162 7  24913305.186 7  24913305.660 7        36.808 7
        28.686 7        37.780          37.670    24913304.895 7         0.000  
 15  8 27  5 24 28.5000000  0  1G11
  -1521413.944 7  -1245077.685 7  24913295.089 7  24913295.151 7        35.948 7
        28.017 7        37.860          37.810    24913294.719 7         0.000  
 15  8 27  5 24 30.0000000  0  1G11
  -1521467.228 7  -1245119.214 7  24913285.166 7  24913285.353 7        35.090 7
        27.338 7        37.660          37.840    24913284.878 7         0.000  
 15  8 27  5 24 31.5000000  0  1G11
  -1521519.237 7  -1245159.730 7  24913275.113 7  24913275.277 7        34.238 7
        26.681 7        37.550          37.770    24913274.150 7         0.000  
 15  8 27  5 24 33.0000000  0  1G11
  -1521569.925 7  -1245199.228 7  24913265.420 7  24913265.754 7        33.375 7
        26.000 7        37.670          38.000    24913265.922 7         0.000  
 15  8 27  5 24 34.5000000  0  1G11
  -1521619.332 7  -1245237.722 7  24913256.268 7  24913256.337 7        32.520 7
        25.334 7        37.380          38.140    24913256.798 7         0.000  
 15  8 27  5 24 36.0000000  0  1G11
  -1521667.445 7  -1245275.213 7  24913246.975 7  24913247.914 7        31.641 7
        24.652 7        37.320          38.390    24913248.490 7         0.000  
 15  8 27  5 24 37.5000000  0  1G11
  -1521714.270 7  -1245311.695 7  24913237.971 7  24913238.720 7        30.780 7
        23.975 7        37.380          38.270    24913239.486 7         0.000  
 15  8 27  5 24 39.0000000  0  1G11
  -1521759.793 7  -1245347.162 7  24913229.651 7  24913230.179 7        29.912 7
        23.309 7        37.330          38.500    24913231.463 7         0.000  
 15  8 27  5 24 40.5000000  0  1G11
  -1521804.027 7  -1245381.626 7  24913221.286 7  24913221.921 7        29.055 7
        22.644 7        37.090          38.610    24913222.343 7         0.000  
 15  8 27  5 24 42.0000000  0  1G11
  -1521846.966 7  -1245415.085 7  24913212.855 7  24913213.740 7        28.187 7
        21.966 7        36.790          38.520    24913212.907 7         0.000  
 15  8 27  5 24 43.5000000  0  1G11
  -1521888.616 7  -1245447.536 7  24913204.962 7  24913205.973 7        27.340 7
        21.291 7        36.470          38.320    24913205.584 7         0.000  
 15  8 27  5 24 45.0000000  0  1G11
  -1521928.961 7  -1245478.970 7  24913196.934 7  24913198.212 7        26.464 7
        20.634 7        36.330          38.330    24913197.698 7         0.000  
 15  8 27  5 24 46.5000000  0  1G11
  -1521968.014 7  -1245509.392 7  24913189.522 7  24913190.466 7        25.607 7
        19.956 7        36.540          38.380    24913189.389 7         0.000  
 15  8 27  5 24 48.0000000  0  1G11
  -1522005.765 7  -1245538.810 7  24913181.970 7  24913183.101 7        24.750 7
        19.284 7        35.880          38.450    24913181.355 7         0.000  
 15  8 27  5 24 49.5000000  0  1G11
  -1522042.232 7  -1245567.221 7  24913174.625 7  24913176.361 7        23.870 7
        18.598 7        35.750          38.440    24913173.832 7         0.000  
 15  8 27  5 24 51.0000000  0  1G11
  -1522077.390 7  -1245594.622 7  24913168.053 7  24913169.739 7        23.000 7
        17.925 7        35.890          38.600    24913167.849 7         0.000  
 15  8 27  5 24 52.5000000  0  1G11
  -1522111.257 7  -1245620.997 7  24913161.249 7  24913163.451 7        22.142 7
        17.256 7        35.700          38.550    24913160.336 7         0.000  
 15  8 27  5 24 54.0000000  0  1G11
  -1522143.834 7  -1245646.383 7  24913155.018 7  24913157.213 7        21.284 7
        16.585 7        35.650          38.610    24913155.190 7         0.000  
 15  8 27  5 24 55.5000000  0  1G11
  -1522175.125 7  -1245670.766 7  24913149.145 7  24913151.471 7        20.425 7
        15.913 7        35.650          38.490    24913146.693 7         0.000  
 15  8 27  5 24 57.0000000  0  1G11
  -1522205.135 7  -1245694.139 7  24913142.880 7  24913145.435 7        19.569 7
        15.250 7        35.530          38.530    24913143.271 7         0.000  
 15  8 27  5 24 58.5000000  0  1G11
  -1522233.831 7  -1245716.500 7  24913138.032 7  24913140.268 7        18.698 7
        14.571 7        35.670          38.470    24913137.645 7         0.000  
 15  8 27  5 25  0.0000000  0  1G11
  -1522261.250 7  -1245737.865 7  24913132.818 7  24913134.809 7        17.840 7
        13.905 7        35.670          38.520    24913132.256 7         0.000  
 15  8 27  5 25  1.5000000  0  1G11
  -1522287.382 7  -1245758.230 7  24913127.695 7  24913130.066 7        16.983 7
        13.230 7        35.550          38.450    24913126.369 7         0.000  
 15  8 27  5 25  3.0000000  0  1G11
  -1522312.205 7  -1245777.566 7  24913123.155 7  24913125.433 7        16.126 7
        12.554 7        35.750          38.670    24913122.918 7         0.000  
 15  8 27  5 25  4.5000000  0  1G11
  -1522335.745 7  -1245795.913 7  24913118.704 7  24913120.691 7        15.261 7
        11.898 7        35.740          38.890    24913119.176 7         0.000  
 15  8 27  5 25  6.0000000  0  1G11
  -1522357.977 7  -1245813.239 7  24913114.480 7  24913117.001 7        14.396 7
        11.214 7        35.910          38.970    24913115.256 7         0.000  
 15  8 27  5 25  7.5000000  0  1G11
  -1522378.938 7  -1245829.572 7  24913111.043 7  24913113.115 7        13.549 7
        10.562 7        36.190          38.790    24913112.018 7         0.000  
 15  8 27  5 25  9.0000000  0  1G11
  -1522398.594 7  -1245844.882 7  24913107.484 7  24913109.475 7        12.677 7
         9.879 7        36.410          38.590    24913107.636 7         0.000  
 15  8 27  5 25 10.5000000  0  1G11
  -1522416.949 7  -1245859.190 7  24913103.860 7  24913105.710 7        11.815 7
         9.202 7        36.510          38.580    24913105.271 7         0.000  
 15  8 27  5 25 12.0000000  0  1G11
  -1522434.031 7  -1245872.497 7  24913100.536 7  24913102.451 7        10.945 7
         8.534 7        36.830          38.490    24913101.319 7         0.000  
 15  8 27  5 25 13.5000000  0  1G11
  -1522449.826 7  -1245884.807 7  24913097.976 7  24913099.374 7        10.095 7
         7.862 7        36.900          38.490    24913097.083 7         0.000  
 15  8 27  5 25 15.0000000  0  1G11
  -1522464.315 7  -1245896.096 7  24913095.140 7  24913096.755 7         9.223 7
         7.187 7        37.370          38.510    24913095.736 7         0.000  
 15  8 27  5 25 16.5000000  0  1G11
  -1522477.500 7  -1245906.382 7  24913092.836 7  24913094.280 7         8.359 7
         6.508 7        37.930          38.610    24913093.853 7         0.000  
 15  8 27  5 25 18.0000000  0  1G11
  -1522489.405 7  -1245915.654 7  24913090.712 7  24913091.871 7         7.490 7
         5.849 7        37.810          38.490    24913092.104 7         0.000  
 15  8 27  5 25 19.5000000  0  1G11
  -1522500.011 7  -1245923.922 7  24913088.956 7  24913089.876 7         6.638 7
         5.180 7        38.070          38.350    24913089.178 7         0.000  
 15  8 27  5 25 21.0000000  0  1G11
  -1522509.329 7  -1245931.189 7  24913087.354 7  24913088.160 7         5.777 7
         4.502 7        38.390          38.410    24913088.107 7         0.000  
 15  8 27  5 25 22.5000000  0  1G11
  -1522517.356 7  -1245937.442 7  24913085.561 7  24913086.661 7         4.912 7
         3.827 7        38.380          38.410    24913086.027 7         0.000  
 15  8 27  5 25 24.0000000  0  1G11
  -1522524.092 7  -1245942.695 7  24913084.623 7  24913085.295 7         4.056 7
         3.159 7        38.280          38.450    24913085.488 7         0.000  
 15  8 27  5 25 25.5000000  0  1G11
  -1522529.546 7  -1245946.943 7  24913083.510 7  24913084.216 7         3.197 7
         2.490 7        38.290          38.420    24913083.486 7         0.000  
 15  8 27  5 25 27.0000000  0  1G11
  -1522533.693 7  -1245950.180 7  24913082.549 7  24913083.270 7         2.333 7
         1.819 7        38.500          38.230    24913082.447 7         0.000  
 15  8 27  5 25 28.5000000  0  1G11
  -1522536.556 7  -1245952.412 7  24913081.646 7  24913082.464 7         1.482 7
         1.144 7        38.480          38.080    24913081.569 7         0.000  
 15  8 27  5 25 30.0000000  0  1G11
  -1522538.128 7  -1245953.637 7  24913081.132 7  24913082.622 7         0.613 7
         0.477 7        38.330          38.070    24913081.185 7         0.000  
 15  8 27  5 25 31.5000000  0  1G11
  -1522538.419 7  -1245953.860 7  24913081.134 7  24913082.066 7        -0.242 7
        -0.196 7        38.370          37.840    24913080.505 7         0.000  
 15  8 27  5 25 33.0000000  0  1G11
  -1522537.400 7  -1245953.067 7  24913081.356 7  24913082.246 7        -1.111 7
        -0.855 7        38.530          37.740    24913080.371 7         0.000  
 15  8 27  5 25 34.5000000  0  1G11
  -1522535.099 7  -1245951.265 7  24913081.427 7  24913082.387 7        -1.963 7
        -1.541 7        38.560          37.850    24913081.245 7         0.000  
 15  8 27  5 25 36.0000000  0  1G11
  -1522531.515 7  -1245948.474 7  24913082.398 7  24913082.928 7        -2.828 7
        -2.202 7        38.350          37.670    24913081.971 7         0.000  
 15  8 27  5 25 37.5000000  0  1G11
  -1522526.629 7  -1245944.673 7  24913083.231 7  24913083.703 7        -3.686 7
        -2.876 7        38.420          37.320    24913083.121 7         0.000  
 15  8 27  5 25 39.0000000  0  1G11
  -1522520.463 7  -1245939.859 7  24913084.266 7  24913085.102 7        -4.551 7
        -3.552 7        38.570          37.340    24913083.711 7         0.000  
 15  8 27  5 25 40.5000000  0  1G11
  -1522513.007 7  -1245934.041 7  24913085.948 7  24913086.586 7        -5.409 7
        -4.213 7        38.640          37.400    24913084.445 7         0.000  
 15  8 27  5 25 42.0000000  0  1G11
  -1522504.248 7  -1245927.215 7  24913087.839 7  24913088.221 7        -6.263 7
        -4.888 7        38.820          37.420    24913086.251 7         0.000  
 15  8 27  5 25 43.5000000  0  1G11
  -1522494.216 7  -1245919.403 7  24913089.957 7  24913090.088 7        -7.128 7
        -5.552 7        38.850          37.000    24913089.757 7         0.000  
 15  8 27  5 25 45.0000000  0  1G11
  -1522482.881 7  -1245910.562 7  24913091.992 7  24913092.435 7        -7.998 7
        -6.225 7        39.040          37.490    24913091.149 7         0.000  
 15  8 27  5 25 46.5000000  0  1G11
  -1522470.252 7  -1245900.720 7  24913094.507 7  24913094.586 7        -8.858 7
        -6.894 7        39.080          37.470    24913094.116 7         0.000  
 15  8 27  5 25 48.0000000  0  1G11
  -1522456.320 7  -1245889.860 7  24913097.208 7  24913097.371 7        -9.716 7
        -7.562 7        39.170          37.440    24913096.286 7         0.000  
 15  8 27  5 25 49.5000000  0  1G11
  -1522441.118 7  -1245878.024 7  24913099.860 7  24913100.185 7       -10.569 7
        -8.229 7        39.110          37.480    24913099.876 7         0.000  
 15  8 27  5 25 51.0000000  0  1G11
  -1522424.613 7  -1245865.173 7  24913103.206 7  24913103.940 7       -11.433 7
        -8.899 7        39.310          37.390    24913103.412 7         0.000  
 15  8 27  5 25 52.5000000  0  1G11
  -1522406.832 7  -1245851.310 7  24913106.450 7  24913106.817 7       -12.286 7
        -9.571 7        39.280          37.730    24913107.532 7         0.000  
 15  8 27  5 25 54.0000000  0  1G11
  -1522387.750 7  -1245836.447 7  24913109.943 7  24913110.840 7       -13.138 7
       -10.243 7        39.250          37.820    24913110.853 7         0.000  
 15  8 27  5 25 55.5000000  0  1G11
  -1522367.394 7  -1245820.580 7  24913113.583 7  24913114.500 7       -13.993 7
       -10.908 7        39.160          37.970    24913114.956 7         0.000  
 15  8 27  5 25 57.0000000  0  1G11
  -1522345.735 7  -1245803.713 7  24913117.508 7  24913119.068 7       -14.868 7
       -11.581 7        39.010          37.620    24913119.361 7         0.000  
 15  8 27  5 25 58.5000000  0  1G11
  -1522322.789 7  -1245785.833 7  24913121.887 7  24913123.695 7       -15.730 7
       -12.248 7        38.970          37.880    24913122.179 7         0.000  
 15  8 27  5 26  0.0000000  0  1G11
  -1522298.546 7  -1245766.949 7  24913126.678 7  24913128.182 7       -16.591 7
       -12.923 7        39.040          37.690    24913126.911 7         0.000  
 15  8 27  5 26  1.5000000  0  1G11
  -1522273.028 7  -1245747.066 7  24913131.061 7  24913133.361 7       -17.445 7
       -13.589 7        39.110          37.590    24913130.925 7         0.000  
 15  8 27  5 26  3.0000000  0  1G11
  -1522246.212 7  -1245726.172 7  24913136.621 7  24913138.038 7       -18.305 7
       -14.263 7        39.060          37.620    24913136.333 7         0.000  
 15  8 27  5 26  4.5000000  0  1G11
  -1522218.115 7  -1245704.284 7  24913141.681 7  24913143.434 7       -19.161 7
       -14.944 7        39.090          37.570    24913142.028 7         0.000  
 15  8 27  5 26  6.0000000  0  1G11
  -1522188.728 7  -1245681.383 7  24913147.349 7  24913148.935 7       -20.014 7
       -15.602 7        39.030          37.290    24913148.492 7         0.000  
 15  8 27  5 26  7.5000000  0  1G11
  -1522158.061 7  -1245657.487 7  24913153.464 7  24913154.778 7       -20.883 7
       -16.275 7        39.000          37.480    24913154.228 7         0.000  
 15  8 27  5 26  9.0000000  0  1G11
  -1522126.098 7  -1245632.589 7  24913159.234 7  24913160.653 7       -21.732 7
       -16.929 7        39.090          37.250    24913160.116 7         0.000  
 15  8 27  5 26 10.5000000  0  1G11
  -1522092.846 7  -1245606.680 7  24913165.598 7  24913167.129 7       -22.591 7
       -17.611 7        39.180          36.980    24913165.647 7         0.000  
 15  8 27  5 26 12.0000000  0  1G11
  -1522058.315 7  -1245579.767 7  24913172.159 7  24913173.280 7       -23.449 7
       -18.274 7        39.260          37.080    24913172.652 7         0.000  
 15  8 27  5 26 13.5000000  0  1G11
  -1522022.493 7  -1245551.858 7  24913179.127 7  24913179.696 7       -24.310 7
       -18.938 7        39.440          36.830    24913179.094 7         0.000  
 15  8 27  5 26 15.0000000  0  1G11
  -1521985.383 7  -1245522.935 7  24913186.280 7  24913186.757 7       -25.160 7
       -19.621 7        39.630          36.950    24913185.503 7         0.000  
 15  8 27  5 26 16.5000000  0  1G11
  -1521946.989 7  -1245493.013 7  24913193.456 7  24913193.509 7       -26.029 7
       -20.277 7        39.770          36.970    24913191.779 7         0.000  
 15  8 27  5 26 18.0000000  0  1G11
  -1521907.296 7  -1245462.093 7  24913201.450 7  24913200.612 7       -26.891 7
       -20.953 7        39.950          36.470    24913200.769 7         0.000  
 15  8 27  5 26 19.5000000  0  1G11
  -1521866.327 7  -1245430.170 7  24913209.187 7  24913208.198 7       -27.747 7
       -21.618 7        39.930          36.700    24913209.182 7         0.000  
 15  8 27  5 26 21.0000000  0  1G11
  -1521824.058 7  -1245397.220 7  24913217.284 7  24913216.262 7       -28.616 7
       -22.293 7        39.820          36.870    24913216.440 7         0.000  
 15  8 27  5 26 22.5000000  0  1G11
  -1521780.496 7  -1245363.282 7  24913225.510 7  24913224.734 7       -29.467 7
       -22.973 7        39.740          36.830    24913225.507 7         0.000  
 15  8 27  5 26 24.0000000  0  1G11
  -1521735.656 7  -1245328.345 7  24913234.360 7  24913233.082 7       -30.327 7
       -23.629 7        39.650          36.770    24913234.118 7         0.000  
 15  8 27  5 26 25.5000000  0  1G11
  -1521689.529 7  -1245292.399 7  24913243.049 7  24913241.996 7       -31.186 7
       -24.296 7        39.750          36.940    24913242.209 7         0.000  
 15  8 27  5 26 27.0000000  0  1G11
  -1521642.105 7  -1245255.441 7  24913252.366 7  24913251.201 7       -32.039 7
       -24.971 7        39.790          37.150    24913252.746 7         0.000  
 15  8 27  5 26 28.5000000  0  1G11
  -1521593.397 7  -1245217.491 7  24913261.611 7  24913260.799 7       -32.899 7
       -25.642 7        39.650          37.400    24913261.704 7         0.000  
 15  8 27  5 26 30.0000000  0  1G11
  -1521543.398 7  -1245178.529 7  24913271.102 7  24913270.433 7       -33.767 7
       -26.305 7        39.750          37.710    24913271.933 7         0.000  
 15  8 27  5 26 31.5000000  0  1G11
  -1521492.124 7  -1245138.575 7  24913280.952 7  24913280.303 7       -34.616 7
       -26.975 7        39.750          37.470    24913281.474 7         0.000  
 15  8 27  5 26 33.0000000  0  1G11
  -1521439.548 7  -1245097.605 7  24913291.211 7  24913290.418 7       -35.478 7
       -27.640 7        39.600          37.810    24913291.507 7         0.000  
 15  8 27  5 26 34.5000000  0  1G11
  -1521385.692 7  -1245055.641 7  24913301.414 7  24913301.144 7       -36.340 7
       -28.315 7        39.600          38.000    24913301.729 7         0.000  
 15  8 27  5 26 36.0000000  0  1G11
  -1521330.541 7  -1245012.673 7  24913311.734 7  24913311.671 7       -37.199 7
       -28.985 7        39.560          38.220    24913312.231 7         0.000  
 15  8 27  5 26 37.5000000  0  1G11
  -1521274.110 7  -1244968.706 7  24913322.554 7  24913322.794 7       -38.056 7
       -29.651 7        39.460          38.420    24913322.461 7         0.000  
 15  8 27  5 26 39.0000000  0  1G11
  -1521216.383 7  -1244923.718 7  24913333.236 7  24913333.709 7       -38.914 7
       -30.319 7        39.390          38.390    24913333.861 7         0.000  
 15  8 27  5 26 40.5000000  0  1G11
  -1521157.369 7  -1244877.740 7  24913344.676 7  24913345.025 7       -39.780 7
       -30.994 7        39.320          38.840    24913345.527 7         0.000  
 15  8 27  5 26 42.0000000  0  1G11
  -1521097.057 7  -1244830.747 7  24913355.820 7  24913356.952 7       -40.646 7
       -31.666 7        39.150          38.950    24913357.131 7         0.000  
 15  8 27  5 26 43.5000000  0  1G11
  -1521035.474 7  -1244782.761 7  24913367.557 7  24913368.508 7       -41.491 7
       -32.332 7        39.110          39.160    24913368.603 7         0.000  
 15  8 27  5 26 45.0000000  0  1G11
  -1520972.588 7  -1244733.760 7  24913379.463 7  24913380.480 7       -42.349 7
       -32.993 7        38.900          39.250    24913380.271 7         0.000  
 15  8 27  5 26 46.5000000  0  1G11
  -1520908.426 7  -1244683.764 7  24913391.955 7  24913393.157 7       -43.206 7
       -33.670 7        38.940          39.440    24913392.007 7         0.000  
 15  8 27  5 26 48.0000000  0  1G11
  -1520842.960 7  -1244632.757 7  24913404.137 7  24913405.403 7       -44.077 7
       -34.342 7        38.810          39.510    24913403.518 7         0.000  
 15  8 27  5 26 49.5000000  0  1G11
  -1520776.220 7  -1244580.752 7  24913416.867 7  24913418.027 7       -44.927 7
       -35.009 7        38.810          39.360    24913416.506 7         0.000  
 15  8 27  5 26 51.0000000  0  1G11
  -1520708.181 7  -1244527.733 7  24913430.110 7  24913430.824 7       -45.788 7
       -35.677 7        38.830          39.490    24913429.493 7         0.000  
 15  8 27  5 26 52.5000000  0  1G11
  -1520638.851 7  -1244473.712 7  24913443.434 7  24913444.223 7       -46.653 7
       -36.349 7        38.550          39.720    24913442.994 7         0.000  
 15  8 27  5 26 54.0000000  0  1G11
  -1520568.247 7  -1244418.697 7  24913456.639 7  24913457.700 7       -47.497 7
       -37.012 7        38.560          39.850    24913455.853 7         0.000  
 15  8 27  5 26 55.5000000  0  1G11
  -1520496.378 7  -1244362.686 7  24913470.215 7  24913471.507 7       -48.343 7
       -37.684 7        38.520          39.700    24913470.307 7         0.000  
 15  8 27  5 26 57.0000000  0  1G11
  -1520423.203 7  -1244305.674 7  24913484.081 7  24913485.061 7       -49.208 7
       -38.340 7        38.260          39.590    24913483.552 7         0.000  
 15  8 27  5 26 58.5000000  0  1G11
  -1520348.753 7  -1244247.654 7  24913498.025 7  24913499.208 7       -50.065 7
       -39.019 7        38.110          39.410    24913499.158 7         0.000  
 15  8 27  5 27  0.0000000  0  1G11
  -1520273.014 7  -1244188.634 7  24913512.750 7  24913513.709 7       -50.925 7
       -39.691 7        37.870          39.540    24913512.780 7         0.000  
 15  8 27  5 27  1.5000000  0  1G11
  -1520195.989 7  -1244128.617 7  24913527.069 7  24913528.143 7       -51.770 7
       -40.344 7        37.750          39.540    24913527.791 7         0.000  
 15  8 27  5 27  3.0000000  0  1G11
  -1520117.683 7  -1244067.600 7  24913541.390 7  24913542.927 7       -52.637 7
       -41.015 7        37.790          39.580    24913542.476 7         0.000  
 15  8 27  5 27  4.5000000  0  1G11
  -1520038.096 7  -1244005.580 7  24913556.566 7  24913558.260 7       -53.487 7
       -41.676 7        37.550          39.360    24913557.327 7         0.000  
 15  8 27  5 27  6.0000000  0  1G11
  -1519957.226 7  -1243942.566 7  24913571.914 7  24913573.293 7       -54.345 7
       -42.357 7        37.530          39.320    24913572.104 7         0.000  
 15  8 27  5 27  7.5000000  0  1G11
  -1519875.066 7  -1243878.547 7  24913587.100 7  24913588.660 7       -55.197 7
       -43.009 7        37.380          39.340    24913587.784 7         0.000  
 15  8 27  5 27  9.0000000  0  1G11
  -1519791.634 7  -1243813.527 7  24913603.388 7  24913604.796 7       -56.052 7
       -43.674 7        37.520          39.240    24913602.071 7         0.000  
 15  8 27  5 27 10.5000000  0  1G11
  -1519706.903 7  -1243747.503 7  24913619.401 7  24913620.735 7       -56.912 7
       -44.346 7        37.240          39.090    24913617.612 7         0.000  
 15  8 27  5 27 12.0000000  0  1G11
  -1519620.881 7  -1243680.485 7  24913635.621 7  24913637.207 7       -57.774 7
       -45.017 7        37.230          39.200    24913635.268 7         0.000  
 15  8 27  5 27 13.5000000  0  1G11
  -1519533.606 7  -1243612.466 7  24913652.610 7  24913653.666 7       -58.619 7
       -45.674 7        37.080          39.340    24913652.974 7         0.000  
 15  8 27  5 27 15.0000000  0  1G11
  -1519445.035 7  -1243543.452 7  24913669.497 7  24913670.711 7       -59.467 7
       -46.338 7        37.350          39.280    24913669.249 7         0.000  
 15  8 27  5 27 16.5000000  0  1G11
  -1519355.183 7  -1243473.436 7  24913686.621 7  24913687.847 7       -60.338 7
       -47.016 7        37.080          39.250    24913686.361 7         0.000  
 15  8 27  5 27 18.0000000  0  1G11
  -1519264.035 7  -1243402.406 7  24913703.976 7  24913704.890 7       -61.194 7
       -47.691 7        37.030          39.190    24913704.295 7         0.000  
 15  8 27  5 27 19.5000000  0  1G11
  -1519171.617 7  -1243330.391 7  24913721.754 7  24913722.734 7       -62.041 7
       -48.350 7        37.080          39.160    24913721.490 7         0.000  
 15  8 27  5 27 21.0000000  0  1G11
  -1519077.901 7  -1243257.360 7  24913739.538 7  24913740.484 7       -62.900 7
       -49.013 7        36.970          38.920    24913739.338 7         0.000  
 15  8 27  5 27 22.5000000  0  1G11
  -1518982.906 7  -1243183.337 7  24913757.339 7  24913758.810 7       -63.767 7
       -49.688 7        36.940          39.050    24913756.782 7         0.000  
 15  8 27  5 27 24.0000000  0  1G11
  -1518886.617 7  -1243108.308 7  24913775.768 7  24913776.839 7       -64.624 7
       -50.351 7        37.310          39.150    24913774.303 7         0.000  
 15  8 27  5 27 25.5000000  0  1G11
  -1518789.067 7  -1243032.285 7  24913794.215 7  24913795.490 7       -65.462 7
       -51.017 7        37.120          39.050    24913793.184 7         0.000  
 15  8 27  5 27 27.0000000  0  1G11
  -1518690.219 7  -1242955.252 7  24913813.574 7  24913814.162 7       -66.321 7
       -51.684 7        37.100          38.960    24913812.889 7         0.000  
 15  8 27  5 27 28.5000000  0  1G11
  -1518590.082 7  -1242877.220 7  24913832.314 7  24913833.302 7       -67.186 7
       -52.364 7        37.070          39.030    24913832.455 7         0.000  
 15  8 27  5 27 30.0000000  0  1G11
  -1518488.669 7  -1242798.196 7  24913851.861 7  24913852.620 7       -68.042 7
       -53.024 7        37.230          39.030    24913851.146 7         0.000  
 15  8 27  5 27 31.5000000  0  1G11
  -1518385.968 7  -1242718.167 7  24913871.364 7  24913872.130 7       -68.893 7
       -53.678 7        37.290          39.040    24913872.104 7         0.000  
 15  8 27  5 27 33.0000000  0  1G11
  -1518281.978 7  -1242637.141 7  24913891.462 7  24913891.605 7       -69.766 7
       -54.360 7        37.120          39.110    24913891.635 7         0.000  
 15  8 27  5 27 34.5000000  0  1G11
  -1518176.704 7  -1242555.110 7  24913911.192 7  24913911.887 7       -70.615 7
       -55.023 7        37.400          39.140    24913910.760 7         0.000  
 15  8 27  5 27 36.0000000  0  1G11
  -1518070.143 7  -1242472.073 7  24913931.811 7  24913931.910 7       -71.469 7
       -55.684 7        37.360          38.960    24913931.229 7         0.000  
 15  8 27  5 27 37.5000000  0  1G11
  -1517962.315 7  -1242388.045 7  24913952.296 7  24913952.507 7       -72.318 7
       -56.352 7        37.560          39.240    24913952.896 7         0.000  
 15  8 27  5 27 39.0000000  0  1G11
  -1517853.194 7  -1242303.019 7  24913972.908 7  24913973.013 7       -73.178 7
       -57.024 7        37.420          39.240    24913974.068 7         0.000  
 15  8 27  5 27 40.5000000  0  1G11
  -1517742.788 7  -1242216.996 7  24913993.884 7  24913994.022 7       -74.026 7
       -57.693 7        37.440          39.230    24913995.279 7         0.000  
 15  8 27  5 27 42.0000000  0  1G11
  -1517631.102 7  -1242129.967 7  24914015.752 7  24914015.396 7       -74.879 7
       -58.353 7        37.590          39.160    24914016.136 7         0.000  
 15  8 27  5 27 43.5000000  0  1G11
  -1517518.152 7  -1242041.960 7  24914036.594 7  24914036.732 7       -75.730 7
       -59.015 7        37.600          39.260    24914038.806 7         0.000  
 15  8 27  5 27 45.0000000  0  1G11
  -1517403.909 7  -1241952.929 7  24914058.592 7  24914058.215 7       -76.600 7
       -59.689 7        37.760          39.120    24914059.466 7         0.000  
 15  8 27  5 27 46.5000000  0  1G11
  -1517288.372 7  -1241862.902 7  24914080.300 7  24914080.500 7       -77.440 7
       -60.350 7        37.670          39.260    24914082.219 7         0.000  
 15  8 27  5 27 48.0000000  0  1G11
  -1517171.555 7  -1241771.875 7  24914103.011 7  24914102.795 7       -78.306 7
       -61.017 7        38.000          39.310    24914103.051 7         0.000  
 15  8 27  5 27 49.5000000  0  1G11
  -1517053.476 7  -1241679.868 7  24914124.997 7  24914125.275 7       -79.157 7
       -61.681 7        38.170          39.210    24914125.165 7         0.000  
 15  8 27  5 27 51.0000000  0  1G11
  -1516934.110 7  -1241586.845 7  24914147.911 7  24914148.023 7       -80.009 7
       -62.347 7        37.920          39.300    24914148.266 7         0.000  
 15  8 27  5 27 52.5000000  0  1G11
  -1516813.445 7  -1241492.819 7  24914170.894 7  24914170.898 7       -80.870 7
       -63.015 7        38.340          39.400    24914171.424 7         0.000  
 15  8 27  5 27 54.0000000  0  1G11
  -1516691.505 7  -1241397.808 7  24914194.067 7  24914194.092 7       -81.723 7
       -63.679 7        38.370          39.490    24914194.445 7         0.000  
 15  8 27  5 27 55.5000000  0  1G11
  -1516568.296 7  -1241301.795 7  24914217.585 7  24914217.701 7       -82.568 7
       -64.346 7        38.300          39.390    24914217.228 7         0.000  
 15  8 27  5 27 57.0000000  0  1G11
  -1516443.798 7  -1241204.780 7  24914241.300 7  24914241.346 7       -83.429 7
       -65.018 7        38.580          39.400    24914241.291 7         0.000  
 15  8 27  5 27 58.5000000  0  1G11
  -1516318.009 7  -1241106.764 7  24914265.306 7  24914265.218 7       -84.300 7
       -65.682 7        38.480          39.480    24914265.392 7         0.000  
 15  8 27  5 28  0.0000000  0  1G11
  -1516190.945 7  -1241007.739 7  24914289.474 7  24914289.341 7       -85.137 7
       -66.343 7        38.460          39.620    24914288.745 7         0.000  
 15  8 27  5 28  1.5000000  0  1G11
  -1516062.600 7  -1240907.733 7  24914313.455 7  24914314.267 7       -85.996 7
       -67.013 7        38.650          39.760    24914314.012 7         0.000  
 15  8 27  5 28  3.0000000  0  1G11
  -1515932.971 7  -1240806.728 7  24914338.132 7  24914338.237 7       -86.846 7
       -67.677 7        38.600          39.880    24914338.160 7         0.000  
 15  8 27  5 28  4.5000000  0  1G11
  -1515802.056 7  -1240704.711 7  24914363.055 7  24914363.544 7       -87.692 7
       -68.336 7        38.520          39.890    24914362.175 7         0.000  
 15  8 27  5 28  6.0000000  0  1G11
  -1515669.866 7  -1240601.700 7  24914387.691 7  24914388.989 7       -88.568 7
       -69.015 7        38.530          40.180    24914388.320 7         0.000  
 15  8 27  5 28  7.5000000  0  1G11
  -1515536.397 7  -1240497.693 7  24914413.150 7  24914414.255 7       -89.402 7
       -69.669 7        38.520          40.180    24914413.080 7         0.000  
 15  8 27  5 28  9.0000000  0  1G11
  -1515401.642 7  -1240392.691 7  24914438.388 7  24914440.295 7       -90.249 7
       -70.333 7        38.570          40.260    24914438.636 7         0.000  
 15  8 27  5 28 10.5000000  0  1G11
  -1515265.612 7  -1240286.685 7  24914464.373 7  24914466.229 7       -91.123 7
       -71.013 7        38.520          40.340    24914463.913 7         0.000  
 15  8 27  5 28 12.0000000  0  1G11
  -1515128.294 7  -1240179.687 7  24914490.295 7  24914492.459 7       -91.979 7
       -71.674 7        38.460          40.240    24914489.977 7         0.000  
 15  8 27  5 28 13.5000000  0  1G11
  -1514989.694 7  -1240071.688 7  24914517.012 7  24914518.923 7       -92.820 7
       -72.335 7        38.590          40.610    24914517.609 7         0.000  
 15  8 27  5 28 15.0000000  0  1G11
  -1514849.822 7  -1239962.691 7  24914543.687 7  24914545.731 7       -93.687 7
       -72.997 7        38.630          40.570    24914543.428 7         0.000  
 15  8 27  5 28 16.5000000  0  1G11
  -1514708.660 7  -1239852.691 7  24914570.818 7  24914573.098 7       -94.534 7
       -73.666 7        38.620          40.620    24914571.529 7         0.000  
 15  8 27  5 28 18.0000000  0  1G11
  -1514566.219 7  -1239741.695 7  24914597.709 7  24914599.854 7       -95.382 7
       -74.333 7        38.680          40.590    24914599.297 7         0.000  
 15  8 27  5 28 19.5000000  0  1G11
  -1514422.512 7  -1239629.717 7  24914625.428 7  24914626.955 7       -96.233 7
       -74.992 7        38.740          40.500    24914626.934 7         0.000  
 15  8 27  5 28 21.0000000  0  1G11
  -1514277.514 7  -1239516.730 7  24914653.282 7  24914655.012 7       -97.087 7
       -75.653 7        38.640          40.590    24914654.822 7         0.000  
 15  8 27  5 28 22.5000000  0  1G11
  -1514131.237 7  -1239402.746 7  24914680.699 7  24914682.703 7       -97.938 7
       -76.323 7        38.610          40.710    24914683.293 7         0.000  
 15  8 27  5 28 24.0000000  0  1G11
  -1513983.697 7  -1239287.768 7  24914709.261 7  24914710.779 7       -98.790 7
       -76.992 7        38.630          40.520    24914709.950 7         0.000  
 15  8 27  5 28 25.5000000  0  1G11
  -1513834.875 7  -1239171.803 7  24914737.080 7  24914739.183 7       -99.645 7
       -77.649 7        38.710          40.320    24914739.353 7         0.000  
 15  8 27  5 28 27.0000000  0  1G11
  -1513684.766 7  -1239054.834 7  24914765.701 7  24914767.428 7      -100.494 7
       -78.309 7        38.610          40.180    24914766.544 7         0.000  
 15  8 27  5 28 28.5000000  0  1G11
  -1513533.372 7  -1238936.860 7  24914794.614 7  24914796.242 7      -101.347 7
       -78.985 7        38.990          39.930    24914795.400 7         0.000  
 15  8 27  5 28 30.0000000  0  1G11
  -1513380.702 7  -1238817.893 7  24914823.788 7  24914825.221 7      -102.219 7
       -79.648 7        38.910          39.970    24914823.309 7         0.000  
 15  8 27  5 28 31.5000000  0  1G11
  -1513226.756 7  -1238697.931 7  24914853.053 7  24914854.187 7      -103.055 7
       -80.302 7        38.650          39.720    24914852.383 7         0.000  
 15  8 27  5 28 33.0000000  0  1G11
  -1513071.522 7  -1238576.970 7  24914882.469 7  24914883.732 7      -103.919 7
       -80.975 7        39.080          39.480    24914882.353 7         0.000  
 15  8 27  5 28 34.5000000  0  1G11
  -1512915.014 7  -1238455.011 7  24914912.419 7  24914913.370 7      -104.767 7
       -81.638 7        39.150          39.220    24914911.496 7         0.000  
 15  8 27  5 28 36.0000000  0  1G11
  -1512757.216 7  -1238332.052 7  24914942.394 7  24914943.253 7      -105.614 7
       -82.297 7        39.200          39.140    24914941.529 7         0.000  
 15  8 27  5 28 37.5000000  0  1G11
  -1512598.158 7  -1238208.109 7  24914972.303 7  24914973.819 7      -106.458 7
       -82.970 7        39.470          38.850    24914971.416 7         0.000  
 15  8 27  5 28 39.0000000  0  1G11
  -1512437.819 7  -1238083.167 7  24915003.275 7  24915003.947 7      -107.315 7
       -83.628 7        39.680          38.970    24915003.006 7         0.000  
 15  8 27  5 28 40.5000000  0  1G11
  -1512276.197 7  -1237957.220 7  24915033.766 7  24915034.437 7      -108.182 7
       -84.300 7        39.930          38.810    24915033.472 7         0.000  
 15  8 27  5 28 42.0000000  0  1G11
  -1512113.289 7  -1237830.288 7  24915064.858 7  24915065.638 7      -109.034 7
       -84.964 7        39.860          38.500    24915064.215 7         0.000  
 15  8 27  5 28 43.5000000  0  1G11
  -1511949.117 7  -1237702.357 7  24915096.248 7  24915096.609 7      -109.878 7
       -85.621 7        40.020          38.470    24915095.653 7         0.000  
 15  8 27  5 28 45.0000000  0  1G11
  -1511783.657 7  -1237573.422 7  24915128.009 7  24915128.031 7      -110.728 7
       -86.286 7        40.230          38.650    24915128.092 7         0.000  
 15  8 27  5 28 46.5000000  0  1G11
  -1511616.919 7  -1237443.505 7  24915159.713 7  24915159.674 7      -111.595 7
       -86.950 7        40.170          38.290    24915159.773 7         0.000  
 15  8 27  5 28 48.0000000  0  1G11
  -1511448.903 7  -1237312.573 7  24915191.555 7  24915191.664 7      -112.444 7
       -87.614 7        40.430          38.280    24915191.741 7         0.000  
 15  8 27  5 28 49.5000000  0  1G11
  -1511279.613 7  -1237180.663 7  24915223.348 7  24915224.005 7      -113.277 7
       -88.274 7        40.440          38.240    24915223.713 7         0.000  
 15  8 27  5 28 51.0000000  0  1G11
  -1511109.037 7  -1237047.743 7  24915256.238 7  24915256.203 7      -114.138 7
       -88.945 7        40.620          38.410    24915256.181 7         0.000  
 15  8 27  5 28 52.5000000  0  1G11
  -1510937.188 7  -1236913.831 7  24915288.637 7  24915289.265 7      -114.989 7
       -89.603 7        40.480          38.380    24915287.674 7         0.000  
 15  8 27  5 28 54.0000000  0  1G11
  -1510764.055 7  -1236778.923 7  24915321.853 7  24915322.195 7      -115.849 7
       -90.278 7        40.430          38.310    24915321.415 7         0.000  
 15  8 27  5 28 55.5000000  0  1G11
  -1510589.661 7  -1236643.024 7  24915354.784 7  24915355.188 7      -116.699 7
       -90.932 7        40.480          38.190    24915355.604 7         0.000  
 15  8 27  5 28 57.0000000  0  1G11
  -1510413.972 7  -1236506.118 7  24915388.281 7  24915388.901 7      -117.561 7
       -91.607 7        40.470          38.350    24915388.837 7         0.000  
 15  8 27  5 28 58.5000000  0  1G11
  -1510236.992 7  -1236368.209 7  24915421.977 7  24915422.672 7      -118.400 7
       -92.262 7        40.660          38.520    24915422.621 7         0.000  
 15  8 27  5 29  0.0000000  0  1G11
  -1510058.732 7  -1236229.306 7  24915455.482 7  24915456.396 7      -119.269 7
       -92.940 7        40.580          38.240    24915455.831 7         0.000  
 15  8 27  5 29  1.5000000  0  1G11
  -1509879.215 7  -1236089.417 7  24915489.787 7  24915490.561 7      -120.098 7
       -93.586 7        40.820          38.240    24915490.808 7         0.000  
 15  8 27  5 29  3.0000000  0  1G11
  -1509698.401 7  -1235948.522 7  24915524.176 7  24915525.206 7      -120.975 7
       -94.263 7        40.760          38.260    24915524.425 7         0.000  
 15  8 27  5 29  4.5000000  0  1G11
  -1509516.316 7  -1235806.631 7  24915559.029 7  24915559.634 7      -121.812 7
       -94.921 7        40.800          38.180    24915558.950 7         0.000  
 15  8 27  5 29  6.0000000  0  1G11
  -1509332.960 7  -1235663.752 7  24915593.869 7  24915594.813 7      -122.670 7
       -95.588 7        40.880          38.240    24915594.011 7         0.000  
 15  8 27  5 29  7.5000000  0  1G11
  -1509148.338 7  -1235519.898 7  24915629.271 7  24915629.952 7      -123.504 7
       -96.232 7        41.040          38.220    24915628.570 7         0.000  
 15  8 27  5 29  9.0000000  0  1G11
  -1508962.433 7  -1235375.030 7  24915664.526 7  24915665.235 7      -124.369 7
       -96.913 7        40.930          38.050    24915663.697 7         0.000  
 15  8 27  5 29 10.5000000  0  1G11
  -1508775.251 7  -1235229.176 7  24915700.106 7  24915701.109 7      -125.213 7
       -97.567 7        41.070          38.080    24915699.302 7         0.000  
 15  8 27  5 29 12.0000000  0  1G11
  -1508586.793 7  -1235082.320 7  24915736.082 7  24915736.498 7      -126.070 7
       -98.239 7        41.090          38.040    24915735.408 7         0.000  
 15  8 27  5 29 13.5000000  0  1G11
  -1508397.062 7  -1234934.483 7  24915772.179 7  24915772.680 7      -126.919 7
       -98.901 7        41.180          38.130    24915771.958 7         0.000  
 15  8 27  5 29 15.0000000  0  1G11
  -1508206.045 7  -1234785.625 7  24915808.507 7  24915808.881 7      -127.772 7
       -99.564 7        41.260          38.010    24915807.908 7         0.000  
 15  8 27  5 29 16.5000000  0  1G11
  -1508013.756 7  -1234635.792 7  24915845.461 7  24915845.028 7      -128.622 7
      -100.221 7        41.220          38.020    24915844.853 7         0.000  
 15  8 27  5 29 18.0000000  0  1G11
  -1507820.189 7  -1234484.951 7  24915882.373 7  24915882.047 7      -129.476 7
      -100.892 7        41.190          37.940    24915881.982 7         0.000  
 15  8 27  5 29 19.5000000  0  1G11
  -1507625.352 7  -1234333.132 7  24915919.667 7  24915919.091 7      -130.312 7
      -101.544 7        41.010          37.940    24915919.279 7         0.000  
 15  8 27  5 29 21.0000000  0  1G11
  -1507429.234 7  -1234180.304 7  24915956.793 7  24915956.244 7      -131.180 7
      -102.225 7        40.960          37.890    24915956.777 7         0.000  
 15  8 27  5 29 22.5000000  0  1G11
  -1507231.846 7  -1234026.506 7  24915994.219 7  24915993.374 7      -132.010 7
      -102.872 7        40.910          38.030    24915994.169 7         0.000  
 15  8 27  5 29 24.0000000  0  1G11
  -1507033.179 7  -1233871.692 7  24916032.131 7  24916031.729 7      -132.875 7
      -103.547 7        40.750          38.130    24916032.499 7         0.000  
 15  8 27  5 29 25.5000000  0  1G11
  -1506833.251 7  -1233715.904 7  24916070.136 7  24916069.893 7      -133.713 7
      -104.185 7        40.510          38.420    24916070.636 7         0.000  
 15  8 27  5 29 27.0000000  0  1G11
  -1506632.029 7  -1233559.111 7  24916108.178 7  24916108.264 7      -134.574 7
      -104.875 7        40.510          38.390    24916108.980 7         0.000  
 15  8 27  5 29 28.5000000  0  1G11
  -1506429.539 7  -1233401.315 7  24916146.495 7  24916147.234 7      -135.423 7
      -105.528 7        40.180          38.270    24916147.507 7         0.000  
 15  8 27  5 29 30.0000000  0  1G11
  -1506225.764 7  -1233242.527 7  24916185.123 7  24916185.992 7      -136.273 7
      -106.196 7        40.070          38.240    24916186.137 7         0.000  
 15  8 27  5 29 31.5000000  0  1G11
  -1506020.714 7  -1233082.757 7  24916223.832 7  24916225.358 7      -137.117 7
      -106.847 7        39.900          38.400    24916224.310 7         0.000  
 15  8 27  5 29 33.0000000  0  1G11
  -1505814.386 7  -1232921.977 7  24916263.485 7  24916264.650 7      -137.978 7
      -107.513 7        39.690          38.310    24916264.177 7         0.000  
 15  8 27  5 29 34.5000000  0  1G11
  -1505606.780 7  -1232760.211 7  24916302.598 7  24916304.218 7      -138.823 7
      -108.173 7        39.370          38.580    24916303.578 7         0.000  
 15  8 27  5 29 36.0000000  0  1G11
  -1505397.906 7  -1232597.451 7  24916342.207 7  24916344.416 7      -139.679 7
      -108.837 7        39.340          38.650    24916342.114 7         0.000  
 15  8 27  5 29 37.5000000  0  1G11
  -1505187.761 7  -1232433.707 7  24916381.848 7  24916384.179 7      -140.528 7
      -109.497 7        39.110          38.550    24916382.529 7         0.000  
 15  8 27  5 29 39.0000000  0  1G11
  -1504976.338 7  -1232268.963 7  24916422.224 7  24916424.570 7      -141.365 7
      -110.156 7        39.100          38.880    24916422.225 7         0.000  
 15  8 27  5 29 40.5000000  0  1G11
  -1504763.647 7  -1232103.232 7  24916462.385 7  24916465.278 7      -142.217 7
      -110.814 7        39.010          38.550    24916463.722 7         0.000  
 15  8 27  5 29 42.0000000  0  1G11
  -1504549.678 7  -1231936.506 7  24916503.383 7  24916505.737 7      -143.066 7
      -111.482 7        39.080          38.710    24916503.895 7         0.000  
 15  8 27  5 29 43.5000000  0  1G11
  -1504334.459 7  -1231768.800 7  24916544.326 7  24916546.603 7      -143.911 7
      -112.142 7        39.400          38.560    24916544.307 7         0.000  
 15  8 27  5 29 45.0000000  0  1G11
  -1504117.946 7  -1231600.090 7  24916585.714 7  24916587.377 7      -144.769 7
      -112.809 7        39.220          38.370    24916585.453 7         0.000  
 15  8 27  5 29 46.5000000  0  1G11
  -1503900.166 7  -1231430.392 7  24916627.300 7  24916629.255 7      -145.606 7
      -113.455 7        39.550          38.380    24916626.400 7         0.000  
 15  8 27  5 29 48.0000000  0  1G11
  -1503681.103 7  -1231259.693 7  24916668.824 7  24916670.733 7      -146.478 7
      -114.138 7        39.440          38.280    24916668.474 7         0.000  
 15  8 27  5 29 49.5000000  0  1G11
  -1503460.781 7  -1231088.023 7  24916711.011 7  24916712.522 7      -147.298 7
      -114.777 7        39.550          38.180    24916710.703 7         0.000  
 15  8 27  5 29 51.0000000  0  1G11
  -1503239.182 7  -1230915.343 7  24916753.212 7  24916754.299 7      -148.161 7
      -115.458 7        39.590          38.040    24916752.986 7         0.000  
 15  8 27  5 29 52.5000000  0  1G11
  -1503016.311 7  -1230741.678 7  24916795.575 7  24916796.745 7      -149.007 7
      -116.103 7        39.790          37.850    24916795.995 7         0.000  
 15  8 27  5 29 54.0000000  0  1G11
  -1502792.160 7  -1230567.019 7  24916838.251 7  24916839.042 7      -149.858 7
      -116.774 7        39.720          37.750    24916838.044 7         0.000  
 15  8 27  5 29 55.5000000  0  1G11
  -1502566.737 7  -1230391.376 7  24916881.477 7  24916881.596 7      -150.715 7
      -117.443 7        39.750          37.930    24916882.037 7         0.000  
 15  8 27  5 29 57.0000000  0  1G11
  -1502340.038 7  -1230214.719 7  24916924.376 7  24916924.695 7      -151.559 7
      -118.091 7        39.740          37.690    24916924.673 7         0.000  
 15  8 27  5 29 58.5000000  0  1G11
  -1502112.062 7  -1230037.072 7  24916968.114 7  24916968.108 7      -152.424 7
      -118.768 7        39.810          37.750    24916967.453 7         0.000  
 15  8 27  5 30  0.0000000  0  1G11
  -1501882.802 7  -1229858.435 7  24917011.603 7  24917011.533 7      -153.262 7
      -119.416 7        39.770          37.910    24917010.674 7         0.000  
 15  8 27  5 30  1.5000000  0  1G11
  -1501652.284 7  -1229678.807 7  24917055.464 7  24917055.264 7      -154.098 7
      -120.083 7        39.720          37.790    24917055.211 7         0.000  
 15  8 27  5 30  3.0000000  0  1G11
  -1501420.475 7  -1229498.183 7  24917099.416 7  24917099.381 7      -154.962 7
      -120.751 7        39.850          37.770    24917099.726 7         0.000  
 15  8 27  5 30  4.5000000  0  1G11
  -1501187.409 7  -1229316.575 7  24917143.861 7  24917144.013 7      -155.800 7
      -121.408 7        39.860          38.100    24917144.510 7         0.000  
 15  8 27  5 30  6.0000000  0  1G11
  -1500953.057 7  -1229133.967 7  24917188.735 7  24917188.520 7      -156.657 7
      -122.064 7        39.930          38.160    24917188.700 7         0.000  
 15  8 27  5 30  7.5000000  0  1G11
  -1500717.452 7  -1228950.384 7  24917233.809 7  24917233.362 7      -157.498 7
      -122.726 7        39.930          38.230    24917233.447 7         0.000  
 15  8 27  5 30  9.0000000  0  1G11
  -1500480.567 7  -1228765.793 7  24917278.659 7  24917278.799 7      -158.346 7
      -123.385 7        39.980          38.270    24917279.157 7         0.000  
 15  8 27  5 30 10.5000000  0  1G11
  -1500242.398 7  -1228580.216 7  24917324.246 7  24917324.376 7      -159.203 7
      -124.065 7        39.890          38.390    24917324.406 7         0.000  
 15  8 27  5 30 12.0000000  0  1G11
  -1500002.965 7  -1228393.647 7  24917369.658 7  24917370.022 7      -160.049 7
      -124.718 7        40.040          38.580    24917370.105 7         0.000  
 15  8 27  5 30 13.5000000  0  1G11
  -1499762.273 7  -1228206.093 7  24917415.584 7  24917416.136 7      -160.889 7
      -125.363 7        39.810          38.580    24917416.106 7         0.000  
 15  8 27  5 30 15.0000000  0  1G11
  -1499520.297 7  -1228017.541 7  24917461.691 7  24917461.837 7      -161.742 7
      -126.029 7        39.970          38.740    24917462.156 7         0.000  
 15  8 27  5 30 16.5000000  0  1G11
  -1499277.055 7  -1227828.008 7  24917507.875 7  24917508.745 7      -162.579 7
      -126.690 7        39.630          38.750    24917508.272 7         0.000  
 15  8 27  5 30 18.0000000  0  1G11
  -1499032.534 7  -1227637.474 7  24917554.205 7  24917555.416 7      -163.438 7
      -127.347 7        39.510          38.760    24917554.676 7         0.000  
 15  8 27  5 30 19.5000000  0  1G11
  -1498786.754 7  -1227445.967 7  24917600.916 7  24917602.143 7      -164.291 7
      -128.010 7        39.600          38.940    24917601.471 7         0.000  
 15  8 27  5 30 21.0000000  0  1G11
  -1498539.694 7  -1227253.449 7  24917647.663 7  24917649.112 7      -165.132 7
      -128.666 7        39.630          38.940    24917647.298 7         0.000  
 15  8 27  5 30 22.5000000  0  1G11
  -1498291.361 7  -1227059.948 7  24917695.099 7  24917696.906 7      -165.974 7
      -129.329 7        39.850          39.090    24917694.153 7         0.000  
 15  8 27  5 30 24.0000000  0  1G11
  -1498041.758 7  -1226865.446 7  24917742.282 7  24917743.767 7      -166.846 7
      -130.002 7        39.800          38.870    24917741.521 7         0.000  
 15  8 27  5 30 25.5000000  0  1G11
  -1497790.881 7  -1226669.971 7  24917790.003 7  24917791.602 7      -167.671 7
      -130.653 7        39.760          39.000    24917788.887 7         0.000  
 15  8 27  5 30 27.0000000  0  1G11
  -1497538.743 7  -1226473.494 7  24917838.041 7  24917839.415 7      -168.518 7
      -131.308 7        39.720          39.300    24917836.509 7         0.000  
 15  8 27  5 30 28.5000000  0  1G11
  -1497285.318 7  -1226276.025 7  24917886.228 7  24917887.713 7      -169.379 7
      -131.981 7        39.760          39.360    24917884.498 7         0.000  
 15  8 27  5 30 30.0000000  0  1G11
  -1497030.620 7  -1226077.569 7  24917934.843 7  24917935.808 7      -170.211 7
      -132.637 7        39.850          39.170    24917934.238 7         0.000  
 15  8 27  5 30 31.5000000  0  1G11
  -1496774.674 7  -1225878.122 7  24917983.720 7  24917984.500 7      -171.051 7
      -133.288 7        40.000          39.100    24917983.564 7         0.000  
 15  8 27  5 30 33.0000000  0  1G11
  -1496517.432 7  -1225677.678 7  24918032.832 7  24918033.316 7      -171.915 7
      -133.961 7        40.000          39.430    24918032.136 7         0.000  
 15  8 27  5 30 34.5000000  0  1G11
  -1496258.924 7  -1225476.243 7  24918082.134 7  24918082.676 7      -172.772 7
      -134.622 7        40.090          39.530    24918081.962 7         0.000  
 15  8 27  5 30 36.0000000  0  1G11
  -1495999.146 7  -1225273.819 7  24918131.754 7  24918131.565 7      -173.603 7
      -135.269 7        40.110          39.720    24918132.543 7         0.000  
 15  8 27  5 30 37.5000000  0  1G11
  -1495738.113 7  -1225070.416 7  24918181.453 7  24918181.735 7      -174.454 7
      -135.936 7        39.850          39.630    24918180.987 7         0.000  
 15  8 27  5 30 39.0000000  0  1G11
  -1495475.800 7  -1224866.012 7  24918231.330 7  24918231.486 7      -175.304 7
      -136.602 7        39.940          39.780    24918231.397 7         0.000  
 15  8 27  5 30 40.5000000  0  1G11
  -1495212.220 7  -1224660.626 7  24918281.279 7  24918281.837 7      -176.144 7
      -137.249 7        39.700          39.850    24918281.752 7         0.000  
 15  8 27  5 30 42.0000000  0  1G11
  -1494947.369 7  -1224454.248 7  24918331.732 7  24918332.538 7      -176.982 7
      -137.912 7        39.530          39.910    24918332.256 7         0.000  
 15  8 27  5 30 43.5000000  0  1G11
  -1494681.258 7  -1224246.877 7  24918382.071 7  24918383.215 7      -177.840 7
      -138.584 7        39.530          39.990    24918382.722 7         0.000  
 15  8 27  5 30 45.0000000  0  1G11
  -1494413.867 7  -1224038.530 7  24918432.631 7  24918434.155 7      -178.680 7
      -139.239 7        39.060          40.160    24918432.915 7         0.000  
 15  8 27  5 30 46.5000000  0  1G11
  -1494145.218 7  -1223829.184 7  24918483.681 7  24918485.386 7      -179.527 7
      -139.887 7        39.070          40.180    24918484.488 7         0.000  
 15  8 27  5 30 48.0000000  0  1G11
  -1493875.288 7  -1223618.853 7  24918535.211 7  24918536.598 7      -180.379 7
      -140.563 7        38.800          40.250    24918534.276 7         0.000  
 15  8 27  5 30 49.5000000  0  1G11
  -1493604.107 7  -1223407.534 7  24918586.715 7  24918588.354 7      -181.216 7
      -141.214 7        38.670          40.230    24918585.678 7         0.000  
 15  8 27  5 30 51.0000000  0  1G11
  -1493331.653 7  -1223195.226 7  24918638.204 7  24918640.219 7      -182.052 7
      -141.868 7        38.360          40.530    24918638.130 7         0.000  
 15  8 27  5 30 52.5000000  0  1G11
  -1493057.931 7  -1222981.934 7  24918690.092 7  24918692.433 7      -182.898 7
      -142.523 7        38.520          40.740    24918689.563 7         0.000  
 15  8 27  5 30 54.0000000  0  1G11
  -1492782.940 7  -1222767.660 7  24918742.229 7  24918744.672 7      -183.756 7
      -143.186 7        38.160          40.540    24918741.661 7         0.000  
 15  8 27  5 30 55.5000000  0  1G11
  -1492506.689 7  -1222552.393 7  24918794.576 7  24918797.464 7      -184.593 7
      -143.842 7        38.310          40.550    24918794.473 7         0.000  
 15  8 27  5 30 57.0000000  0  1G11
  -1492229.159 7  -1222336.136 7  24918847.568 7  24918850.100 7      -185.441 7
      -144.500 7        37.970          40.760    24918847.426 7         0.000  
 15  8 27  5 30 58.5000000  0  1G11
  -1491950.350 7  -1222118.887 7  24918900.574 7  24918902.930 7      -186.287 7
      -145.164 7        37.940          40.380    24918900.671 7         0.000  
 15  8 27  5 31  0.0000000  0  1G11
  -1491670.270 7  -1221900.645 7  24918954.220 7  24918956.206 7      -187.154 7
      -145.834 7        38.080          40.560    24918953.740 7         0.000  
 15  8 27  5 31  1.5000000  0  1G11
  -1491388.946 7  -1221681.424 7  24919007.896 7  24919009.732 7      -187.980 7
      -146.476 7        38.350          40.380    24919007.768 7         0.000  
 15  8 27  5 31  3.0000000  0  1G11
  -1491106.321 7  -1221461.207 7  24919062.204 7  24919063.235 7      -188.823 7
      -147.133 7        38.380          40.280    24919062.042 7         0.000  
 15  8 27  5 31  4.5000000  0  1G11
  -1490822.445 7  -1221240.001 7  24919116.194 7  24919117.335 7      -189.677 7
      -147.801 7        38.490          40.380    24919116.745 7         0.000  
 15  8 27  5 31  6.0000000  0  1G11
  -1490537.288 7  -1221017.802 7  24919170.711 7  24919171.504 7      -190.530 7
      -148.468 7        38.570          40.360    24919172.012 7         0.000  
 15  8 27  5 31  7.5000000  0  1G11
  -1490250.880 7  -1220794.627 7  24919225.462 7  24919225.803 7      -191.375 7
      -149.119 7        38.620          40.230    24919227.517 7         0.000  
 15  8 27  5 31  9.0000000  0  1G11
  -1489963.196 7  -1220570.453 7  24919280.149 7  24919280.580 7      -192.208 7
      -149.778 7        38.710          40.070    24919281.521 7         0.000  
 15  8 27  5 31 10.5000000  0  1G11
  -1489674.256 7  -1220345.303 7  24919335.498 7  24919335.496 7      -193.048 7
      -150.430 7        38.650          39.940    24919335.974 7         0.000  
 15  8 27  5 31 12.0000000  0  1G11
  -1489384.032 7  -1220119.151 7  24919391.008 7  24919390.427 7      -193.906 7
      -151.098 7        38.830          39.970    24919391.057 7         0.000  
 15  8 27  5 31 13.5000000  0  1G11
  -1489092.556 7  -1219892.021 7  24919446.002 7  24919446.238 7      -194.751 7
      -151.753 7        38.990          40.070    24919446.465 7         0.000  
 15  8 27  5 31 15.0000000  0  1G11
  -1488799.801 7  -1219663.901 7  24919501.838 7  24919502.012 7      -195.591 7
      -152.415 7        39.000          40.030    24919502.131 7         0.000  
 15  8 27  5 31 16.5000000  0  1G11
  -1488505.786 7  -1219434.799 7  24919557.819 7  24919557.888 7      -196.429 7
      -153.065 7        39.220          39.850    24919556.311 7         0.000  
 15  8 27  5 31 18.0000000  0  1G11
  -1488210.496 7  -1219204.698 7  24919613.988 7  24919613.998 7      -197.286 7
      -153.731 7        38.990          39.910    24919613.660 7         0.000  
 15  8 27  5 31 19.5000000  0  1G11
  -1487913.947 7  -1218973.622 7  24919669.991 7  24919670.385 7      -198.128 7
      -154.387 7        39.090          39.990    24919669.888 7         0.000  
 15  8 27  5 31 21.0000000  0  1G11
  -1487616.124 7  -1218741.547 7  24919726.819 7  24919727.581 7      -198.974 7
      -155.047 7        39.090          39.830    24919725.788 7         0.000  
 15  8 27  5 31 22.5000000  0  1G11
  -1487317.042 7  -1218508.489 7  24919783.595 7  24919784.246 7      -199.809 7
      -155.694 7        38.940          39.870    24919783.590 7         0.000  
 15  8 27  5 31 24.0000000  0  1G11
  -1487016.676 7  -1218274.448 7  24919840.909 7  24919841.423 7      -200.647 7
      -156.352 7        38.990          39.950    24919840.139 7         0.000  
 15  8 27  5 31 25.5000000  0  1G11
  -1486715.068 7  -1218039.422 7  24919898.154 7  24919898.852 7      -201.498 7
      -157.008 7        38.880          40.000    24919896.145 7         0.000  
 15  8 27  5 31 27.0000000  0  1G11
  -1486412.179 7  -1217803.401 7  24919956.022 7  24919956.454 7      -202.354 7
      -157.683 7        39.010          39.790    24919955.526 7         0.000  
 15  8 27  5 31 28.5000000  0  1G11
  -1486108.026 7  -1217566.397 7  24920014.021 7  24920014.507 7      -203.197 7
      -158.340 7        38.810          39.650    24920013.936 7         0.000  
 15  8 27  5 31 30.0000000  0  1G11
  -1485802.611 7  -1217328.406 7  24920072.017 7  24920072.590 7      -204.037 7
      -158.997 7        38.520          39.650    24920072.454 7         0.000  
 15  8 27  5 31 31.5000000  0  1G11
  -1485495.948 7  -1217089.441 7  24920130.035 7  24920130.468 7      -204.856 7
      -159.630 7        38.590          39.410    24920131.051 7         0.000  
 15  8 27  5 31 33.0000000  0  1G11
  -1485188.004 7  -1216849.483 7  24920188.621 7  24920189.386 7      -205.710 7
      -160.295 7        38.420          39.360    24920189.420 7         0.000  
 15  8 27  5 31 34.5000000  0  1G11
  -1484878.790 7  -1216608.535 7  24920247.701 7  24920248.106 7      -206.563 7
      -160.960 7        38.300          39.140    24920247.503 7         0.000  
 15  8 27  5 31 36.0000000  0  1G11
  -1484568.317 7  -1216366.609 7  24920306.565 7  24920307.392 7      -207.412 7
      -161.619 7        38.090          39.260    24920306.550 7         0.000  
 15  8 27  5 31 37.5000000  0  1G11
  -1484256.595 7  -1216123.699 7  24920365.592 7  24920366.284 7      -208.244 7
      -162.269 7        37.900          39.230    24920365.501 7         0.000  
 15  8 27  5 31 39.0000000  0  1G11
  -1483943.592 7  -1215879.803 7  24920424.984 7  24920426.166 7      -209.087 7
      -162.926 7        37.940          39.000    24920424.183 7         0.000  
