     2.11           OBSERVATION DATA    G (GPS)             RINEX VERSION / TYPE
RinEdit             Michael Moore       06/14/2017 15:52:01 PGM / RUN BY / DATE
Solaris x86 5.10|AMD64|cc SC5.8 -xarch=amd64|=+|=+          COMMENT
teqc  2009Mar23     Michael Moore       20100329 01:08:24UTCCOMMENT
2.10           OBSERVATION DATA    G (GPS)                  COMMENT
teqc  2001Nov28                         20100329 11:00:50UTCCOMMENT
Linux 2.0.36|Pentium II|gcc -static|Linux|486/DX+           COMMENT
BIT 2 OF LLI FLAGS DATA COLLECTED UNDER A/S CONDITION       COMMENT
SNR is mapped to RINEX snr flag value [1-9]                 COMMENT
L1: 1 -> 1;  90 -> 5; 210 -> 9                              COMMENT
L2: 1 -> 1; 150 -> 5; 250 -> 9                              COMMENT
Forced Modulo Decimation to 30 seconds                      COMMENT
KARR                                                        MARKER NAME
50139M001                                                   MARKER NUMBER
GEOSCIENCE AUSTRALIAGEOSCIENCE AUSTRALIA                    OBSERVER / AGENCY
UC2200302005        ASHTECH UZ-12       CN00                REC # / TYPE / VERS
320                 AOAD/M_T        AUST                    ANT # / TYPE
 -2713832.1550  5303935.1870 -2269515.1970                  APPROX POSITION XYZ
        0.0020        0.0000        0.0000                  ANTENNA: DELTA H/E/N
     7    L1    L2    C1    P2    P1    D1    D2            # / TYPES OF OBSERV
     1     1                                                WAVELENGTH FACT L1/2
    30.000                                                  INTERVAL
  2010     3    29     0     0    0.0000000     GPS         TIME OF FIRST OBS
                                                            END OF HEADER
 10  3 29  0  0  0.0000000  0  1G28
 -16140479.79043 -12557991.97142  21650103.3674   21650105.7364   21650103.3044 
     -2824.4894      -2200.9004 
 10  3 29  0  0 30.0000000  0  1G28
 -16055623.72743 -12491870.39442  21666250.9894   21666253.7724   21666250.4444 
     -2831.4324      -2206.3114 
 10  3 29  0  1  0.0000000  0  1G28
 -15970566.56343 -12425592.11442  21682436.7774   21682439.6544   21682435.6894 
     -2838.3704      -2211.7174 
 10  3 29  0  1 30.0000000  0  1G28
 -15885308.86743 -12359157.57942  21698661.2884   21698663.7024   21698660.3354 
     -2845.0224      -2216.9004 
 10  3 29  0  2  0.0000000  0  1G28
 -15799851.26243 -12292567.27342  21714922.9344   21714925.5134   21714922.8344 
     -2851.5344      -2221.9744 
 10  3 29  0  2 30.0000000  0  1G28
 -15714200.60943 -12225826.53742  21731221.7404   21731224.0144   21731221.1274 
     -2859.3444      -2228.0604 
 10  3 29  0  3  0.0000000  0  1G28
 -15628356.96043 -12158935.42142  21747556.3854   21747558.9574   21747556.8324 
     -2863.8444      -2231.5674 
 10  3 29  0  3 30.0000000  0  1G28
 -15542321.63943 -12091894.93942  21763928.1254   21763931.2594   21763927.4094 
     -2871.4894      -2237.5244 
 10  3 29  0  4  0.0000000  0  1G28
 -15456098.46143 -12024708.08142  21780336.3704   21780338.9334   21780336.2414 
     -2877.5844      -2242.2734 
 10  3 29  0  4 30.0000000  0  1G28
 -15369691.14643 -11957377.74242  21796780.1314   21796781.8964   21796778.5974 
     -2882.4044      -2246.0294 
 10  3 29  0  5  0.0000000  0  1G28
 -15283104.28743 -11889907.49342  21813256.5974   21813258.7214   21813256.4224 
     -2889.8744      -2251.8504 
 10  3 29  0  5 30.0000000  0  1G28
 -15196339.94143 -11822298.95542  21829767.2554   21829770.2254   21829766.8274 
     -2895.3254      -2256.0974 
 10  3 29  0  6  0.0000000  0  1G28
 -15109398.09843 -11754552.10042  21846312.0614   21846314.4954   21846311.2724 
     -2901.6224      -2261.0044 
 10  3 29  0  6 30.0000000  0  1G28
 -15022280.85743 -11686668.57242  21862890.1434   21862891.6114   21862889.7864 
     -2907.6114      -2265.6714 
 10  3 29  0  7  0.0000000  0  1G28
 -14934995.40843 -11618653.97442  21879499.5704   21879502.0214   21879499.3484 
     -2912.7584      -2269.6814 
 10  3 29  0  7 30.0000000  0  1G28
 -14847540.06043 -11550506.99742  21896141.0544   21896144.3424   21896141.0994 
     -2918.2084      -2273.9284 
 10  3 29  0  8  0.0000000  0  1G28
 -14759921.01243 -11482232.45642  21912815.6944   21912817.1504   21912815.1154 
     -2923.4974      -2278.0504 
 10  3 29  0  8 30.0000000  0  1G28
 -14672137.42543 -11413829.70042  21929520.6294   21929522.7284   21929520.3714 
     -2929.3154      -2282.5834 
 10  3 29  0  9  0.0000000  0  1G28
 -14584192.51043 -11345301.24242  21946255.9784   21946258.1004   21946255.4664 
     -2934.1654      -2286.3624 
 10  3 29  0  9 30.0000000  0  1G28
 -14496092.30143 -11276651.77742  21963020.3564   21963022.9184   21963020.0884 
     -2939.3374      -2290.3924 
 10  3 29  0 10  0.0000000  0  1G28
 -14407839.61043 -11207883.47642  21979814.5474   21979815.5714   21979813.7774 
     -2943.5834      -2293.7014 
 10  3 29  0 10 30.0000000  0  1G28
 -14319430.07843 -11138992.97142  21996638.4984   21996640.5104   21996637.8224 
     -2948.5374      -2297.5614 
 10  3 29  0 11  0.0000000  0  1G28
 -14230875.53743 -11069989.47842  22013490.0944   22013492.3324   22013489.2434 
     -2954.7194      -2302.3784 
 10  3 29  0 11 30.0000000  0  1G28
 -14142170.27043 -11000868.53942  22030369.7494   22030372.8964   22030369.1234 
     -2959.1824      -2305.8564 
 10  3 29  0 12  0.0000000  0  1G28
 -14053322.62143 -10931636.63742  22047276.7664   22047279.9134   22047276.9194 
     -2963.5024      -2309.2224 
 10  3 29  0 12 30.0000000  0  1G28
 -13964332.72643 -10862293.89242  22064210.9244   22064213.3364   22064210.2624 
     -2969.4514      -2313.8584 
 10  3 29  0 13  0.0000000  0  1G28
 -13875203.79943 -10792842.83242  22081171.5934   22081174.2294   22081171.0604 
     -2973.5974      -2317.0884 
 10  3 29  0 13 30.0000000  0  1G28
 -13785937.75643 -10723284.92442  22098158.3684   22098161.0144   22098157.9584 
     -2978.8774      -2321.2034 
 10  3 29  0 14  0.0000000  0  1G28
 -13696537.27543 -10653622.24242  22115170.4494   22115171.8954   22115169.5944 
     -2982.8674      -2324.3124 
 10  3 29  0 14 30.0000000  0  1G28
 -13607005.70243 -10583857.42242  22132207.8324   22132210.5284   22132207.2674 
     -2986.9384      -2327.4844 
 10  3 29  0 15  0.0000000  0  1G28
 -13517347.02443 -10513993.55942  22149269.5894   22149272.0314   22149268.5914 
     -2991.0554      -2330.6924 
 10  3 29  0 15 30.0000000  0  1G28
 -13427559.97143 -10444029.67042  22166355.6404   22166357.0844   22166355.2584 
     -2994.1224      -2333.0824 
 10  3 29  0 16  0.0000000  0  1G28
 -13337652.18243 -10373971.68542  22183464.3604   22183466.0434   22183464.0294 
     -2999.4634      -2337.2444 
 10  3 29  0 16 30.0000000  0  1G28
 -13247620.26843 -10303816.99342  22200596.8954   22200599.2424   22200597.1134 
     -3003.2344      -2340.1824 
 10  3 29  0 17  0.0000000  0  1G28
 -13157472.71743 -10233572.20442  22217752.1724   22217752.7774   22217751.4284 
     -3007.2034      -2343.2754 
 10  3 29  0 17 30.0000000  0  1G28
 -13067207.43043 -10163235.66642  22234928.8704   22234930.1654   22234927.9624 
     -3011.2724      -2346.4464 
 10  3 29  0 18  0.0000000  0  1G28
 -12976827.53843 -10092809.83142  22252126.9114   22252130.0604   22252126.0604 
     -3014.1814      -2348.7124 
 10  3 29  0 18 30.0000000  0  1G28
 -12886338.41043 -10022298.88842  22269347.0734   22269349.3384   22269347.1504 
     -3018.2734      -2351.9014 
 10  3 29  0 19  0.0000000  0  1G28
 -12795740.17643  -9951702.90342  22286587.5724   22286589.8404   22286587.0454 
     -3022.4494      -2355.1554 
 10  3 29  0 19 30.0000000  0  1G28
 -12705034.18243  -9881022.96642  22303848.3104   22303851.2864   22303848.0684 
     -3025.2714      -2357.3544 
 10  3 29  0 20  0.0000000  0  1G28
 -12614227.90543  -9810264.88542  22321128.1334   22321130.7154   22321127.3464 
     -3028.3534      -2359.7554 
 10  3 29  0 20 30.0000000  0  1G28
 -12523316.92143  -9739425.21242  22338427.4754   22338430.1844   22338427.9904 
     -3031.6654      -2362.3364 
 10  3 29  0 21  0.0000000  0  1G28
 -12432308.80343  -9668509.85542  22355746.5274   22355748.0094   22355745.5074 
     -3035.8324      -2365.5834 
 10  3 29  0 21 30.0000000  0  1G28
 -12341203.95243  -9597519.09942  22373083.5204   22373083.5114   22373081.5334 
     -3039.0054      -2368.0564 
 10  3 29  0 22  0.0000000  0  1G28
 -12250004.74443  -9526454.83942  22390437.7744   22390439.8504   22390437.0954 
     -3041.3944      -2369.9174 
 10  3 29  0 22 30.0000000  0  1G28
 -12158713.39143  -9455318.77642  22407810.0144   22407813.0284   22407809.5044 
     -3044.4834      -2372.3244 
 10  3 29  0 23  0.0000000  0  1G28
 -12067334.21443  -9384114.28042  22425199.0854   22425199.7874   22425198.9134 
     -3047.8154      -2374.9214 
 10  3 29  0 23 30.0000000  0  1G28
 -11975868.67743  -9312842.49042  22442604.1234   22442605.4904   22442603.8504 
     -3050.8884      -2377.3154 
 10  3 29  0 24  0.0000000  0  1G28
 -11884318.22143  -9241504.51942  22460025.7774   22460027.5024   22460025.0754 
     -3052.3594      -2378.4614 
 10  3 29  0 24 30.0000000  0  1G28
 -11792685.39043  -9170102.36942  22477463.0774   22477465.1074   22477462.9874 
     -3055.9974      -2381.2964 
 10  3 29  0 25  0.0000000  0  1G28
 -11700970.98343  -9098636.65642  22494915.2834   22494917.9994   22494915.9484 
     -3057.6584      -2382.5914 
 10  3 29  0 25 30.0000000  0  1G28
 -11609184.24643  -9027114.57142  22512382.0784   22512384.2914   22512381.3044 
     -3060.7264      -2384.9814 
 10  3 29  0 26  0.0000000  0  1G28
 -11517318.96443  -8955531.29042  22529863.1384   22529865.6494   22529862.8764 
     -3063.6274      -2387.2424 
 10  3 29  0 26 30.0000000  0  1G28
 -11425381.14143  -8883891.47842  22547358.8664   22547361.4384   22547358.1294 
     -3065.5174      -2388.7144 
 10  3 29  0 27  0.0000000  0  1G28
 -11333378.90643  -8812201.48242  22564864.8434   22564869.2204   22564865.1584 
     -3068.4204      -2390.9774 
 10  3 29  0 27 30.0000000  0  1G28
 -11241303.66443  -8740454.61542  22582387.0644   22582389.9304   22582386.5154 
     -3069.8234      -2392.0704 
 10  3 29  0 28  0.0000000  0  1G28
 -11149160.59643  -8668654.87242  22599921.4464   22599924.2594   22599921.1974 
     -3072.0974      -2393.8424 
 10  3 29  0 28 30.0000000  0  1G28
 -11056956.33443  -8596807.43842  22617467.9684   22617470.1554   22617466.1924 
     -3074.4414      -2395.6684 
 10  3 29  0 29  0.0000000  0  1G28
 -10964691.87243  -8524913.10342  22635024.9884   22635027.2554   22635024.8064 
     -3076.9574      -2397.6294 
 10  3 29  0 29 30.0000000  0  1G28
 -10872363.95843  -8452969.34242  22652595.1394   22652597.7444   22652594.8334 
     -3078.0814      -2398.5054 
 10  3 29  0 30  0.0000000  0  1G28
 -10779983.31043  -8380984.46842  22670174.0684   22670176.4884   22670174.0924 
     -3080.9784      -2400.7624 
 10  3 29  0 30 30.0000000  0  1G28
 -10687545.93943  -8308955.40942  22687764.3154   22687768.3374   22687763.4194 
     -3081.5864      -2401.2364 
 10  3 29  0 31  0.0000000  0  1G28
 -10595056.51143  -8236885.77342  22705364.7624   22705367.6514   22705364.2624 
     -3083.9374      -2403.0684 
 10  3 29  0 31 30.0000000  0  1G28
 -10502515.15543  -8164775.67642  22722974.6344   22722977.3244   22722974.7174 
     -3085.2854      -2404.1184 
 10  3 29  0 32  0.0000000  0  1G28
 -10409931.85243  -8092632.89442  22740592.7844   22740595.7934   22740592.8364 
     -3086.6984      -2405.2194 
 10  3 29  0 32 30.0000000  0  1G28
 -10317300.62043  -8020452.77342  22758220.1404   22758223.0384   22758220.0894 
     -3089.0144      -2407.0244 
 10  3 29  0 33  0.0000000  0  1G28
 -10224625.26443  -7948238.24342  22775855.1324   22775858.4474   22775855.8814 
     -3090.0574      -2407.8374 
 10  3 29  0 33 30.0000000  0  1G28
 -10131906.91743  -7875990.25542  22793500.2674   22793502.1484   22793497.5674 
     -3091.9674      -2409.3254 
 10  3 29  0 34  0.0000000  0  1G28
 -10039151.89343  -7803713.65642  22811149.5224   22811153.5884   22811149.6564 
     -3092.4664      -2409.7144 
 10  3 29  0 34 30.0000000  0  1G28
  -9946358.83243  -7731407.43342  22828808.5214   22828810.0164   22828807.1964 
     -3093.3504      -2410.4024 
 10  3 29  0 35  0.0000000  0  1G28
  -9853530.68943  -7659073.88442  22846472.8934   22846475.2234   22846472.3314 
     -3093.9074      -2410.8374 
 10  3 29  0 35 30.0000000  0  1G28
  -9760669.58243  -7586714.64042  22864143.2734   22864146.1154   22864143.6224 
     -3096.1514      -2412.5854 
 10  3 29  0 36  0.0000000  0  1G28
  -9667777.33543  -7514331.11642  22881821.3384   22881823.0474   22881820.6494 
     -3096.6304      -2412.9584 
 10  3 29  0 36 30.0000000  0  1G28
  -9574858.05343  -7441926.55442  22899501.9904   22899504.2764   22899502.1354 
     -3097.4994      -2413.6354 
 10  3 29  0 37  0.0000000  0  1G28
  -9481911.97043  -7369501.07942  22917189.5184   22917191.9344   22917188.6474 
     -3097.9804      -2414.0104 
 10  3 29  0 37 30.0000000  0  1G28
  -9388940.08843  -7297055.53342  22934881.2674   22934883.3164   22934881.2444 
     -3099.8364      -2415.4574 
 10  3 29  0 38  0.0000000  0  1G28
  -9295947.28343  -7224593.66242  22952576.9564   22952580.5834   22952576.5324 
     -3099.7294      -2415.3734 
 10  3 29  0 38 30.0000000  0  1G28
  -9202934.42443  -7152116.17842  22970277.3854   22970280.3384   22970276.6414 
     -3101.2394      -2416.5504 
 10  3 29  0 39  0.0000000  0  1G28
  -9109901.83743  -7079623.29742  22987981.3784   22987984.3744   22987980.9224 
     -3102.1454      -2417.2564 
 10  3 29  0 39 30.0000000  0  1G28
  -9016853.65843  -7007118.28842  23005686.4554   23005690.6484   23005686.8944 
     -3102.2674      -2417.3514 
 10  3 29  0 40  0.0000000  0  1G28
  -8923792.38343  -6934603.08042  23023395.9944   23023399.8934   23023395.4164 
     -3102.1334      -2417.2464 
 10  3 29  0 40 30.0000000  0  1G28
  -8830716.35843  -6862076.38542  23041107.5034   23041111.6544   23041107.3044 
     -3102.1444      -2417.2554 
 10  3 29  0 41  0.0000000  0  1G28
  -8737630.62243  -6789542.11042  23058820.6174   23058824.9834   23058820.7724 
     -3102.9294      -2417.8674 
 10  3 29  0 41 30.0000000  0  1G28
  -8644535.92643  -6717000.86542  23076537.3174   23076540.6514   23076536.7264 
     -3103.6594      -2418.4354 
 10  3 29  0 42  0.0000000  0  1G28
  -8551437.89943  -6644457.00842  23094252.0774   23094256.9494   23094252.8414 
     -3103.1174      -2418.0134 
 10  3 29  0 42 30.0000000  0  1G28
  -8458332.54043  -6571907.45242  23111970.1434   23111974.4934   23111968.7444 
     -3103.5134      -2418.3224 
 10  3 29  0 43  0.0000000  0  1G28
  -8365226.72243  -6499357.55442  23129686.9544   23129691.5924   23129686.3974 
     -3103.9524      -2418.6644 
 10  3 29  0 43 30.0000000  0  1G28
  -8272119.55543  -6426806.57642  23147405.9104   23147408.9884   23147405.0724 
     -3103.6004      -2418.3904 
 10  3 29  0 44  0.0000000  0  1G28
  -8179013.95543  -6354256.83242  23165122.8174   23165126.8294   23165123.2684 
     -3103.8144      -2418.5564 
 10  3 29  0 44 30.0000000  0  1G28
  -8085910.32543  -6281708.60542  23182840.4114   23182842.7564   23182839.9174 
     -3103.5074      -2418.3174 
 10  3 29  0 45  0.0000000  0  1G28
  -7992814.42743  -6209166.42542  23200555.9894   23200559.1944   23200556.1074 
     -3102.7714      -2417.7444 
 10  3 29  0 45 30.0000000  0  1G28
  -7899723.08943  -6136627.78542  23218269.9524   23218273.8664   23218270.2014 
     -3102.4474      -2417.4914 
 10  3 29  0 46  0.0000000  0  1G28
  -7806641.46443  -6064096.72642  23235983.2984   23235986.4664   23235983.5754 
     -3101.8334      -2417.0134 
 10  3 29  0 46 30.0000000  0  1G28
  -7713570.73543  -5991574.15942  23253694.4014   23253698.7664   23253694.8434 
     -3102.1574      -2417.2654 
 10  3 29  0 47  0.0000000  0  1G28
  -7620512.87343  -5919061.61042  23271403.1274   23271405.9364   23271401.5054 
     -3101.7394      -2416.9394 
 10  3 29  0 47 30.0000000  0  1G28
  -7527467.68443  -5846558.94842  23289108.5944   23289111.5634   23289108.3504 
     -3100.9704      -2416.3404 
 10  3 29  0 48  0.0000000  0  1G28
  -7434440.64743  -5774070.42342  23306811.1324   23306814.2204   23306810.8634 
     -3100.6714      -2416.1074 
 10  3 29  0 48 30.0000000  0  1G28
  -7341429.57943  -5701594.33342  23324511.3364   23324513.8264   23324510.7844 
     -3099.6824      -2415.3374 
 10  3 29  0 49  0.0000000  0  1G28
  -7248440.37943  -5629135.27142  23342206.3924   23342209.8874   23342206.5214 
     -3099.4064      -2415.1214 
 10  3 29  0 49 30.0000000  0  1G28
  -7155472.12043  -5556692.55042  23359898.0624   23359901.0214   23359897.9344 
     -3099.0244      -2414.8244 
 10  3 29  0 50  0.0000000  0  1G28
  -7062526.33143  -5484267.34342  23377584.2054   23377586.9364   23377585.0074 
     -3097.8644      -2413.9204 
 10  3 29  0 50 30.0000000  0  1G28
  -6969606.47643  -5411862.34042  23395266.9584   23395269.3764   23395265.5944 
     -3096.3274      -2412.7224 
 10  3 29  0 51  0.0000000  0  1G28
  -6876713.99243  -5339478.65642  23412943.5414   23412946.5084   23412943.3214 
     -3096.6164      -2412.9474 
 10  3 29  0 51 30.0000000  0  1G28
  -6783850.44243  -5267117.51042  23430614.7624   23430619.1584   23430614.6714 
     -3094.9844      -2411.6764 
 10  3 29  0 52  0.0000000  0  1G28
  -6691013.79743  -5194777.35442  23448281.0784   23448285.2074   23448282.2424 
     -3094.0374      -2410.9384 
 10  3 29  0 52 30.0000000  0  1G28
  -6598212.22543  -5122464.48842  23465941.1674   23465944.4954   23465939.4974 
     -3093.0114      -2410.1384 
 10  3 29  0 53  0.0000000  0  1G28
  -6505443.46943  -5050177.22942  23483594.0824   23483597.7204   23483593.1534 
     -3091.8154      -2409.2064 
 10  3 29  0 53 30.0000000  0  1G28
  -6412710.63443  -4977917.95342  23501241.1294   23501242.9394   23501239.4984 
     -3089.9304      -2407.7384 
 10  3 29  0 54  0.0000000  0  1G28
  -6320013.50643  -4905686.48442  23518880.6574   23518883.8634   23518879.5674 
     -3088.9234      -2406.9534 
 10  3 29  0 54 30.0000000  0  1G28
  -6227355.25043  -4833485.34042  23536512.0764   23536517.1384   23536512.4374 
     -3087.7334      -2406.0264 
 10  3 29  0 55  0.0000000  0  1G28
  -6134735.52643  -4761314.21542  23554138.0254   23554140.8104   23554138.9904 
     -3086.1304      -2404.7774 
 10  3 29  0 55 30.0000000  0  1G28
  -6042159.48943  -4689177.12842  23571754.6934   23571756.4804   23571754.2374 
     -3084.6124      -2403.5944 
 10  3 29  0 56  0.0000000  0  1G28
  -5949625.01443  -4617072.42342  23589363.1444   23589367.4064   23589361.8534 
     -3083.5914      -2402.7984 
 10  3 29  0 56 30.0000000  0  1G28
  -5857138.68343  -4545005.21842  23606962.7784   23606966.8964   23606962.9074 
     -3082.6514      -2402.0664 
 10  3 29  0 57  0.0000000  0  1G28
  -5764698.00943  -4472973.60542  23624553.9584   23624556.9334   23624552.5654 
     -3080.7734      -2400.6024 
 10  3 29  0 57 30.0000000  0  1G28
  -5672303.42043  -4400977.88842  23642135.7464   23642139.8954   23642136.4034 
     -3079.2294      -2399.3994 
 10  3 29  0 58  0.0000000  0  1G28
  -5579956.45543  -4329019.29242  23659709.5594   23659712.3654   23659709.1064 
     -3077.1924      -2397.8124 
 10  3 29  0 58 30.0000000  0  1G28
  -5487663.18143  -4257102.54042  23677271.7524   23677275.5534   23677271.6834 
     -3075.4154      -2396.4274 
 10  3 29  0 59  0.0000000  0  1G28
  -5395424.77643  -4185228.52742  23694824.4904   23694828.6044   23694823.6664 
     -3073.7874      -2395.1594 
 10  3 29  0 59 30.0000000  0  1G28
  -5303239.87943  -4113396.21042  23712366.7964   23712371.7424   23712365.8564 
     -3072.5004      -2394.1564 
 10  3 29  1  0  0.0000000  0  1G28
  -5211110.06943  -4041606.84442  23729898.8754   23729902.3214   23729897.8234 
     -3069.4124      -2391.7504 
 10  3 29  1  0 30.0000000  0  1G28
  -5119036.79043  -3969861.52642  23747419.6114   23747424.1964   23747419.7584 
     -3068.2184      -2390.8194 
 10  3 29  1  1  0.0000000  0  1G28
  -5027022.57443  -3898162.20442  23764929.3584   23764931.7614   23764929.0994 
     -3066.3014      -2389.3254 
 10  3 29  1  1 30.0000000  0  1G28
  -4935068.97243  -3826510.11442  23782427.0064   23782431.4014   23782426.7524 
     -3063.9094      -2387.4614 
 10  3 29  1  2  0.0000000  0  1G28
  -4843177.63143  -3754906.54342  23799914.0154   23799917.3674   23799913.7934 
     -3061.7224      -2385.7574 
 10  3 29  1  2 30.0000000  0  1G28
  -4751346.81943  -3683350.14542  23817388.7284   23817392.4644   23817388.4344 
     -3060.4114      -2384.7364 
 10  3 29  1  3  0.0000000  0  1G28
  -4659582.93343  -3611845.90942  23834850.0544   23834855.8714   23834850.6174 
     -3057.2154      -2382.2454 
 10  3 29  1  3 30.0000000  0  1G28
  -4567884.76743  -3540392.88342  23852300.8684   23852304.3644   23852300.4044 
     -3055.9824      -2381.2854 
 10  3 29  1  4  0.0000000  0  1G28
  -4476253.02543  -3468991.60642  23869738.0664   23869741.6984   23869738.2524 
     -3053.2614      -2379.1644 
 10  3 29  1  4 30.0000000  0  1G28
  -4384692.89843  -3397646.12942  23887161.4504   23887165.6694   23887161.1374 
     -3051.6764      -2377.9294 
 10  3 29  1  5  0.0000000  0  1G28
  -4293198.27543  -3326351.70542  23904571.8974   23904575.8694   23904571.7594 
     -3048.3724      -2375.3554 
 10  3 29  1  5 30.0000000  0  1G28
  -4201778.14843  -3255115.32142  23921968.6834   23921972.1574   23921967.5844 
     -3046.2114      -2373.6714 
 10  3 29  1  6  0.0000000  0  1G28
  -4110429.87543  -3183934.90542  23939350.6604   23939356.1774   23939350.7974 
     -3042.7594      -2370.9814 
 10  3 29  1  6 30.0000000  0  1G28
  -4019156.00643  -3112812.47442  23956720.1704   23956724.6974   23956720.6524 
     -3040.9914      -2369.6034 
 10  3 29  1  7  0.0000000  0  1G28
  -3927958.41343  -3041749.48742  23974075.5204   23974080.9304   23974075.0904 
     -3038.5604      -2367.7094 
 10  3 29  1  7 30.0000000  0  1G28
  -3836836.80843  -2970745.72842  23991415.5224   23991419.9224   23991414.8584 
     -3035.6624      -2365.4514 
 10  3 29  1  8  0.0000000  0  1G28
  -3745792.69243  -2899802.33242  24008740.3784   24008743.8964   24008740.4664 
     -3033.4024      -2363.6904 
 10  3 29  1  8 30.0000000  0  1G28
  -3654829.69643  -2828922.13042  24026049.9734   24026054.6094   24026049.9354 
     -3030.7024      -2361.5864 
 10  3 29  1  9  0.0000000  0  1G28
  -3563946.60143  -2758104.20142  24043344.2554   24043348.2874   24043343.8864 
     -3028.2474      -2359.6734 
 10  3 29  1  9 30.0000000  0  1G28
  -3473144.58443  -2687349.45642  24060623.7584   24060628.0224   24060623.1304 
     -3026.3204      -2358.1714 
 10  3 29  1 10  0.0000000  0  1G28
  -3382426.62543  -2616660.20142  24077886.5354   24077889.8094   24077886.2304 
     -3022.9594      -2355.5524 
 10  3 29  1 10 30.0000000  0  1G28
  -3291793.01043  -2546036.66042  24095133.9224   24095137.0394   24095133.4914 
     -3019.4214      -2352.7954 
 10  3 29  1 11  0.0000000  0  1G28
  -3201244.75843  -2475479.64042  24112364.9414   24112370.0624   24112364.1894 
     -3017.0314      -2350.9334 
 10  3 29  1 11 30.0000000  0  1G28
  -3110783.75443  -2404990.62542  24129578.1344   24129583.1684   24129577.3654 
     -3014.2464      -2348.7634 
 10  3 29  1 12  0.0000000  0  1G28
  -3020410.43043  -2334569.91042  24146775.1034   24146779.9314   24146775.7704 
     -3011.5874      -2346.6914 
 10  3 29  1 12 30.0000000  0  1G28
  -2930126.01843  -2264218.49542  24163955.8994   24163962.2754   24163956.8584 
     -3008.0984      -2343.9724 
 10  3 29  1 13  0.0000000  0  1G28
  -2839931.29143  -2193936.96642  24181120.1944   24181123.4814   24181119.9314 
     -3004.9094      -2341.4874 
 10  3 29  1 13 30.0000000  0  1G28
  -2749829.46343  -2123727.83142  24198264.6954   24198268.5974   24198264.1234 
     -3001.1904      -2338.5904 
 10  3 29  1 14  0.0000000  0  1G28
  -2659824.15943  -2053593.89242  24215393.4204   24215397.4194   24215391.9704 
     -2997.9184      -2336.0404 
 10  3 29  1 14 30.0000000  0  1G28
  -2569908.95943  -1983530.14342  24232503.5524   24232508.1044   24232502.6674 
     -2995.7184      -2334.3264 
 10  3 29  1 15  0.0000000  0  1G28
 -16658868.63453 -12961940.34852  24249594.9484   24249599.2704   24249594.6824 
     -2991.6924      -2331.1884 
 10  3 29  1 15 30.0000000  0  1G28
 -16569143.85453 -12892025.01952  24266670.1834   24266675.5054   24266669.8754 
     -2988.4704      -2328.6784 
 10  3 29  1 16  0.0000000  0  1G28
 -16479515.74643 -12822184.97842  24283725.8364   24283732.2904   24283726.9814 
     -2984.7714      -2325.7954 
 10  3 29  1 16 30.0000000  0  1G28
 -16389986.47353 -12752421.95552  24300763.3194   24300767.2214   24300761.3754 
     -2983.5334      -2324.8314 
 10  3 29  1 17  0.0000000  0  1G28
 -16300556.12953 -12682736.04552  24317781.2964   24317784.4414   24317779.7634 
     -2979.0714      -2321.3544 
 10  3 29  1 17 30.0000000  0  1G28
 -16211225.71453 -12613127.99752  24334780.3464   24334784.3514   24334779.5134 
     -2976.7364      -2319.5344 
 10  3 29  1 18  0.0000000  0  1G28
 -16121997.21153 -12543599.34052  24351758.7654   24351763.6664   24351758.3494 
     -2971.1614      -2315.1904 
 10  3 29  1 30  0.0000000  0  1G28
                                  24753000.562                                  
     -2881.828       -2245.580  
 10  3 29  1 30 30.0000000  0  1G28
   -119472.05053    -96829.60752  24769440.4834   24769443.4584   24769438.7174 
     -2877.9824      -2242.5834 
 10  3 29  1 31  0.0000000  0  1G28
    -33208.24743    -29611.09042  24785856.6324   24785860.7854   24785856.3964 
     -2873.2134      -2238.8674 
 10  3 29  1 31 30.0000000  0  1G28
     52928.42143     37508.32942  24802248.8174   24802252.0064   24802248.6864 
     -2868.5284      -2235.2174 
 10  3 29  1 32  0.0000000  0  1G28
    138941.81243    104531.66842  24818615.5974   24818619.9814   24818614.4964 
     -2865.3164      -2232.7144 
 10  3 29  1 32 30.0000000  0  1G28
    224833.47343    171460.17142  24834960.2524   24834964.2044   24834959.5844 
     -2860.8684      -2229.2484 
 10  3 29  1 33  0.0000000  0  1G28
    310589.65143    238283.13442  24851277.2994   24851282.8424   24851277.4114 
     -2856.8934      -2226.1504 
 10  3 29  1 33 30.0000000  0  1G28
    396217.43543    305006.02042  24867572.2194   24867577.9794   24867572.0894 
     -2852.2244      -2222.5124 
 10  3 29  1 34  0.0000000  0  1G28
    481717.35543    371629.29842  24883842.8764   24883848.2644   24883841.4754 
     -2847.9964      -2219.2184 
 10  3 29  1 34 30.0000000  0  1G28
    567088.99843    438152.60842  24900089.0014   24900092.3954   24900087.4924 
     -2843.0154      -2215.3364 
 10  3 29  1 35  0.0000000  0  1G28
    652332.36343    504575.94442  24916310.3294   24916316.4384   24916309.5974 
     -2839.1274      -2212.3074 
 10  3 29  1 35 30.0000000  0  1G28
    737444.05453    570896.68152  24932506.2694   24932512.6244   24932506.5084 
     -2834.7854      -2208.9234 
 10  3 29  1 36  0.0000000  0  1G28
    822435.49343    637123.68442  24948679.1824   24948685.7924   24948678.9854 
     -2830.4384      -2205.5364 
 10  3 29  1 36 30.0000000  0  1G28
    907283.22243    703238.72942  24964825.6254   24964831.5714   24964824.9734 
     -2825.8964      -2201.9974 
 10  3 29  1 37  0.0000000  0  1G28
    991999.89943    769251.62442  24980947.0664   24980951.4254   24980946.2084 
     -2821.7344      -2198.7544 
 10  3 29  1 37 30.0000000  0  1G28
   1076585.39343    835162.34442  24997042.8874   24997048.1994   24997042.0184 
     -2817.0824      -2195.1294 
 10  3 29  1 38  0.0000000  0  1G28
   1161034.72143    900966.92442  25013112.7944   25013117.5754   25013113.2924 
     -2812.9644      -2191.9204 
 10  3 29  1 38 30.0000000  0  1G28
   1245352.27443    966668.85042  25029158.2884   25029162.6944   25029157.5844 
     -2808.9614      -2188.8014 
 10  3 29  1 39  0.0000000  0  1G28
   1329534.86143   1032265.59942  25045177.8134   25045183.1214   25045176.8914 
     -2804.0664      -2184.9864 
 10  3 29  1 39 30.0000000  0  1G28
   1413583.70143   1097758.11242  25061172.2484   25061175.8774   25061171.2684 
     -2799.0614      -2181.0864 
 10  3 29  1 40  0.0000000  0  1G28
   1497495.23143   1163143.65742  25077139.9754   25077145.2674   25077139.0854 
     -2794.7604      -2177.7354 
 10  3 29  1 40 30.0000000  0  1G28
   1581271.17843   1228423.53842  25093082.1514   25093086.0044   25093083.1364 
     -2790.4294      -2174.3604 
 10  3 29  1 41  0.0000000  0  1G28
   1664909.72343   1293596.35742  25108998.5254   25109003.8524   25108998.2194 
     -2785.9504      -2170.8704 
 10  3 29  1 41 30.0000000  0  1G28
   1748412.15643   1358663.13842  25124888.3184   25124893.8454   25124888.1454 
     -2781.4464      -2167.3604 
 10  3 29  1 42  0.0000000  0  1G28
   1831775.42043   1423621.46442  25140751.1904   25140757.7324   25140750.5484 
     -2776.0914      -2163.1884 
 10  3 29  1 42 30.0000000  0  1G28
   1915001.29243   1488472.72642  25156588.6354   25156594.5374   25156588.5864 
     -2771.1914      -2159.3704 
 10  3 29  1 43  0.0000000  0  1G28
   1998090.34143   1553217.39342  25172400.3264   25172406.6914   25172400.2764 
     -2767.1474      -2156.2184 
 10  3 29  1 43 30.0000000  0  1G28
   2081040.41143   1617853.78642  25188185.5144   25188189.0114   25188183.5044 
     -2762.3054      -2152.4454 
 10  3 29  1 44  0.0000000  0  1G28
   2163849.23443   1682380.10342  25203942.9964   25203947.4614   25203941.3204 
     -2758.6684      -2149.6114 
 10  3 29  1 44 30.0000000  0  1G28
    671098.02353    519197.31452  25219673.8854   25219683.0474   25219673.4874 
     -2754.8624      -2146.6464 
