     2.11           OBSERVATION DATA    MIXED               RINEX VERSION / TYPE
RinEdit             0.27                06/14/2017 16:33:37 PGM / RUN BY / DATE
BIT 2 OF LLI FLAGS DATA COLLECTED UNDER A/S CONDITION       COMMENT
SNR is mapped to RINEX snr flag value [2-9]                 COMMENT
Lx:     = 25dBHz -> 1; 26-27dBHz -> 2; 28-31dBHz -> 3       COMMENT
32-35dBHz -> 4; 36-38dBHz -> 5; 39-41dBHz -> 6              COMMENT
42-44dBHz -> 7; 45-48dBHz -> 8; >=49dBHz -> 9               COMMENT
Bldg 3699                                                   MARKER NAME
3699                                                        MARKER NUMBER
                                                            OBSERVER / AGENCY
355548              LEICA GRX1200GGPRO  8.10/3.019          REC # / TYPE / VERS
                    LEIAT504GG                              ANT # / TYPE
 -2183984.7287 -4897913.8414  3441520.5493                  APPROX POSITION XYZ
        0.0000        0.0000        0.0000                  ANTENNA: DELTA H/E/N
     4    P1    L1    P2    L2                              # / TYPES OF OBSERV
     1     1                                                WAVELENGTH FACT L1/2
    30.000                                                  INTERVAL
  2013    11     1     0    50    0.0000000     GPS         TIME OF FIRST OBS
    16                                                      LEAP SECONDS
    55                                                      # OF SATELLITES
                                                            END OF HEADER
 13 11  1  0 56 30.0000000  0  1R03
  23619693.340   126438075.387 6  23619702.740    98340760.451 6
 13 11  1  0 57  0.0000000  0  1R03
  23606782.760   126368965.546 6  23606792.620    98287008.648 6
 13 11  1  0 57 30.0000000  0  1R03
  23593900.420   126300006.790 5  23593910.360    98233374.368 6
 13 11  1  0 58  0.0000000  0  1R03
  23581047.080   126231204.892 5  23581057.440    98179862.062 6
 13 11  1  0 58 30.0000000  0  1R03
  23568221.000   126162532.370 3  23568232.800    98126462.27916
 13 11  1  0 59  0.0000000  0  1R03
  23555423.860   126094027.440 3  23555436.920    98073186.91216
 13 11  1  0 59 30.0000000  0  1R03
  23542655.980   126025680.822 4  23542669.180    98020029.210 6
 13 11  1  1  0  0.0000000  0  1R03
  23529916.500   125957484.165 4  23529929.780    97966988.142 6
 13 11  1  1  0 30.0000000  0  1R03
  23517206.020   125889443.523 5  23517219.080    97914067.841 6
 13 11  1  1  1  0.0000000  0  1R03
  23504523.600   125821552.610 5  23504536.240    97861263.960 6
 13 11  1  1  1 30.0000000  0  1R03
  23491869.460   125753811.944 5  23491881.560    97808576.969 6
 13 11  1  1  2  0.0000000  0  1R03
  23479243.360   125686220.573 6  23479254.660    97756006.033 6
 13 11  1  1  2 30.0000000  0  1R03
  23466645.080   125618777.996 5  23466655.500    97703550.906 5
 13 11  1  1  3  0.0000000  0  1R03
  23454074.280   125551483.346 5  23454083.980    97651210.760 5
 13 11  1  1  3 30.0000000  0  1R03
  23441530.780   125484335.306 5  23441539.960    97598984.727 6
 13 11  1  1  4  0.0000000  0  1R03
  23429015.100   125417337.469 4  23429024.040    97546875.504 6
 13 11  1  1  4 30.0000000  0  1R03
  23416526.540   125350485.748 5  23416535.420    97494879.919 6
 13 11  1  1  5  0.0000000  0  1R03
  23404065.720   125283782.057 5  23404074.500    97442999.416 6
 13 11  1  1  5 30.0000000  0  1R03
  23391631.940   125217223.602 5  23391640.760    97391231.894 5
 13 11  1  1  6  0.0000000  0  1R03
  23379224.920   125150808.835 5  23379233.860    97339576.157 6
 13 11  1  1  6 30.0000000  0  1R03
  23366844.700   125084537.932 4  23366853.760    97288032.276 5
 13 11  1  1  7  0.0000000  0  1R03
  23354490.540   125018415.745 4  23354500.120    97236586.257 5
 13 11  1  1  7 30.0000000  0  1R03
                                  23342173.580    97185263.832 5
 13 11  1  1  8  0.0000000  0  1R03
  23329864.160   124886590.542 4  23329874.160    97134055.414 5
 13 11  1  1  8 30.0000000  0  1R03
  23317590.760   124820890.454 4  23317600.880    97082955.664 5
 13 11  1  1  9  0.0000000  0  1R03
  23305343.960   124755333.683 4  23305354.220    97031967.348 4
 13 11  1  1  9 30.0000000  0  1R03
  23293122.880   124689914.886 5  23293133.260    96981086.357 5
 13 11  1  1 10  0.0000000  0  1R03
  23280928.160   124624636.416 5  23280938.560    96930314.526 5
 13 11  1  1 10 30.0000000  0  1R03
  23268759.540   124559497.403 4  23268770.040    96879651.176 4
 13 11  1  1 11  0.0000000  0  1R03
  23256617.060   124494499.861 5  23256627.760    96829097.840 4
 13 11  1  1 11 30.0000000  0  1R03
  23244500.520   124429640.733 6  23244511.020    96778652.126 4
 13 11  1  1 12  0.0000000  0  1R03
  23232409.860   124364919.112 6  23232419.900    96728313.386 4
 13 11  1  1 12 30.0000000  0  1R03
  23220344.980   124300335.226 6  23220354.480    96678081.731 4
 13 11  1  1 13  0.0000000  0  1R03
  23208305.420   124235886.468 7  23208314.140    96627955.116 3
 13 11  1  1 13 30.0000000  0  1R03
  23196290.800   124171570.977 7  23196298.660    96577932.159 3
 13 11  1  1 14  0.0000000  0  1R03
  23184300.500   124107385.607 7  23184307.720    96528010.400 3
 13 11  1  1 14 30.0000000  0  1R03
  23172336.020   124043338.675 7  23172342.520    96478196.261 3
 13 11  1  1 15  0.0000000  0  1R03
  23160396.280   123979424.585 7  23160402.460    96428485.481 4
 13 11  1  1 15 30.0000000  0  1R03
  23148481.040   123915641.747 7  23148487.460    96378876.819 4
 13 11  1  1 16  0.0000000  0  1R03
  23136590.560   123851992.195 7  23136597.220    96329371.769 3
 13 11  1  1 16 30.0000000  0  1R03
  23124724.800   123788475.381 7  23124731.680    96279969.987 4
 13 11  1  1 17  0.0000000  0  1R03
  23112883.840   123725091.666 7  23112891.340    96230671.746 4
 13 11  1  1 17 30.0000000  0  1R03
  23101066.020   123661831.687 7  23101074.240    96181469.749 4
 13 11  1  1 18  0.0000000  0  1R03
  23089267.520   123598675.406 7  23089276.420    96132348.390 4
 13 11  1  1 18 30.0000000  0  1R03
  23077499.400   123535681.555 7  23077508.840    96083353.377 4
 13 11  1  1 19  0.0000000  0  1R03
  23065754.660   123472812.301 7  23065764.400    96034455.257 4
 13 11  1  1 19 30.0000000  0  1R03
  23054034.000   123410071.252 7  23054043.880    95985656.835 4
 13 11  1  1 20  0.0000000  0  1R03
  23042339.460   123347469.517 8  23042349.340    95936966.770 4
 13 11  1  1 20 30.0000000  0  1R03
  23030668.180   123284991.599 7  23030677.880    95888373.014 3
 13 11  1  1 21  0.0000000  0  1R03
  23019016.280   123222617.568 8  23019025.360    95839860.029 4
 13 11  1  1 21 30.0000000  0  1R03
  23007389.580   123160378.644 7  23007397.920    95791452.148 4
 13 11  1  1 22  0.0000000  0  1R03
  22995785.520   123098261.242 8  22995793.320    95743138.834 4
 13 11  1  1 22 30.0000000  0  1R03
  22984205.240   123036271.316 8  22984212.640    95694924.694 4
 13 11  1  1 23  0.0000000  0  1R03
  22972644.780   122974387.724 7  22972651.700    95646793.228 4
 13 11  1  1 23 30.0000000  0  1R03
  22961109.700   122912640.482 8  22961116.440    95598767.852 5
 13 11  1  1 24  0.0000000  0  1R03
  22949598.900   122851023.746 7  22949605.640    95550843.969 5
 13 11  1  1 24 30.0000000  0  1R03
  22938107.300   122789509.883 7  22938114.200    95503000.078 5
 13 11  1  1 25  0.0000000  0  1R03
  22926638.640   122728118.832 7  22926645.760    95455251.731 6
 13 11  1  1 25 30.0000000  0  1R03
  22915192.380   122666847.536 7  22915199.720    95407596.511 6
 13 11  1  1 26  0.0000000  0  1R03
  22903767.180   122605688.876 7  22903774.620    95360028.862 6
 13 11  1  1 26 30.0000000  0  1R03
  22892365.800   122544657.772 7  22892373.420    95312560.417 6
 13 11  1  1 27  0.0000000  0  1R03
  22880984.960   122483736.454 7  22880992.880    95265177.349 6
 13 11  1  1 27 30.0000000  0  1R03
  22869626.480   122422934.346 7  22869634.660    95217886.986 6
 13 11  1  1 28  0.0000000  0  1R03
  22858289.360   122362246.431 7  22858297.700    95170685.473 6
 13 11  1  1 28 30.0000000  0  1R03
  22846973.960   122301674.426 8  22846982.220    95123574.103 7
 13 11  1  1 29  0.0000000  0  1R03
  22835677.300   122241202.651 8  22835685.400    95076540.713 7
 13 11  1  1 29 30.0000000  0  1R03
  22824404.220   122180857.038 8  22824412.120    95029605.436 7
 13 11  1  1 30  0.0000000  0  1R03
  22813154.060   122120633.981 8  22813161.700    94982765.477 7
 13 11  1  1 30 30.0000000  0  1R03
  22801922.260   122060509.105 8  22801929.640    94936001.884 7
 13 11  1  1 31  0.0000000  0  1R03
  22790711.560   122000497.281 8  22790718.740    94889326.239 7
 13 11  1  1 31 30.0000000  0  1R03
  22779521.240   121940595.178 8  22779528.300    94842735.927 7
 13 11  1  1 32  0.0000000  0  1R03
  22768347.340   121880781.584 8  22768354.320    94796214.449 7
 13 11  1  1 32 30.0000000  0  1R03
  22757200.800   121821115.277 8  22757207.800    94749807.527 7
 13 11  1  1 33  0.0000000  0  1R03
  22746069.380   121761530.026 7  22746076.440    94703463.649 7
 13 11  1  1 33 30.0000000  0  1R03
  22734958.940   121702056.817 8  22734966.080    94657206.915 7
 13 11  1  1 34  0.0000000  0  1R03
  22723869.080   121642693.317 7  22723876.260    94611035.492 7
 13 11  1  1 34 30.0000000  0  1R03
  22712799.060   121583435.544 8  22712806.220    94564946.308 7
 13 11  1  1 35  0.0000000  0  1R03
  22701746.300   121524269.701 7  22701753.380    94518928.619 6
 13 11  1  1 35 30.0000000  0  1R03
  22690715.820   121465222.820 7  22690722.720    94473003.455 6
 13 11  1  1 36  0.0000000  0  1R03
  22679704.200   121406276.906 7  22679710.860    94427156.816 6
 13 11  1  1 36 30.0000000  0  1R03
  22668713.400   121347442.852 7  22668719.960    94381397.186 6
 13 11  1  1 37  0.0000000  0  1R03
  22657740.000   121288702.381 7  22657746.580    94335710.330 6
 13 11  1  1 37 30.0000000  0  1R03
  22646785.560   121230063.707 7  22646792.240    94290102.664 6
 13 11  1  1 38  0.0000000  0  1R03
  22635847.880   121171514.812 7  22635854.600    94244564.832 5
 13 11  1  1 38 30.0000000  0  1R03
  22624930.740   121113075.508 8  22624937.280    94199112.238 6
 13 11  1  1 39  0.0000000  0  1R03
  22614032.340   121054736.250 8  22614038.660    94153737.465 6
 13 11  1  1 39 30.0000000  0  1R03
  22603152.780   120996497.014 8  22603158.840    94108440.482 6
 13 11  1  1 40  0.0000000  0  1R03
  22592290.880   120938351.776 8  22592296.760    94063216.595 7
 13 11  1  1 40 30.0000000  0  1R03
  22581447.320   120880304.794 7  22581453.060    94018069.119 6
 13 11  1  1 41  0.0000000  0  1R03
  22570621.960   120822355.543 7  22570627.620    93972997.648 6
 13 11  1  1 41 30.0000000  0  1R03
  22559814.180   120764501.737 7  22559819.980    93928000.412 6
 13 11  1  1 42  0.0000000  0  1R03
  22549024.120   120706743.791 7  22549030.220    93883077.705 6
 13 11  1  1 42 30.0000000  0  1R03
  22538250.480   120649073.826 6  22538256.820    93838223.444 6
 13 11  1  1 43  0.0000000  0  1R03
  22527494.660   120591499.395 7  22527501.200    93793443.487 6
 13 11  1  1 43 30.0000000  0  1R03
  22516756.640   120534019.710 7  22516763.120    93748737.180 6
 13 11  1  1 44  0.0000000  0  1R03
  22506036.300   120476633.969 7  22506042.540    93704103.955 6
 13 11  1  1 44 30.0000000  0  1R03
  22495332.580   120419336.865 7  22495338.660    93659539.663 7
 13 11  1  1 45  0.0000000  0  1R03
  22484645.680   120362129.047 7  22484651.620    93615044.827 7
 13 11  1  1 45 30.0000000  0  1R03
  22473975.760   120305011.889 7  22473981.660    93570620.485 7
 13 11  1  1 46  0.0000000  0  1R03
  22463323.060   120247986.721 7  22463328.960    93526267.695 7
 13 11  1  1 46 30.0000000  0  1R03
  22452686.700   120191048.856 7  22452692.640    93481982.804 7
 13 11  1  1 47  0.0000000  0  1R03
  22442066.900   120134199.957 7  22442072.880    93437767.114 7
 13 11  1  1 47 30.0000000  0  1R03
  22431462.560   120077434.180 7  22431468.520    93393616.090 6
 13 11  1  1 48  0.0000000  0  1R03
  22420875.120   120020759.454 7  22420880.960    93349535.866 6
 13 11  1  1 48 30.0000000  0  1R03
  22410303.000   119964167.765 7  22410308.800    93305520.212 6
 13 11  1  1 49  0.0000000  0  1R03
  22399747.640   119907665.858 7  22399753.260    93261574.376 6
 13 11  1  1 49 30.0000000  0  1R03
  22389205.720   119851235.864 7  22389211.300    93217684.488 6
 13 11  1  1 50  0.0000000  0  1R03
  22378682.000   119794902.276 7  22378687.500    93173869.584 6
 13 11  1  1 50 30.0000000  0  1R03
  22368174.800   119738656.058 7  22368180.160    93130122.624 6
 13 11  1  1 51  0.0000000  0  1R03
  22357682.060   119682486.866 7  22357687.240    93086435.580 7
 13 11  1  1 51 30.0000000  0  1R03
  22347203.500   119626393.848 7  22347208.560    93042807.769 7
 13 11  1  1 52  0.0000000  0  1R03
  22336740.600   119570385.053 7  22336745.620    92999245.490 7
 13 11  1  1 52 30.0000000  0  1R03
  22326292.560   119514455.880 7  22326297.620    92955745.146 7
 13 11  1  1 53  0.0000000  0  1R03
  22315859.500   119458607.275 7  22315864.680    92912307.459 7
 13 11  1  1 53 30.0000000  0  1R03
  22305441.840   119402841.272 7  22305447.200    92868934.049 7
 13 11  1  1 54  0.0000000  0  1R03
  22295038.900   119347154.662 7  22295044.440    92825622.352 7
 13 11  1  1 54 30.0000000  0  1R03
  22284650.540   119291545.929 7  22284656.120    92782371.205 7
 13 11  1  1 55  0.0000000  0  1R03
  22274275.980   119236010.764 7  22274281.500    92739177.291 7
 13 11  1  1 55 30.0000000  0  1R03
  22263916.500   119180555.908 8  22263921.900    92696045.845 8
 13 11  1  1 56  0.0000000  0  1R03
  22253571.400   119125177.593 7  22253576.580    92652973.924 7
 13 11  1  1 56 30.0000000  0  1R03
  22243240.100   119069873.606 7  22243245.220    92609959.809 8
 13 11  1  1 57  0.0000000  0  1R03
  22232922.960   119014646.210 7  22232928.240    92567005.287 8
 13 11  1  1 57 30.0000000  0  1R03
  22222619.600   118959492.601 7  22222625.080    92524108.119 8
 13 11  1  1 58  0.0000000  0  1R03
  22212330.120   118904412.677 8  22212335.660    92481268.297 8
 13 11  1  1 58 30.0000000  0  1R03
  22202054.440   118849405.740 7  22202059.820    92438485.232 8
 13 11  1  1 59  0.0000000  0  1R03
  22191792.920   118794474.686 7  22191798.140    92395761.189 8
 13 11  1  1 59 30.0000000  0  1R03
  22181544.500   118739614.246 7  22181549.600    92353092.041 8
 13 11  1  2  0  0.0000000  0  1R03
  22171309.180   118684824.205 7  22171314.180    92310477.673 8
 13 11  1  2  0 30.0000000  0  1R03
  22161087.440   118630107.044 7  22161092.440    92267919.983 8
 13 11  1  2  1  0.0000000  0  1R03
  22150878.940   118575460.832 8  22150884.020    92225417.476 8
 13 11  1  2  1 30.0000000  0  1R03
  22140683.680   118520885.462 8  22140688.840    92182970.068 8
 13 11  1  2  2  0.0000000  0  1R03
  22130500.660   118466375.569 8  22130505.840    92140573.566 8
 13 11  1  2  2 30.0000000  0  1R03
  22120330.520   118411934.613 8  22120335.700    92098230.687 8
 13 11  1  2  3  0.0000000  0  1R03
  22110173.540   118357563.453 8  22110178.580    92055942.103 8
 13 11  1  2  3 30.0000000  0  1R03
  22100029.320   118303260.459 8  22100034.260    92013706.539 8
 13 11  1  2  4  0.0000000  0  1R03
  22089897.560   118249024.248 7  22089902.380    91971522.873 8
 13 11  1  2  4 30.0000000  0  1R03
  22079778.080   118194854.513 7  22079782.940    91929390.930 8
 13 11  1  2  5  0.0000000  0  1R03
  22069671.320   118140753.456 7  22069676.280    91887312.422 8
 13 11  1  2  5 30.0000000  0  1R03
  22059577.160   118086719.861 7  22059582.160    91845286.390 8
 13 11  1  2  6  0.0000000  0  1R03
  22049495.060   118032750.070 8  22049500.000    91803309.973 7
 13 11  1  2  6 30.0000000  0  1R03
  22039424.900   117978843.581 8  22039429.720    91761382.787 8
 13 11  1  2  7  0.0000000  0  1R03
  22029366.680   117925000.788 8  22029371.400    91719505.139 7
 13 11  1  2  7 30.0000000  0  1R03
  22019320.520   117871222.418 8  22019325.140    91677677.607 7
 13 11  1  2  8  0.0000000  0  1R03
  22009286.680   117817510.128 8  22009291.200    91635901.490 7
 13 11  1  2  8 30.0000000  0  1R03
  21999256.980   117763820.447 8  21999261.440    91594142.957 7
 13 11  1  2  9  0.0000000  0  1R03
  21989248.520   117710245.003 8  21989252.940    91552473.253 7
 13 11  1  2  9 30.0000000  0  1R03
  21979250.420   117656725.154 8  21979254.820    91510846.799 7
 13 11  1  2 10  0.0000000  0  1R03
  21969263.040   117603262.151 8  21969267.380    91469264.554 7
 13 11  1  2 10 30.0000000  0  1R03
  21959286.860   117549858.582 8  21959291.120    91427728.533 7
 13 11  1  2 11  0.0000000  0  1R03
  21949322.380   117496518.015 8  21949326.640    91386241.516 7
 13 11  1  2 11 30.0000000  0  1R03
  21939368.360   117443234.127 8  21939372.700    91344798.566 7
 13 11  1  2 12  0.0000000  0  1R03
  21929425.860   117390011.823 8  21929430.220    91303403.508 7
 13 11  1  2 12 30.0000000  0  1R03
  21919494.620   117336849.198 8  21919498.900    91262054.868 7
 13 11  1  2 13  0.0000000  0  1R03
  21909574.940   117283748.160 8  21909579.060    91220754.140 7
 13 11  1  2 13 30.0000000  0  1R03
  21899665.420   117230701.635 8  21899669.420    91179495.801 7
 13 11  1  2 14  0.0000000  0  1R03
  21889766.420   117177712.196 8  21889770.460    91138281.869 7
 13 11  1  2 14 30.0000000  0  1R03
  21879879.140   117124785.885 8  21879883.240    91097117.017 6
 13 11  1  2 15  0.0000000  0  1R03
  21870002.560   117071916.719 8  21870006.640    91055996.612 6
 13 11  1  2 15 30.0000000  0  1R03
  21860136.300   117019102.472 8  21860140.300    91014918.902 6
 13 11  1  2 16  0.0000000  0  1R03
  21850280.640   116966344.762 8  21850284.700    90973885.167 6
 13 11  1  2 16 30.0000000  0  1R03
  21840435.620   116913643.591 8  21840439.820    90932895.428 6
 13 11  1  2 17  0.0000000  0  1R03
  21830600.940   116860997.415 8  21830605.240    90891948.469 6
 13 11  1  2 17 30.0000000  0  1R03
  21820778.760   116808418.423 8  21820783.200    90851053.768 6
 13 11  1  2 18  0.0000000  0  1R03
  21810964.400   116755881.637 8  21810969.000    90810191.896 6
 13 11  1  2 18 30.0000000  0  1R03
  21801160.640   116703401.623 8  21801165.380    90769374.187 6
 13 11  1  2 19  0.0000000  0  1R03
  21791368.460   116650983.271 8  21791373.260    90728604.441 6
 13 11  1  2 19 30.0000000  0  1R03
  21781586.020   116598617.059 8  21781590.760    90687875.239 6
 13 11  1  2 20  0.0000000  0  1R03
  21771813.800   116546306.223 7  21771818.400    90647189.109 5
 13 11  1  2 20 30.0000000  0  1R03
  21762051.660   116494049.904 7  21762056.060    90606545.368 5
 13 11  1  2 21  0.0000000  0  1R03
  21752298.420   116441841.353 7  21752302.660    90565938.802 6
 13 11  1  2 21 30.0000000  0  1R03
  21742557.000   116389695.764 7  21742561.220    90525381.191 6
 13 11  1  2 22  0.0000000  0  1R03
  21732824.540   116337597.829 7  21732828.840    90484860.633 6
 13 11  1  2 22 30.0000000  0  1R03
  21723100.440   116285544.483 7  21723104.900    90444374.753 6
 13 11  1  2 23  0.0000000  0  1R03
  21713389.040   116233558.684 6  21713393.660    90403941.439 6
 13 11  1  2 23 30.0000000  0  1R03
  21703687.860   116181627.438 6  21703692.660    90363550.547 6
 13 11  1  2 24  0.0000000  0  1R03
  21693997.340   116129753.323 6  21694002.320    90323204.088 6
 13 11  1  2 24 30.0000000  0  1R03
  21684312.860   116077911.431 6  21684317.960    90282882.669 6
 13 11  1  2 25  0.0000000  0  1R03
  21674640.740   116026134.587 6  21674645.640    90242611.848 6
 13 11  1  2 25 30.0000000  0  1R03
  21664979.360   115974414.517 6  21664983.740    90202385.167 6
 13 11  1  2 26  0.0000000  0  1R03
  21655325.800   115922737.342 6  21655329.740    90162191.867 6
 13 11  1  2 26 30.0000000  0  1R03
  21645681.600   115871111.880 6  21645685.380    90122038.817 6
 13 11  1  2 27  0.0000000  0  1R03
  21636045.700   115819532.045 6  21636049.640    90081921.262 6
 13 11  1  2 27 30.0000000  0  1R03
  21626423.300   115768024.260 6  21626427.380    90041859.730 6
 13 11  1  2 28  0.0000000  0  1R03
  21616807.700   115716552.354 6  21616811.820    90001826.094 6
 13 11  1  2 28 30.0000000  0  1R03
  21607201.120   115665128.404 6  21607205.160    89961829.753 6
 13 11  1  2 29  0.0000000  0  1R03
  21597604.520   115613757.773 6  21597608.500    89921874.890 6
 13 11  1  2 29 30.0000000  0  1R03
  21588017.840   115562439.971 7  21588021.780    89881961.120 6
 13 11  1  2 30  0.0000000  0  1R03
  21578440.620   115511172.288 7  21578444.560    89842086.317 6
 13 11  1  2 30 30.0000000  0  1R03
  21568874.160   115459961.909 6  21568878.080    89802256.095 6
 13 11  1  2 31  0.0000000  0  1R03
  21559316.140   115408797.128 7  21559320.000    89762461.326 5
 13 11  1  2 31 30.0000000  0  1R03
  21549767.460   115357682.192 7  21549771.060    89722705.333 5
 13 11  1  2 32  0.0000000  0  1R03
  21540228.960   115306621.777 7  21540232.280    89682991.727 5
 13 11  1  2 32 30.0000000  0  1R03
  21530699.940   115255612.513 7  21530703.240    89643317.920 5
 13 11  1  2 33  0.0000000  0  1R03
  21521179.500   115204649.912 7  21521183.120    89603680.410 6
 13 11  1  2 33 30.0000000  0  1R03
  21511668.520   115153738.096 7  21511672.580    89564082.402 5
 13 11  1  2 34  0.0000000  0  1R03
  21502167.640   115102879.910 7  21502171.940    89524526.099 5
 13 11  1  2 34 30.0000000  0  1R03
  21492676.700   115052074.151 7  21492680.940    89485010.574 5
 13 11  1  2 35  0.0000000  0  1R03
  21483194.840   115001316.429 7  21483198.780    89445532.406 5
 13 11  1  2 35 30.0000000  0  1R03
  21473722.280   114950608.204 7  21473725.800    89406092.733 4
 13 11  1  2 36  0.0000000  0  1R03
  21464259.580   114899953.464 6  21464262.860    89366694.673 5
 13 11  1  2 36 30.0000000  0  1R03
  21454807.740   114849358.269 6  21454811.080    89327342.940 5
 13 11  1  2 37  0.0000000  0  1R03
  21445362.460   114798799.081 6  21445366.000    89288019.219 5
 13 11  1  2 37 30.0000000  0  1R03
  21435927.300   114748293.839 6  21435931.020    89248737.446 4
 13 11  1  2 38  0.0000000  0  1R03
  21426502.260   114697841.317 7  21426506.000    89209496.670 4
 13 11  1  2 38 30.0000000  0  1R03
  21417086.540   114647437.888 7  21417090.240    89170294.076 5
 13 11  1  2 39  0.0000000  0  1R03
  21407681.380   114597090.541 6  21407685.080    89131135.090 4
 13 11  1  2 39 30.0000000  0  1R03
  21398284.940   114546790.167 6  21398288.700    89092012.663 4
 13 11  1  2 40  0.0000000  0  1R03
  21388897.960   114496541.150 5  21388901.840    89052930.204 4
 13 11  1  2 40 30.0000000  0  1R03
  21379520.680   114446344.826 6  21379524.680    89013888.721 4
 13 11  1  2 41  0.0000000  0  1R03
  21370153.640   114396203.289 6  21370157.700    88974889.841 4
 13 11  1  2 41 30.0000000  0  1R03
  21360796.400   114346112.985 6  21360800.320    88935930.783 3
 13 11  1  2 42  0.0000000  0  1R03
  21351449.700   114296078.268 6  21351453.260    88897014.936 3
 13 11  1  2 42 30.0000000  0  1R03
  21342112.280   114246092.701 6  21342114.980    88858137.314 2
 13 11  1  2 43  0.0000000  0  1R03
  21332784.380   114196158.113 6  21332785.740    88819299.299 1
 13 11  1  2 43 30.0000000  0  1R03
  21323466.280   114146276.550 6  21323466.160    88780502.530 1
 13 11  1  2 44  0.0000000  0  1R03
  21314157.820   114096447.962 5  21314156.980    88741746.986 3
 13 11  1  2 44 30.0000000  0  1R03
  21304859.120   114046672.417 5  21304858.760    88703032.732 3
 13 11  1  2 45  0.0000000  0  1R03
  21295570.200   113996949.565 6  21295571.140    88664359.452 3
 13 11  1  2 45 30.0000000  0  1R03
  21286291.920   113947282.275 6  21286294.140    88625729.390 4
 13 11  1  2 46  0.0000000  0  1R03
  21277024.320   113897670.649 6  21277027.320    88587142.601 4
 13 11  1  2 46 30.0000000  0  1R03
  21267767.420   113848115.914 6  21267770.720    88548600.077 4
 13 11  1  2 47  0.0000000  0  1R03
  21258519.420   113798609.762 5  21258522.840    88510095.349 4
 13 11  1  2 47 30.0000000  0  1R03
  21249281.620   113749159.797 5  21249285.260    88471634.302 4
 13 11  1  2 48  0.0000000  0  1R03
  21240053.680   113699764.492 4  21240057.900    88433215.814 4
 13 11  1  2 48 30.0000000  0  1R03
  21230835.980   113650427.168 4  21230841.240    88394842.430 4
 13 11  1  2 49  0.0000000  0  1R03
  21221629.240   113601147.926 5  21221635.320    88356514.154 4
 13 11  1  2 49 30.0000000  0  1R03
  21212434.480   113551929.358 6  21212440.820    88318233.079 4
 13 11  1  2 50  0.0000000  0  1R03
  21203249.740   113502762.043 6  21203255.880    88279991.840 4
 13 11  1  2 50 30.0000000  0  1R03
  21194075.320   113453648.123 6  21194080.820    88241792.141 4
 13 11  1  2 51  0.0000000  0  1R03
  21184912.420   113404595.329 6  21184917.260    88203640.003 5
 13 11  1  2 51 30.0000000  0  1R03
  21175759.900   113355598.539 6  21175764.320    88165531.437 5
 13 11  1  2 52  0.0000000  0  1R03
  21166617.680   113306657.678 6  21166621.820    88127466.385 5
 13 11  1  2 52 30.0000000  0  1R03
  21157486.020   113257775.535 6  21157490.240    88089446.984 4
 13 11  1  2 53  0.0000000  0  1R03
  21148364.720   113208950.584 6  21148369.340    88051472.064 4
 13 11  1  2 53 30.0000000  0  1R03
  21139255.060   113160188.182 6  21139259.960    88013545.772 4
 13 11  1  2 54  0.0000000  0  1R03
  21130156.880   113111486.638 6  21130161.600    87975666.779 4
 13 11  1  2 54 30.0000000  0  1R03
  21121070.240   113062845.702 7  21121074.440    87937834.971 4
 13 11  1  2 55  0.0000000  0  1R03
  21111995.860   113014269.397 7  21111999.380    87900053.415 5
 13 11  1  2 55 30.0000000  0  1R03
  21102932.400   112965751.298 7  21102935.440    87862317.143 5
 13 11  1  2 56  0.0000000  0  1R03
  21093880.880   112917296.903 7  21093883.680    87824630.414 6
 13 11  1  2 56 30.0000000  0  1R03
  21084841.140   112868905.397 7  21084843.820    87786992.599 6
 13 11  1  2 57  0.0000000  0  1R03
  21075806.580   112820541.710 7  21075809.240    87749376.431 6
 13 11  1  2 57 30.0000000  0  1R03
  21066793.740   112772294.616 7  21066796.400    87711850.924 6
 13 11  1  2 58  0.0000000  0  1R03
  21057790.940   112724101.912 7  21057793.540    87674367.743 6
 13 11  1  2 58 30.0000000  0  1R03
  21048798.540   112675965.274 7  21048801.040    87636928.165 6
 13 11  1  2 59  0.0000000  0  1R03
  21039818.400   112627894.638 7  21039820.840    87599539.928 6
 13 11  1  2 59 30.0000000  0  1R03
  21030850.240   112579888.714 7  21030852.800    87562202.035 6
 13 11  1  3  0  0.0000000  0  1R03
  21021894.560   112531949.944 8  21021897.400    87524916.362 6
 13 11  1  3  0 30.0000000  0  1R03
  21012952.500   112484083.580 8  21012955.580    87487687.001 6
 13 11  1  3  1  0.0000000  0  1R03
  21004023.160   112436284.573 8  21004026.360    87450510.025 7
 13 11  1  3  1 30.0000000  0  1R03
  20995106.380   112388551.720 8  20995109.480    87413384.496 7
 13 11  1  3  2  0.0000000  0  1R03
  20986202.520   112340887.328 8  20986205.400    87376312.224 7
 13 11  1  3  2 30.0000000  0  1R03
  20977312.020   112293294.460 8  20977314.720    87339295.578 7
 13 11  1  3  3  0.0000000  0  1R03
  20968435.400   112245776.402 8  20968438.060    87302337.122 7
 13 11  1  3  3 30.0000000  0  1R03
  20959570.740   112198323.285 8  20959573.520    87265429.185 7
 13 11  1  3  4  0.0000000  0  1R03
  20950719.040   112150940.319 8  20950722.060    87228575.810 7
 13 11  1  3  4 30.0000000  0  1R03
  20941881.140   112103631.505 8  20941884.380    87191780.113 7
 13 11  1  3  5  0.0000000  0  1R03
  20933057.920   112056401.242 8  20933061.300    87155045.505 7
 13 11  1  3  5 30.0000000  0  1R03
  20924249.700   112009250.517 8  20924253.020    87118372.759 8
 13 11  1  3  6  0.0000000  0  1R03
  20915454.900   111962171.344 8  20915458.120    87081755.650 7
 13 11  1  3  6 30.0000000  0  1R03
  20906677.940   111915187.555 8  20906681.040    87045212.732 7
 13 11  1  3  7  0.0000000  0  1R03
  20897911.560   111868260.466 8  20897914.620    87008713.910 7
 13 11  1  3  7 30.0000000  0  1R03
  20889159.240   111821408.601 8  20889162.280    86972273.600 7
 13 11  1  3  8  0.0000000  0  1R03
  20880420.720   111774630.807 8  20880423.820    86935890.900 8
 13 11  1  3  8 30.0000000  0  1R03
  20871697.220   111727933.523 8  20871700.400    86899570.821 8
 13 11  1  3  9  0.0000000  0  1R03
  20862988.760   111681316.835 8  20862992.020    86863313.422 8
 13 11  1  3  9 30.0000000  0  1R03
  20854296.160   111634784.926 8  20854299.420    86827121.956 7
 13 11  1  3 10  0.0000000  0  1R03
  20845618.960   111588335.334 8  20845622.200    86790994.521 7
 13 11  1  3 10 30.0000000  0  1R03
  20836956.880   111541966.478 8  20836960.020    86754929.873 8
 13 11  1  3 11  0.0000000  0  1R03
  20828310.560   111495682.119 8  20828313.600    86718930.945 8
 13 11  1  3 11 30.0000000  0  1R03
  20819680.440   111449484.443 8  20819683.380    86682999.440 8
 13 11  1  3 12  0.0000000  0  1R03
  20811066.700   111403374.122 8  20811069.520    86647135.881 8
 13 11  1  3 12 30.0000000  0  1R03
  20802468.520   111357347.078 8  20802471.260    86611337.090 8
 13 11  1  3 13  0.0000000  0  1R03
  20793886.420   111311406.039 8  20793889.080    86575605.190 8
 13 11  1  3 13 30.0000000  0  1R03
  20785321.360   111265556.418 8  20785324.000    86539944.394 8
 13 11  1  3 14  0.0000000  0  1R03
  20776773.080   111219797.148 8  20776775.840    86504353.872 8
 13 11  1  3 14 30.0000000  0  1R03
  20768241.680   111174128.536 8  20768244.600    86468833.861 8
 13 11  1  3 15  0.0000000  0  1R03
  20759726.780   111128548.294 9  20759729.840    86433382.585 7
 13 11  1  3 15 30.0000000  0  1R03
  20751229.640   111083062.797 9  20751232.700    86398004.997 8
 13 11  1  3 16  0.0000000  0  1R03
  20742749.900   111037670.064 9  20742752.900    86362699.552 8
 13 11  1  3 16 30.0000000  0  1R03
  20734287.920   110992372.050 9  20734290.820    86327467.772 8
 13 11  1  3 17  0.0000000  0  1R03
  20725842.740   110947163.819 9  20725845.500    86292305.820 7
 13 11  1  3 17 30.0000000  0  1R03
  20717415.960   110902054.126 9  20717418.640    86257220.519 8
 13 11  1  3 18  0.0000000  0  1R03
  20709007.820   110857044.555 9  20709010.500    86222213.098 8
 13 11  1  3 18 30.0000000  0  1R03
  20700617.920   110812133.139 9  20700620.680    86187282.014 8
 13 11  1  3 19  0.0000000  0  1R03
  20692247.400   110767325.620 9  20692250.220    86152431.740 8
 13 11  1  3 19 30.0000000  0  1R03
  20683895.560   110722618.447 8  20683898.460    86117659.522 8
 13 11  1  3 20  0.0000000  0  1R03
  20675562.680   110678012.766 9  20675565.620    86082966.229 8
 13 11  1  3 20 30.0000000  0  1R03
  20667249.280   110633511.025 9  20667252.180    86048353.775 8
 13 11  1  3 21  0.0000000  0  1R03
  20658955.720   110589115.174 8  20658958.540    86013823.685 8
 13 11  1  3 21 30.0000000  0  1R03
  20650681.640   110544823.665 8  20650684.440    85979374.748 8
 13 11  1  3 22  0.0000000  0  1R03
  20642427.560   110500639.362 8  20642430.440    85945009.200 8
 13 11  1  3 22 30.0000000  0  1R03
  20634193.400   110456561.569 8  20634196.420    85910726.495 8
 13 11  1  3 23  0.0000000  0  1R03
  20625979.760   110412593.303 9  20625982.880    85876528.982 8
 13 11  1  3 23 30.0000000  0  1R03
  20617786.900   110368735.782 9  20617790.060    85842417.603 8
 13 11  1  3 24  0.0000000  0  1R03
  20609615.460   110324992.511 9  20609618.580    85808395.074 8
 13 11  1  3 24 30.0000000  0  1R03
  20601464.900   110281361.127 9  20601467.920    85774459.572 8
 13 11  1  3 25  0.0000000  0  1R03
  20593336.080   110237846.232 9  20593338.980    85740614.675 8
 13 11  1  3 25 30.0000000  0  1R03
  20585228.400   110194444.761 9  20585231.140    85706857.993 8
 13 11  1  3 26  0.0000000  0  1R03
  20577142.440   110151159.947 9  20577145.080    85673192.047 8
 13 11  1  3 26 30.0000000  0  1R03
  20569078.760   110107994.680 9  20569081.340    85639619.087 8
 13 11  1  3 27  0.0000000  0  1R03
  20561037.240   110064948.096 9  20561039.820    85606138.430 8
 13 11  1  3 27 30.0000000  0  1R03
  20553018.620   110022024.071 9  20553021.260    85572753.089 8
 13 11  1  3 28  0.0000000  0  1R03
  20545022.800   109979222.011 9  20545025.540    85539462.614 8
 13 11  1  3 28 30.0000000  0  1R03
  20537049.860   109936542.356 9  20537052.660    85506267.342 8
 13 11  1  3 29  0.0000000  0  1R03
  20529100.580   109893989.300 9  20529103.420    85473170.541 8
 13 11  1  3 29 30.0000000  0  1R03
  20521174.320   109851559.481 9  20521177.180    85440169.588 8
 13 11  1  3 30  0.0000000  0  1R03
  20513270.720   109809250.927 9  20513273.520    85407262.951 8
 13 11  1  3 30 30.0000000  0  1R03
  20505392.820   109767080.069 9  20505395.540    85374463.412 8
 13 11  1  3 31  0.0000000  0  1R03
  20497539.080   109725038.571 9  20497541.720    85341764.486 8
 13 11  1  3 31 30.0000000  0  1R03
  20489710.240   109683130.263 9  20489712.820    85309169.146 8
 13 11  1  3 32  0.0000000  0  1R03
  20481906.360   109641355.574 9  20481908.920    85276677.737 8
 13 11  1  3 32 30.0000000  0  1R03
  20474127.660   109599715.624 9  20474130.200    85244291.120 8
 13 11  1  3 33  0.0000000  0  1R03
  20466374.720   109558213.363 9  20466377.240    85212011.596 8
 13 11  1  3 33 30.0000000  0  1R03
  20458647.840   109516850.446 9  20458650.320    85179840.446 8
 13 11  1  3 34  0.0000000  0  1R03
  20450948.340   109475634.186 9  20450950.780    85147783.366 8
 13 11  1  3 34 30.0000000  0  1R03
  20443273.860   109434551.864 9  20443276.240    85115830.455 8
 13 11  1  3 35  0.0000000  0  1R03
  20435625.560   109393609.942 9  20435627.880    85083986.748 8
 13 11  1  3 35 30.0000000  0  1R03
  20428003.920   109352810.977 9  20428006.240    85052254.230 8
 13 11  1  3 36  0.0000000  0  1R03
  20420409.820   109312159.572 9  20420412.200    85020636.483 8
 13 11  1  3 36 30.0000000  0  1R03
  20412842.160   109271649.606 9  20412844.640    84989128.742 8
 13 11  1  3 37  0.0000000  0  1R03
  20405301.480   109231283.873 9  20405304.000    84957733.181 8
 13 11  1  3 37 30.0000000  0  1R03
  20397791.560   109191082.750 9  20397794.120    84926465.649 8
 13 11  1  3 38  0.0000000  0  1R03
  20390306.380   109151013.899 9  20390308.900    84895301.002 8
 13 11  1  3 38 30.0000000  0  1R03
  20382851.440   109111107.083 9  20382853.920    84864262.378 8
 13 11  1  3 39  0.0000000  0  1R03
  20375426.720   109071362.316 9  20375429.200    84833349.797 8
 13 11  1  3 39 30.0000000  0  1R03
  20368029.060   109031762.520 9  20368031.580    84802549.963 8
 13 11  1  3 40  0.0000000  0  1R03
  20360661.880   108992325.937 9  20360664.480    84771877.079 8
 13 11  1  3 40 30.0000000  0  1R03
  20353324.520   108953048.641 9  20353327.160    84741328.090 8
 13 11  1  3 41  0.0000000  0  1R03
  20346017.000   108913930.852 9  20346019.640    84710903.154 8
 13 11  1  3 41 30.0000000  0  1R03
  20338743.320   108874993.934 9  20338745.940    84680618.896 8
 13 11  1  3 42  0.0000000  0  1R03
  20331497.360   108836205.245 9  20331499.940    84650449.928 8
 13 11  1  3 42 30.0000000  0  1R03
  20324283.120   108797586.465 9  20324285.660    84620413.112 8
 13 11  1  3 43  0.0000000  0  1R03
  20317098.960   108759129.001 9  20317101.460    84590501.765 8
 13 11  1  3 43 30.0000000  0  1R03
  20309947.080   108720844.459 9  20309949.580    84560724.912 8
 13 11  1  3 44  0.0000000  0  1R03
  20302827.260   108682731.623 9  20302829.760    84531081.602 8
 13 11  1  3 44 30.0000000  0  1R03
  20295741.400   108644800.567 9  20295743.920    84501579.681 8
 13 11  1  3 45  0.0000000  0  1R03
  20288686.300   108607033.914 9  20288688.780    84472205.622 8
 13 11  1  3 45 30.0000000  0  1R03
  20281663.220   108569438.614 9  20281665.640    84442964.841 8
 13 11  1  3 46  0.0000000  0  1R03
  20274673.500   108532021.943 9  20274675.860    84413863.001 8
 13 11  1  3 46 30.0000000  0  1R03
  20267719.120   108494794.637 9  20267721.440    84384908.440 8
 13 11  1  3 47  0.0000000  0  1R03
  20260798.280   108457747.103 9  20260800.620    84356093.706 8
 13 11  1  3 47 30.0000000  0  1R03
  20253911.800   108420883.566 9  20253914.200    84327422.083 8
 13 11  1  3 48  0.0000000  0  1R03
  20247063.260   108384222.940 9  20247065.700    84298908.267 8
 13 11  1  3 48 30.0000000  0  1R03
  20240245.980   108347729.530 9  20240248.460    84270524.510 8
 13 11  1  3 49  0.0000000  0  1R03
  20233462.740   108311418.436 9  20233465.260    84242282.554 8
 13 11  1  3 49 30.0000000  0  1R03
  20226716.800   108275306.982 9  20226719.320    84214195.869 8
 13 11  1  3 50  0.0000000  0  1R03
  20220006.940   108239388.881 9  20220009.460    84186259.577 8
 13 11  1  3 50 30.0000000  0  1R03
  20213333.200   108203664.313 9  20213335.740    84158473.810 8
 13 11  1  3 51  0.0000000  0  1R03
  20206697.220   108168141.957 9  20206699.800    84130845.324 8
 13 11  1  3 51 30.0000000  0  1R03
  20200097.860   108132815.617 9  20200100.520    84103369.286 8
 13 11  1  3 52  0.0000000  0  1R03
  20193534.680   108097682.431 9  20193537.320    84076043.480 8
 13 11  1  3 52 30.0000000  0  1R03
  20187008.660   108062748.014 9  20187011.260    84048872.270 8
 13 11  1  3 53  0.0000000  0  1R03
  20180518.080   108028003.188 9  20180520.640    84021848.522 8
 13 11  1  3 53 30.0000000  0  1R03
  20174070.660   107993489.333 9  20174073.160    83995004.413 8
 13 11  1  3 54  0.0000000  0  1R03
  20167661.500   107959180.424 9  20167664.020    83968319.712 8
 13 11  1  3 54 30.0000000  0  1R03
  20161295.200   107925101.044 9  20161297.740    83941813.534 8
 13 11  1  3 55  0.0000000  0  1R03
  20154963.460   107891206.666 9  20154966.020    83915451.246 8
 13 11  1  3 55 30.0000000  0  1R03
  20148671.740   107857526.562 9  20148674.300    83889255.618 8
 13 11  1  3 56  0.0000000  0  1R03
  20142420.380   107824062.398 9  20142422.880    83863227.934 8
 13 11  1  3 56 30.0000000  0  1R03
  20136209.960   107790817.316 9  20136212.360    83837370.653 8
 13 11  1  3 57  0.0000000  0  1R03
  20130040.360   107757790.697 9  20130042.680    83811683.287 8
 13 11  1  3 57 30.0000000  0  1R03
  20123912.520   107724987.940 9  20123914.840    83786170.038 8
 13 11  1  3 58  0.0000000  0  1R03
  20117825.860   107692405.763 9  20117828.260    83760828.348 8
 13 11  1  3 58 30.0000000  0  1R03
  20111780.720   107660046.070 9  20111783.240    83735659.709 8
 13 11  1  3 59  0.0000000  0  1R03
  20105778.220   107627914.868 9  20105780.900    83710668.786 8
 13 11  1  3 59 30.0000000  0  1R03
  20099818.180   107596010.615 9  20099820.940    83685854.378 8
 13 11  1  4  0  0.0000000  0  1R03
  20093901.320   107564337.042 9  20093904.080    83661219.377 8
 13 11  1  4  0 30.0000000  0  1R03
  20088028.900   107532901.015 9  20088031.580    83636769.137 9
 13 11  1  4  1  0.0000000  0  1R03
  20082199.540   107501695.344 9  20082202.100    83612498.060 8
 13 11  1  4  1 30.0000000  0  1R03
  20076415.080   107470730.045 9  20076417.540    83588413.945 8
 13 11  1  4  2  0.0000000  0  1R03
  20070675.560   107440005.378 9  20070677.900    83564516.984 8
 13 11  1  4  2 30.0000000  0  1R03
  20064979.920   107409515.866 9  20064982.160    83540802.931 9
 13 11  1  4  3  0.0000000  0  1R03
  20059329.380   107379268.093 9  20059331.540    83517276.894 8
 13 11  1  4  3 30.0000000  0  1R03
  20053726.820   107349277.336 9  20053728.940    83493950.760 8
 13 11  1  4  4  0.0000000  0  1R03
  20048168.960   107319525.837 9  20048171.100    83470810.715 9
 13 11  1  4  4 30.0000000  0  1R03
  20042656.980   107290019.996 9  20042659.200    83447861.738 8
 13 11  1  4  5  0.0000000  0  1R03
  20037191.880   107260764.866 9  20037194.140    83425107.761 8
 13 11  1  4  5 30.0000000  0  1R03
  20031773.640   107231760.394 9  20031775.900    83402548.734 8
 13 11  1  4  6  0.0000000  0  1R03
  20026403.020   107203011.034 9  20026405.280    83380188.129 8
 13 11  1  4  6 30.0000000  0  1R03
  20021081.400   107174524.018 9  20021083.660    83358031.569 8
 13 11  1  4  7  0.0000000  0  1R03
  20015807.460   107146292.333 9  20015809.700    83336073.596 8
 13 11  1  4  7 30.0000000  0  1R03
  20010583.160   107118326.495 9  20010585.380    83314322.386 8
 13 11  1  4  8  0.0000000  0  1R03
  20005407.900   107090623.051 9  20005410.020    83292775.272 8
 13 11  1  4  8 30.0000000  0  1R03
  20000282.160   107063184.668 9  20000284.220    83271434.309 8
 13 11  1  4  9  0.0000000  0  1R03
  19995206.020   107036011.736 9  19995208.020    83250299.806 8
 13 11  1  4  9 30.0000000  0  1R03
  19990179.940   107009106.559 9  19990181.900    83229373.556 8
 13 11  1  4 10  0.0000000  0  1R03
  19985205.060   106982475.313 9  19985207.020    83208660.367 8
 13 11  1  4 10 30.0000000  0  1R03
  19980281.320   106956117.693 9  19980283.300    83188159.999 8
 13 11  1  4 11  0.0000000  0  1R03
  19975408.700   106930034.024 9  19975410.740    83167872.703 8
 13 11  1  4 11 30.0000000  0  1R03
  19970587.980   106904228.511 9  19970590.100    83147801.758 8
 13 11  1  4 12  0.0000000  0  1R03
  19965819.740   106878704.528 9  19965822.000    83127949.771 8
 13 11  1  4 12 30.0000000  0  1R03
  19961104.360   106853463.560 9  19961106.680    83108317.908 8
 13 11  1  4 13  0.0000000  0  1R03
  19956442.380   106828508.255 9  19956444.720    83088908.229 8
 13 11  1  4 13 30.0000000  0  1R03
  19951833.320   106803835.717 9  19951835.580    83069718.481 8
 13 11  1  4 14  0.0000000  0  1R03
  19947278.280   106779452.022 9  19947280.480    83050753.388 8
 13 11  1  4 14 30.0000000  0  1R03
  19942777.860   106755360.643 9  19942780.040    83032015.650 8
 13 11  1  4 15  0.0000000  0  1R03
  19938332.020   106731561.521 9  19938334.220    83013505.220 8
 13 11  1  4 15 30.0000000  0  1R03
  19933941.700   106708059.567 9  19933943.940    82995225.928 9
 13 11  1  4 16  0.0000000  0  1R03
  19929606.840   106684854.733 9  19929609.140    82977177.730 9
 13 11  1  4 16 30.0000000  0  1R03
  19925326.860   106661943.897 9  19925329.260    82959358.200 8
 13 11  1  4 17  0.0000000  0  1R03
  19921103.440   106639336.076 9  19921105.960    82941774.343 8
 13 11  1  4 17 30.0000000  0  1R03
  19916936.400   106617029.911 9  19916938.980    82924425.110 8
 13 11  1  4 18  0.0000000  0  1R03
  19912826.100   106595027.373 9  19912828.680    82907312.025 8
 13 11  1  4 18 30.0000000  0  1R03
  19908773.660   106573334.475 9  19908776.220    82890439.775 8
 13 11  1  4 19  0.0000000  0  1R03
  19904779.160   106551951.559 9  19904781.660    82873808.618 8
 13 11  1  4 19 30.0000000  0  1R03
  19900843.500   106530883.927 9  19900846.040    82857422.680 8
 13 11  1  4 20  0.0000000  0  1R03
  19896966.580   106510130.715 9  19896969.140    82841281.297 8
 13 11  1  4 20 30.0000000  0  1R03
  19893148.580   106489693.160 9  19893151.240    82825385.427 8
 13 11  1  4 21  0.0000000  0  1R03
  19889390.060   106469574.030 9  19889392.820    82809737.213 8
 13 11  1  4 21 30.0000000  0  1R03
  19885691.220   106449774.104 9  19885694.040    82794337.272 9
 13 11  1  4 22  0.0000000  0  1R03
  19882054.020   106430303.730 9  19882056.860    82779193.650 9
 13 11  1  4 22 30.0000000  0  1R03
  19878476.340   106411151.946 9  19878479.200    82764297.815 8
 13 11  1  4 23  0.0000000  0  1R03
  19874959.340   106392325.250 9  19874962.260    82749654.825 8
 13 11  1  4 23 30.0000000  0  1R03
  19871503.260   106373824.910 9  19871506.280    82735265.677 8
 13 11  1  4 24  0.0000000  0  1R03
  19868109.800   106355659.846 9  19868112.880    82721137.299 8
 13 11  1  4 24 30.0000000  0  1R03
  19864778.140   106337825.397 9  19864781.240    82707266.062 8
 13 11  1  4 25  0.0000000  0  1R03
  19861509.500   106320328.015 9  19861512.560    82693656.983 8
 13 11  1  4 25 30.0000000  0  1R03
  19858304.260   106303169.702 9  19858307.160    82680311.624 8
 13 11  1  4 26  0.0000000  0  1R03
  19855162.220   106286349.326 9  19855164.860    82667229.108 8
 13 11  1  4 26 30.0000000  0  1R03
  19852084.100   106269871.162 9  19852086.540    82654412.758 9
 13 11  1  4 27  0.0000000  0  1R03
  19849070.740   106253739.835 9  19849073.080    82641866.170 8
 13 11  1  4 27 30.0000000  0  1R03
  19846121.560   106237952.402 9  19846123.860    82629587.060 8
 13 11  1  4 28  0.0000000  0  1R03
  19843237.780   106222515.444 9  19843240.140    82617580.539 8
 13 11  1  4 28 30.0000000  0  1R03
  19840419.460   106207428.944 9  19840421.920    82605846.599 8
 13 11  1  4 29  0.0000000  0  1R03
  19837666.940   106192694.821 9  19837669.480    82594386.727 9
 13 11  1  4 29 30.0000000  0  1R03
  19834980.180   106178312.697 9  19834982.760    82583200.625 8
 13 11  1  4 30  0.0000000  0  1R03
  19832360.180   106164287.627 9  19832362.760    82572292.233 8
 13 11  1  4 30 30.0000000  0  1R03
  19829807.340   106150621.788 9  19829809.840    82561663.245 9
 13 11  1  4 31  0.0000000  0  1R03
  19827321.080   106137312.113 9  19827323.440    82551311.269 8
 13 11  1  4 31 30.0000000  0  1R03
  19824903.380   106124369.548 9  19824905.640    82541244.823 9
 13 11  1  4 32  0.0000000  0  1R03
  19822553.600   106111790.804 9  19822555.820    82531461.356 9
 13 11  1  4 32 30.0000000  0  1R03
  19820272.780   106099581.444 9  19820275.000    82521965.189 8
 13 11  1  4 33  0.0000000  0  1R03
  19818061.340   106087743.553 9  19818063.560    82512757.937 8
 13 11  1  4 33 30.0000000  0  1R03
  19815919.040   106076276.181 9  19815921.340    82503838.867 8
 13 11  1  4 34  0.0000000  0  1R03
  19813846.540   106065182.595 9  19813849.000    82495210.525 9
 13 11  1  4 34 30.0000000  0  1R03
  19811844.280   106054464.820 9  19811846.880    82486874.475 8
 13 11  1  4 35  0.0000000  0  1R03
  19809912.220   106044122.536 9  19809914.860    82478830.477 8
 13 11  1  4 35 30.0000000  0  1R03
  19808051.360   106034161.054 9  19808054.020    82471082.653 9
 13 11  1  4 36  0.0000000  0  1R03
  19806261.740   106024580.706 9  19806264.400    82463631.263 9
 13 11  1  4 36 30.0000000  0  1R03
  19804544.060   106015385.089 9  19804546.620    82456479.123 9
 13 11  1  4 37  0.0000000  0  1R03
  19802898.980   106006578.025 9  19802901.360    82449629.178 8
 13 11  1  4 37 30.0000000  0  1R03
  19801325.020   105998152.625 9  19801327.360    82443076.087 8
 13 11  1  4 38  0.0000000  0  1R03
  19799824.800   105990122.347 9  19799827.180    82436830.311 8
 13 11  1  4 38 30.0000000  0  1R03
  19798397.620   105982482.747 9  19798399.980    82430888.402 8
 13 11  1  4 39  0.0000000  0  1R03
  19797043.720   105975235.211 9  19797046.040    82425251.419 8
 13 11  1  4 39 30.0000000  0  1R03
  19795764.160   105968385.535 9  19795766.480    82419923.885 8
 13 11  1  4 40  0.0000000  0  1R03
  19794558.800   105961932.849 9  19794561.120    82414905.125 8
 13 11  1  4 40 30.0000000  0  1R03
  19793428.820   105955883.467 9  19793431.100    82410200.052 8
 13 11  1  4 41  0.0000000  0  1R03
  19792373.640   105950234.874 9  19792375.960    82405806.694 8
 13 11  1  4 41 30.0000000  0  1R03
  19791394.460   105944993.247 9  19791396.800    82401729.869 9
 13 11  1  4 42  0.0000000  0  1R03
  19790491.140   105940157.696 9  19790493.500    82397968.879 9
 13 11  1  4 42 30.0000000  0  1R03
  19789663.240   105935725.631 9  19789665.520    82394521.713 8
 13 11  1  4 43  0.0000000  0  1R03
  19788911.760   105931702.579 9  19788913.920    82391392.661 9
 13 11  1  4 43 30.0000000  0  1R03
  19788237.540   105928093.266 9  19788239.660    82388585.412 8
 13 11  1  4 44  0.0000000  0  1R03
  19787640.560   105924897.735 9  19787642.720    82386099.999 8
 13 11  1  4 44 30.0000000  0  1R03
  19787120.940   105922116.605 9  19787123.180    82383936.893 8
 13 11  1  4 45  0.0000000  0  1R03
  19786679.920   105919756.352 9  19786682.260    82382101.139 8
 13 11  1  4 45 30.0000000  0  1R03
  19786317.500   105917816.514 9  19786319.880    82380592.372 8
 13 11  1  4 46  0.0000000  0  1R03
  19786034.240   105916300.215 9  19786036.640    82379413.020 8
 13 11  1  4 46 30.0000000  0  1R03
  19785829.860   105915205.912 9  19785832.220    82378561.889 8
 13 11  1  4 47  0.0000000  0  1R03
  19785705.540   105914540.182 9  19785707.900    82378044.087 8
 13 11  1  4 47 30.0000000  0  1R03
  19785660.060   105914296.622 9  19785662.440    82377854.647 8
 13 11  1  4 48  0.0000000  0  1R03
  19785695.180   105914484.322 9  19785697.520    82378000.636 8
 13 11  1  4 48 30.0000000  0  1R03
  19785811.120   105915104.720 9  19785813.420    82378483.159 9
 13 11  1  4 49  0.0000000  0  1R03
  19786007.440   105916155.502 9  19786009.720    82379300.422 9
 13 11  1  4 49 30.0000000  0  1R03
  19786285.500   105917643.755 9  19786287.760    82380457.939 9
 13 11  1  4 50  0.0000000  0  1R03
  19786645.180   105919568.922 9  19786647.420    82381955.290 8
 13 11  1  4 50 30.0000000  0  1R03
  19787086.580   105921931.712 9  19787088.800    82383793.005 8
 13 11  1  4 51  0.0000000  0  1R03
  19787610.640   105924737.194 9  19787612.860    82385975.038 8
 13 11  1  4 51 30.0000000  0  1R03
  19788217.240   105927984.580 9  19788219.440    82388500.784 8
 13 11  1  4 52  0.0000000  0  1R03
  19788906.280   105931673.295 9  19788908.480    82391369.773 8
 13 11  1  4 52 30.0000000  0  1R03
  19789679.000   105935809.857 9  19789681.160    82394587.088 8
 13 11  1  4 53  0.0000000  0  1R03
  19790534.680   105940390.494 9  19790536.780    82398149.800 8
 13 11  1  4 53 30.0000000  0  1R03
  19791474.480   105945421.365 9  19791476.560    82402062.697 9
 13 11  1  4 54  0.0000000  0  1R03
  19792498.780   105950904.486 9  19792500.880    82406327.347 8
 13 11  1  4 54 30.0000000  0  1R03
  19793607.640   105956840.450 9  19793609.840    82410944.208 9
 13 11  1  4 55  0.0000000  0  1R03
  19794801.420   105963231.008 9  19794803.760    82415914.636 9
 13 11  1  4 55 30.0000000  0  1R03
  19796080.440   105970077.649 9  19796082.860    82421239.790 8
 13 11  1  4 56  0.0000000  0  1R03
  19797445.580   105977385.045 9  19797448.000    82426923.306 8
 13 11  1  4 56 30.0000000  0  1R03
  19798896.700   105985152.552 9  19798899.060    82432964.688 8
 13 11  1  4 57  0.0000000  0  1R03
  19800433.820   105993380.637 9  19800436.160    82439364.297 9
 13 11  1  4 57 30.0000000  0  1R03
  19802057.340   106002071.301 9  19802059.680    82446123.694 8
 13 11  1  4 58  0.0000000  0  1R03
  19803767.460   106011225.771 9  19803769.840    82453243.834 9
 13 11  1  4 58 30.0000000  0  1R03
  19805564.040   106020843.200 9  19805566.480    82460724.050 8
 13 11  1  4 59  0.0000000  0  1R03
  19807448.360   106030930.212 9  19807450.820    82468569.491 9
 13 11  1  4 59 30.0000000  0  1R03
  19809420.200   106041485.660 9  19809422.660    82476779.284 9
 13 11  1  5  0  0.0000000  0  1R03
  19811479.880   106052511.187 9  19811482.300    82485354.681 9
