     3.02           OBSERVATION DATA    M (MIXED)           RINEX VERSION / TYPE
cnvtToRINEX 2.25.0  convertToRINEX OPR  23-Jan-15 22:34 UTC PGM / RUN BY / DATE 
----------------------------------------------------------- COMMENT             
7619                                                        MARKER NAME         
7619                                                        MARKER NUMBER       
GEODETIC                                                    MARKER TYPE         
GNSS Observer       Trimble                                 OBSERVER / AGENCY   
5239497619          R8 Model 3          4.80                REC # / TYPE / VERS 
                    TRM60158.00                             ANT # / TYPE        
  -740287.1908 -5457064.3395  3207279.4677                  APPROX POSITION XYZ 
       -0.0650        0.0000        0.0000                  ANTENNA: DELTA H/E/N
G    8 C1C C2W C2X C5X L1C L2W L2X L5X                      SYS / # / OBS TYPES 
  2014    10    31    20    28    0.0000000     GPS         TIME OF FIRST OBS   
  2014    10    31    20    36    0.0000000     GPS         TIME OF LAST OBS    
     0                                                      RCV CLOCK OFFS APPL 
G L1C 0.00000                                               SYS / PHASE SHIFT   
G L2X -0.25000                                              SYS / PHASE SHIFT   
G L5X 0.00000                                               SYS / PHASE SHIFT   
    16                                                      LEAP SECONDS        
     9                                                      # OF SATELLITES     
   G05    70     0     0     0    63     0     0     0      PRN / # OF OBS      
   G15   413     0   320     0   397     0   320     0      PRN / # OF OBS      
   G18   126     0     0     0   116     0     0     0      PRN / # OF OBS      
   G21    11     6     0     0    10     6     0     0      PRN / # OF OBS      
   G22    44     0     0     0    39     0     0     0      PRN / # OF OBS      
   G24     7     0     6     6     6     0     6     6      PRN / # OF OBS      
   G26    99     0     0     0    96     0     0     0      PRN / # OF OBS      
   G27    12     0    11    12    12     0    11    12      PRN / # OF OBS      
   G29   130     0    69     0   122     0    69     0      PRN / # OF OBS      
                                                            END OF HEADER       
> 2014 10 31 20 28  0.0000000  0  2
G05  23448820.047 5                                                 123224404.83915                                
G15  20678535.828 5                                                 108666319.37715                                
> 2014 10 31 20 28 15.0000000  0  2
G05  23456156.969 5                                                 123262969.935 5                                
G15  20673040.539 6                                                 108637434.531 6                                
> 2014 10 31 20 28 30.0000000  0  2
G05  23463576.977 5                                                 123301955.861 5                                
G15  20667651.695 6                                                 108609104.799 6                                
> 2014 10 31 20 28 45.0000000  0  2
G05  23471043.063 5                                                 123341185.710 5                                
G15  20662332.773 6                                                 108581153.495 6                                
> 2014 10 31 20 29  0.0000000  0  2
G05  23478541.297 5                                                 123380595.658 5                                
G15  20657073.836 6                                                 108553517.106 6                                
> 2014 10 31 20 29 15.0000000  0  3
G05  23486064.781 5                                                 123420144.292 5                                
G15  20651865.766 6                                                 108526154.488 6                                
G26  21115083.484 5                                                 110960525.89715                                
> 2014 10 31 20 29 30.0000000  0  3
G05  23493616.164 5                                                 123459815.468 5                                
G15  20646707.430 6                                                 108499050.421 6                                
G26  21115595.766 6                                                 110963214.438 6                                
> 2014 10 31 20 29 45.0000000  0  3
G05  23501183.297 5                                                 123499585.388 5                                
G15  20641594.555 6                                                 108472181.151 6                                
G26  21116155.563 5                                                 110966172.712 5                                
> 2014 10 31 20 30  0.0000000  0  3
G05  23508767.742 5                                                 123539445.678 5                                
G15  20636526.461 6                                                 108445538.969 6                                
G26  21116769.313 5                                                 110969392.667 5                                
> 2014 10 31 20 30 15.0000000  0  3
G05  23516367.422 5                                                                                                
G15  20631497.656 6                                                 108419110.505 6                                
G26  21117429.227 6                                                 110972860.707 6                                
> 2014 10 31 20 30 30.0000000  0  3
G05  23523980.516 5                                                 123619391.09915                                
G15  20626507.734 6                                                 108392890.354 6                                
G26  21118135.719 5                                                 110976571.410 5                                
> 2014 10 31 20 30 45.0000000  0  3
G05  23531606.875 5                                                 123659463.91615                                
G15  20621556.625 6                                                 108366872.41716                                
G26  21118885.977 5                                                 110980518.13515                                
> 2014 10 31 20 31  0.0000000  0  3
G05  23539244.266 5                                                 123699595.365 5                                
G15  20616641.648 6                  20616642.996 5                 108341050.864 6                  84421706.86515
G26  21119681.305 5                                                 110984694.882 5                                
> 2014 10 31 20 31 15.0000000  0  3
G05  23546891.625 5                                                 123739780.501 5                                
G15  20611763.289 6                  20611765.848 5                 108315421.559 6                  84401735.989 5
G26  21120519.180 5                                                 110989097.188 5                                
> 2014 10 31 20 31 30.0000000  0  3
G05  23554549.383 6                                                 123780011.543 6                                
G15  20606919.867 5                  20606924.199 5                 108289977.116 5                  84381909.147 5
G26  21121398.172 5                                                 110993717.515 5                                
> 2014 10 31 20 31 45.0000000  0  3
G05  23562213.633 6                                                 123820285.284 6                                
G15  20602110.828 5                  20602115.344 5                 108264714.364 5                  84362223.881 5
G26  21122317.172 5                                                 110998552.268 5                                
> 2014 10 31 20 32  0.0000000  0  3
G05  23569886.922 6                                                 123860598.588 6                                
G15  20597338.203 5                  20597341.281 5                 108239630.807 5                  84342678.255 5
G26  21123277.234 5                                                 111003598.744 5                                
> 2014 10 31 20 32 15.0000000  0  3
G05  23577563.977 6                                                 123900947.759 6                                
G15  20592597.633 5                  20592602.711 5                 108214723.053 5                  84323269.599 5
G26  21124276.852 5                                                 111008853.421 5                                
> 2014 10 31 20 32 30.0000000  0  4
G05  23585250.625 6                                                 123941334.503 6                                
G15  20587891.719 6                  20587897.730 5                 108189993.234 6                  84303999.629 5
G26  21125316.469 5                                                 111014318.26715                                
G29  20014307.977 5                                                 105175853.60015                                
> 2014 10 31 20 32 45.0000000  0  4
G05  23592943.008 5                                                 123981750.453 5                                
G15  20583218.891 6                  20583223.738 5                 108165433.214 6                  84284861.951 5
G26  21126398.781 5                                                 111019984.71615                                
G29  20015236.883 5                                                 105180717.95315                                
> 2014 10 31 20 33  0.0000000  0  4
G05  23600637.977 5                                                 124022196.634 5                                
G15  20578578.492 6                  20578582.074 6                 108141044.498 6                  84265857.736 6
G26  21127516.703 5                                                 111025853.88015                                
G29  20016192.453 5                                                 105185755.886 5                                
> 2014 10 31 20 33 15.0000000  0  3
G05  23608338.125 5                                                 124062667.34415                                
G15  20573968.227 6                  20573972.445 6                 108116821.617 6                  84246982.759 6
G26  21128668.367 5                                                 111031920.19415                                
> 2014 10 31 20 33 30.0000000  0  2
G15  20569391.852 6                  20569393.141 6                 108092764.877 6                  84228237.228 6
G26  21129859.633 5                                                 111038183.65915                                
> 2014 10 31 20 33 45.0000000  0  2
G15  20564844.711 6                  20564845.199 5                 108068868.056 6                  84209616.315 5
G26  21131086.656 4                                                 111044637.70714                                
> 2014 10 31 20 34  0.0000000  0  1
G15  20560329.172 6                  20560327.680 5                 108045132.875 6                  84191121.362 5
> 2014 10 31 20 34 15.0000000  0  1
G15  20555842.438 6                  20555840.898 5                 108021557.755 6                  84172751.133 5
> 2014 10 31 20 34 30.0000000  0  1
G15  20551386.750 6                  20551385.582 5                 107998141.497 6                  84154504.701 5
> 2014 10 31 20 34 45.0000000  0  1
G15  20546961.906 6                  20546960.676 5                 107974886.887 6                  84136384.282 5
> 2014 10 31 20 35  0.0000000  0  1
G15  20542566.781 6                  20542565.906 5                 107951787.770 6                  84118385.010 5
> 2014 10 31 20 35 15.0000000  0  1
G15  20538202.578 6                  20538202.027 5                 107928851.360 6                  84100512.546 5
> 2014 10 31 20 35 30.0000000  0  2
G15  20533866.352 6                  20533866.473 5                 107906071.509 6                  84082762.049 5
G26  21140698.195 5                                                 111095134.78515                                
> 2014 10 31 20 35 45.0000000  0  2
G15  20529562.898 5                  20529564.094 5                 107883452.843 5                  84065137.160 5
G26  21142214.242 5                                                 111103103.502 5                                
> 2014 10 31 20 36  0.0000000  0  2
G15  20525288.648 5                  20525289.965 5                 107860991.34715                  84047634.75215
G26  21143764.133 5                                                 111111258.016 5                                
> 2014 10 31 20 36 15.0000000  0  2
G15  20521044.516 4                  20521044.645 5                 107838685.39814                  84030253.52115
G26  21145348.211 5                                                 111119595.94715                                
> 2014 10 31 20 36 30.0000000  0  1
G26  21146967.773 5                                                 111128116.86115                                
> 2014 10 31 20 36 45.0000000  0  2
G05  23716497.344 5                                                 124630917.72415                                
G26  21148625.883 5                                                 111136822.201 5                                
> 2014 10 31 20 37  0.0000000  0  2
G05  23724240.625 5                                                 124671616.068 5                                
G26  21150320.836 5                                                 111145715.912 5                                
