     3.02           OBSERVATION DATA    GPS(GPS)            RINEX VERSION / TYPE
cnvtToRINEX 2.25.0  convertToRINEX OPR  23-Jan-15 22:34 UTC PGM / RUN BY / DATE 
----------------------------------------------------------- COMMENT             
7619                                                        MARKER NAME         
7619                                                        MARKER NUMBER       
GEODETIC                                                    MARKER TYPE         
GNSS Observer       Trimble                                 OBSERVER / AGENCY   
5239497619          R8 Model 3          4.80                REC # / TYPE / VERS 
                    TRM60158.00                             ANT # / TYPE        
  -740287.1908 -5457064.3395  3207279.4677                  APPROX POSITION XYZ 
       -0.0650        0.0000        0.0000                  ANTENNA: DELTA H/E/N
G    8 C1C C2W C2X C5X L1C L2W L2X L5X                      SYS / # / OBS TYPES 
  2014    10    31    20    28    0.0000000     GPS         TIME OF FIRST OBS   
  2014    10    31    23    59   45.0000000     GPS         TIME OF LAST OBS    
     0                                                      RCV CLOCK OFFS APPL 
G L1C 0.00000                                               SYS / PHASE SHIFT   
G L2X -0.25000                                              SYS / PHASE SHIFT   
G L5X 0.00000                                               SYS / PHASE SHIFT   
    16                                                      LEAP SECONDS        
     9                                                      # OF SATELLITES     
   G05    70     0     0     0    63     0     0     0      PRN / # OF OBS      
   G15   413     0   320     0   397     0   320     0      PRN / # OF OBS      
   G18   126     0     0     0   116     0     0     0      PRN / # OF OBS      
   G21    11     6     0     0    10     6     0     0      PRN / # OF OBS      
   G22    44     0     0     0    39     0     0     0      PRN / # OF OBS      
   G24     7     0     6     6     6     0     6     6      PRN / # OF OBS      
   G26    99     0     0     0    96     0     0     0      PRN / # OF OBS      
   G27    12     0    11    12    12     0    11    12      PRN / # OF OBS      
   G29   130     0    69     0   122     0    69     0      PRN / # OF OBS      
                                                            END OF HEADER       
> 2014 10 31 20 28  0.0000000  0  2
G05  23448820.047 5                                                 123224404.83915                                
G15  20678535.828 5                                                 108666319.37715                                
> 2014 10 31 20 28 15.0000000  0  2
G05  23456156.969 5                                                 123262969.935 5                                
G15  20673040.539 6                                                 108637434.531 6                                
> 2014 10 31 20 28 30.0000000  0  2
G05  23463576.977 5                                                 123301955.861 5                                
G15  20667651.695 6                                                 108609104.799 6                                
> 2014 10 31 20 28 45.0000000  0  2
G05  23471043.063 5                                                 123341185.710 5                                
G15  20662332.773 6                                                 108581153.495 6                                
> 2014 10 31 20 29  0.0000000  0  2
G05  23478541.297 5                                                 123380595.658 5                                
G15  20657073.836 6                                                 108553517.106 6                                
> 2014 10 31 20 29 15.0000000  0  3
G05  23486064.781 5                                                 123420144.292 5                                
G15  20651865.766 6                                                 108526154.488 6                                
G26  21115083.484 5                                                 110960525.89715                                
> 2014 10 31 20 29 30.0000000  0  3
G05  23493616.164 5                                                 123459815.468 5                                
G15  20646707.430 6                                                 108499050.421 6                                
G26  21115595.766 6                                                 110963214.438 6                                
> 2014 10 31 20 29 45.0000000  0  3
G05  23501183.297 5                                                 123499585.388 5                                
G15  20641594.555 6                                                 108472181.151 6                                
G26  21116155.563 5                                                 110966172.712 5                                
> 2014 10 31 20 30  0.0000000  0  3
G05  23508767.742 5                                                 123539445.678 5                                
G15  20636526.461 6                                                 108445538.969 6                                
G26  21116769.313 5                                                 110969392.667 5                                
> 2014 10 31 20 30 15.0000000  0  3
G05  23516367.422 5                                                                                                
G15  20631497.656 6                                                 108419110.505 6                                
G26  21117429.227 6                                                 110972860.707 6                                
> 2014 10 31 20 30 30.0000000  0  3
G05  23523980.516 5                                                 123619391.09915                                
G15  20626507.734 6                                                 108392890.354 6                                
G26  21118135.719 5                                                 110976571.410 5                                
> 2014 10 31 20 30 45.0000000  0  3
G05  23531606.875 5                                                 123659463.91615                                
G15  20621556.625 6                                                 108366872.41716                                
G26  21118885.977 5                                                 110980518.13515                                
> 2014 10 31 20 31  0.0000000  0  3
G05  23539244.266 5                                                 123699595.365 5                                
G15  20616641.648 6                  20616642.996 5                 108341050.864 6                  84421706.86515
G26  21119681.305 5                                                 110984694.882 5                                
> 2014 10 31 20 31 15.0000000  0  3
G05  23546891.625 5                                                 123739780.501 5                                
G15  20611763.289 6                  20611765.848 5                 108315421.559 6                  84401735.989 5
G26  21120519.180 5                                                 110989097.188 5                                
> 2014 10 31 20 31 30.0000000  0  3
G05  23554549.383 6                                                 123780011.543 6                                
G15  20606919.867 5                  20606924.199 5                 108289977.116 5                  84381909.147 5
G26  21121398.172 5                                                 110993717.515 5                                
> 2014 10 31 20 31 45.0000000  0  3
G05  23562213.633 6                                                 123820285.284 6                                
G15  20602110.828 5                  20602115.344 5                 108264714.364 5                  84362223.881 5
G26  21122317.172 5                                                 110998552.268 5                                
> 2014 10 31 20 32  0.0000000  0  3
G05  23569886.922 6                                                 123860598.588 6                                
G15  20597338.203 5                  20597341.281 5                 108239630.807 5                  84342678.255 5
G26  21123277.234 5                                                 111003598.744 5                                
> 2014 10 31 20 32 15.0000000  0  3
G05  23577563.977 6                                                 123900947.759 6                                
G15  20592597.633 5                  20592602.711 5                 108214723.053 5                  84323269.599 5
G26  21124276.852 5                                                 111008853.421 5                                
> 2014 10 31 20 32 30.0000000  0  4
G05  23585250.625 6                                                 123941334.503 6                                
G15  20587891.719 6                  20587897.730 5                 108189993.234 6                  84303999.629 5
G26  21125316.469 5                                                 111014318.26715                                
G29  20014307.977 5                                                 105175853.60015                                
> 2014 10 31 20 32 45.0000000  0  4
G05  23592943.008 5                                                 123981750.453 5                                
G15  20583218.891 6                  20583223.738 5                 108165433.214 6                  84284861.951 5
G26  21126398.781 5                                                 111019984.71615                                
G29  20015236.883 5                                                 105180717.95315                                
> 2014 10 31 20 33  0.0000000  0  4
G05  23600637.977 5                                                 124022196.634 5                                
G15  20578578.492 6                  20578582.074 6                 108141044.498 6                  84265857.736 6
G26  21127516.703 5                                                 111025853.88015                                
G29  20016192.453 5                                                 105185755.886 5                                
> 2014 10 31 20 33 15.0000000  0  3
G05  23608338.125 5                                                 124062667.34415                                
G15  20573968.227 6                  20573972.445 6                 108116821.617 6                  84246982.759 6
G26  21128668.367 5                                                 111031920.19415                                
> 2014 10 31 20 33 30.0000000  0  2
G15  20569391.852 6                  20569393.141 6                 108092764.877 6                  84228237.228 6
G26  21129859.633 5                                                 111038183.65915                                
> 2014 10 31 20 33 45.0000000  0  2
G15  20564844.711 6                  20564845.199 5                 108068868.056 6                  84209616.315 5
G26  21131086.656 4                                                 111044637.70714                                
> 2014 10 31 20 34  0.0000000  0  1
G15  20560329.172 6                  20560327.680 5                 108045132.875 6                  84191121.362 5
> 2014 10 31 20 34 15.0000000  0  1
G15  20555842.438 6                  20555840.898 5                 108021557.755 6                  84172751.133 5
> 2014 10 31 20 34 30.0000000  0  1
G15  20551386.750 6                  20551385.582 5                 107998141.497 6                  84154504.701 5
> 2014 10 31 20 34 45.0000000  0  1
G15  20546961.906 6                  20546960.676 5                 107974886.887 6                  84136384.282 5
> 2014 10 31 20 35  0.0000000  0  1
G15  20542566.781 6                  20542565.906 5                 107951787.770 6                  84118385.010 5
> 2014 10 31 20 35 15.0000000  0  1
G15  20538202.578 6                  20538202.027 5                 107928851.360 6                  84100512.546 5
> 2014 10 31 20 35 30.0000000  0  2
G15  20533866.352 6                  20533866.473 5                 107906071.509 6                  84082762.049 5
G26  21140698.195 5                                                 111095134.78515                                
> 2014 10 31 20 35 45.0000000  0  2
G15  20529562.898 5                  20529564.094 5                 107883452.843 5                  84065137.160 5
G26  21142214.242 5                                                 111103103.502 5                                
> 2014 10 31 20 36  0.0000000  0  2
G15  20525288.648 5                  20525289.965 5                 107860991.34715                  84047634.75215
G26  21143764.133 5                                                 111111258.016 5                                
> 2014 10 31 20 36 15.0000000  0  2
G15  20521044.516 4                  20521044.645 5                 107838685.39814                  84030253.52115
G26  21145348.211 5                                                 111119595.94715                                
> 2014 10 31 20 36 30.0000000  0  1
G26  21146967.773 5                                                 111128116.86115                                
> 2014 10 31 20 36 45.0000000  0  2
G05  23716497.344 5                                                 124630917.72415                                
G26  21148625.883 5                                                 111136822.201 5                                
> 2014 10 31 20 37  0.0000000  0  2
G05  23724240.625 5                                                 124671616.068 5                                
G26  21150320.836 5                                                 111145715.912 5                                
> 2014 10 31 20 37 15.0000000  0  3
G05  23731987.414 5                                                 124712328.074 5                                
G26  21152048.898 6                                                 111154797.379 6                                
G29  20037197.594 5                  20037197.672 5                 105296058.94415                  82048970.71115
> 2014 10 31 20 37 30.0000000  0  3
G05  23739736.516 5                                                 124753044.569 5                                
G26  21153811.656 6                                                 111164057.432 6                                
G29  20038709.422 5                  20038702.461 5                 105303972.206 5                  82055136.871 5
> 2014 10 31 20 37 45.0000000  0  3
G05  23747487.539 5                                                 124793770.295 5                                
G15  20496200.609 5                                                 107708163.27115                                
G26  21155609.625 6                                                 111173500.576 6                                
> 2014 10 31 20 38  0.0000000  0  3
G05  23755239.320 5                                                 124834504.634 5                                
G15  20492166.797 5                                                 107686955.99115                                
G26  21157441.188 6                                                 111183126.399 6                                
> 2014 10 31 20 38 15.0000000  0  3
G05  23762990.297 5                                                 124875245.986 5                                
G15  20488159.492 5                                                                                                
G26  21159307.016 6                                                 111192933.246 6                                
> 2014 10 31 20 38 30.0000000  0  3
G05  23770746.320 5                                                 124915997.785 5                                
G15  20484182.734 4                                                 107645010.56114                                
G26  21161208.648 6                                                 111202924.943 6                                
> 2014 10 31 20 38 45.0000000  0  3
G05  23778502.156 5                                                                                                
G15  20480236.320 4                                                                                                
G26  21163143.070 6                                                 111213095.462 6                                
> 2014 10 31 20 39  0.0000000  0  2
G05  23786257.563 5                                                 124997519.68915                                
G26  21165112.508 6                                                 111223448.704 6                                
> 2014 10 31 20 39 15.0000000  0  1
G26  21167118.109 6                                                 111233984.479 6                                
> 2014 10 31 20 39 30.0000000  0  2
G26  21169156.695 6                                                 111244702.541 6                                
G29  20051801.195 5                                                 105373104.73215                                
> 2014 10 31 20 39 45.0000000  0  2
G26  21171231.391 6                                                 111255602.992 6                                
G29  20053572.477 6                                                 105382407.96316                                
> 2014 10 31 20 40  0.0000000  0  2
G26  21173340.133 6                                                 111266680.476 6                                
G29  20055371.828 6                  20055373.930 5                 105391860.819 6                  82123400.81215
> 2014 10 31 20 40 15.0000000  0  2
G26  21175481.570 6                                                 111277936.626 6                                
G29  20057200.086 6                  20057202.301 5                 105401464.891 6                  82130884.461 5
> 2014 10 31 20 40 30.0000000  0  2
G26  21177657.508 6                                                 111289373.914 6                                
G29  20059057.719 6                  20059060.492 5                 105411222.816 6                  82138487.978 5
> 2014 10 31 20 40 45.0000000  0  2
G26  21179867.148 6                                                 111300986.633 6                                
G29  20060944.070 7                  20060946.242 5                 105421128.904 7                  82146206.962 5
> 2014 10 31 20 41  0.0000000  0  2
G26  21182110.336 6                                                 111312779.932 6                                
G29  20062857.313 6                  20062860.125 5                 105431188.375 6                  82154045.466 5
> 2014 10 31 20 41 15.0000000  0  2
G26  21484180.078 6                                                 112900168.842 6                                
G29  20364593.477 6                  20364594.328 5                 107016816.571 6                  83389599.850 5
> 2014 10 31 20 41 30.0000000  0  2
G26  21486492.219 6                                                 112912314.095 6                                
G29  20366562.992 6                  20366565.199 5                 107027173.957 6                  83397670.491 5
> 2014 10 31 20 41 45.0000000  0  2
G26  21488836.172 6                                                 112924635.821 6                                
G29  20368562.516 6                  20368563.098 4                 107037680.811 6                  83405857.615 4
> 2014 10 31 20 42  0.0000000  0  3
G15  20731433.422 5                  20731430.602 5                 108944435.89415                  84891742.17315
G26  21491214.305 6                                                 112937133.318 6                                
G29  20370589.180 6                  20370589.762 4                 107048336.317 6                  83414160.609 4
> 2014 10 31 20 42 15.0000000  0  3
G15  20727903.344 6                  20727897.848 5                 108925877.452 6                  84877281.079 5
G26  21493627.281 6                                                 112949811.655 6                                
G29  20372645.852 5                  20372645.621 4                 107059145.967 5                  83422583.737 4
> 2014 10 31 20 42 30.0000000  0  3
G15  20724400.266 6                  20724395.242 5                 108907470.563 6                  84862938.069 5
G26  21496073.016 6                                                 112962662.952 6                                
G29  20374729.078 5                  20374729.328 4                 107070101.874 5                  83431120.808 4
> 2014 10 31 20 42 45.0000000  0  3
G15  20720927.039 6                  20720921.512 5                 108889217.678 6                  84848715.097 5
G26  21498552.133 6                                                 112975689.161 6                                
G29  20376843.508 5                  20376842.113 4                 107081205.91415                  83439773.31114
> 2014 10 31 20 43  0.0000000  0  4
G05  24210295.109 5                                                 127225742.47015                                
G15  20717485.117 5                  20717478.680 5                 108871125.137 5                  84834617.055 5
G26  21501065.609 6                                                 112988896.338 6                                
G29  20378987.688 5                  20378986.176 5                 107092464.28915                  83448546.06315
> 2014 10 31 20 43 15.0000000  0  4
G05  24218065.695 5                                                 127266573.595 5                                
G15  20714071.898 5                  20714064.082 5                 108853188.938 5                  84820640.860 5
G26  21503612.820 6                                                 113002280.392 6                                
G29  20381157.820 5                  20381158.770 5                 107103873.07815                  83457436.02115
> 2014 10 31 20 43 30.0000000  0  4
G05  24225832.336 5                                                 127307396.478 5                                
G15  20710689.109 5                  20710677.809 5                 108835398.772 5                  84806778.473 5
G26  21506191.508 6                                                 113015830.549 6                                
G29  20383355.922 5                  20383357.445 5                 107115421.60215                  83466434.84715
> 2014 10 31 20 43 45.0000000  0  4
G05  24233601.383 5                                                 127348215.543 5                                
G15  20707335.086 5                                                                                                
G26  21508802.125 6                                                 113029551.392 6                                
G29  20385581.047 5                  20385583.277 5                 107127114.36915                  83475546.08815
> 2014 10 31 20 44  0.0000000  0  3
G05  24241368.156 5                                                 127389030.393 5                                
G26  21511445.844 6                                                 113043442.118 6                                
G29  20387832.344 4                                                                                                
> 2014 10 31 20 44 15.0000000  0  3
G05  24249133.258 5                                                 127429841.482 5                                
G26  21514120.711 6                                                 113057503.698 6                                
G29  20390113.516 5                  20390116.961 6                 107150931.71715                  83494105.01516
> 2014 10 31 20 44 30.0000000  0  2
G05  24256901.188 6                                                 127470653.433 6                                
G26  21516829.477 6                                                 113071740.727 6                                
> 2014 10 31 20 44 45.0000000  0  2
G05  24264666.516 5                                                 127511460.391 5                                
G26  21519570.266 6                                                 113086147.125 6                                
> 2014 10 31 20 45  0.0000000  0  2
G05  24272431.672 6                                                 127552264.309 6                                
G26  21522345.406 6                                                 113100724.809 6                                
> 2014 10 31 20 45 15.0000000  0  3
G05  24280196.570 6                                                 127593069.169 6                                
G18  22324854.242 5                                                 117317881.53415                                
G26  21525151.773 6                                                 113115477.778 6                                
> 2014 10 31 20 45 30.0000000  0  3
G05  24287961.633 5                                                 127633871.497 5                                
G18  22320023.242 5                                                 117292486.082 5                                
G26  21527991.125 5                                                 113130402.528 5                                
> 2014 10 31 20 45 45.0000000  0  3
G05  24295727.313 5                                                 127674681.788 5                                
G18  22315205.078 5                                                                                                
G26  21530865.313 5                                                 113145509.446 5                                
> 2014 10 31 20 46  0.0000000  0  3
G05  24303492.008 5                                                 127715493.521 5                                
G18  22310398.188 5                                                 117241915.44015                                
G26  21533771.766 5                                                 113160791.945 5                                
> 2014 10 31 20 46 15.0000000  0  3
G05  24311260.016 5                                                 127756305.508 5                                
G18  22305603.594 5                                                 117216732.75915                                
G26  21536714.609 5                                                 113176249.042 5                                
> 2014 10 31 20 46 30.0000000  0  4
G05  24319026.438 5                                                 127797117.172 5                                
G18  22300825.477 5                                                                                                
G26  21539689.555 5                                                 113191880.038 5                                
G29  20411899.234 5                                                 107265131.20615                                
> 2014 10 31 20 46 45.0000000  0  3
G05  24326790.508 5                                                 127837930.150 5                                
G26  21542696.539 5                                                 113207686.27115                                
G29  20414461.203 6                                                 107278598.544 6                                
> 2014 10 31 20 47  0.0000000  0  3
G05  24334558.484 5                                                 127878745.672 5                                
G26  21545742.117 6                                                 113223669.124 6                                
G29  20417054.188 6                                                 107292217.295 6                                
> 2014 10 31 20 47 15.0000000  0  3
G05  24342326.195 5                                                 127919561.62415                                
G26  21548816.086 6                                                 113239826.582 6                                
G29  20419672.430 5                  20419672.566 5                 107305985.196 5                  83615144.85115
> 2014 10 31 20 47 30.0000000  0  3
G05  24350092.328 5                                                 127960374.732 5                                
G26  21551924.031 6                                                 113256155.049 6                                
G29  20422319.695 5                  20422319.590 5                 107319898.877 5                  83625986.682 5
> 2014 10 31 20 47 45.0000000  0  3
G05  24357859.445 5                                                 128001186.052 5                                
G26  21555063.156 6                                                 113272655.655 6                                
G29  20424995.047 5                  20424996.176 5                 107333959.53415                  83636943.03415
> 2014 10 31 20 48  0.0000000  0  2
G05  24365622.461 5                                                 128041995.48315                                
G26  21558236.023 5                                                 113289327.919 5                                
> 2014 10 31 20 48 15.0000000  0  2
G05  24373388.477 5                                                 128082799.459 5                                
G26  21561441.039 5                                                 113306168.837 5                                
> 2014 10 31 20 48 30.0000000  0  2
G05  24381153.797 5                                                 128123602.10715                                
G26  21564677.883 5                                                 113323182.057 5                                
> 2014 10 31 20 48 45.0000000  0  2
G05  24388915.984 5                                                 128164402.30615                                
G26  21567948.242 5                                                 113340366.60415                                
> 2014 10 31 20 49  0.0000000  0  3
G05  24396680.281 5                                                 128205206.729 5                                
G26  21571249.531 5                                                                                                
G29  20438790.844 5                  20438791.133 6                 107406465.93115                  83693436.19316
> 2014 10 31 20 49 15.0000000  0  3
G05  24404383.805 5                                                 128245680.372 5                                
G26  21574524.422 5                                                 113374934.06915                                
G29  20441571.813 5                  20441572.012 6                 107421081.939 5                  83704825.301 6
> 2014 10 31 20 49 30.0000000  0  3
G05  24411992.578 5                                                 128285667.059 5                                
G26  21577739.734 5                                                 113391825.75315                                
G29  20444287.898 5                  20444288.730 6                 107435360.105 5                  83715951.147 6
> 2014 10 31 20 49 45.0000000  0  3
G05  24419551.797 5                                                 128325385.160 5                                
G26  21580938.953 5                                                 113408622.335 5                                
G29  20446980.359 5                  20446982.781 5                 107449518.526 5                  83726983.689 5
> 2014 10 31 20 50  0.0000000  0  4
G05  24427074.500 5                                                                                                
G15  20632387.539 5                                                                                                
G26  21584133.945 6                                                 113425407.52116                                
G29  20449668.570 5                  20449670.250 5                 107463641.12515                  83737988.32115
> 2014 10 31 20 50 15.0000000  0  4
G05  24434570.578 5                                                                                                
G15  20629541.539 5                                                 108408910.82815                                
G26  21587335.992 6                                                 113442224.897 6                                
G29  20452357.969 5                  20452359.785 5                 107477771.618 5                  83748999.090 5
> 2014 10 31 20 50 30.0000000  0  4
G05  24442043.766 5                                                 128443584.77015                                
G15  20626702.320 5                                                 108393993.689 5                                
G26  21590546.609 6                                                 113459097.335 6                                
G29  20455053.828 5                  20455055.250 5                 107491932.994 5                  83760033.938 5
> 2014 10 31 20 50 45.0000000  0  4
G05  24449496.773 5                                                                                                
G15  20623873.094 5                                                 108379138.569 5                                
G26  21593772.617 6                                                 113476043.793 6                                
G29  20457758.352 5                  20457758.152 5                 107506144.260 5                  83771107.641 5
> 2014 10 31 20 51  0.0000000  0  4
G05  24456936.625 5                                                                                                
G15  20621061.398 5                                                                                                
G26  21597013.984 5                                                 113493083.295 5                                
G29  20460477.680 5                  20460475.785 5                 107520424.505 5                  83782235.071 5
> 2014 10 31 20 51 15.0000000  0  3
G15  20618266.703 5                                                 108349681.67915                                
G26  21600277.570 5                                                 113510224.502 5                                
G29  20463206.828 6                  20463208.016 5                 107534782.563 6                  83793423.098 5
> 2014 10 31 20 51 30.0000000  0  3
G15  20615494.734 5                                                 108335099.44415                                
G26  21603557.219 5                                                                                                
G29  20465959.531 6                  20465956.832 5                 107549228.889 6                  83804679.923 5
> 2014 10 31 20 51 45.0000000  0  2
G15  20612740.055 5                                                 108320615.490 5                                
G29  20468726.070 6                  20468721.246 5                 107563760.374 6                  83816003.103 5
> 2014 10 31 20 52  0.0000000  0  2
G15  20610002.742 5                                                 108306237.805 5                                
G29  20471509.625 6                  20471504.258 5                 107578385.104 6                  83827398.939 5
> 2014 10 31 20 52 15.0000000  0  2
G15  20607289.453 6                                                 108291974.402 6                                
G29  20474310.602 6                  20474306.016 5                 107593110.595 6                  83838873.300 5
> 2014 10 31 20 52 30.0000000  0  2
G15  20604597.625 6                                                 108277825.353 6                                
G29  20477130.469 6                  20477127.207 5                 107607936.609 6                  83850425.994 5
> 2014 10 31 20 52 45.0000000  0  2
G15  20601930.094 6                                                 108263796.601 6                                
G29  20479972.063 6                  20479969.926 6                 107622869.259 6                  83862061.795 6
> 2014 10 31 20 53  0.0000000  0  2
G15  20599282.297 6                                                 108249890.172 6                                
G29  20482834.398 6                  20482832.266 6                 107637910.028 6                  83873781.852 6
> 2014 10 31 20 53 15.0000000  0  2
G15  20596661.086 6                                                 108236114.158 6                                
G29  20485718.336 6                  20485716.016 6                 107653066.813 6                  83885592.308 6
> 2014 10 31 20 53 30.0000000  0  2
G15  20594065.320 7                                                 108222472.770 7                                
G29  20488626.484 5                  20488622.230 6                 107668344.036 5                  83897496.611 6
> 2014 10 31 20 53 45.0000000  0  2
G15  20591494.773 6                                                 108208967.323 6                                
G29  20491556.141 5                  20491551.520 6                 107683742.612 5                  83909495.477 6
> 2014 10 31 20 54  0.0000000  0  3
G15  20588950.578 7                                                 108195597.208 7                                
G26  21637699.445 5                                                 113706944.64115                                
G29  20494507.969 5                                                                                                
> 2014 10 31 20 54 15.0000000  0  2
G15  20586432.711 7                                                 108182364.776 7                                
G26  21641257.711 6                                                 113725650.811 6                                
> 2014 10 31 20 54 30.0000000  0  2
G15  20583941.297 6                                                 108169270.723 6                                
G26  21644845.008 5                                                 113744502.914 5                                
> 2014 10 31 20 54 45.0000000  0  2
G15  20581497.727 6                                                 108156431.123 6                                
G26  21648481.328 5                                                 113763616.803 5                                
> 2014 10 31 20 55  0.0000000  0  2
G15  20579186.172 7                                                 108144289.368 7                                
G26  21652253.844 5                                                 113783435.665 5                                
> 2014 10 31 20 55 15.0000000  0  2
G15  20576964.680 6                                                 108132620.668 6                                
G26  21656114.789 6                                                 113803734.278 6                                
> 2014 10 31 20 55 30.0000000  0  2
G15  20574810.164 6                                                 108121298.420 6                                
G26  21660045.625 6                                                 113824385.988 6                                
> 2014 10 31 20 55 45.0000000  0  4
G05  24597472.758 5                                                 129260356.39115                                
G15  20572713.727 6                                                 108110283.155 6                                
G26  21664036.523 6                                                 113845350.743 6                                
G29  20516677.750 6                  20516671.801 6                 107815783.24916                  84012343.03116
> 2014 10 31 20 56  0.0000000  0  4
G05  24605055.633 5                                                 129300212.12115                                
G15  20570669.898 6                                                 108099537.148 6                                
G26  21668079.211 6                                                 113866590.773 6                                
G29  20520105.016 6                  20520099.977 6                 107833800.957 6                  84026382.787 6
> 2014 10 31 20 56 15.0000000  0  4
G05  24612656.406 5                                                 129340148.582 5                                
G15  20568672.438 6                                                 108089036.987 6                                
G26  21672170.016 6                                                 113888082.221 6                                
G29  20523576.008 6                  20523572.082 6                 107852047.916 6                  84040601.146 6
> 2014 10 31 20 56 30.0000000  0  4
G05  24620267.477 5                                                 129380151.80515                                
G15  20566718.359 6                                                 108078768.845 6                                
G26  21676303.625 6                                                 113909811.011 6                                
G29  20527086.516 6                  20527085.063 6                 107870510.063 6                  84054987.164 6
> 2014 10 31 20 56 45.0000000  0  4
G05  24627890.531 4                                                                                                
G15  20564807.797 6                                                 108068725.620 6                                
G26  21680483.047 6                                                 113931769.827 6                                
G29  20530639.813 6                  20530637.398 6                 107889180.096 6                  84069535.182 6
> 2014 10 31 20 57  0.0000000  0  3
G15  20562937.398 6                                                 108058900.868 6                                
G26  21684704.898 6                                                 113953951.985 6                                
G29  20534231.148 6                  20534229.000 6                 107908051.486 6                  84084240.136 6
> 2014 10 31 20 57 15.0000000  0  3
G15  20561106.859 6                                                 108049281.454 6                                
G26  21688964.461 5                                                 113976343.929 5                                
G29  20537857.531 6                  20537856.188 5                 107927110.812 6                  84099091.518 5
> 2014 10 31 20 57 30.0000000  0  3
G15  20559314.094 6                  20559318.414 4                 108039859.139 6                  84186974.08814
G26  21693264.242 5                                                                                                
G29  20541518.742 6                  20541517.180 5                 107946349.688 6                  84114082.820 5
> 2014 10 31 20 57 45.0000000  0  2
G15  20557558.281 6                  20557562.832 4                 108030636.065 6                  84179787.313 4
G29  20545214.156 6                  20545213.359 5                 107965769.999 6                  84129215.483 5
> 2014 10 31 20 58  0.0000000  0  2
G15  20555838.398 5                  20555842.992 4                 108021606.291 5                  84172751.124 4
G29  20548943.070 6                  20548942.180 5                 107985365.771 6                  84144484.900 5
> 2014 10 31 20 58 15.0000000  0  2
G15  20554152.688 5                  20554159.313 4                 108012760.425 5                  84165858.223 4
G29  20552704.016 6                  20552703.531 6                 108005127.044 6                  84159883.280 6
> 2014 10 31 20 58 30.0000000  0  2
G15  20552503.938 5                  20552509.246 4                 108004092.548 5                  84159103.993 4
G29  20556494.883 6                  20556495.969 6                 108025047.997 6                  84175406.077 6
> 2014 10 31 20 58 45.0000000  0  2
G15  20550887.695 6                  20550892.520 4                 107995599.580 6                  84152486.094 4
G29  20560314.586 6                  20560317.352 6                 108045125.568 6                  84191050.906 6
> 2014 10 31 20 59  0.0000000  0  2
G15  20549306.625 6                  20549308.695 5                 107987278.511 6                  84146002.147 5
G29  20564164.195 6                  20564167.289 6                 108065356.227 6                  84206815.020 6
> 2014 10 31 20 59 15.0000000  0  2
G15  20547758.500 6                  20547759.117 5                 107979132.084 6                  84139654.271 5
G29  20568043.211 6                  20568046.910 6                 108085742.594 6                  84222700.465 6
> 2014 10 31 20 59 30.0000000  0  2
G15  20546242.789 6                  20546241.781 5                 107971159.502 6                  84133441.862 5
G29  20571951.375 6                  20571955.227 6                 108106283.732 6                  84238706.513 6
> 2014 10 31 20 59 45.0000000  0  2
G15  20544757.688 6                  20544758.000 5                 107963355.504 6                  84127360.829 5
G29  20575886.156 5                  20575893.559 6                 108126974.218 5                  84254828.939 6
> 2014 10 31 21 00  0.0000000  0  2
G15  20543304.914 6                  20543304.855 5                 107955719.814 6                  84121410.956 5
G29  20579849.633 5                                                                                                
> 2014 10 31 21 00 15.0000000  0  1
G15  20541881.281 6                  20541881.852 5                 107948251.897 6                  84115591.826 5
> 2014 10 31 21 00 30.0000000  0  1
G15  20540491.688 6                  20540492.188 5                 107940953.480 6                  84109904.765 5
> 2014 10 31 21 00 45.0000000  0  1
G15  20539133.922 6                  20539134.320 5                 107933818.566 6                  84104345.086 5
> 2014 10 31 21 01  0.0000000  0  1
G15  20537811.758 6                  20537812.004 5                 107926862.677 6                  84098924.921 5
> 2014 10 31 21 01 15.0000000  0  1
G15  20536523.570 6                  20536524.316 6                 107920101.769 6                  84093656.672 6
> 2014 10 31 21 01 30.0000000  0  2
G15  20535274.750 6                  20535275.023 6                 107913534.479 6                  84088539.313 6
G29  20604269.453 5                                                 108276066.11615                                
> 2014 10 31 21 01 45.0000000  0  2
G15  20534060.953 6                  20534062.023 6                 107907158.915 6                  84083571.331 6
G29  20608448.891 5                                                 108298023.922 5                                
> 2014 10 31 21 02  0.0000000  0  2
G15  20532881.477 6                  20532883.852 6                 107900966.299 6                  84078745.929 6
G29  20612661.188 5                                                 108320143.71815                                
> 2014 10 31 21 02 15.0000000  0  2
G15  20531738.961 6                  20531740.418 6                 107894958.347 6                  84074064.414 6
G29  20616901.891 5                                                 108342427.06215                                
> 2014 10 31 21 02 30.0000000  0  2
G15  20530630.500 6                  20530631.105 6                 107889130.191 6                  84069522.992 6
G29  20621175.719 5                                                                                                
> 2014 10 31 21 02 45.0000000  0  1
G15  20529556.203 6                  20529555.363 6                 107883479.591 6                  84065119.927 6
> 2014 10 31 21 03  0.0000000  0  1
G15  20528515.055 7                  20528513.547 6                 107878003.803 7                  84060853.089 6
> 2014 10 31 21 03 15.0000000  0  1
G15  20527505.242 7                  20527504.023 6                 107872701.830 7                  84056721.680 6
> 2014 10 31 21 03 30.0000000  0  1
G15  20526528.211 7                  20526527.500 6                 107867570.050 7                  84052722.891 6
> 2014 10 31 21 03 45.0000000  0  1
G15  20525583.266 7                  20525583.730 6                 107862609.746 7                  84048857.735 6
> 2014 10 31 21 04  0.0000000  0  1
G15  20524670.070 7                  20524671.285 6                 107857815.231 7                  84045121.750 6
> 2014 10 31 21 04 15.0000000  0  1
G15  20523789.555 6                  20523790.031 6                 107853184.965 6                  84041513.751 6
> 2014 10 31 21 04 30.0000000  0  2
G15  20522941.391 7                  20522941.461 6                 107848724.677 7                  84038038.202 6
G29  20656370.602 5                  20656354.496 5                 108549807.39815                  84584316.79315
> 2014 10 31 21 04 45.0000000  0  1
G15  20522125.625 7                  20522124.512 6                 107844432.466 7                  84034693.648 6
> 2014 10 31 21 05  0.0000000  0  1
G15  20521339.602 7                  20521339.156 5                 107840304.265 7                  84031476.888 5
> 2014 10 31 21 05 15.0000000  0  1
G15  20520585.266 7                  20520584.895 6                 107836343.150 7                  84028390.325 6
> 2014 10 31 21 05 30.0000000  0  1
G15  20519863.492 7                  20519861.883 5                 107832548.646 7                  84025433.582 5
> 2014 10 31 21 05 45.0000000  0  1
G15  20519172.813 7                  20519170.207 5                 107828917.271 7                  84022603.953 5
> 2014 10 31 21 06  0.0000000  0  1
G15  20518510.281 7                  20518508.516 5                 107825442.710 7                  84019896.483 5
> 2014 10 31 21 06 15.0000000  0  1
G15  20517881.055 7                  20517878.262 5                 107822132.566 7                  84017317.156 5
> 2014 10 31 21 06 30.0000000  0  1
G15  20517282.164 7                  20517279.313 5                 107818984.691 7                  84014864.267 5
> 2014 10 31 21 06 45.0000000  0  1
G15  20516713.063 7                  20516712.180 5                 107815999.744 7                  84012538.334 5
> 2014 10 31 21 07  0.0000000  0  1
G15  20516175.305 7                  20516174.715 5                 107813174.345 7                  84010336.752 5
> 2014 10 31 21 07 15.0000000  0  1
G15  20515668.250 7                  20515666.496 5                 107810507.164 7                  84008258.447 5
> 2014 10 31 21 07 30.0000000  0  1
G15  20515189.977 7                  20515189.469 5                 107807997.952 7                  84006303.256 5
> 2014 10 31 21 07 45.0000000  0  1
G15  20514744.125 7                  20514741.809 5                 107805651.736 7                  84004475.045 5
> 2014 10 31 21 08  0.0000000  0  1
G15  20514327.969 6                  20514325.523 5                 107803463.241 6                  84002769.753 5
> 2014 10 31 21 08 15.0000000  0  1
G15  20513941.055 6                  20513938.652 4                 107801431.111 6                  84001186.240 4
> 2014 10 31 21 08 30.0000000  0  1
G15  20513583.602 6                  20513581.043 4                 107799556.077 6                  83999725.142 4
> 2014 10 31 21 08 45.0000000  0  1
G15  20513256.406 6                  20513252.270 3                 107797837.498 6                  83998386.001 3
> 2014 10 31 21 09  0.0000000  0  1
G15  20512960.586 7                                                 107796276.037 7                                
> 2014 10 31 21 09 15.0000000  0  1
G15  20512693.641 7                                                 107794871.806 7                                
> 2014 10 31 21 09 30.0000000  0  1
G15  20512457.414 7                                                 107793628.462 7                                
> 2014 10 31 21 09 45.0000000  0  1
G15  20512248.734 6                                                 107792540.135 6                                
> 2014 10 31 21 10  0.0000000  0  1
G15  20512072.273 6                  20512079.918 5                 107791611.302 6                  83993538.76615
> 2014 10 31 21 10 15.0000000  0  1
G15  20511924.227 6                  20511929.352 5                 107790835.899 6                  83992934.536 5
> 2014 10 31 21 10 30.0000000  0  1
G15  20511806.375 6                  20511809.922 5                 107790216.422 6                  83992451.810 5
> 2014 10 31 21 10 45.0000000  0  1
G15  20511717.875 6                  20511721.832 5                 107789753.609 6                  83992091.162 5
> 2014 10 31 21 11  0.0000000  0  1
G15  20511659.352 6                  20511663.660 5                 107789445.670 6                  83991851.235 5
> 2014 10 31 21 11 15.0000000  0  1
G15  20511629.656 6                  20511634.453 6                 107789291.906 6                  83991731.427 6
> 2014 10 31 21 11 30.0000000  0  1
G15  20511628.680 6                  20511634.398 6                 107789290.947 6                  83991730.680 6
> 2014 10 31 21 11 45.0000000  0  1
G15  20511658.633 6                  20511663.383 6                 107789443.469 6                  83991849.513 6
> 2014 10 31 21 12  0.0000000  0  1
G15  20511718.344 6                  20511720.781 6                 107789753.640 6                  83992091.203 6
> 2014 10 31 21 12 15.0000000  0  1
G15  20511806.727 6                  20511807.945 5                 107790217.744 6                  83992452.833 5
> 2014 10 31 21 12 30.0000000  0  1
G15  20511925.320 7                  20511925.801 5                 107790838.863 7                  83992936.813 5
> 2014 10 31 21 12 45.0000000  0  1
G15  20512071.773 6                  20512071.965 5                 107791610.127 6                  83993537.789 5
> 2014 10 31 21 13  0.0000000  0  1
G15  20512248.547 6                  20512248.449 6                 107792538.917 6                  83994261.543 6
> 2014 10 31 21 13 15.0000000  0  1
G15  20512455.406 6                  20512454.254 5                 107793620.169 6                  83995104.089 5
> 2014 10 31 21 13 30.0000000  0  1
G15  20512689.906 7                  20512689.188 5                 107794855.172 7                  83996066.448 5
> 2014 10 31 21 13 45.0000000  0  1
G15  20512954.000 7                  20512952.746 5                 107796245.683 7                  83997149.968 5
> 2014 10 31 21 14  0.0000000  0  1
G15  20513248.164 6                  20513247.598 6                 107797789.153 6                  83998352.675 6
> 2014 10 31 21 14 15.0000000  0  1
G15  20513571.133 6                  20513570.527 6                 107799488.923 6                  83999677.169 6
> 2014 10 31 21 14 30.0000000  0  1
G15  20513923.141 6                  20513922.570 5                 107801341.601 6                  84001120.821 5
> 2014 10 31 21 14 45.0000000  0  1
G15  20514306.242 6                  20514304.914 5                 107803347.351 6                  84002683.733 5
> 2014 10 31 21 15  0.0000000  0  1
G15  20514716.773 6                  20514716.020 5                 107805503.625 6                  84004363.926 5
> 2014 10 31 21 15 15.0000000  0  1
G15  20515155.523 6                  20515153.070 5                 107807809.416 6                  84006160.638 5
> 2014 10 31 21 15 30.0000000  0  1
G15  20515624.617 6                  20515619.520 5                 107810271.238 6                  84008078.906 5
> 2014 10 31 21 15 45.0000000  0  1
G15  20516121.391 6                  20516116.832 5                 107812881.028 6                  84010112.523 5
> 2014 10 31 21 16  0.0000000  0  1
G15  20516646.805 6                  20516644.926 5                 107815645.278 6                  84012266.478 5
> 2014 10 31 21 16 15.0000000  0  1
G15  20517201.258 6                  20517200.754 5                 107818564.603 6                  84014541.270 5
> 2014 10 31 21 16 30.0000000  0  1
G15  20517785.867 6                  20517786.535 6                 107821637.715 6                  84016935.868 6
> 2014 10 31 21 16 45.0000000  0  1
G15  20518402.930 6                  20518400.195 6                 107824863.400 6                  84019449.371 6
> 2014 10 31 21 17  0.0000000  0  1
G15  20519046.523 6                  20519044.102 6                 107828242.270 6                  84022082.239 6
> 2014 10 31 21 17 15.0000000  0  1
G15  20519720.547 6                  20519716.336 6                 107831773.705 6                  84024834.005 6
> 2014 10 31 21 17 30.0000000  0  1
G15  20520418.781 6                  20520417.246 6                 107835457.154 6                  84027704.240 6
> 2014 10 31 21 17 45.0000000  0  1
G15  20521146.984 6                  20521147.707 6                 107839289.518 6                  84030690.512 6
> 2014 10 31 21 18  0.0000000  0  1
G15  20521903.727 5                  20521905.145 6                 107843271.876 5                  84033793.683 6
> 2014 10 31 21 18 15.0000000  0  1
G15  20522687.797 5                  20522692.273 6                 107847402.390 5                  84037012.286 6
> 2014 10 31 21 18 30.0000000  0  1
G15  20523502.477 5                  20523507.512 6                 107851683.801 5                  84040348.481 6
> 2014 10 31 21 18 45.0000000  0  1
G15  20524345.234 5                  20524350.645 6                 107856118.304 5                  84043803.968 6
> 2014 10 31 21 19  0.0000000  0  1
G15  20525218.555 5                  20525224.789 6                 107860707.118 5                  84047379.678 6
> 2014 10 31 21 19 15.0000000  0  1
G15  20526121.227 5                                                                                                
> 2014 10 31 21 19 30.0000000  0  1
G15  20527052.172 5                  20527056.070 6                 107870337.85215                  84054884.08116
> 2014 10 31 21 19 45.0000000  0  1
G15  20528015.922 5                  20528014.891 5                 107875378.186 5                  84058811.577 5
> 2014 10 31 21 20  0.0000000  0  1
G15  20529007.406 5                  20529003.305 5                 107880569.787 5                  84062856.956 5
> 2014 10 31 21 20 15.0000000  0  1
G15  20530021.188 5                                                                                                
> 2014 10 31 21 20 30.0000000  0  1
G15  20531063.148 5                                                                                                
> 2014 10 31 21 20 45.0000000  0  1
G15  20532136.125 5                  20532135.316 5                 107897042.13715                  84075692.60415
> 2014 10 31 21 21  0.0000000  0  1
G15  20533240.844 5                  20533237.633 5                 107902835.48615                  84080206.93815
> 2014 10 31 21 21 15.0000000  0  1
G15  20534372.719 5                  20534368.949 5                 107908776.69915                  84084836.45815
> 2014 10 31 21 21 30.0000000  0  1
G15  20535531.789 5                  20535527.832 5                 107914863.854 5                  84089579.680 5
> 2014 10 31 21 21 45.0000000  0  1
G15  20536719.250 5                  20536714.648 5                 107921101.412 5                  84094440.114 5
> 2014 10 31 21 22  0.0000000  0  2
G15  20537932.797 5                  20537930.219 5                 107927488.930 5                  84099417.404 5
G18  21733284.109 6                                                 114209171.91416                                
> 2014 10 31 21 22 15.0000000  0  2
G15  20539176.672 5                  20539174.574 5                 107934028.760 5                  84104513.396 5
G18  21730126.531 6                                                 114192583.857 6                                
> 2014 10 31 21 22 30.0000000  0  2
G15  20540448.586 5                  20540447.074 5                 107940721.28915                  84109728.36715
G18  21726980.703 6                                                 114176048.031 6                                
> 2014 10 31 21 22 45.0000000  0  2
G15  20541751.055 5                  20541747.609 5                 107947564.640 5                  84115060.863 5
G18  21723842.695 6                                                 114159562.627 6                                
> 2014 10 31 21 23  0.0000000  0  2
G15  20543078.711 5                                                                                                
G18  21720714.227 6                                                 114143123.463 6                                
> 2014 10 31 21 23 15.0000000  0  2
G15  20544437.680 5                  20544437.543 5                 107961689.40615                  84126067.19615
G18  21717595.281 6                                                 114126729.023 6                                
> 2014 10 31 21 23 30.0000000  0  2
G15  20545824.898 6                  20545825.016 5                 107968974.941 6                  84131744.244 5
G18  21714485.328 5                                                 114110384.879 5                                
> 2014 10 31 21 23 45.0000000  0  2
G15  20547240.148 6                  20547239.609 5                 107976403.528 6                  84137532.768 5
G18  21711381.883 5                                                 114094083.598 5                                
> 2014 10 31 21 24  0.0000000  0  2
G15  20548683.570 6                  20548682.570 5                 107983984.308 6                  84143439.874 5
G18  21708293.422 5                                                                                                
> 2014 10 31 21 24 15.0000000  0  2
G15  20550155.227 6                  20550153.813 5                 107991714.777 6                  84149463.620 5
G18  21705212.109 5                                                 114061635.26715                                
> 2014 10 31 21 24 30.0000000  0  2
G15  20551654.242 7                  20551652.895 5                 107999592.655 7                  84155602.246 5
G18  21702139.148 4                                                 114045483.421 4                                
> 2014 10 31 21 24 45.0000000  0  2
G15  20553179.930 7                  20553178.805 5                 108007613.950 7                  84161852.624 5
G18  21699071.734 4                                                                                                
> 2014 10 31 21 25  0.0000000  0  1
G15  20554733.203 6                  20554732.902 4                 108015782.115 6                  84168217.457 4
> 2014 10 31 21 25 15.0000000  0  1
G15  20556314.570 6                  20556314.223 4                 108024097.809 6                  84174697.245 4
> 2014 10 31 21 25 30.0000000  0  1
G15  20557923.250 6                  20557924.000 4                 108032558.725 6                  84181290.186 4
> 2014 10 31 21 25 45.0000000  0  1
G15  20559560.094 6                  20559558.230 4                 108041160.726 6                  84187993.006 4
> 2014 10 31 21 26  0.0000000  0  2
G15  20561225.867 6                  20561222.262 4                 108049909.637 6                  84194810.269 4
G18  21683878.070 5                                                 113949533.27915                                
> 2014 10 31 21 26 15.0000000  0  2
G15  20562920.625 6                  20562915.344 4                 108058806.582 6                  84201742.947 4
G18  21680865.523 5                                                 113933701.319 5                                
> 2014 10 31 21 26 30.0000000  0  2
G15  20564641.016 6                  20564637.094 5                 108067852.638 6                  84208791.788 5
G18  21677861.055 5                                                 113917918.943 5                                
> 2014 10 31 21 26 45.0000000  0  2
G15  20566391.922 7                  20566385.922 5                 108077040.909 7                  84215951.441 5
G18  21674865.016 5                                                 113902179.03015                                
> 2014 10 31 21 27  0.0000000  0  2
G15  20568168.516 7                  20568164.023 5                 108086377.834 7                  84223226.974 5
G18  21671876.953 5                                                 113886487.996 5                                
> 2014 10 31 21 27 15.0000000  0  2
G15  20569973.797 7                  20569969.664 5                 108095863.809 7                  84230618.646 5
G18  21668899.547 5                                                 113870846.66015                                
> 2014 10 31 21 27 30.0000000  0  2
G15  20571806.953 7                  20571802.781 5                 108105496.157 7                  84238124.371 5
G18  21665932.859 5                                                 113855252.326 5                                
> 2014 10 31 21 27 45.0000000  0  2
G15  20573667.664 6                  20573664.555 5                 108115279.625 6                  84245747.875 5
G18  21662975.469 5                                                 113839709.761 5                                
> 2014 10 31 21 28  0.0000000  0  2
G15  20575555.922 6                  20575553.098 5                 108125208.015 6                  84253484.300 5
G18  21660028.039 6                                                 113824212.647 6                                
> 2014 10 31 21 28 15.0000000  0  2
G15  20577473.305 6                  20577469.793 5                 108135280.640 6                  84261333.124 5
G18  21657087.695 6                                                 113808760.632 6                                
> 2014 10 31 21 28 30.0000000  0  2
G15  20579416.484 6                  20579413.539 5                 108145496.629 6                  84269293.678 5
G18  21654156.680 6                                                 113793352.942 6                                
> 2014 10 31 21 28 45.0000000  0  2
G15  20581387.563 6                  20581384.551 5                 108155856.504 6                  84277366.325 5
G18  21651233.398 6                                                 113777989.837 6                                
> 2014 10 31 21 29  0.0000000  0  2
G15  20583385.383 6                  20583384.465 5                 108166361.978 6                  84285552.414 5
G18  21648318.422 6                                                 113762673.378 6                                
> 2014 10 31 21 29 15.0000000  0  2
G15  20585412.430 6                  20585411.453 5                 108177011.017 6                  84293850.359 5
G18  21645413.609 6                                                 113747401.385 6                                
> 2014 10 31 21 29 30.0000000  0  2
G15  20587466.766 6                  20587465.547 5                 108187807.168 6                  84302262.924 5
G18  21642516.625 6                                                 113732177.683 6                                
> 2014 10 31 21 29 45.0000000  0  2
G15  20589547.047 6                  20589549.215 5                 108198747.838 6                  84310788.119 5
G18  21639627.430 6                                                 113716999.686 6                                
> 2014 10 31 21 30  0.0000000  0  2
G15  20591656.320 5                  20591656.594 6                 108209826.067 5                  84319420.513 6
G18  21636745.102 6                                                 113701860.465 6                                
> 2014 10 31 21 30 15.0000000  0  2
G15  20593792.023 5                  20593793.770 6                 108221052.310 5                  84328168.234 6
G18  21633874.023 6                                                 113686770.552 6                                
> 2014 10 31 21 30 30.0000000  0  2
G15  20595957.102 4                                                                                                
G18  21631012.625 6                                                 113671724.387 6                                
> 2014 10 31 21 30 45.0000000  0  1
G18  21628158.906 5                                                 113656722.576 5                                
> 2014 10 31 21 38  0.0000000  0  1
G15  20673345.281 6                  20673346.949 5                 108639151.12116                  84653901.76415
> 2014 10 31 21 38 15.0000000  0  1
G15  20676339.234 6                  20676335.418 5                 108654861.582 6                  84666143.656 5
> 2014 10 31 21 38 30.0000000  0  1
G15  20679351.469 6                  20679351.156 5                 108670704.775 6                  84678488.971 5
> 2014 10 31 21 38 45.0000000  0  1
G15  20682395.008 6                  20682391.535 5                 108686686.133 6                  84690941.946 5
> 2014 10 31 21 39  0.0000000  0  1
G15  20685467.828 6                  20685458.867 5                 108702806.532 6                  84703503.229 5
> 2014 10 31 21 39 15.0000000  0  1
G15  20688565.016 5                  20688552.398 5                 108719061.504 5                  84716169.396 5
> 2014 10 31 21 39 30.0000000  0  1
G15  20691686.016 5                  20691672.410 5                 108735456.919 5                  84728945.011 5
> 2014 10 31 21 39 45.0000000  0  1
G15  20694834.227 5                  20694819.969 6                 108751991.168 5                  84741828.793 6
> 2014 10 31 21 41 45.0000000  0  1
G15  20720910.805 5                                                 108889089.64115                                
> 2014 10 31 21 42  0.0000000  0  1
G15  20724286.133 5                                                 108906825.512 5                                
> 2014 10 31 21 42 15.0000000  0  1
G15  20727687.578 5                                                 108924691.901 5                                
> 2014 10 31 21 42 30.0000000  0  1
G15  20731112.039 6                                                 108942687.879 6                                
> 2014 10 31 21 42 45.0000000  0  1
G15  20734562.695 6                  20734566.969 5                 108960816.805 6                  84778232.64915
> 2014 10 31 21 43  0.0000000  0  1
G15  20738039.836 5                  20738042.781 5                 108979078.641 5                  84792462.624 5
> 2014 10 31 21 43 15.0000000  0  1
G15  20741542.656 5                  20741543.613 5                 108997475.132 5                  84806797.510 5
> 2014 10 31 21 43 30.0000000  0  1
G15  20745065.703 5                  20745068.469 5                 109016005.06315                  84821236.36915
> 2014 10 31 21 43 45.0000000  0  1
G15  20748617.836 5                  20748616.266 4                 109034665.058 5                  84835776.578 4
> 2014 10 31 21 44  0.0000000  0  1
G15  20752193.266 5                  20752189.469 4                 109053456.68215                  84850419.42614
> 2014 10 31 21 44 15.0000000  0  1
G15  20755796.078 5                  20755788.523 4                 109072383.587 5                  84865167.715 4
> 2014 10 31 21 44 30.0000000  0  1
G15  20759421.844 5                  20759414.484 4                 109091445.91315                  84880021.53314
> 2014 10 31 21 44 45.0000000  0  1
G15  20763075.063 5                  20763067.742 5                 109110638.803 5                  84894977.060 5
> 2014 10 31 21 45  0.0000000  0  1
G15  20766753.516 6                  20766746.531 5                 109129965.178 6                  84910036.573 5
> 2014 10 31 21 45 15.0000000  0  1
G15  20770458.242 6                  20770449.305 5                 109149422.421 6                  84925198.056 5
> 2014 10 31 21 45 30.0000000  0  1
G15  20774184.750 6                  20774177.906 6                 109169010.609 6                  84940461.574 6
> 2014 10 31 21 45 45.0000000  0  1
G15  20777936.484 6                  20777931.270 6                 109188728.854 6                  84955826.450 6
> 2014 10 31 21 46  0.0000000  0  1
G15  20781710.336 6                  20781708.723 6                 109208575.301 6                  84971291.224 6
> 2014 10 31 21 46 15.0000000  0  1
G15  20785510.461 5                  20785510.227 6                 109228550.182 5                  84986856.072 6
> 2014 10 31 21 46 30.0000000  0  1
G15  20789334.266 5                  20789337.164 6                 109248653.375 5                  85002520.894 6
> 2014 10 31 21 46 45.0000000  0  1
G15  20793183.766 5                  20793186.738 6                 109268884.146 5                  85018285.143 6
> 2014 10 31 21 47  0.0000000  0  1
G15  20797058.703 5                  20797061.488 6                 109289244.942 5                  85034150.712 6
> 2014 10 31 21 47 15.0000000  0  2
G15  20800956.984 6                  20800960.215 6                 109309731.506 6                  85176453.26416
G18  21457460.047 6                                                 112759719.37416                                
> 2014 10 31 21 47 30.0000000  0  2
G15  20804880.352 6                  20804882.523 6                 109330345.452 6                  85192516.080 6
G18  21455126.656 6                                                 112747461.302 6                                
> 2014 10 31 21 47 45.0000000  0  2
G15  20808829.375 6                  20808830.094 6                 109351093.447 6                  85208683.330 6
G18  21452800.992 6                                                 112735247.002 6                                
> 2014 10 31 21 48  0.0000000  0  2
G15  20812799.055 5                  20812800.938 6                 109371964.014 5                  85224946.090 6
G18  21450483.758 6                                                 112723065.150 6                                
> 2014 10 31 21 48 15.0000000  0  2
G15  20816793.078 5                  20816796.359 6                 109392958.92315                  85241305.74416
G18  21448172.609 6                                                 112710917.817 6                                
> 2014 10 31 21 48 30.0000000  0  1
G18  21445867.492 6                                                 112698807.459 6                                
> 2014 10 31 21 48 45.0000000  0  1
G18  21443570.141 6                                                 112686734.062 6                                
> 2014 10 31 21 49  0.0000000  0  1
G18  21441277.984 6                                                 112674695.060 6                                
> 2014 10 31 21 49 15.0000000  0  1
G18  21438994.688 6                                                 112662690.116 6                                
> 2014 10 31 21 49 30.0000000  0  1
G18  21436714.922 5                                                 112650719.206 5                                
> 2014 10 31 21 49 45.0000000  0  1
G18  21434445.500 5                                                 112638787.769 5                                
> 2014 10 31 21 50  0.0000000  0  1
G18  21432181.555 5                                                 112626889.335 5                                
> 2014 10 31 21 50 15.0000000  0  1
G18  21429924.094 5                                                 112615025.417 5                                
> 2014 10 31 21 50 30.0000000  0  1
G18  21427673.688 5                                                 112603198.077 5                                
> 2014 10 31 21 54  0.0000000  0  1
G15  20915214.813 6                  20915213.809 5                 109910188.10316                  85644300.43115
> 2014 10 31 21 54 15.0000000  0  1
G15  20919771.781 6                  20919770.805 5                 109934143.257 6                  85662966.768 5
> 2014 10 31 21 54 30.0000000  0  1
G15  20924353.328 6                  20924352.117 4                 109958222.003 6                  85681729.425 4
> 2014 10 31 21 54 45.0000000  0  1
G15  20928957.953 6                  20928957.988 5                 109982423.341 6                  85700587.600 5
> 2014 10 31 21 55  0.0000000  0  1
G15  20933585.672 6                  20933585.555 5                 110006740.759 6                  85719536.218 5
> 2014 10 31 21 55 15.0000000  0  1
G15  20938236.242 6                  20938236.770 5                 110031177.377 6                  85738577.712 5
> 2014 10 31 21 55 30.0000000  0  1
G15  20942909.625 6                  20942910.031 5                 110055735.418 6                  85757713.838 5
> 2014 10 31 21 55 45.0000000  0  1
G15  20947608.203 6                  20947607.684 5                 110080419.054 6                  85776947.812 5
> 2014 10 31 21 56  0.0000000  0  1
G15  20952327.188 6                  20952327.836 5                 110105220.571 6                  85796273.658 5
> 2014 10 31 21 56 15.0000000  0  1
G15  20957067.156 6                  20957069.426 5                 110130135.660 6                  85815688.011 5
> 2014 10 31 21 56 30.0000000  0  1
G15  20961831.859 6                  20961834.137 5                 110155171.514 6                  85835196.456 5
> 2014 10 31 21 56 45.0000000  0  1
G15  20966617.570 6                  20966621.738 5                 110180325.608 6                  85854797.059 5
> 2014 10 31 21 57  0.0000000  0  1
G15  20971426.586 6                  20971431.309 5                 110205600.774 6                  85874492.000 5
> 2014 10 31 21 57 15.0000000  0  1
G15  20976257.414 6                  20976262.645 5                 110230988.938 6                  85894274.977 5
> 2014 10 31 21 57 30.0000000  0  1
G15  20981112.797 6                  20981116.621 5                 110256498.372 6                  85914152.435 5
> 2014 10 31 21 57 45.0000000  0  1
G15  20985989.031 6                  20985992.766 5                 110282124.131 6                  85934120.542 5
> 2014 10 31 21 58  0.0000000  0  1
G15  20990887.133 6                  20990891.141 4                 110307865.987 6                  85954179.087 4
> 2014 10 31 21 58 15.0000000  0  1
G15  20995807.227 5                  20995811.109 4                 110333723.424 5                  85974327.701 4
> 2014 10 31 21 58 30.0000000  0  1
G15  21000748.758 5                  21000752.824 3                 110359695.644 5                  85994565.841 3
> 2014 10 31 21 58 45.0000000  0  1
G15  21005713.313 5                                                 110385783.815 5                                
> 2014 10 31 21 59  0.0000000  0  1
G15  21010701.031 5                                                 110411986.423 5                                
> 2014 10 31 21 59 15.0000000  0  1
G15  21015708.594 5                                                 110438301.249 5                                
> 2014 10 31 21 59 30.0000000  0  1
G15  21020736.719 5                  21020757.480 5                 110464730.539 5                  86076480.41815
> 2014 10 31 21 59 45.0000000  0  1
G15  21025788.070 6                  21025805.516 5                 110491271.455 6                  86097161.659 5
> 2014 10 31 22 00  0.0000000  0  1
G15  21030859.867 6                  21030874.973 4                 110517923.629 6                  86117929.572 4
> 2014 10 31 22 00 15.0000000  0  1
G15  21035955.320 6                  21035966.395 4                 110544696.113 6                  86138791.205 4
> 2014 10 31 22 00 30.0000000  0  1
G15  21041071.391 6                  21041078.477 5                 110571576.380 6                  86159736.830 5
> 2014 10 31 22 00 45.0000000  0  1
G15  21046209.477 6                  21046212.883 4                 110598567.979 6                  86180769.216 4
> 2014 10 31 22 01  0.0000000  0  1
G15  21051367.906 6                  21051369.961 5                 110625672.828 6                  86201889.861 5
> 2014 10 31 22 01 15.0000000  0  1
G15  21056545.945 6                  21056550.227 5                 110652890.291 6                  86223098.244 5
> 2014 10 31 22 01 30.0000000  0  1
G15  21061745.750 5                  21061751.355 5                 110680220.087 5                  86244394.142 5
> 2014 10 31 22 01 45.0000000  0  1
G15  21066964.945 5                  21066973.105 5                 110707660.780 5                  86265776.498 5
> 2014 10 31 22 02  0.0000000  0  1
G15  21072207.219 5                  21072215.605 5                 110735210.70015                  86287243.95015
> 2014 10 31 22 11  0.0000000  0  1
G29  22585049.234 7                                                     34575.35617                                
> 2014 10 31 22 11 15.0000000  0  1
G29  22594281.047 6                                                     83084.604 6                                
> 2014 10 31 22 11 30.0000000  0  1
G29  22603520.359 7                                                    131636.517 7                                
> 2014 10 31 22 11 45.0000000  0  1
G29  22612769.313 7                                                    180236.233 7                                
> 2014 10 31 22 12  0.0000000  0  1
G29  22622025.422 7                                                    228877.864 7                                
> 2014 10 31 22 12 15.0000000  0  1
G29  22631288.602 7                                                    277558.411 7                                
> 2014 10 31 22 12 30.0000000  0  1
G29  22640560.305 7                                                    326283.670 7                                
> 2014 10 31 22 12 45.0000000  0  1
G29  22649841.914 6                                                    375055.499 6                                
> 2014 10 31 22 13  0.0000000  0  1
G29  22659131.109 6                                                    423874.332 6                                
> 2014 10 31 22 13 15.0000000  0  1
G29  22668429.008 6                                                    472734.072 6                                
> 2014 10 31 22 13 30.0000000  0  1
G29  22677734.734 6                                                    521635.360 6                                
> 2014 10 31 22 13 45.0000000  0  1
G29  22687047.023 6                                                    570578.545 6                                
> 2014 10 31 22 14  0.0000000  0  1
G29  22696368.680 6                                                    619564.697 6                                
> 2014 10 31 22 14 15.0000000  0  1
G29  22705699.016 6                                                    668592.794 6                                
> 2014 10 31 22 14 30.0000000  0  1
G29  22715038.375 5                                                    717666.503 5                                
> 2014 10 31 22 14 45.0000000  0  1
G29  22724387.805 5                                                    766780.092 5                                
> 2014 10 31 22 15  0.0000000  0  1
G29  22733744.047 5                                                    815936.608 5                                
> 2014 10 31 22 15 15.0000000  0  1
G29  22743110.531 5                                                    865138.363 5                                
> 2014 10 31 22 15 30.0000000  0  1
G29  22752477.352 5                                                    914381.070 5                                
> 2014 10 31 22 15 45.0000000  0  1
G29  22761852.148 5                                                    963658.53515                                
> 2014 10 31 22 16  0.0000000  0  1
G29  22771235.164 5                                                                                                
> 2014 10 31 22 16 15.0000000  0  1
G29  22780623.516 5                                                   1062325.90015                                
> 2014 10 31 22 18  0.0000000  0  1
G29  22846558.297 5                                                   1408802.54715                                
> 2014 10 31 22 18 15.0000000  0  1
G29  22856006.047 5                                                   1458443.984 5                                
> 2014 10 31 22 18 30.0000000  0  1
G29  22865457.914 5                                                   1508126.592 5                                
> 2014 10 31 22 18 45.0000000  0  1
G29  22874920.539 5                                                                                                
> 2014 10 31 22 19  0.0000000  0  1
G29  22884388.852 5                                                   1607592.53115                                
> 2014 10 31 22 19 15.0000000  0  1
G29  22893863.977 6                                                   1657380.955 6                                
> 2014 10 31 22 19 30.0000000  0  1
G29  22903343.164 5                                                   1707202.714 5                                
> 2014 10 31 22 19 45.0000000  0  2
G15  21494775.461 7                  21494778.324 5                 112955806.09617                  88017529.39815
G29  22912831.688 5                                                 120407730.60815                                
> 2014 10 31 22 20  0.0000000  0  2
G15  21501384.656 7                  21501387.289 5                 112990530.050 7                  88044587.019 5
G29  22922323.969 6                                                 120457616.748 6                                
> 2014 10 31 22 20 15.0000000  0  2
G15  21508009.164 7                  21508011.570 5                 113025343.122 7                  88071714.063 5
G29  22931824.000 5                                                 120507536.959 5                                
> 2014 10 31 22 20 30.0000000  0  2
G15  21514649.938 7                  21514653.629 4                 113060240.785 7                  88098907.022 4
G29  22941329.773 5                                                 120557486.856 5                                
> 2014 10 31 22 20 45.0000000  0  2
G15  21521308.281 7                  21521311.945 4                 113095225.651 7                  88126167.963 4
G29  22950841.180 6                                                 120607468.672 6                                
> 2014 10 31 22 21  0.0000000  0  2
G15  21527981.961 7                  21527986.336 4                 113130296.625 7                  88153495.995 4
G29  22960360.109 5                                                 120657481.367 5                                
> 2014 10 31 22 21 15.0000000  0  2
G15  21534672.625 7                                                 113165456.495 7                                
G29  22969883.797 5                                                 120707527.85515                                
> 2014 10 31 22 21 30.0000000  0  2
G15  21541381.250 7                                                 113200706.937 7                                
G29  22979414.141 6                                                 120757609.708 6                                
> 2014 10 31 22 21 45.0000000  0  2
G15  21548105.930 7                                                 113236045.704 7                                
G29  22988952.961 6                                                 120807725.000 6                                
> 2014 10 31 22 22  0.0000000  0  2
G15  21554846.641 7                                                 113271468.591 7                                
G29  22998494.242 5                                                 120857868.859 5                                
> 2014 10 31 22 22 15.0000000  0  2
G15  21561603.727 7                                                 113306976.457 7                                
G29  23008042.563 5                                                 120908042.351 5                                
> 2014 10 31 22 22 30.0000000  0  2
G15  21568376.773 7                  21568387.738 5                 113342570.423 7                  88318940.28215
G29  23017596.625 6                                                 120958246.700 6                                
> 2014 10 31 22 22 45.0000000  0  2
G15  21575165.156 7                  21575175.832 5                 113378243.843 7                  88346737.701 5
G29  23027156.992 5                                                 121008475.194 5                                
> 2014 10 31 22 23  0.0000000  0  2
G15  21581968.477 7                  21581979.035 5                 113413998.989 7                  88374598.839 5
G29  23036720.211 5                                                 121058730.101 5                                
> 2014 10 31 22 23 15.0000000  0  2
G15  21588788.531 7                  21588799.031 5                 113449837.382 7                  88402524.836 5
G29  23046287.680 5                  23046288.949 5                 121109012.799 5                  94370700.93215
> 2014 10 31 22 23 30.0000000  0  2
G15  21595625.219 7                  21595634.402 4                 113485759.979 7                  88430516.461 4
G29  23055862.758 5                  23055863.070 5                 121159324.127 5                  94409904.470 5
> 2014 10 31 22 23 45.0000000  0  2
G15  21602476.367 7                  21602486.555 4                 113521763.594 7                  88458571.209 4
G29  23065439.328 5                  23065442.035 5                 121209660.831 5                  94449127.787 5
> 2014 10 31 22 24  0.0000000  0  2
G15  21609343.031 7                  21609353.750 5                 113557849.908 7                  88486690.416 5
G29  23075026.477 5                                                                                                
> 2014 10 31 22 24 15.0000000  0  2
G15  21616223.469 6                  21616234.648 5                 113594011.987 6                  88514868.640 5
G29  23084611.961 5                  23084615.137 5                 121310408.84415                  94527632.55815
> 2014 10 31 22 24 30.0000000  0  2
G15  21623121.367 6                  21623132.699 5                 113630257.236 6                  88543111.685 5
G29  23094204.063 5                  23094207.590 5                 121360820.59915                  94566914.35715
> 2014 10 31 22 24 45.0000000  0  2
G15  21630035.695 6                  21630044.859 5                 113666586.425 6                  88571420.137 5
G29  23103805.266 5                  23103806.391 5                 121411260.54515                  94606218.13115
> 2014 10 31 22 25  0.0000000  0  2
G15  21636967.742 6                  21636973.895 5                 113703001.726 6                  88599795.681 5
G29  23113409.313 5                  23113410.613 5                 121461730.946 5                  94645545.630 5
> 2014 10 31 22 25 15.0000000  0  2
G15  21643912.156 6                  21643917.109 5                 113739497.093 6                  88628233.625 5
G29  23123019.391 5                  23123018.406 5                 121512225.75615                  94684892.14615
> 2014 10 31 22 25 30.0000000  0  2
G15  21650872.633 6                  21650877.055 5                 113776075.770 6                  88656736.479 5
G29  23132632.477 5                                                                                                
> 2014 10 31 22 25 45.0000000  0  2
G15  21657849.703 6                  21657851.742 5                 113812732.830 6                  88685300.413 5
G29  23142253.031 4                  23142251.578 5                 121613293.18214                  94763645.80415
> 2014 10 31 22 26  0.0000000  0  1
G15  21664839.914 6                  21664839.527 4                 113849468.957 6                  88713925.959 4
> 2014 10 31 22 26 15.0000000  0  1
G15  21671846.023 6                  21671842.695 5                 113886284.828 6                  88742613.671 5
> 2014 10 31 22 26 30.0000000  0  1
G15  21678865.438 6                  21678862.477 5                 113923177.931 6                  88771361.546 5
> 2014 10 31 22 26 45.0000000  0  1
G15  21685901.570 6                  21685898.582 5                 113960151.557 6                  88800172.161 5
> 2014 10 31 22 27  0.0000000  0  1
G15  21692952.031 5                  21692949.652 5                 113997200.427 5                  88829041.411 5
> 2014 10 31 22 27 15.0000000  0  1
G15  21700018.305 5                  21700016.734 5                 114034330.764 5                  88857974.129 5
> 2014 10 31 22 27 30.0000000  0  1
G15  21707093.336 4                  21707096.805 5                 114071540.17114                  88886968.48915
> 2014 10 31 22 27 45.0000000  0  1
G15  21714185.523 4                                                                                                
> 2014 10 31 22 28 45.0000000  0  1
G15  21742715.586 5                                                 114258735.86015                                
> 2014 10 31 22 29  0.0000000  0  1
G15  21749881.063 5                  21749883.488 5                 114296398.925 5                  89062133.06915
> 2014 10 31 22 29 15.0000000  0  1
G15  21757062.961 6                  21757066.098 5                 114334140.115 6                  89091541.771 5
> 2014 10 31 22 29 30.0000000  0  1
G15  21764260.008 6                  21764261.809 4                 114371956.740 6                  89121009.251 4
> 2014 10 31 22 29 45.0000000  0  1
G15  21771471.148 6                  21771472.707 4                 114409852.496 6                  89150538.403 4
> 2014 10 31 22 30  0.0000000  0  1
G15  21778696.219 6                  21778697.531 4                 114447823.588 6                  89180126.274 4
> 2014 10 31 22 30 15.0000000  0  1
G15  21785936.898 6                  21785937.426 4                 114485872.635 6                  89209774.926 4
> 2014 10 31 22 30 30.0000000  0  1
G15  21793189.922 6                  21793193.703 4                 114523994.627 6                  89239480.422 4
> 2014 10 31 22 30 45.0000000  0  1
G15  21800459.664 5                  21800464.574 4                 114562192.823 5                  89269245.293 4
> 2014 10 31 22 31  0.0000000  0  2
G15  21807743.484 5                  21807749.066 4                 114600465.208 5                  89299067.932 4
G22  22617920.000 6                                                 118857956.29516                                
> 2014 10 31 22 31 15.0000000  0  2
G15  21815040.797 5                  21815048.781 4                 114638813.212 5                  89328949.475 4
G22  22612742.242 5                                                 118830754.824 5                                
> 2014 10 31 22 31 30.0000000  0  2
G15  21822352.195 5                  21822360.371 5                 114677231.144 5                  89358885.513 5
G22  22607571.094 5                                                 118803572.566 5                                
> 2014 10 31 22 31 45.0000000  0  2
G15  21829677.406 5                  21829686.043 5                 114715726.794 5                  89388882.115 5
G22  22602402.680 5                                                 118776417.931 5                                
> 2014 10 31 22 32  0.0000000  0  2
G15  21837016.750 5                  21837025.203 5                 114754290.480 5                  89418931.732 5
G22  22597240.891 5                                                 118749281.479 5                                
> 2014 10 31 22 32 15.0000000  0  2
G15  21844366.711 5                  21844376.336 5                 114792922.729 5                  89449034.767 5
G22  22592080.328 5                                                 118722164.113 5                                
> 2014 10 31 22 32 30.0000000  0  2
G15  21851731.336 5                  21851740.316 5                 114831623.18715                  89479190.96515
G22  22586924.602 5                                                                                                
> 2014 10 31 22 32 45.0000000  0  2
G15  21859109.945 5                  21859117.344 5                 114870396.971 5                  89509404.296 5
G22  22581774.305 5                                                 118667991.63215                                
> 2014 10 31 22 33  0.0000000  0  2
G15  21866501.703 5                  21866508.457 5                 114909241.655 5                  89539672.864 5
G22  22576626.898 5                                                 118640939.657 5                                
> 2014 10 31 22 33 15.0000000  0  2
G15  21873907.672 5                  21873911.992 5                 114948156.075 5                  89569995.759 5
G22  22571483.797 5                                                 118613908.910 5                                
> 2014 10 31 22 33 30.0000000  0  2
G15  21881326.359 5                  21881330.441 5                 114987141.771 5                  89600374.209 5
G22  22566347.391 5                                                 118586901.199 5                                
> 2014 10 31 22 33 45.0000000  0  2
G15  21888759.438 5                  21888763.055 5                 115026200.250 5                  89630809.366 5
G22  22561213.094 5                                                 118559918.398 5                                
> 2014 10 31 22 34  0.0000000  0  2
G15  21896202.000 5                  21896206.301 5                 115065322.859 5                  89661294.488 5
G22  22556080.086 5                                                                                                
> 2014 10 31 22 34 15.0000000  0  2
G15  21903660.250 5                  21903662.715 5                 115104508.113 5                  89691828.426 5
G22  22550952.078 4                                                                                                
> 2014 10 31 22 34 30.0000000  0  2
G15  21911131.594 6                  21911131.922 5                 115143759.491 6                  89722413.856 5
G22  22545829.625 4                                                                                                
> 2014 10 31 22 34 45.0000000  0  1
G15  21918610.766 6                  21918614.723 5                 115183073.434 6                  89753048.065 5
> 2014 10 31 22 35  0.0000000  0  1
G15  21926106.375 6                  21926108.207 6                 115222455.233 6                  89783735.137 6
> 2014 10 31 22 35 15.0000000  0  1
G15  21933612.742 6                  21933614.707 6                 115261904.550 6                  89814474.824 6
> 2014 10 31 22 35 30.0000000  0  1
G15  21941132.844 6                  21941134.457 6                 115301418.262 6                  89845264.694 6
> 2014 10 31 22 35 45.0000000  0  1
G15  21948664.625 6                  21948666.879 6                 115340997.658 6                  89876105.761 6
> 2014 10 31 22 36  0.0000000  0  1
G15  21956208.945 7                  21956210.641 6                 115380642.013 7                  89906997.444 6
> 2014 10 31 22 36 15.0000000  0  1
G15  21963765.922 7                  21963767.238 6                 115420352.723 7                  89937940.826 6
> 2014 10 31 22 36 30.0000000  0  1
G15  21971337.391 7                  21971338.832 6                 115460137.390 7                  89968941.827 6
> 2014 10 31 22 36 45.0000000  0  1
G15  21978920.484 7                  21978921.957 6                 115499990.501 7                  89999996.175 6
> 2014 10 31 22 37  0.0000000  0  1
G15  21986518.625 7                  21986519.074 6                 115539911.187 7                  90031103.169 6
> 2014 10 31 22 37 15.0000000  0  1
G15  21994126.813 7                  21994127.359 6                 115579895.688 7                  90062259.888 6
> 2014 10 31 22 37 30.0000000  0  1
G15  22001749.094 7                  22001748.652 5                 115619946.971 7                  90093468.642 5
> 2014 10 31 22 37 45.0000000  0  1
G15  22009383.422 7                  22009383.023 5                 115660066.747 7                  90124730.769 5
> 2014 10 31 22 38  0.0000000  0  1
G15  22017029.516 7                  22017030.809 5                 115700252.974 7                  90156044.666 5
> 2014 10 31 22 38 15.0000000  0  1
G15  22024689.609 7                  22024690.176 5                 115740504.107 7                  90187409.157 5
> 2014 10 31 22 38 30.0000000  0  1
G15  22032360.070 6                  22032361.316 5                 115780817.911 6                  90218822.455 5
> 2014 10 31 22 38 45.0000000  0  1
G15  22040044.117 6                  22040045.273 5                 115821197.588 6                  90250287.104 5
> 2014 10 31 22 39  0.0000000  0  1
G15  22047741.797 6                  22047742.652 5                 115861644.411 6                  90281804.042 5
> 2014 10 31 22 39 15.0000000  0  1
G15  22055448.648 6                  22055450.266 5                 115902150.245 6                  90313366.982 5
> 2014 10 31 22 39 30.0000000  0  1
G15  22063170.203 6                  22063168.785 5                 115942717.883 6                  90344978.093 5
> 2014 10 31 22 39 45.0000000  0  1
G15  22070901.766 5                  22070900.898 5                 115983344.628 5                  90376635.260 5
> 2014 10 31 22 40  0.0000000  0  1
G15  22078643.875 5                  22078642.848 5                 116024031.155 5                  90408339.037 5
> 2014 10 31 22 40 15.0000000  0  1
G15  22086396.844 5                  22086396.680 5                 116064774.37915                  90440086.98115
> 2014 10 31 22 40 30.0000000  0  1
G15  22094161.758 5                                                                                                
> 2014 10 31 22 48 15.0000000  0  1
G15  22340350.703 6                  22340353.434 5                     43768.39816                     17022.40315
> 2014 10 31 22 48 30.0000000  0  1
G15  22348455.523 6                  22348459.164 5                     86361.215 6                     50211.567 5
> 2014 10 31 22 48 45.0000000  0  1
G15  22356569.195 6                  22356574.363 5                    129005.183 6                     83440.618 5
> 2014 10 31 22 49  0.0000000  0  1
G15  22364693.516 6                  22364697.176 5                    171694.563 6                    116705.030 5
> 2014 10 31 22 49 15.0000000  0  1
G15  22372825.656 6                  22372830.621 5                    214433.468 6                    150008.044 5
> 2014 10 31 22 49 30.0000000  0  1
G15  22380967.945 6                  22380973.199 5                    257223.892 6                    183351.207 5
> 2014 10 31 22 49 45.0000000  0  1
G15  22389115.945 5                  22389122.941 5                    300051.018 5                    216722.949 5
> 2014 10 31 22 50  0.0000000  0  1
G15  22397270.820 5                  22397278.387 5                    342910.85015                    250120.17015
> 2014 10 31 22 50 15.0000000  0  1
G15  22405433.336 5                                                                                                
> 2014 10 31 22 50 30.0000000  0  1
G15  22413599.977 4                  22413604.031 5                    428715.13914                    316980.58415
> 2014 10 31 22 55 30.0000000  0  1
G21  20403828.531 6  20403826.621 3                                 107222846.34116  83550261.53913                
> 2014 10 31 22 55 45.0000000  0  1
G21  20402591.961 6  20402590.199 3                                 107216351.947 6  83545200.982 3                
> 2014 10 31 22 56  0.0000000  0  1
G21  20401376.414 6  20401373.184 3                                 107209963.562 6  83540223.018 3                
> 2014 10 31 22 56 15.0000000  0  2
G15  22603228.188 5                                                 118780762.13915                                
G21  20400179.031 6  20400177.547 2                                 107203679.975 6  83535326.709 2                
> 2014 10 31 22 56 30.0000000  0  2
G15  22611555.242 5                                                 118824530.876 5                                
G21  20399000.016 5  20399002.059 3                                 107197503.170 5  83530513.602 3                
> 2014 10 31 22 56 45.0000000  0  2
G15  22619891.531 5                                                 118868334.304 5                                
G21  20397842.961 4  20397846.414 2                                 107191430.64314  83525781.75112                
> 2014 10 31 22 57  0.0000000  0  2
G15  22628233.836 5                                                 118912172.965 5                                
G21  20396707.539 4                                                                                                
> 2014 10 31 22 57 15.0000000  0  1
G15  22636582.742 5                                                 118956051.69415                                
> 2014 10 31 22 57 30.0000000  0  1
G15  22644938.711 5                                                 118999966.197 5                                
> 2014 10 31 22 57 45.0000000  0  1
G15  22653302.422 6                                                 119043915.732 6                                
> 2014 10 31 22 58  0.0000000  0  1
G15  22661674.938 6                                                 119087904.624 6                                
> 2014 10 31 22 58 15.0000000  0  1
G15  22670053.758 6                                                 119131930.905 6                                
> 2014 10 31 22 58 30.0000000  0  1
G15  22678438.016 6                                                 119175994.467 6                                
> 2014 10 31 22 58 45.0000000  0  1
G15  22686829.984 6                                                 119220090.967 6                                
> 2014 10 31 22 59  0.0000000  0  1
G15  22695228.664 6                                                 119264224.134 6                                
> 2014 10 31 22 59 15.0000000  0  1
G15  22703635.273 6                                                 119308395.085 6                                
> 2014 10 31 22 59 30.0000000  0  1
G15  22712046.258 6                                                 119352600.478 6                                
> 2014 10 31 22 59 45.0000000  0  1
G15  22720465.078 6                                                 119396843.147 6                                
> 2014 10 31 23 00  0.0000000  0  1
G15  22728891.867 6                                                 119441122.175 6                                
> 2014 10 31 23 00 15.0000000  0  1
G15  22737324.086 6                                                 119485435.976 6                                
> 2014 10 31 23 00 30.0000000  0  1
G15  22745762.742 6                  22745760.789 5                 119529784.650 6                  93140084.53215
> 2014 10 31 23 00 45.0000000  0  1
G15  22754209.500 6                  22754206.738 5                 119574169.309 6                  93174669.936 5
> 2014 10 31 23 01  0.0000000  0  1
G15  22762663.664 6                  22762659.699 5                 119618591.830 6                  93209284.865 5
> 2014 10 31 23 01 15.0000000  0  1
G15  22771121.875 5                  22771117.219 5                 119663043.311 5                  93243922.349 5
> 2014 10 31 23 01 30.0000000  0  1
G15  22779586.750 5                  22779582.930 5                 119707528.748 5                  93278586.291 5
> 2014 10 31 23 01 45.0000000  0  1
G15  22788058.086 5                  22788054.992 5                 119752047.158 5                  93313275.940 5
> 2014 10 31 23 02  0.0000000  0  1
G15  22796535.250 5                  22796531.863 5                 119796596.49215                  93347989.67615
> 2014 10 31 23 02 15.0000000  0  1
G15  22805018.383 5                  22805015.934 5                 119841181.253 5                  93382731.020 5
> 2014 10 31 23 02 30.0000000  0  1
G15  22813510.594 5                  22813505.918 5                 119885797.549 5                  93417496.939 5
> 2014 10 31 23 02 45.0000000  0  1
G15  22822006.773 5                  22822002.219 5                 119930445.44815                  93452287.47515
> 2014 10 31 23 03  0.0000000  0  1
G15  22830510.438 5                  22830504.160 5                 119975125.85315                  93487103.34515
> 2014 10 31 23 03 15.0000000  0  1
G15  22839019.859 5                                                                                                
> 2014 10 31 23 08 45.0000000  0  1
G15  23027581.680 5                  23027593.941 5                 121010774.35715                  94294146.04615
> 2014 10 31 23 09  0.0000000  0  1
G15  23036211.563 5                  23036223.766 5                 121056127.20115                  94329485.96115
> 2014 10 31 23 09 15.0000000  0  1
G15  23044848.063 5                  23044859.070 5                 121101508.732 5                  94364848.209 5
> 2014 10 31 23 09 30.0000000  0  1
G15  23053488.664 5                  23053499.227 5                 121146914.290 5                  94400229.170 5
> 2014 10 31 23 09 45.0000000  0  1
G15  23062132.453 5                  23062142.398 5                 121192342.198 5                  94435627.557 5
> 2014 10 31 23 10  0.0000000  0  1
G15  23070781.906 5                  23070791.441 5                 121237790.820 5                  94471042.072 5
> 2014 10 31 23 10 15.0000000  0  1
G15  23079435.609 5                  23079443.523 4                 121283265.052 5                  94506476.554 4
> 2014 10 31 23 10 30.0000000  0  1
G15  23088093.813 5                  23088102.363 4                 121328766.026 5                  94541931.861 4
> 2014 10 31 23 10 45.0000000  0  1
G15  23096756.773 5                  23096764.551 5                 121374289.834 5                  94577404.967 5
> 2014 10 31 23 11  0.0000000  0  1
G15  23105423.328 5                                                                                                
> 2014 10 31 23 11 15.0000000  0  1
G15  23114092.953 5                  23114102.285 4                 121465397.17115                  94648397.70314
> 2014 10 31 23 11 30.0000000  0  1
G15  23122767.648 5                  23122777.625 4                 121510986.32815                  94683921.73714
> 2014 10 31 23 11 45.0000000  0  1
G15  23131446.203 5                  23131457.176 4                 121556598.56515                  94719463.74414
> 2014 10 31 23 12  0.0000000  0  1
G15  23140131.109 4                  23140142.023 4                 121602236.63414                  94755025.89614
> 2014 10 31 23 12 15.0000000  0  1
G15  23148820.250 4                                                                                                
> 2014 10 31 23 29 15.0000000  0  1
G18  20940174.508 6                                                 110041362.36016                                
> 2014 10 31 23 29 30.0000000  0  1
G18  20939811.156 6                                                 110039454.671 6                                
> 2014 10 31 23 29 45.0000000  0  1
G18  20939451.688 5                                                 110037574.697 5                                
> 2014 10 31 23 30  0.0000000  0  1
G18  20939097.359 5                                                 110035722.178 5                                
> 2014 10 31 23 30 15.0000000  0  1
G18  20938746.422 4                                                                                                
> 2014 10 31 23 30 30.0000000  0  1
G18  20938399.172 4                                                                                                
> 2014 10 31 23 30 45.0000000  0  1
G18  20938062.094 5                                                                                                
> 2014 10 31 23 31  0.0000000  0  1
G18  20937737.148 5                                                 110028569.84315                                
> 2014 10 31 23 31 15.0000000  0  1
G18  20937412.148 5                                                 110026857.842 5                                
> 2014 10 31 23 31 30.0000000  0  1
G18  20937089.828 6                                                 110025167.202 6                                
> 2014 10 31 23 31 45.0000000  0  1
G18  20936775.250 6                                                 110023505.441 6                                
> 2014 10 31 23 32  0.0000000  0  1
G18  20936464.555 6                                                 110021870.227 6                                
> 2014 10 31 23 32 15.0000000  0  1
G18  20936158.508 6                                                 110020259.741 6                                
> 2014 10 31 23 32 30.0000000  0  1
G18  20935857.703 6                                                 110018675.249 6                                
> 2014 10 31 23 32 45.0000000  0  1
G18  20935561.500 6                                                 110017119.131 6                                
> 2014 10 31 23 33  0.0000000  0  1
G18  20935270.531 6                                                 110015591.346 6                                
> 2014 10 31 23 33 15.0000000  0  1
G18  20934983.648 6                                                 110014092.372 6                                
> 2014 10 31 23 33 30.0000000  0  1
G18  20934703.406 6                                                 110012622.709 6                                
> 2014 10 31 23 33 45.0000000  0  1
G18  20934430.609 6                                                 110011185.896 6                                
> 2014 10 31 23 34  0.0000000  0  1
G18  20934161.852 5                                                 110009775.152 5                                
> 2014 10 31 23 34 15.0000000  0  1
G18  20933900.039 5                                                 110008396.27415                                
> 2014 10 31 23 34 30.0000000  0  1
G18  20933647.391 5                                                 110007043.964 5                                
> 2014 10 31 23 34 45.0000000  0  1
G18  20933394.055 4                                                 110005718.71814                                
> 2014 10 31 23 39  0.0000000  0  1
G18  20929964.734 6                                                 109987692.53916                                
> 2014 10 31 23 39 15.0000000  0  1
G18  20929811.602 6                                                 109986895.634 6                                
> 2014 10 31 23 39 30.0000000  0  1
G18  20929663.570 6                                                 109986132.545 6                                
> 2014 10 31 23 39 45.0000000  0  1
G18  20929522.508 6                                                 109985396.110 6                                
> 2014 10 31 23 40  0.0000000  0  1
G18  20929386.352 6                                                 109984691.882 6                                
> 2014 10 31 23 40 15.0000000  0  1
G18  20929258.008 5                                                 109984021.845 5                                
> 2014 10 31 23 40 30.0000000  0  1
G18  20929135.438 5                                                 109983380.822 5                                
> 2014 10 31 23 40 45.0000000  0  1
G18  20929019.391 5                                                 109982770.73215                                
> 2014 10 31 23 41  0.0000000  0  1
G18  20928909.156 5                                                 109982190.579 5                                
> 2014 10 31 23 41 15.0000000  0  1
G18  20928804.852 5                                                 109981639.52715                                
> 2014 10 31 23 41 30.0000000  0  1
G18  20928706.852 5                                                                                                
> 2014 10 31 23 41 45.0000000  0  1
G18  20928615.508 4                                                                                                
> 2014 10 31 23 50 15.0000000  0  2
G18  21228784.680 6                                                 111558013.64416                                
G22  21447401.953 6                                                 112706852.53216                                
> 2014 10 31 23 50 30.0000000  0  2
G18  21228905.039 6                                                 111558651.852 6                                
G22  21443334.391 6                                                 112685488.915 6                                
> 2014 10 31 23 50 45.0000000  0  2
G18  21229031.414 6                                                 111559321.988 6                                
G22  21439271.969 5                                                 112664146.155 5                                
> 2014 10 31 23 51  0.0000000  0  2
G18  21229164.969 6                                                 111560023.245 6                                
G22  21435213.828 4                                                                                                
> 2014 10 31 23 51 15.0000000  0  1
G18  21229304.867 6                                                 111560756.943 6                                
> 2014 10 31 23 51 30.0000000  0  1
G18  21229449.867 6                                                 111561520.061 6                                
> 2014 10 31 23 51 45.0000000  0  1
G18  21229602.398 6                                                 111562313.287 6                                
> 2014 10 31 23 52  0.0000000  0  1
G18  21229758.719 6                                                 111563137.454 6                                
> 2014 10 31 23 52 15.0000000  0  1
G18  21229921.844 6                                                 111563992.728 6                                
> 2014 10 31 23 52 30.0000000  0  1
G18  21230089.828 6                                                 111564880.973 6                                
> 2014 10 31 23 52 45.0000000  0  1
G18  21230264.234 6                                                 111565799.706 6                                
> 2014 10 31 23 53  0.0000000  0  1
G18  21230446.094 6                                                 111566751.451 6                                
> 2014 10 31 23 53 15.0000000  0  2
G18  21230633.242 6                                                 111567736.536 6                                
G22  21398872.516 6                                                 112451850.35816                                
> 2014 10 31 23 53 30.0000000  0  2
G18  21230828.398 6                                                 111568756.980 6                                
G22  21394854.867 6                                                 112430738.001 6                                
> 2014 10 31 23 53 45.0000000  0  2
G18  21231029.531 6                                                 111569813.321 6                                
G22  21390841.734 6                                                 112409650.621 6                                
> 2014 10 31 23 54  0.0000000  0  2
G18  21231236.336 6                                                 111570905.666 6                                
G22  21386834.383 6                                                 112388588.132 6                                
> 2014 10 31 23 54 15.0000000  0  2
G18  21231449.523 6                                                 111572030.393 6                                
G22  21382829.852 6                                                 112367546.841 6                                
> 2014 10 31 23 54 30.0000000  0  2
G18  21231669.938 6                                                 111573192.457 6                                
G22  21378832.250 6                                                 112346531.836 6                                
> 2014 10 31 23 54 45.0000000  0  2
G18  21231899.305 6                                                 111574390.455 6                                
G22  21374839.742 6                                                 112325541.619 6                                
> 2014 10 31 23 55  0.0000000  0  2
G18  21232133.820 6                                                 111575623.794 6                                
G22  21370850.977 6                                                 112304575.724 6                                
> 2014 10 31 23 55 15.0000000  0  2
G18  21232374.492 6                                                 111576886.161 6                                
G22  21366865.422 6                                                 112283627.646 6                                
> 2014 10 31 23 55 30.0000000  0  2
G18  21232621.148 6                                                 111578186.990 6                                
G22  21362885.320 6                                                 112262706.572 6                                
> 2014 10 31 23 55 45.0000000  0  2
G18  21232875.586 6                                                 111579522.188 6                                
G22  21358908.555 6                                                 112241808.704 6                                
> 2014 10 31 23 56  0.0000000  0  2
G18  21233135.016 6                                                 111580893.396 6                                
G22  21354936.609 6                                                 112220935.518 6                                
> 2014 10 31 23 56 15.0000000  0  2
G18  21233403.531 6                                                 111582302.191 6                                
G22  21350967.180 6                                                 112200088.794 6                                
> 2014 10 31 23 56 30.0000000  0  2
G18  21233677.672 6                                                 111583748.717 6                                
G22  21347004.102 6                                                 112179268.502 6                                
> 2014 10 31 23 56 45.0000000  0  2
G18  21233958.297 5                                                 111585228.744 5                                
G22  21343045.219 6                                                 112158470.309 6                                
> 2014 10 31 23 57  0.0000000  0  3
G18  21234247.070 5                                                                                                
G22  21339094.375 6                                                 112137698.193 6                                
G27  23339655.141 6                  23339660.730 5  23339658.211 5 122650814.28416                  95571999.07615  91589833.29015
> 2014 10 31 23 57 15.0000000  0  3
G18  21234541.102 5                                                 111588297.88415                                
G22  21335145.742 6                                                 112116949.313 6                                
G27  23341909.914 6                  23341917.348 5  23341913.359 5 122662663.365 6                  95581232.139 5  91598681.656 5
> 2014 10 31 23 57 30.0000000  0  3
G18  21234839.367 6                                                 111589859.616 6                                
G22  21331196.484 6                                                 112096198.891 6                                
G27  23344180.188 6                  23344187.160 5  23344184.754 5 122674595.178 6                  95590529.665 5  91607591.808 5
> 2014 10 31 23 57 45.0000000  0  4
G18  21235138.242 6                                                 111591416.295 6                                
G22  21327244.953 7                                                 112075431.945 7                                
G24  22403718.555 6                  22403720.770 6  22403718.371 6 117732350.06916                  91739508.53016  87917003.06316
G27  23346461.859 5                  23346470.508 4  23346468.805 5 122686594.308 5                  95599879.665 4  91616552.231 5
> 2014 10 31 23 58  0.0000000  0  4
G18  21235433.625 6                                                 111592969.071 6                                
G22  21323290.070 7                                                 112054649.746 7                                
G24  22406917.969 6                  22406917.902 6  22406917.469 6 117749165.486 6                  91752611.472 6  87929560.036 6
G27  23348759.281 5                  23348765.590 4  23348765.527 5 122698661.776 5                  95609282.896 4  91625563.719 5
> 2014 10 31 23 58 15.0000000  0  4
G18  21235728.781 6                                                 111594513.076 6                                
G22  21319330.617 6                                                 112033847.436 6                                
G24  22410136.141 6                  22410133.594 6  22410133.363 6 117766070.095 6                  91765783.904 6  87942183.623 6
G27  23351066.836 5                  23351072.699 4  23351074.453 5 122710792.39915                  95618735.32214  91634622.31815
> 2014 10 31 23 58 30.0000000  0  4
G18  21236022.156 6                                                 111596047.996 6                                
G22  21315366.977 6                                                 112013024.426 6                                
G24  22413369.250 6                  22413366.363 6  22413366.523 6 117783063.265 6                  91779025.338 6  87954873.334 6
G27  23353388.617 5                  23353392.145 4  23353395.543 4 122722985.246 5                  95628236.229 4  91643727.438 4
> 2014 10 31 23 58 45.0000000  0  4
G18  21236313.258 6                                                 111597579.774 6                                
G22  21311401.453 6                                                 111992186.854 6                                
G24  22416622.602 6                  22416617.480 6  22416616.668 6 117800150.677 6                  91792340.222 6  87967633.427 6
G27  23355724.281 5                  23355725.348 4  23355729.801 4 122735246.046 5                  95637790.079 4  91652883.278 4
> 2014 10 31 23 59  0.0000000  0  5
G18  21236604.039 6                                                 111599109.652 6                                
G21  21111467.625 5                                                 110941622.27315                                
G22  21307431.063 5                                                 111971336.049 5                                
G24  22419892.766 5                  22419887.828 6  22419885.398 5 117817333.275 5                  91805729.278 6  87980464.587 5
G27  23358070.867 5                  23358072.879 4  23358081.902 4 122747575.752 5                  95647397.634 4  91662090.625 4
> 2014 10 31 23 59 15.0000000  0  5
G18  21236896.406 6                                                 111600644.931 6                                
G21  21115968.289 5                                                 110965277.779 5                                
G22  21303461.734 5                                                 111950478.87015                                
G24  22423180.844 5                                                                                                
G27  23360434.242 5                  23360434.781 4  23360448.027 4 122759981.208 5                  95657064.203 4  91671354.505 4
> 2014 10 31 23 59 30.0000000  0  3
G18  21237189.922 6                                                 111602188.053 6                                
G21  21120486.852 5                                                 110989022.110 5                                
G27  23362810.555 5                  23362813.496 3  23362824.691 4 122772464.34915                  95666791.31713  91680676.37914
> 2014 10 31 23 59 45.0000000  0  3
G18  21237484.188 6                                                 111603738.965 6                                
G21  21125020.008 5                                                 111012855.03115                                
G27  23365201.781 5                                  23365213.453 4 122785024.99815                                  91690056.19914
